latitude,longitude,altitude(feet),ascent(feet),speed(mph),distance(feet),time(millisecond),datetime(utc),satellites,voltage(v),max_altitude(feet),max_ascent(feet),max_speed(mph),max_distance(feet),compass_heading(degrees), pitch(degrees), roll(degrees),isPhoto,isVideo,rc_elevator,rc_aileron,rc_throttle,rc_rudder,gimbal_heading(degrees),gimbal_pitch(degrees),battery_percent,voltageCell1,voltageCell2,voltageCell3,voltageCell4,voltageCell5,voltageCell6,battery_temperature(f),flycStateRaw,flycState,message
0,0,5857.6018039131,0,0.223694,0,100,2017-11-02 07:19:50,0,0,5857.6018039131,0,0,0,326.2, 1.7, 1.6,0,0,1024,1024,1024,1024,330.7,0,98,4.294,4.291,4.293,4.287,0,0,76.91,41,Motors_Started,
0,0,5857.6018039131,0,0.223694,0,200,2017-11-02 07:19:50,0,0,5857.6018039131,0,0,0,326.2, 1.7, 1.6,0,0,1024,1024,1024,1024,330.7,0,98,4.294,4.291,4.293,4.287,0,0,76.91,41,Motors_Started,
0,0,5857.6018039131,0,0.223694,0,300,2017-11-02 07:19:50,0,0,5857.6018039131,0,0,0,326.3, 1.7, 1.6,0,0,1024,1024,1024,1024,330.6,0,98,4.294,4.291,4.293,4.287,0,0,76.91,41,Motors_Started,
0,0,5857.6018039131,0,0.223694,0,400,2017-11-02 07:19:50,0,0,5857.6018039131,0,0,0,326.1, 1.7, 1.6,0,0,1024,1024,1024,1024,330.6,0,98,4.294,4.291,4.293,4.287,0,0,76.91,41,Motors_Started,
0,0,5857.6018039131,0,0.223694,0,500,2017-11-02 07:19:50,0,0,5857.6018039131,0,0,0,326.1, 1.7, 1.7,0,0,1024,1024,1024,1024,330.6,0,98,4.294,4.291,4.293,4.287,0,0,76.91,41,Motors_Started,
0,0,5857.6018039131,0,0.223694,0,600,2017-11-02 07:19:51,0,17.149,5857.6018039131,0,0,0,326.1, 1.7, 1.6,0,0,1024,1024,1024,1024,330.6,0,98,4.294,4.291,4.293,4.287,0,0,76.91,41,Motors_Started,Setting new Return-To-Home altitude to 30m (98 ft). Setting new Maximum Flight Altitude to 8m (26 ft)
0,0,5857.6018039131,0,0.223694,0,700,2017-11-02 07:19:51,0,17.149,5857.6018039131,0,0,0,326, 1.7, 1.6,0,0,1024,1024,1024,1024,330.6,0,98,4.294,4.291,4.293,4.287,0,0,76.91,41,Motors_Started,
0,0,5857.6018039131,0,0.223694,0,800,2017-11-02 07:19:51,0,17.149,5857.6018039131,0,0,0,326.1, 1.7, 1.6,0,0,1024,1024,1024,1024,330.5,0,98,4.294,4.291,4.293,4.287,0,0,76.91,41,Motors_Started,
0,0,5857.6018039131,0,0.223694,0,900,2017-11-02 07:19:51,0,17.149,5857.6018039131,0,0,0,326, 1.7, 1.6,0,0,1024,1024,1024,1024,330.5,0,98,4.294,4.291,4.293,4.287,0,0,76.91,41,Motors_Started,
0,0,5857.6018039131,0,0.223694,0,1000,2017-11-02 07:19:51,0,17.149,5857.6018039131,0,0,0,326, 1.7, 1.6,0,0,1024,1024,1024,1024,330.5,0,98,4.294,4.291,4.293,4.287,0,0,76.91,41,Motors_Started,
0,0,5857.6018039131,0,0.223694,0,1100,2017-11-02 07:19:51,0,17.149,5857.6018039131,0,0,0,326.1, 1.7, 1.7,0,0,1024,1024,1024,1024,330.5,0,98,4.294,4.291,4.293,4.287,0,0,76.91,41,Motors_Started,
0,0,5857.6018039131,0,0.223694,0,1200,2017-11-02 07:19:51,0,17.149,5857.6018039131,0,0,0,326, 1.7, 1.7,0,0,1024,1024,1024,1024,330.5,0,98,4.294,4.291,4.293,4.287,0,0,76.91,41,Motors_Started,
0,0,5857.6018039131,0,0.223694,0,1300,2017-11-02 07:19:51,0,17.149,5857.6018039131,0,0,0,326, 1.7, 1.7,0,0,1024,1024,1024,1024,330.4,0,98,4.294,4.291,4.293,4.287,0,0,76.91,41,Motors_Started,
0,0,5857.6018039131,0,0.223694,0,1400,2017-11-02 07:19:51,0,17.149,5857.6018039131,0,0,0,325.9, 1.7, 1.7,0,0,1024,1024,1024,1024,330.4,0,98,4.294,4.291,4.293,4.287,0,0,76.91,41,Motors_Started,
0,0,5857.6018039131,0,0.223694,0,1500,2017-11-02 07:19:51,0,17.149,5857.6018039131,0,0,0,325.9, 1.6, 1.7,0,0,1024,1024,1024,1024,330.4,0,98,4.294,4.291,4.293,4.287,0,0,76.91,41,Motors_Started,
0,0,5857.6018039131,0,0.223694,0,1600,2017-11-02 07:19:52,0,17.149,5857.6018039131,0,0,0,326, 1.7, 1.6,0,0,1024,1024,1024,1024,330.5,0,98,4.294,4.291,4.292,4.286,0,0,76.91,10,Assisted_Takeoff,
0,0,5857.6018039131,0,0.223694,0,1700,2017-11-02 07:19:52,0,17.149,5857.6018039131,0,0,0,326, 1.6, 1.6,0,0,364,364,364,1641,330.5,0,98,4.294,4.291,4.292,4.286,0,0,76.91,10,Assisted_Takeoff,
0,0,5857.6018039131,0,0.223694,0,1800,2017-11-02 07:19:52,0,17.149,5857.6018039131,0,0,0,326, 1.7, 1.7,0,0,518,478,544,1418,330.5,0,98,4.294,4.291,4.292,4.286,0,0,76.91,10,Assisted_Takeoff,
0,0,5857.6018039131,0,0.50107456,0,1900,2017-11-02 07:19:52,0,17.149,5857.6018039131,0,0,0,325.9, 1.7, 1.7,0,0,518,478,544,1418,330.2,0,98,4.294,4.291,4.292,4.286,0,0,76.91,10,Assisted_Takeoff,
0,0,5857.6018039131,0,0.50107456,0,2000,2017-11-02 07:19:52,0,17.149,5857.6018039131,0,0,0,325.9, 1.7, 1.7,0,0,1024,1024,1024,1024,329,0,98,4.294,4.291,4.292,4.286,0,0,76.91,10,Assisted_Takeoff,
0,0,5857.6018039131,0,0.223694,0,2100,2017-11-02 07:19:52,0,17.149,5857.6018039131,0,0,0,325.9, 1.7, 1.7,0,0,1024,1024,1024,1024,327.7,0,98,4.294,4.291,4.292,4.286,0,0,76.91,10,Assisted_Takeoff,
0,0,5857.6018039131,0,0.223694,0,2200,2017-11-02 07:19:52,0,17.149,5857.6018039131,0,0,0,325.8, 1.7, 1.7,0,0,1024,1024,1024,1024,327.2,0,98,4.294,4.291,4.292,4.286,0,0,76.91,10,Assisted_Takeoff,
0,0,5857.6018039131,0,0,0,2300,2017-11-02 07:19:52,0,17.149,5857.6018039131,0,0,0,325.8, 1.7, 1.7,0,0,1024,1024,1024,1024,326.9,0,98,4.294,4.291,4.292,4.286,0,0,76.91,10,Assisted_Takeoff,
0,0,5857.6018039131,0,0.223694,0,2400,2017-11-02 07:19:52,0,17.149,5857.6018039131,0,0,0,325.8, 1.8, 1.6,0,0,1024,1024,1024,1024,326.7,0,98,4.294,4.291,4.292,4.286,0,0,76.91,10,Assisted_Takeoff,
0,0,5857.6018039131,0,0.223694,0,2500,2017-11-02 07:19:52,0,17.149,5857.6018039131,0,0,0,325.7, 1.8, 1.6,0,0,1024,1024,1024,1024,326.6,0,98,4.294,4.291,4.292,4.286,0,0,76.91,10,Assisted_Takeoff,
0,0,5857.6018039131,0,0.31540854,0,2600,2017-11-02 07:19:53,0,17.094,5857.6018039131,0,0,0,325.7, 1.7, 1.6,0,0,1024,1024,1024,1024,326.5,0,98,4.266,4.259,4.293,4.283,0,0,76.91,10,Assisted_Takeoff,
0,0,5857.6018039131,0,0.31540854,0,2700,2017-11-02 07:19:53,0,17.094,5857.6018039131,0,0,0,325.7, 1.7, 1.6,0,0,1024,1024,1024,1024,326.4,0,98,4.266,4.259,4.293,4.283,0,0,76.91,10,Assisted_Takeoff,
0,0,5857.6018039131,0,0.31540854,0,2800,2017-11-02 07:19:53,0,17.094,5857.6018039131,0,0,0,325.7, 1.7, 1.6,0,0,1024,1024,1024,1024,326.3,0,98,4.266,4.259,4.293,4.283,0,0,76.91,10,Assisted_Takeoff,
0,0,5857.6018039131,0,0.223694,0,2900,2017-11-02 07:19:53,0,17.094,5857.6018039131,0,0,0,325.6, 1.8, 1.6,0,0,1024,1024,1024,1024,326.3,0,98,4.266,4.259,4.293,4.283,0,0,76.91,10,Assisted_Takeoff,
0,0,5857.6018039131,0,0.223694,0,3000,2017-11-02 07:19:53,0,17.094,5857.6018039131,0,0,0,325.6, 1.8, 1.6,0,0,1024,1024,1024,1024,326.2,0,98,4.266,4.259,4.293,4.283,0,0,76.91,10,Assisted_Takeoff,
0,0,5857.6018039131,0,0.223694,0,3100,2017-11-02 07:19:53,0,17.094,5857.6018039131,0,0,0,325.6, 1.8, 1.6,0,0,1024,1024,1024,1024,326.2,0,98,4.266,4.259,4.293,4.283,0,0,76.91,10,Assisted_Takeoff,
0,0,5857.6018039131,0,0.223694,0,3200,2017-11-02 07:19:53,0,17.094,5857.6018039131,0,0,0,325.6, 1.8, 1.6,0,0,1024,1024,1024,1024,326.1,0,98,4.266,4.259,4.293,4.283,0,0,76.91,10,Assisted_Takeoff,
0,0,5857.6018039131,0,0.447388,0,3300,2017-11-02 07:19:53,0,17.094,5857.6018039131,0,0,0,325.5, 1.9, 1.5,0,0,1024,1024,1024,1024,326.1,0,98,4.266,4.259,4.293,4.283,0,0,76.91,10,Assisted_Takeoff,
0,0,5857.6018039131,0,0.447388,0,3400,2017-11-02 07:19:53,0,17.094,5857.6018039131,0,0,0,325.5, 1.8, 1.5,0,0,1024,1024,1024,1024,326.1,0,98,4.266,4.259,4.293,4.283,0,0,76.91,10,Assisted_Takeoff,
0,0,5857.6018039131,0,0.447388,0,3500,2017-11-02 07:19:53,0,17.094,5857.6018039131,0,0,0,325.5, 1.9, 1.5,0,0,1024,1024,1024,1024,326,0,98,4.266,4.259,4.293,4.283,0,0,76.91,10,Assisted_Takeoff,
0,0,5857.6018039131,0,0.447388,0,3600,2017-11-02 07:19:54,0,17.121,5857.6018039131,0,0,0,325.5, 1.9, 1.6,0,0,1024,1024,1024,1024,326,0,98,4.283,4.281,4.285,4.28,0,0,76.91,10,Assisted_Takeoff,
0,0,5857.6018039131,0,0.223694,0,3700,2017-11-02 07:19:54,0,17.121,5857.6018039131,0,0,0,325.4, 1.9, 1.6,0,0,1024,1024,1024,1024,326,0,98,4.283,4.281,4.285,4.28,0,0,76.91,10,Assisted_Takeoff,
0,0,5857.6018039131,0,0,0,3800,2017-11-02 07:19:54,0,17.121,5857.6018039131,0,0,0,325.4, 1.9, 1.6,0,0,1024,1024,1024,1024,325.9,0,98,4.283,4.281,4.285,4.28,0,0,76.91,10,Assisted_Takeoff,
0,0,5857.6018039131,0,0,0,3900,2017-11-02 07:19:54,0,17.121,5857.6018039131,0,0,0,325.4, 1.9, 1.5,0,0,1024,1024,1024,1024,325.9,0,98,4.283,4.281,4.285,4.28,0,0,76.91,10,Assisted_Takeoff,
0,0,5857.6018039131,0,0.223694,0,4000,2017-11-02 07:19:54,0,17.121,5857.6018039131,0,0,0,325.3, 1.8, 1.5,0,0,1024,1024,1024,1024,325.9,0,98,4.283,4.281,4.285,4.28,0,0,76.91,10,Assisted_Takeoff,
0,0,5857.6018039131,0,0.447388,0,4100,2017-11-02 07:19:54,0,17.121,5857.6018039131,0,0,0,325.3, 1.8, 1.5,0,0,1024,1024,1024,1024,325.9,0,98,4.283,4.281,4.285,4.28,0,0,76.91,10,Assisted_Takeoff,
0,0,5857.6018039131,0,0.31540854,0,4200,2017-11-02 07:19:54,0,17.121,5857.6018039131,0,0,0,325.3, 1.7, 1.6,0,0,1024,1024,1024,1024,325.8,0,98,4.283,4.281,4.285,4.28,0,0,76.91,10,Assisted_Takeoff,
0,0,5857.6018039131,0,0.223694,0,4300,2017-11-02 07:19:54,0,17.121,5857.6018039131,0,0,0,325.3, 1.7, 1.6,0,0,1024,1024,1024,1024,325.8,0,98,4.283,4.281,4.285,4.28,0,0,76.91,10,Assisted_Takeoff,
0,0,5857.6018039131,0,0.223694,0,4400,2017-11-02 07:19:54,0,17.121,5857.6018039131,0,0,0,325.3, 1.7, 1.6,0,0,1024,1024,1024,1024,325.8,0,98,4.283,4.281,4.285,4.28,0,0,76.91,10,Assisted_Takeoff,
0,0,5857.6018039131,0,0.223694,0,4500,2017-11-02 07:19:54,0,17.121,5857.6018039131,0,0,0,325.2, 1.8, 1.6,0,0,1024,1024,1024,1024,325.8,0,98,4.283,4.281,4.285,4.28,0,0,76.91,10,Assisted_Takeoff,
0,0,5857.6018039131,0,0.447388,0,4600,2017-11-02 07:19:55,0,17.149,5857.6018039131,0,0,0,325.2, 1.9, 1.6,0,0,1024,1024,1024,1024,325.8,0,98,4.283,4.281,4.285,4.28,0,0,76.91,10,Assisted_Takeoff,
0,0,5857.6018039131,0,0.447388,0,4700,2017-11-02 07:19:55,0,17.149,5857.6018039131,0,0,0,325.2, 1.9, 1.5,0,0,1024,1024,1024,1024,325.8,0,98,4.283,4.281,4.285,4.28,0,0,76.91,10,Assisted_Takeoff,
0,0,5857.6018039131,0,0.447388,0,4800,2017-11-02 07:19:55,0,17.149,5857.6018039131,0,0,0,325.2, 2, 1.5,0,0,1024,1024,1024,1024,325.8,0,98,4.283,4.281,4.285,4.28,0,0,76.91,10,Assisted_Takeoff,
0,0,5857.6018039131,0,0.223694,0,4900,2017-11-02 07:19:55,0,17.149,5857.6018039131,0,0,0,325.1, 2, 1.5,0,0,1024,1024,1024,1024,325.8,0,98,4.283,4.281,4.285,4.28,0,0,76.91,10,Assisted_Takeoff,
0,0,5857.6018039131,0,0.223694,0,5000,2017-11-02 07:19:55,0,17.149,5857.6018039131,0,0,0,325.1, 2, 1.5,0,0,1024,1024,1024,1024,325.7,0,98,4.283,4.281,4.285,4.28,0,0,76.91,10,Assisted_Takeoff,
0,0,5857.6018039131,0,0.223694,0,5100,2017-11-02 07:19:55,0,17.149,5857.6018039131,0,0,0,325.1, 1.9, 1.5,0,0,1024,1024,1024,1024,325.7,0,98,4.283,4.281,4.285,4.28,0,0,76.91,10,Assisted_Takeoff,
0,0,5857.6018039131,0,0.223694,0,5200,2017-11-02 07:19:55,0,17.149,5857.6018039131,0,0,0,325.1, 1.9, 1.5,0,0,1024,1024,1024,1024,325.7,0,98,4.283,4.281,4.285,4.28,0,0,76.91,10,Assisted_Takeoff,
0,0,5857.6018039131,0,0.223694,0,5300,2017-11-02 07:19:55,0,17.149,5857.6018039131,0,0,0,325, 1.9, 1.4,0,0,1024,1024,1024,1024,325.7,0,98,4.283,4.281,4.285,4.28,0,0,76.91,10,Assisted_Takeoff,
0,0,5857.6018039131,0,0.447388,0,5400,2017-11-02 07:19:55,0,17.149,5857.6018039131,0,0,0,325, 1.9, 1.4,0,0,1024,1024,1024,1024,325.7,0,98,4.283,4.281,4.285,4.28,0,0,76.91,10,Assisted_Takeoff,
0,0,5857.6018039131,0,0.447388,0,5500,2017-11-02 07:19:55,0,17.149,5857.6018039131,0,0,0,325, 1.9, 1.4,0,0,1024,1024,1024,1024,325.7,0,98,4.283,4.281,4.285,4.28,0,0,76.91,10,Assisted_Takeoff,
0,0,5857.6018039131,0,0.447388,0,5600,2017-11-02 07:19:56,0,17.149,5857.6018039131,0,0,0,325, 2, 1.5,0,0,1024,1024,1024,1024,325.7,0,98,4.287,4.283,4.285,4.28,0,0,76.91,10,Assisted_Takeoff,
0,0,5857.6018039131,0,0.223694,0,5700,2017-11-02 07:19:56,0,17.149,5857.6018039131,0,0,0,324.9, 2, 1.5,0,0,1024,1024,1024,1024,325.7,0,98,4.287,4.283,4.285,4.28,0,0,76.91,10,Assisted_Takeoff,
0,0,5857.6018039131,0,0.223694,0,5800,2017-11-02 07:19:56,0,17.149,5857.6018039131,0,0,0,324.9, 2, 1.5,0,0,1024,1024,1024,1024,325.7,0,98,4.287,4.283,4.285,4.28,0,0,76.91,10,Assisted_Takeoff,
0,0,5857.6018039131,0,0,0,5900,2017-11-02 07:19:56,0,17.149,5857.6018039131,0,0,0,324.9, 1.9, 1.5,0,0,1024,1024,1024,1024,325.7,0,98,4.287,4.283,4.285,4.28,0,0,76.91,10,Assisted_Takeoff,
0,0,5857.6018039131,0,0.223694,0,6000,2017-11-02 07:19:56,0,17.149,5857.6018039131,0,0,0,324.9, 1.8, 1.5,0,0,1024,1024,1024,1024,325.7,0,98,4.287,4.283,4.285,4.28,0,0,76.91,10,Assisted_Takeoff,
0,0,5857.6018039131,0,0.223694,0,6100,2017-11-02 07:19:56,0,17.149,5857.6018039131,0,0,0,324.9, 1.7, 1.4,0,0,1024,1024,1024,1024,325.6,0,98,4.287,4.283,4.285,4.28,0,0,76.91,10,Assisted_Takeoff,
0,0,5857.6018039131,0,0.223694,0,6200,2017-11-02 07:19:56,0,17.149,5857.6018039131,0,0,0,324.8, 1.7, 1.4,0,0,1024,1024,1024,1024,325.6,0,98,4.287,4.283,4.285,4.28,0,0,76.91,10,Assisted_Takeoff,
0,0,5857.6018039131,0,0.223694,0,6300,2017-11-02 07:19:56,0,17.149,5857.6018039131,0,0,0,324.8, 1.7, 1.4,0,0,1024,1024,1024,1024,325.6,0,98,4.287,4.283,4.285,4.28,0,0,76.91,10,Assisted_Takeoff,
0,0,5857.6018039131,0,0.223694,0,6400,2017-11-02 07:19:56,0,17.149,5857.6018039131,0,0,0,324.8, 1.7, 1.4,0,0,1024,1024,1024,1024,325.6,0,98,4.287,4.283,4.285,4.28,0,0,76.91,10,Assisted_Takeoff,
0,0,5857.6018039131,0,0,0,6500,2017-11-02 07:19:56,0,17.149,5857.6018039131,0,0,0,324.8, 1.8, 1.4,0,0,1024,1024,1024,1024,325.6,0,98,4.287,4.283,4.285,4.28,0,0,76.91,10,Assisted_Takeoff,
0,0,5857.6018039131,0,0,0,6600,2017-11-02 07:19:57,0,17.121,5857.6018039131,0,0,0,324.8, 1.8, 1.3,0,0,1024,1024,1024,1024,325.6,0,98,4.287,4.284,4.285,4.28,0,0,76.91,10,Assisted_Takeoff,
0,0,5857.6018039131,0,0,0,6700,2017-11-02 07:19:57,0,17.121,5857.6018039131,0,0,0,324.8, 1.8, 1.3,0,0,1024,1024,1024,1024,325.6,0,98,4.287,4.284,4.285,4.28,0,0,76.91,10,Assisted_Takeoff,
0,0,5857.6018039131,0,0,0,6800,2017-11-02 07:19:57,0,17.121,5857.6018039131,0,0,0,324.7, 1.8, 1.3,0,0,1024,1024,1024,1024,325.6,0,98,4.287,4.284,4.285,4.28,0,0,76.91,10,Assisted_Takeoff,
0,0,5857.6018039131,0,0,0,6900,2017-11-02 07:19:57,0,17.121,5857.6018039131,0,0,0,324.7, 1.8, 1.3,0,0,1024,1024,1024,1024,325.5,0,98,4.287,4.284,4.285,4.28,0,0,76.91,10,Assisted_Takeoff,
0,0,5857.6018039131,0,0,0,7000,2017-11-02 07:19:57,0,17.121,5857.6018039131,0,0,0,324.7, 1.8, 1.3,0,0,1024,1024,1024,1024,325.5,0,98,4.287,4.284,4.285,4.28,0,0,76.91,10,Assisted_Takeoff,
0,0,5857.6018039131,0,0.223694,0,7100,2017-11-02 07:19:57,0,17.121,5857.6018039131,0,0,0,324.7, 1.8, 1.3,0,0,1024,1024,1024,1024,325.5,0,98,4.287,4.284,4.285,4.28,0,0,76.91,10,Assisted_Takeoff,
0,0,5857.6018039131,0,0.223694,0,7200,2017-11-02 07:19:57,0,17.121,5857.6018039131,0,0,0,324.6, 1.8, 1.3,0,0,1024,1024,1024,1024,325.5,0,98,4.287,4.284,4.285,4.28,0,0,76.91,10,Assisted_Takeoff,
0,0,5857.6018039131,0,0.223694,0,7300,2017-11-02 07:19:57,0,17.121,5857.6018039131,0,0,0,324.6, 1.8, 1.3,0,0,1024,1024,1024,1024,325.5,0,98,4.287,4.284,4.285,4.28,0,0,76.91,10,Assisted_Takeoff,
0,0,5857.6018039131,0,0.223694,0,7400,2017-11-02 07:19:57,0,17.121,5857.6018039131,0,0,0,324.6, 1.8, 1.3,0,0,1024,1024,1024,1024,325.5,0,98,4.287,4.284,4.285,4.28,0,0,76.91,10,Assisted_Takeoff,
0,0,5857.6018039131,0,0.223694,0,7500,2017-11-02 07:19:57,0,17.121,5857.6018039131,0,0,0,324.6, 1.8, 1.3,0,0,1024,1024,1024,1024,325.5,0,98,4.287,4.284,4.285,4.28,0,0,76.91,10,Assisted_Takeoff,
0,0,5857.6018039131,0,0,0,7600,2017-11-02 07:19:58,0,17.121,5857.6018039131,0,0,0,324.5, 1.8, 1.3,0,0,1024,1024,1024,1024,325.4,0,98,4.286,4.283,4.284,4.28,0,0,76.91,10,Assisted_Takeoff,
0,0,5857.6018039131,0,0,0,7800,2017-11-02 07:19:58,0,17.121,5857.6018039131,0,0,0,324.5, 1.8, 1.3,0,0,1024,1024,1024,1024,325.4,0,98,4.286,4.283,4.284,4.28,0,0,76.91,10,Assisted_Takeoff,
0,0,5857.6018039131,0,0,0,7900,2017-11-02 07:19:58,0,17.121,5857.6018039131,0,0,0,324.5, 1.8, 1.3,0,0,1024,1024,1024,1024,325.4,0,98,4.286,4.283,4.284,4.28,0,0,76.91,10,Assisted_Takeoff,
0,0,5857.6018039131,0,0,0,8000,2017-11-02 07:19:58,0,17.121,5857.6018039131,0,0,0,324.5, 1.8, 1.3,0,0,1024,1024,1024,1024,325.4,0,98,4.286,4.283,4.284,4.28,0,0,76.91,10,Assisted_Takeoff,
0,0,5857.6018039131,0,0.223694,0,8100,2017-11-02 07:19:58,0,17.121,5857.6018039131,0,0,0,324.4, 1.8, 1.3,0,0,1024,1024,1024,1024,325.4,0,98,4.286,4.283,4.284,4.28,0,0,76.91,10,Assisted_Takeoff,
0,0,5857.6018039131,0,0.223694,0,8200,2017-11-02 07:19:58,0,17.121,5857.6018039131,0,0,0,324.4, 1.8, 1.3,0,0,1024,1024,1024,1024,325.4,0,98,4.286,4.283,4.284,4.28,0,0,76.91,10,Assisted_Takeoff,
0,0,5857.6018039131,0,0.223694,0,8300,2017-11-02 07:19:58,0,17.121,5857.6018039131,0,0,0,324.4, 1.8, 1.2,0,0,1024,1024,1024,1024,325.4,0,98,4.286,4.283,4.284,4.28,0,0,76.91,10,Assisted_Takeoff,
0,0,5857.6018039131,0,0.223694,0,8400,2017-11-02 07:19:58,0,17.121,5857.6018039131,0,0,0,324.4, 1.8, 1.3,0,0,1024,1024,1024,1024,325.3,0,98,4.286,4.283,4.284,4.28,0,0,76.91,10,Assisted_Takeoff,
0,0,5857.6018039131,0,0.223694,0,8500,2017-11-02 07:19:58,0,17.121,5857.6018039131,0,0,0,324.3, 1.8, 1.3,0,0,1024,1024,1024,1024,325.3,0,98,4.286,4.283,4.284,4.28,0,0,76.91,10,Assisted_Takeoff,
0,0,5857.6018039131,0,0.223694,0,8600,2017-11-02 07:19:59,0,17.121,5857.6018039131,0,0,0,324.3, 1.8, 1.3,0,0,1024,1024,1024,1024,325.3,0,98,4.286,4.283,4.284,4.28,0,0,76.91,10,Assisted_Takeoff,
0,0,5857.6018039131,0,0.223694,0,8700,2017-11-02 07:19:59,0,17.121,5857.6018039131,0,0,0,324.3, 1.8, 1.2,0,0,1024,1024,1024,1024,325.3,0,98,4.286,4.283,4.284,4.28,0,0,76.91,10,Assisted_Takeoff,
0,0,5857.6018039131,0,0.223694,0,8800,2017-11-02 07:19:59,4,17.121,5857.6018039131,0,0,0,324.3, 1.8, 1.2,0,0,1024,1024,1024,1024,325.3,0,98,4.286,4.283,4.284,4.28,0,0,76.91,10,Assisted_Takeoff,
0,0,5857.6018039131,0,0.223694,0,8900,2017-11-02 07:19:59,4,17.121,5857.6018039131,0,0,0,324.3, 1.8, 1.2,0,0,1024,1024,1024,1024,325.2,0,98,4.286,4.283,4.284,4.28,0,0,76.91,10,Assisted_Takeoff,
0,0,5857.6018039131,0,0.223694,0,9000,2017-11-02 07:19:59,4,17.121,5857.6018039131,0,0,0,324.2, 1.8, 1.3,0,0,1024,1024,1024,1024,325.2,0,98,4.286,4.283,4.284,4.28,0,0,76.91,10,Assisted_Takeoff,
0,0,5857.6018039131,0,0.223694,0,9100,2017-11-02 07:19:59,4,17.121,5857.6018039131,0,0,0,324.2, 1.8, 1.2,0,0,1024,1024,1024,1024,325.2,0,98,4.286,4.283,4.284,4.28,0,0,76.91,10,Assisted_Takeoff,
0,0,5857.6018039131,0,0.223694,0,9200,2017-11-02 07:19:59,4,17.121,5857.6018039131,0,0,0,324.2, 1.8, 1.2,0,0,1024,1024,1024,1024,325.2,0,98,4.286,4.283,4.284,4.28,0,0,76.91,10,Assisted_Takeoff,
0,0,5857.6018039131,0,0.223694,0,9300,2017-11-02 07:19:59,4,17.121,5857.6018039131,0,0,0,324.2, 1.8, 1.3,0,0,1024,1024,1024,1024,325.2,0,98,4.286,4.283,4.284,4.28,0,0,76.91,10,Assisted_Takeoff,
0,0,5857.6018039131,0,0.223694,0,9400,2017-11-02 07:19:59,5,17.121,5857.6018039131,0,0.223694,0,324.1, 1.8, 1.2,0,0,1024,1024,1024,1024,325.2,0,98,4.286,4.283,4.284,4.28,0,0,76.91,10,Assisted_Takeoff,
0,0,5857.6018039131,0,0.223694,0,9500,2017-11-02 07:19:59,5,17.121,5857.6018039131,0,0.223694,0,324.1, 1.8, 1.2,0,0,1024,1024,1024,1024,325.2,0,98,4.286,4.283,4.284,4.28,0,0,76.91,10,Assisted_Takeoff,
0,0,5857.6018039131,0,0.223694,0,9600,2017-11-02 07:20:00,5,17.121,5857.6018039131,0,0.223694,0,324.1, 1.8, 1.2,0,0,1024,1024,1024,1024,325.1,0,98,4.286,4.283,4.284,4.279,0,0,76.91,10,Assisted_Takeoff,
0,0,5857.6018039131,0,0,0,9700,2017-11-02 07:20:00,5,17.121,5857.6018039131,0,0.223694,0,324.1, 1.7, 1.2,0,0,1024,1024,1024,1024,325.1,0,98,4.286,4.283,4.284,4.279,0,0,76.91,10,Assisted_Takeoff,
0,0,5857.6018039131,0,0,0,9800,2017-11-02 07:20:00,5,17.121,5857.6018039131,0,0.223694,0,324.1, 1.8, 1.2,0,0,1024,1024,1024,1024,325.1,0,98,4.286,4.283,4.284,4.279,0,0,76.91,10,Assisted_Takeoff,
0,0,5857.6018039131,0,0,0,9900,2017-11-02 07:20:00,5,17.121,5857.6018039131,0,0.223694,0,324, 1.8, 1.2,0,0,1024,1024,1024,1024,325.1,0,98,4.286,4.283,4.284,4.279,0,0,76.91,10,Assisted_Takeoff,
0,0,5857.6018039131,0,0.223694,0,10000,2017-11-02 07:20:00,6,17.121,5857.6018039131,0,0.223694,0,324, 1.8, 1.2,0,0,1024,1024,1024,1024,325.1,0,98,4.286,4.283,4.284,4.279,0,0,76.91,10,Assisted_Takeoff,
0,0,5857.6018039131,0,0.223694,0,10100,2017-11-02 07:20:00,6,17.121,5857.6018039131,0,0.223694,0,324, 1.7, 1.2,0,0,1024,1024,1024,1024,325,0,98,4.286,4.283,4.284,4.279,0,0,76.91,10,Assisted_Takeoff,
0,0,5857.6018039131,0,0,0,10200,2017-11-02 07:20:00,6,17.121,5857.6018039131,0,0.223694,0,324, 1.8, 1.2,0,0,1024,1024,1024,1024,325,0,98,4.286,4.283,4.284,4.279,0,0,76.91,10,Assisted_Takeoff,
0,0,5857.6018039131,0,0,0,10300,2017-11-02 07:20:00,6,17.121,5857.6018039131,0,0.223694,0,324, 1.8, 1.2,0,0,1024,1024,1024,1024,325,0,98,4.286,4.283,4.284,4.279,0,0,76.91,10,Assisted_Takeoff,
0,0,5857.6018039131,0,0,0,10400,2017-11-02 07:20:00,6,17.121,5857.6018039131,0,0.223694,0,323.9, 1.7, 1.2,0,0,1024,1024,1024,1024,325,0,98,4.286,4.283,4.284,4.279,0,0,76.91,10,Assisted_Takeoff,
0,0,5857.6018039131,0,0,0,10500,2017-11-02 07:20:00,6,17.121,5857.6018039131,0,0.223694,0,323.9, 1.7, 1.2,0,0,1024,1024,1037,1024,325,0,98,4.286,4.283,4.284,4.279,0,0,76.91,10,Assisted_Takeoff,
0,0,5857.6018039131,0,0,0,10600,2017-11-02 07:20:01,10,17.121,5857.6018039131,0,0.223694,0,323.9, 1.7, 1.2,0,0,1024,1024,1070,1024,325,0,98,4.286,4.283,4.284,4.279,0,0,76.91,10,Assisted_Takeoff,
0,0,5857.6018039131,0,0.223694,0,10700,2017-11-02 07:20:01,10,17.121,5857.6018039131,0,0.223694,0,323.9, 1.7, 1.2,0,0,1024,1024,1380,1024,324.9,0,98,4.286,4.283,4.284,4.279,0,0,76.91,10,Assisted_Takeoff,
0,0,5857.6018039131,0,0,0,10800,2017-11-02 07:20:01,10,17.121,5857.6018039131,0,0.223694,0,323.8, 1.7, 1.2,0,0,1024,1024,1684,924,324.9,0,98,4.286,4.283,4.284,4.279,0,0,76.91,10,Assisted_Takeoff,
0,0,5857.6018039131,0,0,0,10900,2017-11-02 07:20:01,10,17.121,5857.6018039131,0,0.223694,0,323.9, 1.6, 1.2,0,0,1024,1024,1684,1008,324.9,0,98,4.286,4.283,4.284,4.279,0,0,76.91,10,Assisted_Takeoff,
0,0,5857.6018039131,0,0,0,11000,2017-11-02 07:20:01,10,17.121,5857.6018039131,0,0.223694,0,323.9, 1.5, 1.2,0,0,1024,1024,1684,1024,324.7,0,98,4.286,4.283,4.284,4.279,0,0,76.91,10,Assisted_Takeoff,
0,0,5857.6018039131,0,0,0,11100,2017-11-02 07:20:01,10,17.121,5857.6018039131,0,0.223694,0,324.2, 1.1, 1.4,0,0,1024,1024,1684,1024,324.7,0,98,4.286,4.283,4.284,4.279,0,0,76.91,10,Assisted_Takeoff,
0,0,5857.6018039131,0,0,0,11200,2017-11-02 07:20:01,10,17.121,5857.6018039131,0,0.223694,0,324.6, -1.7, 2.4,0,0,1024,1024,1684,1024,324.7,0,98,4.286,4.283,4.284,4.279,0,0,76.91,10,Assisted_Takeoff,
0,0,5857.6018039131,0,0.447388,0,11300,2017-11-02 07:20:01,10,17.121,5857.6018039131,0,0.447388,0,325.1, -4.8, 3.3,0,0,1024,1024,1684,1036,324.7,0,98,4.286,4.283,4.284,4.279,0,0,76.91,10,Assisted_Takeoff,
0,0,5857.6018039131,0,1.11847,0,11400,2017-11-02 07:20:01,10,17.121,5857.6018039131,0,1.11847,0,325.2, -3.5, 2.5,0,0,1024,1024,1684,1041,324.7,0,98,4.286,4.283,4.284,4.279,0,0,76.91,6,GPS_Atti,
0,0,5857.6018039131,0,1.565858,0,11500,2017-11-02 07:20:01,10,17.121,5857.6018039131,0,1.565858,0,325.4, -0.2, 1.1,0,0,1024,1024,1684,1039,324.7,0,98,4.286,4.283,4.284,4.279,0,0,76.91,6,GPS_Atti,Obstacle Avoided. Revise Flight Route
0,0,5857.9298879131,0.328084,2.013246,0,11600,2017-11-02 07:20:02,10,17.149,5857.9298879131,0.328084,2.013246,0,325.5, 2, -0.9,0,0,1024,1024,1684,1035,324.7,0,98,4.286,4.283,4.284,4.279,0,0,76.91,6,GPS_Atti,Setting new Maximum Flight Altitude to 30m (98 ft)
0,0,5858.2579719131,0.656168,2.460634,0,11700,2017-11-02 07:20:02,10,17.149,5858.2579719131,0.656168,2.460634,0,325.6, 3.8, -3.5,0,0,1024,1024,1684,1030,324.7,0,98,4.286,4.283,4.284,4.279,0,0,76.91,6,GPS_Atti,
0,0,5858.9141399131,1.312336,2.4718187,0,11800,2017-11-02 07:20:02,10,17.149,5858.9141399131,1.312336,2.4718187,0,325.4, 7, -6.9,0,0,1024,1024,1684,1024,324.8,0,98,4.286,4.283,4.284,4.279,0,0,76.91,6,GPS_Atti,
0,0,5859.8983919131,2.296588,2.50089892,0,11900,2017-11-02 07:20:02,10,17.149,5859.8983919131,2.296588,2.50089892,0,325.1, 10.6, -9.7,0,0,1024,1024,1684,1024,324.9,0,98,4.286,4.283,4.284,4.279,0,0,76.91,6,GPS_Atti,
0,0,5860.8826439131,3.28084,2.2816788,0,12000,2017-11-02 07:20:02,10,17.149,5860.8826439131,3.28084,2.50089892,0,324.9, 12.2, -9.1,0,0,1024,1024,1684,1024,324.9,0,98,4.286,4.283,4.284,4.279,0,0,76.91,6,GPS_Atti,
0,0,5861.8668959131,4.265092,1.99982436,0,12100,2017-11-02 07:20:02,10,17.149,5861.8668959131,4.265092,2.50089892,0,325.2, 10.8, -9.5,0,0,1024,1024,1684,1026,325,0,98,4.286,4.283,4.284,4.279,0,0,76.91,6,GPS_Atti,
0,0,5862.8511479131,5.249344,2.06245868,0,12200,2017-11-02 07:20:02,10,17.149,5862.8511479131,5.249344,2.50089892,0,325.9, 10.5, -5.6,0,0,1024,1024,1684,1026,325.1,0,98,4.286,4.283,4.284,4.279,0,0,76.91,6,GPS_Atti,
0,0,5864.1634839131,6.56168,2.06245868,0,12300,2017-11-02 07:20:02,10,17.149,5864.1634839131,6.56168,2.50089892,0,326.3, 12.7, 0.4,0,0,1024,1024,1684,1026,325.2,0,98,4.286,4.283,4.284,4.279,0,0,76.91,6,GPS_Atti,
0,0,5865.8039039131,8.2021,1.91034676,0,12400,2017-11-02 07:20:02,10,17.149,5865.8039039131,8.2021,2.50089892,0,325.9, 14.2, 1.8,0,0,1024,1024,1684,1030,325.2,0,98,4.286,4.283,4.284,4.279,0,0,76.91,6,GPS_Atti,
0,0,5867.4443239131,9.84252,2.02666764,0,12500,2017-11-02 07:20:02,10,17.149,5867.4443239131,9.84252,2.50089892,0,325.4, 14.6, -2.7,0,0,1024,1024,1684,1028,325.2,0,98,4.286,4.283,4.284,4.279,0,0,76.91,6,GPS_Atti,
0,0,5869.0847439131,11.48294,2.02666764,0,12600,2017-11-02 07:20:03,10,16.71,5869.0847439131,11.48294,2.50089892,0,324.6, 16.6, -7.9,0,0,1024,1024,1684,1030,325.2,0,98,4.264,4.254,4.252,4.252,0,0,76.91,6,GPS_Atti,
0,0,5870.7251639131,13.12336,1.8454755,0,12700,2017-11-02 07:20:03,10,16.71,5870.7251639131,13.12336,2.50089892,0,324.5, 16.5, -9.2,0,0,1024,1024,1684,1030,325.3,0,98,4.264,4.254,4.252,4.252,0,0,76.91,6,GPS_Atti,
0,0,5872.3655839131,14.76378,1.8454755,0,12800,2017-11-02 07:20:03,10,16.71,5872.3655839131,14.76378,2.50089892,0,324.7, 15.1, -7.7,0,0,1024,1024,1684,1028,325.4,0,98,4.264,4.254,4.252,4.252,0,0,76.91,6,GPS_Atti,
0,0,5874.3340879131,16.732284,1.91034676,0,12900,2017-11-02 07:20:03,10,16.71,5874.3340879131,16.732284,2.50089892,0,324.8, 14.6, -5.9,0,0,1024,1024,1684,1024,325.4,0,98,4.264,4.254,4.252,4.252,0,0,76.91,6,GPS_Atti,
0,0,5875.9745079131,18.372704,2.12285606,0,13000,2017-11-02 07:20:03,10,16.71,5875.9745079131,18.372704,2.50089892,0,324.7, 14.9, -5.3,0,0,1024,1024,1684,1024,325.4,0,98,4.264,4.254,4.252,4.252,0,0,76.91,6,GPS_Atti,
0,0,5877.6149279131,20.013124,2.12285606,0,13100,2017-11-02 07:20:03,10,16.71,5877.6149279131,20.013124,2.50089892,0,324.4, 15.7, -6.6,0,0,1024,1024,1684,1030,325.4,0,98,4.264,4.254,4.252,4.252,0,0,76.91,6,GPS_Atti,
0.0637860710939868,36.9221976833989,5879.2553479131,21.653544,2.2033859,0,13200,2017-11-02 07:20:03,10,16.71,5879.2553479131,21.653544,2.50089892,0,324.5, 16.6, -6.5,0,0,1024,1024,1684,1024,325.4,0,98,4.264,4.254,4.252,4.252,0,0,76.91,6,GPS_Atti,
0.0637860710939868,36.9221976833989,5880.8957679131,23.293964,2.10943442,0,13300,2017-11-02 07:20:03,10,16.71,5880.8957679131,23.293964,2.50089892,0,324.6, 16.5, -5.3,0,0,1024,1024,1684,1024,325.5,0,98,4.264,4.254,4.252,4.252,0,0,76.91,6,GPS_Atti,
0.0637900724874418,36.9221953413969,5882.5361879131,24.934384,2.10943442,1.6915846998,13400,2017-11-02 07:20:03,10,16.71,5882.5361879131,24.934384,2.50089892,1.6915846998,324.8, 16.5, -3.8,0,0,1024,1024,1684,1024,325.5,0,98,4.264,4.254,4.252,4.252,0,0,76.91,6,GPS_Atti,
0.0637908261003831,36.9221948900684,5884.5046919131,26.902888,2.10943442,2.01206371268,13500,2017-11-02 07:20:03,10,16.71,5884.5046919131,26.902888,2.50089892,2.01206371268,324.6, 17.5, -3.1,0,0,1024,1024,1684,1022,325.5,0,98,4.264,4.254,4.252,4.252,0,0,76.91,6,GPS_Atti,
0.0637916262045863,36.9221942924228,5886.1451119131,28.543308,2.10943442,2.37455060092,13600,2017-11-02 07:20:04,10,16.3,5886.1451119131,28.543308,2.50089892,2.37455060092,324.5, 18.5, -3.5,0,0,1024,1024,1684,1017,325.5,0,98,4.1,4.098,4.079,4.1,0,0,76.91,6,GPS_Atti,
0.0637924044424507,36.9221937513575,5887.7855319131,30.183728,1.80297364,2.71983604504,13700,2017-11-02 07:20:04,10,16.3,5887.7855319131,30.183728,2.50089892,2.71983604504,324.5, 18.3, -4.2,0,0,1024,1024,1684,1008,325.4,0,98,4.1,4.098,4.079,4.1,0,0,76.91,6,GPS_Atti,
0.0637931872289662,36.922193179454,5889.4259519131,31.824148,1.74705014,3.07264773612,13800,2017-11-02 07:20:04,10,16.3,5889.4259519131,31.824148,2.50089892,3.07264773612,324.7, 17.3, -4.1,0,0,1024,1024,1684,1022,325.5,0,98,4.1,4.098,4.079,4.1,0,0,76.91,6,GPS_Atti,
0.0637939200255079,36.9221926594287,5891.0663719131,33.464568,1.74705014,3.4000657256,13900,2017-11-02 07:20:04,10,16.3,5891.0663719131,33.464568,2.50089892,3.4000657256,324.8, 16.4, -3.5,0,0,1024,1024,1684,1021,325.5,0,98,4.1,4.098,4.079,4.1,0,0,76.91,6,GPS_Atti,
0.0637947475095543,36.9221919061299,5893.0348759131,35.433072,1.89916206,3.803149728,14000,2017-11-02 07:20:04,10,16.3,5893.0348759131,35.433072,2.50089892,3.803149728,324.8, 16.5, -2.6,0,0,1024,1024,1684,1011,325.5,0,98,4.1,4.098,4.079,4.1,0,0,76.91,6,GPS_Atti,
0.0637955367797196,36.9221912785767,5894.6752959131,37.073492,1.89916206,4.1698492148,14100,2017-11-02 07:20:04,10,16.3,5894.6752959131,37.073492,2.50089892,4.1698492148,324.7, 17.2, -2.5,0,0,1024,1024,1684,944,325.5,0,98,4.1,4.098,4.079,4.1,0,0,76.91,6,GPS_Atti,
0.0637964193540264,36.9221903830876,5896.3157159131,38.713912,1.74705014,4.6205053972,14200,2017-11-02 07:20:04,10,16.3,5896.3157159131,38.713912,2.50089892,4.6205053972,324.7, 17.6, -2.6,0,0,1024,1024,1684,944,325.5,0,98,4.1,4.098,4.079,4.1,0,0,76.91,6,GPS_Atti,
0.0637972483818377,36.9221896589785,5898.2842199131,40.682416,1.74705014,5.0201445176,14300,2017-11-02 07:20:04,10,16.3,5898.2842199131,40.682416,2.50089892,5.0201445176,324.3, 17.4, -3,0,0,1024,1024,1684,966,324.8,0,98,4.1,4.098,4.079,4.1,0,0,76.91,6,GPS_Atti,
0.0637981894490386,36.922188703002,5899.9246399131,42.322836,1.74705014,5.5030841656,14400,2017-11-02 07:20:04,10,16.3,5899.9246399131,42.322836,2.50089892,5.5030841656,323.7, 17.2, -2.9,0,0,1024,1024,1684,928,324.6,0,98,4.1,4.098,4.079,4.1,0,0,76.91,6,GPS_Atti,
0.0637990771716711,36.9221879219373,5901.8931439131,44.29134,1.74705014,5.933071056,14500,2017-11-02 07:20:04,10,16.3,5901.8931439131,44.29134,2.50089892,5.933071056,323.3, 18, -2.9,0,0,1024,1024,1684,919,324.1,0,98,4.1,4.098,4.079,4.1,0,0,76.91,6,GPS_Atti,
0.0638000336594224,36.9221869941918,5903.5335639131,45.93176,1.9237684,6.41568262,14600,2017-11-02 07:20:05,10,16.3,5903.5335639131,45.93176,2.50089892,6.41568262,322.5, 18.1, -3.4,0,0,1024,1024,1684,948,324.1,0,98,4.1,4.098,4.079,4.1,0,0,76.91,6,GPS_Atti,
0.0638009285512796,36.9221862390741,5905.5020679131,47.900264,1.9237684,6.8424214788,14700,2017-11-02 07:20:05,10,16.3,5905.5020679131,47.900264,2.50089892,6.8424214788,321.8, 18.1, -3.9,0,0,1024,1024,1684,963,323.3,0,98,4.1,4.098,4.079,4.1,0,0,76.91,6,GPS_Atti,
0.0638018721254701,36.9221853370299,5907.4705719131,49.868768,1.9237684,7.3161747748,14800,2017-11-02 07:20:05,10,16.3,5907.4705719131,49.868768,2.50089892,7.3161747748,321.4, 17.3, -3.5,0,0,1024,1024,1684,973,323.1,0,98,4.1,4.098,4.079,4.1,0,0,76.91,6,GPS_Atti,
0.0638027544831938,36.9221846010518,5909.4390759131,51.837272,1.74705014,7.7351708512,14900,2017-11-02 07:20:05,10,16.3,5909.4390759131,51.837272,2.50089892,7.7351708512,321.1, 16.9, -3.4,0,0,1024,1024,1684,1015,323.1,0,98,4.1,4.098,4.079,4.1,0,0,76.91,6,GPS_Atti,
0.0638036490998439,36.9221838074791,5911.0794959131,53.477692,1.74705014,8.1707351696,15000,2017-11-02 07:20:05,10,16.3,5911.0794959131,53.477692,2.50089892,8.1707351696,320.7, 17.2, -4,0,0,1024,1024,1684,1024,323,0,98,4.1,4.098,4.079,4.1,0,0,76.91,6,GPS_Atti,
0.0638044688748364,36.9221831013957,5913.0479999131,55.446196,1.74705014,8.565124946,15100,2017-11-02 07:20:05,10,16.3,5913.0479999131,55.446196,2.50089892,8.565124946,320.7, 17.6, -4.6,0,0,1024,1024,1684,1024,323,0,98,4.1,4.098,4.079,4.1,0,0,76.91,6,GPS_Atti,
0.0638052277395096,36.9221823187171,5914.6884199131,57.086616,1.74705014,8.959645956,15200,2017-11-02 07:20:05,10,16.3,5914.6884199131,57.086616,2.50089892,8.959645956,321, 17.2, -3,0,0,1024,1024,1684,1024,323,0,98,4.1,4.098,4.079,4.1,0,0,76.91,6,GPS_Atti,
0.0638058800795188,36.9221815983191,5916.3288399131,58.727036,1.61283374,9.3099084344,15300,2017-11-02 07:20:05,10,16.3,5916.3288399131,58.727036,2.50089892,9.3099084344,321.1, 17.2, 0.2,0,0,1024,1024,1684,1004,322.9,0,98,4.1,4.098,4.079,4.1,0,0,76.91,6,GPS_Atti,
0.0638065068627279,36.9221807912004,5918.2973439131,60.69554,1.74705014,9.6734255064,15400,2017-11-02 07:20:05,10,16.3,5918.2973439131,60.69554,2.50089892,9.6734255064,321, 18.2, 0.5,0,0,1024,1024,1684,1008,322.9,-4.7,98,4.1,4.098,4.079,4.1,0,0,76.91,6,GPS_Atti,
0.0638071284609713,36.9221801211247,5919.9377639131,62.33596,1.74705014,10.00410137,15500,2017-11-02 07:20:05,10,16.3,5919.9377639131,62.33596,2.50089892,10.00410137,320.9, 18.1, -1.4,0,0,1024,1024,1684,1017,322.8,-10.3,98,4.1,4.098,4.079,4.1,0,0,76.91,6,GPS_Atti,
0.0638077330273189,36.9221793987001,5921.5781839131,63.97638,1.61283374,10.3424872076,15600,2017-11-02 07:20:06,10,16.19,5921.5781839131,63.97638,2.50089892,10.3424872076,320.9, 17.6, -2.5,0,0,1024,1024,1684,1017,322.8,-16,98,4.103,4.093,4.072,4.094,0,0,76.91,6,GPS_Atti,Home Point Recorded. RTH Altitude:  30m.
0.0638082898232619,36.9221787204944,5923.2186039131,65.6168,1.80297364,10.657480656,15700,2017-11-02 07:20:06,10,16.19,5923.2186039131,65.6168,2.50089892,10.657480656,321.4, 16.7, -0.9,0,0,1024,1024,1684,1009,322.8,-21.6,98,4.103,4.093,4.072,4.094,0,0,76.91,6,GPS_Atti,
0.0638088768252126,36.9221779298443,5925.1871079131,67.585304,1.9237684,11.0079727932,15800,2017-11-02 07:20:06,10,16.19,5925.1871079131,67.585304,2.50089892,11.0079727932,321.3, 16.5, 1.2,0,0,1024,1024,1684,1023,322.7,-27.3,98,4.103,4.093,4.072,4.094,0,0,76.91,6,GPS_Atti,
0.063809531715365,36.9221772381259,5927.1556119131,69.553808,1.89916206,11.353838946,15900,2017-11-02 07:20:06,10,16.19,5927.1556119131,69.553808,2.50089892,11.353838946,321.2, 19, 1.6,0,0,1024,1024,1684,1022,322.7,-32.9,98,4.103,4.093,4.072,4.094,0,0,76.91,6,GPS_Atti,
0.063810305924866,36.9221765143459,5928.7960319131,71.194228,1.99982436,11.7402890896,16000,2017-11-02 07:20:06,10,16.19,5928.7960319131,71.194228,2.50089892,11.7402890896,321.1, 20.1, -1,0,0,1024,1024,1684,1024,322.6,-34,98,4.103,4.093,4.072,4.094,0,0,76.91,6,GPS_Atti,
0.0638110892194561,36.9221759386797,5930.7645359131,73.162732,1.99982436,12.0937339828,16100,2017-11-02 07:20:06,10,16.19,5930.7645359131,73.162732,2.50089892,12.0937339828,321, 19.9, -3.5,0,0,1024,1024,1684,1024,322.6,-34.1,98,4.103,4.093,4.072,4.094,0,0,76.91,6,GPS_Atti,
0.0638119550859275,36.9221753905165,5932.4049559131,74.803152,1.91034676,12.4635174592,16200,2017-11-02 07:20:06,10,16.19,5932.4049559131,74.803152,2.50089892,12.4635174592,320.9, 19.1, -4.3,0,0,1024,1024,1684,1021,322.6,-34.2,98,4.103,4.093,4.072,4.094,0,0,76.91,6,GPS_Atti,
0.0638127847830292,36.9221748947835,5934.3734599131,76.771656,1.99982436,12.8110568404,16300,2017-11-02 07:20:06,10,16.19,5934.3734599131,76.771656,2.50089892,12.8110568404,320.9, 19.2, -5,0,0,1024,1024,1684,1021,322.6,-34.2,98,4.103,4.093,4.072,4.094,0,0,76.91,6,GPS_Atti,
0.0638135940252459,36.9221742961257,5936.3419639131,78.74016,1.99982436,13.1774610516,16400,2017-11-02 07:20:06,10,16.19,5936.3419639131,78.74016,2.50089892,13.1774610516,320.7, 20.5, -5.5,0,0,1024,1024,1684,1024,322.6,-38.8,98,4.103,4.093,4.072,4.094,0,0,76.91,6,GPS_Atti,
0.0638143594330071,36.9221737242665,5937.9823839131,80.38058,1.80297364,13.5253941336,16500,2017-11-02 07:20:06,10,16.19,5937.9823839131,80.38058,2.50089892,13.5253941336,320.6, 21.9, -4.9,0,0,1024,1024,1684,1024,322.6,-44.5,98,4.103,4.093,4.072,4.094,0,0,76.91,6,GPS_Atti,
0.0638151087517417,36.9221730952086,5939.6228039131,82.021,1.80297364,13.8823495256,16600,2017-11-02 07:20:07,10,16.382,5939.6228039131,82.021,2.50089892,13.8823495256,320.4, 23.6, -4.9,0,0,1024,1024,1684,1024,322.6,-50,98,4.074,4.076,4.06,4.083,0,0,76.91,6,GPS_Atti,
0.0638157989188764,36.9221725461333,5941.5913079131,83.989504,1.61283374,14.2039702708,16700,2017-11-02 07:20:07,10,16.382,5941.5913079131,83.989504,2.50089892,14.2039702708,320.4, 23.5, -4.7,0,0,1024,1024,1684,1024,322.6,-55.7,98,4.074,4.076,4.06,4.083,0,0,76.91,6,GPS_Atti,
0.0638163968704845,36.9221719979487,5943.2317279131,85.629924,1.50098674,14.4997051884,16800,2017-11-02 07:20:07,10,16.382,5943.2317279131,85.629924,2.50089892,14.4997051884,320.4, 23, -4.4,0,0,1024,1024,1684,1024,322.6,-61.4,98,4.074,4.076,4.06,4.083,0,0,76.91,6,GPS_Atti,
0.0638169438127129,36.9221715409662,5945.2002319131,87.598428,1.30413602,14.7597445668,16900,2017-11-02 07:20:07,10,16.382,5945.2002319131,87.598428,2.50089892,14.7597445668,320.4, 23.1, -4.4,0,0,1024,1024,1684,1024,322.6,-67,98,4.074,4.076,4.06,4.083,0,0,76.91,6,GPS_Atti,
0.0638174799355593,36.9221710895999,5947.1687359131,89.566932,1.20571066,15.015420428,17000,2017-11-02 07:20:07,10,16.382,5947.1687359131,89.566932,2.50089892,15.015420428,320.3, 23.3, -4.4,0,0,1024,1024,1684,1024,322.6,-72.7,98,4.074,4.076,4.06,4.083,0,0,76.91,6,GPS_Atti,
0.063817991016194,36.9221707435244,5949.1372399131,91.535436,1.20571066,15.239337758,17100,2017-11-02 07:20:07,10,16.382,5949.1372399131,91.535436,2.50089892,15.239337758,320.1, 23.4, -5.3,0,0,1024,1024,1684,1024,322.6,-78.3,98,4.074,4.076,4.06,4.083,0,0,76.91,6,GPS_Atti,
0.0638184978791587,36.9221703905523,5951.1057439131,93.50394,1.1408394,15.463747214,17200,2017-11-02 07:20:07,10,16.382,5951.1057439131,93.50394,2.50089892,15.463747214,320.2, 22.9, -5.7,0,0,1024,1024,1684,1024,322.6,-84,98,4.074,4.076,4.06,4.083,0,0,76.91,6,GPS_Atti,
0.0638189658711652,36.9221701352764,5952.7461639131,95.14436,0.92161928,15.6543968264,17300,2017-11-02 07:20:07,10,16.382,5952.7461639131,95.14436,2.50089892,15.6543968264,320.1, 22.5, -6.6,0,0,1024,1024,1684,1024,322.6,-89.6,98,4.074,4.076,4.06,4.083,0,0,76.91,6,GPS_Atti,
0.0638193887910987,36.9221698841735,5954.7146679131,97.112864,0.92161928,15.831529378,17400,2017-11-02 07:20:07,10,16.382,5954.7146679131,97.112864,2.50089892,15.831529378,320.1, 21.7, -7.2,0,0,1024,1024,1684,1024,322.6,-89.9,98,4.074,4.076,4.06,4.083,0,0,76.91,6,GPS_Atti,
0.0638197585162807,36.9221696876913,5956.3550879131,98.753284,0.70687304,15.9810700652,17500,2017-11-02 07:20:07,10,16.382,5956.3550879131,98.753284,2.50089892,15.9810700652,320, 21.7, -7,0,0,1024,1024,1684,1024,322.6,-89.9,98,4.074,4.076,4.06,4.083,0,0,76.91,6,GPS_Atti,
0.0638201219035586,36.9221694381151,5957.9955079131,100.393704,0.70687304,16.141240674,17600,2017-11-02 07:20:08,10,16.026,5957.9955079131,100.393704,2.50089892,16.141240674,319.9, 22.5, -7,0,0,1024,1024,1684,1024,322.6,-90,98,4.098,4.076,4.06,4.083,0,0,76.91,6,GPS_Atti,
0.0638204196026626,36.9221692561006,5959.6359279131,102.034124,0.447388,16.2672577384,17700,2017-11-02 07:20:08,10,16.026,5959.6359279131,102.034124,2.50089892,16.2672577384,320.1, 22.4, -6.7,0,0,1024,1024,1684,1024,322.6,-90,98,4.098,4.076,4.06,4.083,0,0,76.91,6,GPS_Atti,
0.0638206341762143,36.9221690000496,5961.2763479131,103.674544,0.447388,16.387139632,17800,2017-11-02 07:20:08,10,16.026,5961.2763479131,103.674544,2.50089892,16.387139632,320.2, 21.9, -6.2,0,0,1024,1024,1684,1024,322.6,-90,98,4.098,4.076,4.06,4.083,0,0,76.91,6,GPS_Atti,
0.0638207872401793,36.9221688359437,5962.9167679131,105.314964,0.223694,16.468340422,17900,2017-11-02 07:20:08,10,16.026,5962.9167679131,105.314964,2.50089892,16.468340422,320.3, 20.9, -5.5,0,0,1024,1024,1684,1024,322.6,-90,98,4.098,4.076,4.06,4.083,0,0,76.91,6,GPS_Atti,
0.0638208755441835,36.9221686655535,5964.5571879131,106.955384,0,16.5328745448,18000,2017-11-02 07:20:08,10,16.026,5964.5571879131,106.955384,2.50089892,16.5328745448,320.5, 20, -5.2,0,0,1024,1024,1684,1024,322.6,-90,98,4.098,4.076,4.06,4.083,0,0,76.91,6,GPS_Atti,
0.0638209414147431,36.9221685873695,5966.1976079131,108.595804,0,16.5696199528,18100,2017-11-02 07:20:08,10,16.026,5966.1976079131,108.595804,2.50089892,16.5696199528,320.4, 19.7, -5.3,0,0,1024,1024,1684,1024,322.6,-90,98,4.098,4.076,4.06,4.083,0,0,76.91,6,GPS_Atti,
0.0638209936812817,36.9221684952896,5968.1661119131,110.564308,0,16.6057748096,18200,2017-11-02 07:20:08,10,16.026,5968.1661119131,110.564308,2.50089892,16.6057748096,320.3, 19.7, -5.7,0,0,1024,1024,1684,1024,322.6,-89.9,98,4.098,4.076,4.06,4.083,0,0,76.91,6,GPS_Atti,
0.0638210571384873,36.9221684766852,5969.8065319131,112.204728,0,16.6279204796,18300,2017-11-02 07:20:08,10,16.026,5969.8065319131,112.204728,2.50089892,16.6279204796,320.3, 19.8, -5.8,0,0,1024,1024,1684,1024,322.6,-89.9,98,4.098,4.076,4.06,4.083,0,0,76.91,6,GPS_Atti,
0.063821139759222,36.9221684280319,5971.4469519131,113.845148,0.223694,16.6624349164,18400,2017-11-02 07:20:08,10,16.026,5971.4469519131,113.845148,2.50089892,16.6624349164,320.1, 20.6, -7.1,0,0,1024,1024,1684,1024,322.6,-89.9,98,4.098,4.076,4.06,4.083,0,0,76.91,6,GPS_Atti,
0.0638212059587273,36.9221684445508,5973.0873719131,115.485568,0.223694,16.6771330796,18500,2017-11-02 07:20:08,10,16.026,5973.0873719131,115.485568,2.50089892,16.6771330796,320.1, 20.8, -8.3,0,0,1024,1024,1684,1024,322.6,-90,98,4.098,4.076,4.06,4.083,0,0,76.91,6,GPS_Atti,
0.0638211946475553,36.9221684551431,5974.7277919131,117.125988,0,16.6714900348,18600,2017-11-02 07:20:09,13,16.08,5974.7277919131,117.125988,2.50089892,16.6771330796,320.4, 19.4, -7.3,0,0,1024,1024,1684,1024,322.6,-90,98,4.047,4.042,4.021,4.047,0,0,76.91,6,GPS_Atti,
0.0638211392283492,36.9221684389218,5976.3682119131,118.766408,0,16.6597446276,18700,2017-11-02 07:20:09,13,16.08,5976.3682119131,118.766408,2.50089892,16.6771330796,320.6, 18.4, -5.7,0,0,1024,1024,1684,1024,322.6,-90,98,4.047,4.042,4.021,4.047,0,0,76.91,6,GPS_Atti,
0.0638210292204435,36.9221683748865,5978.0086319131,120.406828,0,16.6439309788,18800,2017-11-02 07:20:09,13,16.08,5978.0086319131,120.406828,2.50089892,16.6771330796,320.5, 19, -4.9,0,0,1024,1024,1684,1024,322.6,-90,98,4.047,4.042,4.021,4.047,0,0,76.91,6,GPS_Atti,
0.0638209785823489,36.9221684052694,5979.9771359131,122.375332,0.223694,16.6226383272,18900,2017-11-02 07:20:09,13,16.08,5979.9771359131,122.375332,2.50089892,16.6771330796,320.3, 20.2, -5.6,0,0,1024,1024,1684,1024,322.6,-89.9,98,4.047,4.042,4.021,4.047,0,0,76.91,6,GPS_Atti,
0.06382093592363,36.9221684828816,5981.6175559131,124.015752,0.223694,16.592520216,19000,2017-11-02 07:20:09,13,16.08,5981.6175559131,124.015752,2.50089892,16.6771330796,320.2, 20.5, -7.3,0,0,1024,1024,1684,1024,322.6,-90,98,4.047,4.042,4.021,4.047,0,0,76.91,6,GPS_Atti,
0.063820900478918,36.9221685926025,5983.2579759131,125.656172,0.223694,16.556923102,19100,2017-11-02 07:20:09,13,16.08,5983.2579759131,125.656172,2.50089892,16.6771330796,320, 21.8, -7.7,0,0,1024,1024,1684,1024,322.6,-90,98,4.047,4.042,4.021,4.047,0,0,76.91,6,GPS_Atti,
0.0638207749812529,36.9221687314494,5984.8983959131,127.296592,0.223694,16.4893049896,19200,2017-11-02 07:20:09,13,16.08,5984.8983959131,127.296592,2.50089892,16.6771330796,320.3, 20.4, -7.7,0,0,1024,1024,1684,1024,322.6,-89.9,98,4.047,4.042,4.021,4.047,0,0,76.91,6,GPS_Atti,
0.0638206325868529,36.9221688976386,5986.2107319131,128.608928,0.50107456,16.410597638,19300,2017-11-02 07:20:09,13,16.08,5986.2107319131,128.608928,2.50089892,16.6771330796,320.5, 18.1, -6.5,0,0,1024,1024,1684,1024,322.6,-90,98,4.047,4.042,4.021,4.047,0,0,76.91,6,GPS_Atti,
0.0638204548584751,36.9221690811905,5988.1792359131,130.577432,0.447388,16.317913908,19400,2017-11-02 07:20:09,13,16.08,5988.1792359131,130.577432,2.50089892,16.6771330796,320.5, 17.6, -6.3,0,0,1024,1024,1684,1024,322.6,-90,98,4.047,4.042,4.021,4.047,0,0,76.91,6,GPS_Atti,
0.063820344801716,36.9221692661298,5989.8196559131,132.217852,0.447388,16.2438981576,19500,2017-11-02 07:20:09,13,16.08,5989.8196559131,132.217852,2.50089892,16.6771330796,320.2, 17.7, -6.9,0,0,1024,1024,1684,1024,322.6,-90,98,4.047,4.042,4.021,4.047,0,0,76.91,6,GPS_Atti,
0.0638201965546883,36.9221694640701,5991.7881599131,134.186356,0.223694,16.156168496,19600,2017-11-02 07:20:10,13,16.08,5991.7881599131,134.186356,2.50089892,16.6771330796,320.2, 17.8, -7.9,0,0,1024,1024,1684,1024,322.6,-89.9,98,4.047,4.042,4.021,4.047,0,0,76.91,6,GPS_Atti,
0.0638201113610122,36.9221696337494,5993.4285799131,135.826776,0.223694,16.0928154756,19700,2017-11-02 07:20:10,13,16.08,5993.4285799131,135.826776,2.50089892,16.6771330796,320, 19, -8.4,0,0,1024,1024,1684,1024,322.6,-89.9,98,4.047,4.042,4.021,4.047,0,0,76.91,6,GPS_Atti,
0.063820011540652,36.9221698267887,5995.0689999131,137.467196,0.223694,16.0199480192,19800,2017-11-02 07:20:10,13,16.08,5995.0689999131,137.467196,2.50089892,16.6771330796,319.8, 19.8, -8.7,0,0,1024,1024,1684,1024,322.6,-90,98,4.047,4.042,4.021,4.047,0,0,76.91,6,GPS_Atti,
0.0638199435987116,36.9221699846147,5996.7094199131,139.107616,0.223694,15.9642721644,19900,2017-11-02 07:20:10,13,16.08,5996.7094199131,139.107616,2.50089892,16.6771330796,320, 19.6, -8,0,0,1024,1024,1684,1024,322.6,-90,98,4.047,4.042,4.021,4.047,0,0,76.91,6,GPS_Atti,
0.0638198237550041,36.9221701561525,5998.3498399131,140.748036,0.223694,15.8908141568,20000,2017-11-02 07:20:10,13,16.08,5998.3498399131,140.748036,2.50089892,16.6771330796,320.2, 19.1, -6.8,0,0,1024,1024,1684,1024,322.6,-89.9,98,4.047,4.042,4.021,4.047,0,0,76.91,6,GPS_Atti,
0.0638197462117578,36.9221703314995,5999.9902599131,142.388456,0.223694,15.8284781968,20100,2017-11-02 07:20:10,13,16.08,5999.9902599131,142.388456,2.50089892,16.6771330796,320.1, 19.5, -7.2,0,0,1024,1024,1684,1024,322.6,-89.9,98,4.047,4.042,4.021,4.047,0,0,76.91,6,GPS_Atti,
0.0638196398841355,36.9221705456633,6001.6306799131,144.028876,0.447388,15.7491474856,20200,2017-11-02 07:20:10,13,16.08,6001.6306799131,144.028876,2.50089892,16.6771330796,320.1, 19.6, -8.2,0,0,1024,1024,1684,1024,322.6,-89.9,98,4.047,4.042,4.021,4.047,0,0,76.91,6,GPS_Atti,
0.0638195812340965,36.9221707557717,6003.2710999131,145.669296,0.447388,15.684383704,20300,2017-11-02 07:20:10,13,16.08,6003.2710999131,145.669296,2.50089892,16.6771330796,320.1, 19.2, -8.9,0,0,1024,1024,1684,1024,322.6,-90,98,4.047,4.042,4.021,4.047,0,0,76.91,6,GPS_Atti,
0.0638194657839309,36.922171059778,6004.9115199131,147.309716,0.223694,15.582185538,20400,2017-11-02 07:20:10,13,16.08,6004.9115199131,147.309716,2.50089892,16.6771330796,319.9, 18.9, -8.9,0,0,1024,1024,1684,1024,322.6,-90,98,4.047,4.042,4.021,4.047,0,0,76.91,6,GPS_Atti,
0.0638193825183325,36.9221713104976,6006.5519399131,148.950136,0.223694,15.5015096824,20500,2017-11-02 07:20:10,13,16.08,6006.5519399131,148.950136,2.50089892,16.6771330796,320, 18.9, -9.1,0,0,1024,1024,1684,1024,322.6,-90,98,4.047,4.042,4.021,4.047,0,0,76.91,6,GPS_Atti,
0.0638192821866409,36.9221715642918,6008.1923599131,150.590556,0.223694,15.4154204408,20600,2017-11-02 07:20:11,13,16.08,6008.1923599131,150.590556,2.50089892,16.6771330796,319.9, 18.9, -9.9,0,0,1024,1024,1684,1024,322.6,-90,98,4.044,4.033,4.012,4.041,0,0,76.91,6,GPS_Atti,
0.0638191908602447,36.9221717756314,6009.5046959131,151.902892,0.223694,15.3416015408,20700,2017-11-02 07:20:11,13,16.08,6009.5046959131,151.902892,2.50089892,16.6771330796,320, 18.7, -9.4,0,0,1024,1024,1684,1024,322.6,-90,98,4.044,4.033,4.012,4.041,0,0,76.91,6,GPS_Atti,
0.063819023856799,36.9221720336309,6011.1451159131,153.543312,0.223694,15.2356632172,20800,2017-11-02 07:20:11,13,16.08,6011.1451159131,153.543312,2.50089892,16.6771330796,319.9, 18.6, -8.7,0,0,1024,1024,1684,1024,322.6,-89.9,98,4.044,4.033,4.012,4.041,0,0,76.91,6,GPS_Atti,
0.0638189089375062,36.9221722188614,6012.4574519131,154.855648,0.223694,15.161089724,20900,2017-11-02 07:20:11,13,16.08,6012.4574519131,154.855648,2.50089892,16.6771330796,319.9, 18.7, -8.2,0,0,1024,1024,1684,1024,322.6,-90,98,4.044,4.033,4.012,4.041,0,0,76.91,6,GPS_Atti,
0.0638187769977167,36.9221724573464,6014.0978719131,156.496068,0.223694,15.0697839468,21000,2017-11-02 07:20:11,13,16.08,6014.0978719131,156.496068,2.50089892,16.6771330796,320.1, 18.2, -7.6,0,0,1024,1024,1684,1024,322.6,-90,98,4.044,4.033,4.012,4.041,0,0,76.91,6,GPS_Atti,
0.063818680799016,36.9221726769145,6015.7382919131,158.136488,0.223694,14.993110716,21100,2017-11-02 07:20:11,13,16.08,6015.7382919131,158.136488,2.50089892,16.6771330796,320, 18, -8.6,0,0,1024,1024,1684,1024,322.6,-90,98,4.044,4.033,4.012,4.041,0,0,76.91,6,GPS_Atti,
0.0638185588871846,36.9221729892947,6017.0506279131,159.448824,0.223694,14.888615962,21200,2017-11-02 07:20:11,13,16.08,6017.0506279131,159.448824,2.50089892,16.6771330796,320, 17.4, -9.5,0,0,1024,1024,1684,1024,322.6,-90,98,4.044,4.033,4.012,4.041,0,0,76.91,6,GPS_Atti,
0.0638184513121742,36.9221732269383,6018.6910479131,161.089244,0.223694,14.804954542,21300,2017-11-02 07:20:11,13,16.08,6018.6910479131,161.089244,2.50089892,16.6771330796,320.1, 17, -9.5,0,0,1024,1024,1684,1024,322.6,-89.9,98,4.044,4.033,4.012,4.041,0,0,76.91,6,GPS_Atti,
0.0638182908257614,36.9221734722108,6020.3314679131,162.729664,0,14.7043311792,21400,2017-11-02 07:20:11,13,16.08,6020.3314679131,162.729664,2.50089892,16.6771330796,320.1, 17, -9.5,0,0,1024,1024,1684,1024,322.6,-89.9,98,4.044,4.033,4.012,4.041,0,0,76.91,6,GPS_Atti,
0.0638181728743058,36.9221736265638,6021.6438039131,164.042,0,14.6361225156,21500,2017-11-02 07:20:11,13,16.08,6021.6438039131,164.042,2.50089892,16.6771330796,320.1, 17.5, -9,0,0,1024,1024,1684,1024,322.6,-90,98,4.044,4.033,4.012,4.041,0,0,76.91,6,GPS_Atti,
0.0638180616939203,36.9221737623531,6023.2842239131,165.68242,0,14.5739505976,21600,2017-11-02 07:20:12,13,16.08,6023.2842239131,165.68242,2.50089892,16.6771330796,320.1, 17.9, -8.2,0,0,1024,1024,1684,1024,322.6,-89.9,98,4.041,4.037,4.018,4.043,0,0,76.91,6,GPS_Atti,
0.063817987905866,36.9221738409417,6024.9246439131,167.32284,0,14.5352366856,21700,2017-11-02 07:20:12,13,16.08,6024.9246439131,167.32284,2.50089892,16.6771330796,320.1, 18.1, -7.6,0,0,1024,1024,1684,1024,322.6,-89.9,98,4.041,4.037,4.018,4.043,0,0,76.91,6,GPS_Atti,
0.0638179398276854,36.9221739177061,6026.5650639131,168.96326,0,14.504429598,21800,2017-11-02 07:20:12,13,16.08,6026.5650639131,168.96326,2.50089892,16.6771330796,320.1, 18.3, -7.2,0,0,1024,1024,1684,1024,322.6,-89.9,98,4.041,4.037,4.018,4.043,0,0,76.91,6,GPS_Atti,
0.0638179182475455,36.9221739784868,6028.2054839131,170.60368,0,14.4848429832,21900,2017-11-02 07:20:12,13,16.08,6028.2054839131,170.60368,2.50089892,16.6771330796,319.9, 19.1, -8,0,0,1024,1024,1684,1024,322.6,-90,98,4.041,4.037,4.018,4.043,0,0,76.91,6,GPS_Atti,
0.0638179103854179,36.9221740931665,6029.8459039131,172.2441,0,14.4576120112,22000,2017-11-02 07:20:12,13,16.08,6029.8459039131,172.2441,2.50089892,16.6771330796,320, 19, -8.7,0,0,1024,1024,1684,1024,322.6,-90,98,4.041,4.037,4.018,4.043,0,0,76.91,6,GPS_Atti,
0.063817923351089,36.9221741634111,6031.4863239131,173.88452,0,14.4461618796,22100,2017-11-02 07:20:12,13,16.08,6031.4863239131,173.88452,2.50089892,16.6771330796,320.1, 18.5, -8,0,0,1024,1024,1684,1024,322.6,-89.9,98,4.041,4.037,4.018,4.043,0,0,76.91,6,GPS_Atti,
0.063817970807204,36.9221742612957,6033.1267439131,175.52494,0,14.4389440316,22200,2017-11-02 07:20:12,13,16.08,6033.1267439131,175.52494,2.50089892,16.6771330796,319.9, 19.1, -8.4,0,0,1024,1024,1684,1024,322.6,-89.9,98,4.041,4.037,4.018,4.043,0,0,76.91,6,GPS_Atti,
0.0638180496760036,36.9221743330605,6034.7671639131,177.16536,0,14.446686814,22300,2017-11-02 07:20:12,13,16.08,6034.7671639131,177.16536,2.50089892,16.6771330796,319.8, 19.5, -9.7,0,0,1024,1024,1684,1024,322.6,-89.9,98,4.041,4.037,4.018,4.043,0,0,76.91,6,GPS_Atti,
0.0638181016722205,36.9221743923102,6036.4075839131,178.80578,0,14.4492786776,22400,2017-11-02 07:20:12,13,16.08,6036.4075839131,178.80578,2.50089892,16.6771330796,319.7, 19.7, -10,0,0,1024,1024,1684,1024,322.6,-90,98,4.041,4.037,4.018,4.043,0,0,76.91,6,GPS_Atti,
0.0638181333291718,36.9221743931774,6038.0480039131,180.4462,0,14.4584322212,22500,2017-11-02 07:20:12,13,16.08,6038.0480039131,180.4462,2.50089892,16.6771330796,319.8, 19.7, -9.5,0,0,1024,1024,1684,1024,322.6,-89.9,98,4.041,4.037,4.018,4.043,0,0,76.91,6,GPS_Atti,
0.0638181249654834,36.9221743858547,6039.6884239131,182.08662,0,14.4575463944,22600,2017-11-02 07:20:13,13,16.026,6039.6884239131,182.08662,2.50089892,16.6771330796,319.9, 19.5, -8.4,0,0,1024,1024,1684,1024,322.6,-89.9,98,4.038,4.027,4.001,4.027,0,0,76.91,6,GPS_Atti,
0.0638181136640821,36.9221743511317,6041.3288439131,183.72704,0,14.4616802528,22700,2017-11-02 07:20:13,13,16.026,6041.3288439131,183.72704,2.50089892,16.6771330796,319.9, 19.6, -7.6,0,0,1024,1024,1684,1024,322.6,-89.9,98,4.038,4.027,4.001,4.027,0,0,76.91,6,GPS_Atti,
0.0638180802940077,36.9221743351952,6042.9692639131,185.36746,0,14.4552498064,22800,2017-11-02 07:20:13,13,16.026,6042.9692639131,185.36746,2.50089892,16.6771330796,319.9, 19.9, -7.7,0,0,1024,1024,1684,1024,322.6,-89.9,98,4.038,4.027,4.001,4.027,0,0,76.91,6,GPS_Atti,
0.0638180614301124,36.9221743134733,6044.2815999131,186.679796,0,14.4543639796,22900,2017-11-02 07:20:13,13,16.026,6044.2815999131,186.679796,2.50089892,16.6771330796,320, 19.8, -7.7,0,0,1024,1024,1684,1024,322.6,-89.9,98,4.038,4.027,4.001,4.027,0,0,76.91,6,GPS_Atti,
0.0638180465787032,36.9221743034656,6045.9220199131,188.320216,0,14.4521330084,23000,2017-11-02 07:20:13,13,16.026,6045.9220199131,188.320216,2.50089892,16.6771330796,319.9, 19.9, -7.9,0,0,1024,1024,1684,1024,322.6,-89.9,98,4.038,4.027,4.001,4.027,0,0,76.91,6,GPS_Atti,
0.06381804437379,36.9221742884882,6047.5624399131,189.960636,0,14.454724872,23100,2017-11-02 07:20:13,13,16.026,6047.5624399131,189.960636,2.50089892,16.6771330796,319.9, 20, -8.2,0,0,1024,1024,1684,1024,322.6,-90,98,4.038,4.027,4.001,4.027,0,0,76.91,6,GPS_Atti,
0.063818031665413,36.9221743116041,6048.8747759131,191.272972,0,14.4459978376,23200,2017-11-02 07:20:13,13,16.026,6048.8747759131,191.272972,2.50089892,16.6771330796,319.8, 19.9, -8.4,0,0,1024,1024,1684,1024,322.6,-89.9,98,4.038,4.027,4.001,4.027,0,0,76.91,6,GPS_Atti,
0.0638180100233923,36.9221743176828,6050.5151959131,192.913392,0,14.438320672,23300,2017-11-02 07:20:13,13,16.026,6050.5151959131,192.913392,2.50089892,16.6771330796,319.9, 19.6, -8.3,0,0,1024,1024,1684,1024,322.6,-89.9,98,4.038,4.027,4.001,4.027,0,0,76.91,6,GPS_Atti,
0.0638179699278442,36.9221742950894,6052.1556159131,194.553812,0,14.4313980996,23400,2017-11-02 07:20:13,13,16.026,6052.1556159131,194.553812,2.50089892,16.6771330796,319.9, 19.5, -8,0,0,1024,1024,1684,1024,322.6,-90,98,4.038,4.027,4.001,4.027,0,0,76.91,6,GPS_Atti,
0.0638179294544971,36.9221742598312,6053.4679519131,195.866148,0,14.4271001992,23500,2017-11-02 07:20:13,13,16.026,6053.4679519131,195.866148,2.50089892,16.6771330796,320, 19.6, -7.6,0,0,1024,1024,1684,1024,322.6,-89.9,98,4.038,4.027,4.001,4.027,0,0,76.91,6,GPS_Atti,
0.0638179027610431,36.9221741635503,6055.1083719131,197.506568,0,14.4400923256,23600,2017-11-02 07:20:14,13,15.943,6055.1083719131,197.506568,2.50089892,16.6771330796,320, 20.1, -7.7,0,0,1024,1024,1684,1024,322.6,-89.9,98,4.038,4.027,4.001,4.027,0,0,76.91,6,GPS_Atti,
0.0638178757158452,36.9221740762065,6056.7487919131,199.146988,0,14.4511487564,23700,2017-11-02 07:20:14,13,15.943,6056.7487919131,199.146988,2.50089892,16.6771330796,319.9, 20.4, -7.8,0,0,1024,1024,1684,1024,322.6,-89.9,98,4.038,4.027,4.001,4.027,0,0,76.91,6,GPS_Atti,
0.0638178546828626,36.9221739538336,6058.3892119131,200.787408,0,14.4716540064,23800,2017-11-02 07:20:14,13,15.943,6058.3892119131,200.787408,2.50089892,16.6771330796,319.9, 20.3, -7.7,0,0,1024,1024,1684,1024,322.6,-90,98,4.038,4.027,4.001,4.027,0,0,76.91,6,GPS_Atti,
0.0638178114411607,36.9221738582315,6060.0296319131,202.427828,0,14.4799217232,23900,2017-11-02 07:20:14,13,15.943,6060.0296319131,202.427828,2.50089892,16.6771330796,320, 20.2, -7.4,0,0,1024,1024,1684,1024,322.6,-90,98,4.038,4.027,4.001,4.027,0,0,76.91,6,GPS_Atti,
0.0638177378029231,36.9221737427574,6061.3419679131,203.740164,0,14.4837931144,24000,2017-11-02 07:20:14,13,15.943,6061.3419679131,203.740164,2.50089892,16.6771330796,320.1, 19.9, -6.7,0,0,1024,1024,1684,1024,322.6,-90,98,4.038,4.027,4.001,4.027,0,0,76.91,6,GPS_Atti,
0.0638176555665013,36.9221736541247,6062.9823879131,205.380584,0,14.4794295972,24100,2017-11-02 07:20:14,13,15.943,6062.9823879131,205.380584,2.50089892,16.6771330796,320.2, 19.5, -6.3,0,0,1024,1024,1684,1024,322.6,-90,98,4.038,4.027,4.001,4.027,0,0,76.91,6,GPS_Atti,
0.0638175854294183,36.9221735592034,6064.6228079131,207.021004,0,14.4801185736,24200,2017-11-02 07:20:14,13,15.943,6064.6228079131,207.021004,2.50089892,16.6771330796,320.2, 19.5, -6.6,0,0,1024,1024,1684,1024,322.6,-90,98,4.038,4.027,4.001,4.027,0,0,76.91,6,GPS_Atti,
0.0638175353743068,36.9221734921856,6066.2632279131,208.661424,0,14.4805122744,24300,2017-11-02 07:20:14,13,15.943,6066.2632279131,208.661424,2.50089892,16.6771330796,320.1, 20.2, -6.9,0,0,1024,1024,1684,1024,322.6,-90,98,4.038,4.027,4.001,4.027,0,0,76.91,6,GPS_Atti,
0.0638175092703495,36.9221733647424,6067.9036479131,210.301844,0,14.5013456084,24400,2017-11-02 07:20:14,13,15.943,6067.9036479131,210.301844,2.50089892,16.6771330796,320.1, 20.1, -7.1,0,0,1024,1024,1684,1024,322.6,-89.9,98,4.038,4.027,4.001,4.027,0,0,76.91,6,GPS_Atti,
0.0638174717379723,36.9221732693651,6069.5440679131,211.942264,0,14.5118442964,24500,2017-11-02 07:20:14,13,15.943,6069.5440679131,211.942264,2.50089892,16.6771330796,320.1, 20.1, -6.8,0,0,1024,1024,1684,1024,322.6,-89.9,98,4.038,4.027,4.001,4.027,0,0,76.91,6,GPS_Atti,
0.0638174425497421,36.92217314802,6071.1844879131,213.582684,0,14.530676318,24600,2017-11-02 07:20:15,13,15.971,6071.1844879131,213.582684,2.50089892,16.6771330796,320.2, 19.9, -6.8,0,0,1024,1024,1684,1024,322.6,-90,97,4.019,4.014,3.99,4.019,0,0,78.71,6,GPS_Atti,
0.0638174198362052,36.9221730716154,6072.8249079131,215.223104,0,14.5413718564,24700,2017-11-02 07:20:15,13,15.971,6072.8249079131,215.223104,2.50089892,16.6771330796,320.2, 19.5, -7.2,0,0,1024,1024,1684,1024,322.6,-89.9,97,4.019,4.014,3.99,4.019,0,0,78.71,6,GPS_Atti,
0.0638173916510965,36.9221729162646,6074.4653279131,216.863524,0,14.5683731696,24800,2017-11-02 07:20:15,13,15.971,6074.4653279131,216.863524,2.50089892,16.6771330796,319.9, 20.5, -7.4,0,0,1024,1024,1684,1024,322.6,-89.9,97,4.019,4.014,3.99,4.019,0,0,78.71,6,GPS_Atti,
0.063817347061043,36.9221727807472,6076.1057479131,218.503944,0,14.5863521728,24900,2017-11-02 07:20:15,13,15.971,6076.1057479131,218.503944,2.50089892,16.6771330796,319.9, 21.2, -6.6,0,0,1024,1024,1684,1024,322.6,-89.9,97,4.019,4.014,3.99,4.019,0,0,78.71,6,GPS_Atti,
0.0638173053891611,36.9221726248889,6077.7461679131,220.144364,0,14.6099742208,25000,2017-11-02 07:20:15,13,15.971,6077.7461679131,220.144364,2.50089892,16.6771330796,320, 21.1, -6.1,0,0,1024,1024,1684,1024,322.6,-89.9,97,4.019,4.014,3.99,4.019,0,0,78.71,6,GPS_Atti,
0.0638172468172874,36.9221725214994,6079.3865879131,221.784784,0,14.61696241,25100,2017-11-02 07:20:15,13,15.971,6079.3865879131,221.784784,2.50089892,16.6771330796,320, 20.6, -6,0,0,1024,1024,1684,1024,322.6,-90,97,4.019,4.014,3.99,4.019,0,0,78.71,6,GPS_Atti,
0.0638171809206726,36.9221723395449,6081.0270079131,223.425204,0,14.6401251404,25200,2017-11-02 07:20:15,13,15.971,6081.0270079131,223.425204,2.50089892,16.6771330796,320.1, 20.6, -6.2,0,0,1024,1024,1684,1024,322.6,-89.9,97,4.019,4.014,3.99,4.019,0,0,78.71,6,GPS_Atti,
0.063817106819957,36.9221722121617,6082.6674279131,225.065624,0,14.6485897076,25300,2017-11-02 07:20:15,13,15.971,6082.6674279131,225.065624,2.50089892,16.6771330796,320.2, 20.4, -6.2,0,0,1024,1024,1684,1024,322.6,-90,97,4.019,4.014,3.99,4.019,0,0,78.71,6,GPS_Atti,
0.0638170552275943,36.9221720691717,6084.3078479131,226.706044,0,14.6672248788,25400,2017-11-02 07:20:15,13,15.971,6084.3078479131,226.706044,2.50089892,16.6771330796,320.2, 20.3, -6.1,0,0,1024,1024,1684,1024,322.6,-90,97,4.019,4.014,3.99,4.019,0,0,78.71,6,GPS_Atti,
0.0638170077617087,36.9221719676001,6085.9482679131,228.346464,0,14.6775595248,25500,2017-11-02 07:20:15,13,15.971,6085.9482679131,228.346464,2.50089892,16.6771330796,320.2, 20.4, -5.8,0,0,1024,1024,1684,1024,322.6,-90,97,4.019,4.014,3.99,4.019,0,0,78.71,6,GPS_Atti,
0.0638169440634933,36.9221718123007,6087.5886879131,229.986884,0,14.696030654,25600,2017-11-02 07:20:16,13,15.861,6087.5886879131,229.986884,2.50089892,16.6771330796,320.3, 20, -5.6,0,0,1024,1024,1684,1024,322.6,-90,97,4.002,4.002,3.984,4.015,0,0,78.71,6,GPS_Atti,
0.0638168315184718,36.9221715710064,6090.8695279131,233.267724,0,14.7213915472,25800,2017-11-02 07:20:16,13,15.861,6090.8695279131,233.267724,2.50089892,16.6771330796,320.2, 20.9, -6,0,0,1024,1024,1684,1024,322.6,-89.9,97,4.002,4.002,3.984,4.015,0,0,78.71,6,GPS_Atti,
