latitude,longitude,altitude(feet),ascent(feet),speed(mph),distance(feet),time(millisecond),datetime(utc),satellites,voltage(v),max_altitude(feet),max_ascent(feet),max_speed(mph),max_distance(feet),compass_heading(degrees), pitch(degrees), roll(degrees),isPhoto,isVideo,rc_elevator,rc_aileron,rc_throttle,rc_rudder,gimbal_heading(degrees),gimbal_pitch(degrees),battery_percent,voltageCell1,voltageCell2,voltageCell3,voltageCell4,voltageCell5,voltageCell6,battery_temperature(f),flycStateRaw,flycState,message
0.352660252263499,36.8960305602456,5804.31859125,0,0,0,300,2017-11-08 06:17:48,15,0,5804.31859125,0,0,0,288.4, -0.7, 2.7,0,0,1024,1024,1024,1024,292.9,0,99,4.303,4.303,4.303,4.3,0,0,82.31,41,Motors_Started,
0.352660259622438,36.8960305622667,5804.31859125,0,0,0.00278431439356,400,2017-11-08 06:17:48,15,0,5804.31859125,0,0,0.00278431439356,288.4, -0.7, 2.7,0,0,1024,1024,1024,1024,292.9,0,99,4.303,4.303,4.303,4.3,0,0,82.31,41,Motors_Started,
0.352660257529887,36.8960305359158,5804.31859125,0,0,0.0090821525216,500,2017-11-08 06:17:48,15,17.182,5804.31859125,0,0,0.0090821525216,288.4, -0.7, 2.7,0,0,1024,1024,1024,1024,292.9,0,99,4.303,4.303,4.303,4.3,0,0,82.31,41,Motors_Started,Setting new Return-To-Home altitude to 30m (98 ft). Setting new Maximum Flight Altitude to 100m (328 ft)
0.35266025702507,36.8960305072629,5804.31859125,0,0,0.0194082683376,600,2017-11-08 06:17:48,15,17.182,5804.31859125,0,0,0.0194082683376,288.3, -0.7, 2.7,0,0,1024,1024,1024,1024,292.9,0,99,4.303,4.303,4.303,4.3,0,0,82.31,41,Motors_Started,
0.352660244308551,36.8960304647436,5804.31859125,0,0,0.03496391188,800,2017-11-08 06:17:49,15,17.182,5804.31859125,0,0,0.03496391188,288.3, -0.7, 2.7,0,0,1024,1024,1024,1024,292.9,0,99,4.303,4.303,4.303,4.3,0,0,82.31,41,Motors_Started,
0.35266026907067,36.8960304557233,5804.31859125,0,0,0.038624016984,900,2017-11-08 06:17:49,15,17.182,5804.31859125,0,0,0.038624016984,288.4, -0.7, 2.7,0,0,1024,1024,1024,1024,292.9,0,99,4.303,4.303,4.303,4.3,0,0,82.31,41,Motors_Started,
0.352660293673202,36.8960304463023,5804.31859125,0,0,0.044231628712,1000,2017-11-08 06:17:49,15,17.182,5804.31859125,0,0,0.044231628712,288.3, -0.7, 2.7,0,0,850,625,667,1500,292.9,0,99,4.303,4.303,4.303,4.3,0,0,82.31,41,Motors_Started,
0.352660311586086,36.896030445418,5804.31859125,0,0,0.047154529068,1100,2017-11-08 06:17:49,15,17.182,5804.31859125,0,0,0.047154529068,288.3, -0.7, 2.7,0,0,1024,1024,1024,1089,292.9,0,99,4.303,4.303,4.303,4.3,0,0,82.31,41,Motors_Started,
0.352660325621645,36.8960304418227,5804.31859125,0,0,0.050824148608,1200,2017-11-08 06:17:49,15,17.182,5804.31859125,0,0,0.050824148608,288.3, -0.7, 2.7,0,0,1024,1024,1024,1024,292,0,99,4.303,4.303,4.303,4.3,0,0,82.31,41,Motors_Started,
0.352660331119272,36.8960304460387,5804.31859125,0,0,0.050635172224,1300,2017-11-08 06:17:49,15,17.182,5804.31859125,0,0,0.050824148608,288.3, -0.7, 2.7,0,0,1024,1024,1024,1024,289.9,0,99,4.303,4.303,4.303,4.3,0,0,82.31,41,Motors_Started,
0.352660370527616,36.8960304171775,5804.31859125,0,0,0.067722771196,1500,2017-11-08 06:17:49,15,17.129,5804.31859125,0,0,0.067722771196,288.3, -0.7, 2.7,0,0,1024,1024,1024,1024,289.5,0,99,4.289,4.289,4.284,4.278,0,0,82.31,41,Motors_Started,
0.352660400666858,36.8960303889057,5804.31859125,0,0,0.082700790048,1600,2017-11-08 06:17:49,15,17.129,5804.31859125,0,0,0.082700790048,288.3, -0.7, 2.7,0,0,1024,1024,1024,1024,289.3,0,99,4.289,4.289,4.284,4.278,0,0,82.31,10,Assisted_Takeoff,
0.352660418657907,36.8960303707656,5804.31859125,0,0,0.092003283784,1700,2017-11-08 06:17:50,15,17.129,5804.31859125,0,0,0.092003283784,288.3, -0.7, 2.7,0,0,1024,1024,1024,1024,289.2,0,99,4.289,4.289,4.284,4.278,0,0,82.31,10,Assisted_Takeoff,
0.352660435375513,36.8960303548378,5804.31859125,0,0,0.10039698484,1800,2017-11-08 06:17:50,15,17.129,5804.31859125,0,0,0.10039698484,288.3, -0.7, 2.7,0,0,1024,1024,1024,1024,289.1,0,99,4.289,4.289,4.284,4.278,0,0,82.31,10,Assisted_Takeoff,
0.352660441874633,36.8960303473152,5804.31859125,0,0,0.104023625376,1900,2017-11-08 06:17:50,15,17.129,5804.31859125,0,0,0.104023625376,288.3, -0.7, 2.7,0,0,1024,1024,1024,1024,289,0,99,4.289,4.289,4.284,4.278,0,0,82.31,10,Assisted_Takeoff,
0.352660449578802,36.8960303397306,5804.31859125,0,0,0.107959977208,2000,2017-11-08 06:17:50,15,17.129,5804.31859125,0,0,0.107959977208,288.3, -0.7, 2.7,0,0,1024,1024,1024,1024,288.9,0,99,4.289,4.289,4.284,4.278,0,0,82.31,10,Assisted_Takeoff,
0.3526604501455,36.8960303402691,5804.31859125,0,0,0.107951775108,2200,2017-11-08 06:17:50,15,17.129,5804.31859125,0,0,0.107959977208,288.3, -0.7, 2.7,0,0,1024,1024,1024,1024,288.8,0,99,4.289,4.289,4.284,4.278,0,0,82.31,10,Assisted_Takeoff,
0.352660479532401,36.896030346573,5804.31859125,0,0,0.113810371096,2300,2017-11-08 06:17:50,15,17.129,5804.31859125,0,0,0.113810371096,288.3, -0.7, 2.7,0,0,1024,1024,1024,1024,288.8,0,99,4.289,4.289,4.284,4.278,0,0,82.31,10,Assisted_Takeoff,
0.352660506463607,36.896030348832,5804.31859125,0,0,0.120627628532,2400,2017-11-08 06:17:50,15,17.129,5804.31859125,0,0,0.120627628532,288.3, -0.7, 2.7,0,0,1024,1024,1024,1024,288.8,0,99,4.289,4.289,4.284,4.278,0,0,82.31,10,Assisted_Takeoff,
0.352660524840598,36.8960303556222,5804.31859125,0,0,0.124353022352,2500,2017-11-08 06:17:50,15,17.129,5804.31859125,0,0,0.124353022352,288.3, -0.7, 2.7,0,0,1024,1024,1024,1024,288.8,0,99,4.289,4.289,4.284,4.278,0,0,82.31,10,Assisted_Takeoff,
0.352660543862452,36.8960303667241,5804.31859125,0,0,0.127686355792,2700,2017-11-08 06:17:51,15,17.129,5804.31859125,0,0,0.127686355792,288.3, -0.7, 2.7,0,0,1024,1024,1024,1024,288.7,0,99,4.289,4.289,4.284,4.278,0,0,82.31,10,Assisted_Takeoff,
0.352660550402283,36.8960303705311,5804.31859125,0,0,0.128930122236,2800,2017-11-08 06:17:51,15,17.129,5804.31859125,0,0,0.128930122236,288.3, -0.7, 2.7,0,0,1024,1024,1024,1024,288.7,0,99,4.289,4.289,4.284,4.278,0,0,82.31,10,Assisted_Takeoff,
0.352660547572048,36.8960303766723,5804.31859125,0,0,0.126863193036,2900,2017-11-08 06:17:51,15,17.129,5804.31859125,0,0,0.128930122236,288.3, -0.7, 2.7,0,0,1024,1024,1024,1024,288.7,0,99,4.289,4.289,4.284,4.278,0,0,82.31,10,Assisted_Takeoff,
0.352660548335788,36.8960303799127,5804.31859125,0,0,0.126480975176,3000,2017-11-08 06:17:51,15,17.129,5804.31859125,0,0,0.128930122236,288.3, -0.7, 2.7,0,0,1024,1024,1024,1024,288.7,0,99,4.289,4.289,4.284,4.278,0,0,82.31,10,Assisted_Takeoff,
0.35266057387956,36.8960303846772,5804.31859125,0,0,0.133686355984,3100,2017-11-08 06:17:51,15,17.129,5804.31859125,0,0,0.133686355984,288.3, -0.7, 2.7,0,0,1024,1024,1024,1024,288.7,0,99,4.289,4.289,4.284,4.278,0,0,82.31,10,Assisted_Takeoff,
0.352660601208108,36.8960303871422,5804.31859125,0,0,0.14211614628,3200,2017-11-08 06:17:51,15,17.129,5804.31859125,0,0,0.14211614628,288.3, -0.7, 2.7,0,0,1024,1024,1024,1024,288.7,0,99,4.289,4.289,4.284,4.278,0,0,82.31,10,Assisted_Takeoff,
0.352660620130627,36.8960303902579,5804.31859125,0,0,0.147852366936,3300,2017-11-08 06:17:51,15,17.129,5804.31859125,0,0,0.147852366936,288.3, -0.7, 2.7,0,0,1024,1024,1024,1024,288.7,0,99,4.289,4.289,4.284,4.278,0,0,82.31,10,Assisted_Takeoff,
0.352660635301211,36.8960303919216,5804.31859125,0,0,0.1526492831,3400,2017-11-08 06:17:51,15,17.129,5804.31859125,0,0,0.1526492831,288.3, -0.7, 2.7,0,1,1024,1024,1024,1024,288.7,0,99,4.289,4.289,4.284,4.278,0,0,82.31,10,Assisted_Takeoff,
0.352660640292392,36.8960303932572,5804.31859125,0,0,0.154124676848,3500,2017-11-08 06:17:51,15,17.156,5804.31859125,0,0,0.154124676848,288.3, -0.7, 2.7,0,1,1024,1024,1024,1024,288.7,0,99,4.289,4.289,4.284,4.278,0,0,82.31,10,Assisted_Takeoff,
0.35266064568417,36.896030393557,5804.31859125,0,0,0.155891081104,3600,2017-11-08 06:17:51,15,17.156,5804.31859125,0,0,0.155891081104,288.3, -0.7, 2.7,0,1,1024,1024,1024,1024,288.6,0,99,4.289,4.289,4.284,4.278,0,0,82.31,10,Assisted_Takeoff,
0.35266067428616,36.8960303939086,5804.31859125,0,0,0.165502629968,3700,2017-11-08 06:17:52,15,17.156,5804.31859125,0,0,0.165502629968,288.3, -0.7, 2.7,0,1,1024,1024,1024,1024,288.6,0,99,4.289,4.289,4.284,4.278,0,0,82.31,10,Assisted_Takeoff,
0.352660703616065,36.8960303935666,5804.31859125,0,0,0.175545281208,3800,2017-11-08 06:17:52,15,17.156,5804.31859125,0,0,0.175545281208,288.3, -0.7, 2.7,0,1,1024,1024,1024,1024,288.6,0,99,4.289,4.289,4.284,4.278,0,0,82.31,10,Assisted_Takeoff,
0.352660722706314,36.8960303936806,5804.31859125,0,0,0.182081042572,3900,2017-11-08 06:17:52,15,17.156,5804.31859125,0,0,0.182081042572,288.3, -0.7, 2.7,0,1,1024,1024,1024,1024,288.6,0,99,4.289,4.289,4.284,4.278,0,0,82.31,10,Assisted_Takeoff,
0.35266073778082,36.896030392906,5804.31859125,0,0,0.187366475812,4000,2017-11-08 06:17:52,15,17.156,5804.31859125,0,0,0.187366475812,288.3, -0.7, 2.7,0,1,1024,1024,1024,1024,288.6,0,99,4.289,4.289,4.284,4.278,0,0,82.31,10,Assisted_Takeoff,
0.352660742167848,36.8960303927374,5804.31859125,0,0,0.188900596596,4100,2017-11-08 06:17:52,15,17.156,5804.31859125,0,0,0.188900596596,288.3, -0.7, 2.7,0,1,1024,1024,1024,1024,288.6,0,99,4.289,4.289,4.284,4.278,0,0,82.31,10,Assisted_Takeoff,
0.352660747971623,36.8960303917257,5804.31859125,0,0,0.191023956244,4200,2017-11-08 06:17:52,15,17.156,5804.31859125,0,0,0.191023956244,288.3, -0.7, 2.7,0,1,1024,1024,1024,1024,288.6,0,99,4.289,4.289,4.284,4.278,0,0,82.31,10,Assisted_Takeoff,
0.352660743789779,36.8960303917634,5804.31859125,0,0,0.189575465384,4300,2017-11-08 06:17:52,15,17.156,5804.31859125,0,0,0.191023956244,288.3, -0.7, 2.7,0,1,1024,1024,1024,1024,288.6,0,99,4.289,4.289,4.284,4.278,0,0,82.31,10,Assisted_Takeoff,
0.352660743444548,36.8960303905665,5804.31859125,0,0,0.189598431264,4400,2017-11-08 06:17:52,15,17.156,5804.31859125,0,0,0.191023956244,288.3, -0.7, 2.7,0,1,1024,1024,1024,1024,288.6,0,99,4.289,4.289,4.284,4.278,0,0,82.31,10,Assisted_Takeoff,
0.352660768970408,36.896030389577,5804.31859125,0,0,0.198537407928,4500,2017-11-08 06:17:52,15,17.129,5804.31859125,0,0,0.198537407928,288.3, -0.7, 2.7,0,1,1024,1024,1024,1024,288.6,0,99,4.296,4.297,4.295,4.292,0,0,82.31,10,Assisted_Takeoff,
0.352660795325146,36.896030387734,5804.31859125,0,0,0.20789206702,4600,2017-11-08 06:17:52,15,17.129,5804.31859125,0,0,0.20789206702,288.3, -0.7, 2.7,0,1,1024,1024,1024,1024,288.6,0,99,4.296,4.297,4.295,4.292,0,0,82.31,10,Assisted_Takeoff,
0.352660813153351,36.8960303864688,5804.31859125,0,0,0.214236883496,4700,2017-11-08 06:17:53,15,17.129,5804.31859125,0,0,0.214236883496,288.3, -0.7, 2.7,0,1,1024,1024,1024,1024,288.6,0,99,4.296,4.297,4.295,4.292,0,0,82.31,10,Assisted_Takeoff,
0.352660827182396,36.8960303840637,5804.31859125,0,0,0.219386818044,4800,2017-11-08 06:17:53,15,17.129,5804.31859125,0,0,0.219386818044,288.3, -0.7, 2.7,0,1,1024,1024,1024,1024,288.6,0,99,4.296,4.297,4.295,4.292,0,0,82.31,10,Assisted_Takeoff,
0.352660864716401,36.8960303832078,5804.31859125,0,0,0.232601057312,4900,2017-11-08 06:17:53,15,17.129,5804.31859125,0,0,0.232601057312,288.3, -0.7, 2.7,0,1,1024,1024,1024,1024,288.6,0,99,4.296,4.297,4.295,4.292,0,0,82.31,10,Assisted_Takeoff,
0.352660899607442,36.8960303810925,5804.31859125,0,0,0.24506070338,5000,2017-11-08 06:17:53,15,17.129,5804.31859125,0,0,0.24506070338,288.3, -0.7, 2.7,0,1,1024,1024,1024,1024,288.6,0,99,4.296,4.297,4.295,4.292,0,0,82.31,10,Assisted_Takeoff,
0.352660923180798,36.8960303807839,5804.31859125,0,0,0.25338911572,5100,2017-11-08 06:17:53,15,17.129,5804.31859125,0,0,0.25338911572,288.3, -0.7, 2.7,0,1,1024,1024,1024,1024,288.6,0,99,4.296,4.297,4.295,4.292,0,0,82.31,10,Assisted_Takeoff,
0.352660941572444,36.8960303788218,5804.31859125,0,0,0.260058735356,5200,2017-11-08 06:17:53,15,17.129,5804.31859125,0,0,0.260058735356,288.3, -0.7, 2.7,0,1,1024,1024,1024,1024,288.6,0,99,4.296,4.297,4.295,4.292,0,0,82.31,10,Assisted_Takeoff,
0.35266094810739,36.8960303784273,5804.31859125,0,0,0.262401255116,5300,2017-11-08 06:17:53,15,17.129,5804.31859125,0,0,0.262401255116,288.3, -0.7, 2.7,0,1,1024,1024,1024,1024,288.6,0,99,4.296,4.297,4.295,4.292,0,0,82.31,10,Assisted_Takeoff,
0.352660955078759,36.8960303765007,5804.31859125,0,0,0.265040034728,5400,2017-11-08 06:17:53,15,17.129,5804.31859125,0,0,0.265040034728,288.3, -0.7, 2.7,0,1,1024,1024,1024,1024,288.6,0,99,4.296,4.297,4.295,4.292,0,0,82.31,10,Assisted_Takeoff,
0.352661013324944,36.8960303753367,5804.31859125,0,0,0.285750665312,5600,2017-11-08 06:17:53,15,17.129,5804.31859125,0,0,0.285750665312,288.3, -0.7, 2.7,0,1,1024,1024,1024,1024,288.6,0,99,4.296,4.297,4.295,4.292,0,0,82.31,10,Assisted_Takeoff,
0.35266103118246,36.8960303756405,5804.31859125,0,0,0.292060048716,5700,2017-11-08 06:17:54,15,17.129,5804.31859125,0,0,0.292060048716,288.3, -0.7, 2.7,0,1,1024,1024,1024,1024,288.6,0,99,4.296,4.297,4.295,4.292,0,0,82.31,10,Assisted_Takeoff,
0.352661045714695,36.8960303734059,5804.31859125,0,0,0.297407817916,5800,2017-11-08 06:17:54,15,17.129,5804.31859125,0,0,0.297407817916,288.3, -0.7, 2.7,0,1,1024,1024,1024,1024,288.6,0,99,4.296,4.297,4.295,4.292,0,0,82.31,10,Assisted_Takeoff,
0.352661048075939,36.8960303737086,5804.31859125,0,0,0.298221138152,5900,2017-11-08 06:17:54,15,17.129,5804.31859125,0,0,0.298221138152,288.3, -0.7, 2.7,0,1,1024,1024,1024,1024,288.6,0,99,4.296,4.297,4.295,4.292,0,0,82.31,10,Assisted_Takeoff,
0.352661052524847,36.8960303717829,5804.31859125,0,0,0.299961951856,6000,2017-11-08 06:17:54,15,17.129,5804.31859125,0,0,0.299961951856,288.3, -0.7, 2.7,0,1,1024,1024,1024,1024,288.6,0,99,4.296,4.297,4.295,4.292,0,0,82.31,10,Assisted_Takeoff,
0.352661079428371,36.8960303726988,5804.31859125,0,0,0.30945046922,6100,2017-11-08 06:17:54,15,17.129,5804.31859125,0,0,0.30945046922,288.3, -0.7, 2.7,0,1,1024,1024,1024,1024,288.6,0,99,4.296,4.297,4.295,4.292,0,0,82.31,10,Assisted_Takeoff,
0.352661106898593,36.8960303714706,5804.31859125,0,0,0.319328750376,6200,2017-11-08 06:17:54,15,17.129,5804.31859125,0,0,0.319328750376,288.3, -0.7, 2.7,0,1,1024,1024,1024,1024,288.6,0,99,4.296,4.297,4.295,4.292,0,0,82.31,10,Assisted_Takeoff,
0.352661123503836,36.896030372046,5804.31859125,0,0,0.325202766312,6300,2017-11-08 06:17:54,15,17.129,5804.31859125,0,0,0.325202766312,288.3, -0.7, 2.7,0,1,1024,1024,1024,1024,288.6,0,99,4.296,4.297,4.295,4.292,0,0,82.31,10,Assisted_Takeoff,
0.352661136337603,36.8960303704155,5804.31859125,0,0,0.3299048662,6400,2017-11-08 06:17:54,15,17.129,5804.31859125,0,0,0.3299048662,288.3, -0.7, 2.7,0,1,1024,1024,1024,1024,288.6,0,99,4.296,4.297,4.295,4.292,0,0,82.31,10,Assisted_Takeoff,
0.352661139869698,36.8960303699578,5804.31859125,0,0,0.331200798,6500,2017-11-08 06:17:54,15,17.156,5804.31859125,0,0,0.331200798,288.3, -0.7, 2.7,0,1,1024,1024,1047,1024,288.6,0,99,4.297,4.298,4.297,4.294,0,0,82.31,10,Assisted_Takeoff,
0.352661141496514,36.8960303678685,5804.31859125,0,0,0.33194226784,6600,2017-11-08 06:17:54,15,17.156,5804.31859125,0,0,0.33194226784,288.3, -0.7, 2.7,0,1,1024,1024,1087,1024,288.6,0,99,4.297,4.298,4.297,4.294,0,0,82.31,10,Assisted_Takeoff,
0.352661165463952,36.8960303689819,5804.31859125,0,0,0.34041011588,6700,2017-11-08 06:17:55,15,17.156,5804.31859125,0,0,0.34041011588,288.3, -0.7, 2.7,0,1,1024,1024,1103,1024,288.6,0,99,4.297,4.298,4.297,4.294,0,0,82.31,10,Assisted_Takeoff,
0.35266119218509,36.8960303659034,5804.31859125,0,0,0.35018373824,6800,2017-11-08 06:17:55,15,17.156,5804.31859125,0,0,0.35018373824,288.3, -0.7, 2.6,0,1,1024,1024,1085,1024,288.6,0,99,4.297,4.298,4.297,4.294,0,0,82.31,10,Assisted_Takeoff,
0.352661210141942,36.8960303654565,5804.31859125,0,0,0.35663386968,6900,2017-11-08 06:17:55,15,17.156,5804.31859125,0,0,0.35663386968,288.3, -0.7, 2.7,0,1,1024,1024,1087,1024,288.6,0,99,4.297,4.298,4.297,4.294,0,0,82.31,10,Assisted_Takeoff,
0.352661223765504,36.8960303624181,5804.31859125,0,0,0.36172573336,7000,2017-11-08 06:17:55,15,17.156,5804.31859125,0,0,0.36172573336,288.3, -0.7, 2.6,0,1,1024,1024,1110,1024,288.6,0,99,4.297,4.298,4.297,4.294,0,0,82.31,10,Assisted_Takeoff,
0.352661259491123,36.8960303633763,5804.31859125,0,0,0.37443898836,7100,2017-11-08 06:17:55,15,17.156,5804.31859125,0,0,0.37443898836,288.3, -0.7, 2.6,0,1,1024,1024,1119,1024,288.6,0,99,4.297,4.298,4.297,4.294,0,0,82.31,10,Assisted_Takeoff,
0.352661293586669,36.8960303612132,5804.31859125,0,0,0.38680447432,7200,2017-11-08 06:17:55,15,17.156,5804.31859125,0,0,0.38680447432,288.3, -0.7, 2.6,0,1,1024,1024,1128,1024,288.6,0,99,4.297,4.298,4.297,4.294,0,0,82.31,10,Assisted_Takeoff,
0.352661317217834,36.8960303624275,5804.31859125,0,0,0.3951935822,7300,2017-11-08 06:17:55,15,17.156,5804.31859125,0,0,0.3951935822,288.3, -0.7, 2.6,0,1,1024,1024,1144,1024,288.6,0,99,4.297,4.298,4.297,4.294,0,0,82.31,10,Assisted_Takeoff,
0.352661334318125,36.896030360028,5804.31859125,0,0,0.40148951416,7400,2017-11-08 06:17:55,15,17.156,5804.31859125,0,0,0.40148951416,288.2, -0.7, 2.6,0,1,1024,1024,1164,1024,288.6,0,99,4.297,4.298,4.297,4.294,0,0,82.31,10,Assisted_Takeoff,
0.352661371545169,36.8960303610462,5804.31859125,0,0,0.41478675868,7500,2017-11-08 06:17:55,15,17.156,5804.31859125,0,0,0.41478675868,288.2, -0.8, 2.6,0,1,1024,1024,1167,1024,288.6,0,99,4.297,4.298,4.297,4.294,0,0,82.31,10,Assisted_Takeoff,
0.352661408815366,36.8960303588102,5804.31859125,0,0,0.42832022368,7600,2017-11-08 06:17:55,15,17.156,5804.31859125,0,0,0.42832022368,288.2, -0.7, 2.7,0,1,1024,1024,1171,1024,288.6,0,99,4.297,4.298,4.297,4.294,0,0,82.31,10,Assisted_Takeoff,
0.352661467129132,36.8960303596164,5804.31859125,0,0,0.4492454212,7700,2017-11-08 06:17:56,15,17.156,5804.31859125,0,0,0.4492454212,288.1, -0.5, 2.6,0,1,1024,1024,1176,1024,288.6,0,99,4.297,4.298,4.297,4.294,0,0,82.31,10,Assisted_Takeoff,
0.352661537157923,36.896030348317,5804.31859125,0,0,0.47512796796,7800,2017-11-08 06:17:56,15,17.156,5804.31859125,0,0,0.47512796796,288.1, 0.7, 1.7,0,1,1024,1024,1191,1024,288.6,0,99,4.297,4.298,4.297,4.294,0,0,82.31,10,Assisted_Takeoff,
0.352661615947743,36.8960303712872,5804.31859125,0,0,0.50229332316,7900,2017-11-08 06:17:56,15,17.156,5804.31859125,0,0,0.50229332316,288.2, 2, 0.5,0,1,1024,1024,1196,1024,288.6,0,99,4.297,4.298,4.297,4.294,0,0,82.31,10,Assisted_Takeoff,
0.35266168012065,36.8960304121677,5804.31859125,0,0,0.52374673592,8000,2017-11-08 06:17:56,15,17.156,5804.31859125,0,0,0.52374673592,288.2, 1.5, -0.1,0,1,1024,1024,1200,1024,288.6,0,99,4.297,4.298,4.297,4.294,0,0,82.31,6,GPS_Atti,Obstacle Avoided. Revise Flight Route
0.352661721588162,36.8960304694425,5804.31859125,0,0,0.5371063164,8100,2017-11-08 06:17:56,15,17.156,5804.31859125,0,0,0.5371063164,288.1, 0.5, -0.3,0,1,1024,1024,1205,1024,288.6,0,99,4.297,4.298,4.297,4.294,0,0,82.31,6,GPS_Atti,
0.352661738154323,36.8960305029139,5804.64667525,0.328084,0,0.54252954492,8300,2017-11-08 06:17:56,15,17.156,5804.64667525,0.328084,0,0.54252954492,288.3, -0.1, 0,0,1,1024,1024,1202,1024,288.6,0,99,4.297,4.298,4.297,4.294,0,0,82.31,6,GPS_Atti,
0.352661714009384,36.8960304637164,5804.64667525,0.328084,0,0.53447836356,8400,2017-11-08 06:17:56,15,17.156,5804.64667525,0.328084,0,0.54252954492,288.3, 0.2, 0.4,0,1,1024,1024,1199,1024,288.6,0,99,4.297,4.298,4.297,4.294,0,0,82.31,6,GPS_Atti,
0.352661701140605,36.8960303922201,5804.64667525,0.328084,0,0.53216537136,8500,2017-11-08 06:17:56,15,17.077,5804.64667525,0.328084,0,0.54252954492,288.4, 1.1, 0.7,0,1,1024,1024,1198,1024,288.6,0,99,4.296,4.297,4.288,4.29,0,0,82.31,6,GPS_Atti,Obstacle Avoided. Revise Flight Route
0.352661674805409,36.8960303128115,5804.97475925,0.656168,0,0.5268044788,8600,2017-11-08 06:17:56,15,17.077,5804.97475925,0.656168,0,0.54252954492,288.4, 1.2, 1.5,0,1,1024,1024,1199,1024,288.6,0,99,4.296,4.297,4.288,4.29,0,0,82.31,6,GPS_Atti,
0.352661588267452,36.8960302357392,5805.30284325,0.984252,0,0.50161090844,8700,2017-11-08 06:17:57,15,17.077,5805.30284325,0.984252,0,0.54252954492,288.3, 0.8, 2.1,0,1,1024,1024,1199,1024,288.6,0,99,4.296,4.297,4.288,4.29,0,0,82.31,6,GPS_Atti,
0.352661512858282,36.8960301611221,5805.30284325,0.984252,0,0.48242783696,8800,2017-11-08 06:17:57,15,17.077,5805.30284325,0.984252,0,0.54252954492,288.3, 1, 2.3,0,1,1024,1024,1200,1024,288.6,0,99,4.296,4.297,4.288,4.29,0,0,82.31,6,GPS_Atti,
0.352661481454554,36.8960300715935,5805.63092725,1.312336,0,0.48260500232,8900,2017-11-08 06:17:57,15,17.077,5805.63092725,1.312336,0,0.54252954492,288.3, 1.3, 2.1,0,1,1024,1024,1202,1024,288.6,0,99,4.296,4.297,4.288,4.29,0,0,82.31,6,GPS_Atti,
0.352661478086931,36.8960299901639,5805.63092725,1.312336,0,0.49323820476,9000,2017-11-08 06:17:57,15,17.077,5805.63092725,1.312336,0,0.54252954492,288.2, 1.2, 1.6,0,1,1024,1024,1203,1024,288.6,0,99,4.296,4.297,4.288,4.29,0,0,82.31,6,GPS_Atti,
0.352661509163342,36.8960299183577,5805.95901125,1.64042,0,0.51491799548,9100,2017-11-08 06:17:57,15,17.077,5805.95901125,1.64042,0,0.54252954492,288.2, 1.4, 1.3,0,1,1024,1024,1201,1024,288.6,0,99,4.296,4.297,4.288,4.29,0,0,82.31,6,GPS_Atti,
0.352661540327689,36.8960298455863,5806.28709525,1.968504,0,0.5374344004,9200,2017-11-08 06:17:57,15,17.077,5806.28709525,1.968504,0,0.54252954492,288.2, 1.5, 1.1,0,1,1024,1024,1200,1024,288.6,0,99,4.296,4.297,4.288,4.29,0,0,82.31,6,GPS_Atti,
0.352661576770638,36.8960297481299,5806.28709525,1.968504,0,0.566847131,9300,2017-11-08 06:17:57,15,17.077,5806.28709525,1.968504,0,0.566847131,288.1, 1.5, 0.7,0,1,1024,1024,1204,1024,288.6,0,99,4.296,4.297,4.288,4.29,0,0,82.31,6,GPS_Atti,
0.35266159866751,36.8960296420091,5806.61517925,2.296588,0,0.59459647572,9400,2017-11-08 06:17:57,15,17.077,5806.61517925,2.296588,0,0.59459647572,288.1, 1.5, 0.7,0,1,1024,1024,1204,1024,288.6,0,99,4.296,4.297,4.288,4.29,0,0,82.31,6,GPS_Atti,
0.352661631928478,36.8960295439211,5806.94326325,2.624672,0,0.6251968704,9500,2017-11-08 06:17:57,15,16.84,5806.94326325,2.624672,0,0.6251968704,288.1, 1.8, 1.1,0,1,1024,1024,1201,1024,288.5,0,99,4.224,4.247,4.227,4.218,0,0,82.31,6,GPS_Atti,
0.352661655614196,36.8960294468487,5806.94326325,2.624672,0,0.65357941724,9600,2017-11-08 06:17:57,15,16.84,5806.94326325,2.624672,0,0.65357941724,288.1, 2.1, 1.4,0,1,1024,1024,1200,1024,288.5,0,99,4.224,4.247,4.227,4.218,0,0,82.31,6,GPS_Atti,
0.35266164091179,36.8960293812624,5807.27134725,2.952756,0,0.664616163,9700,2017-11-08 06:17:58,15,16.84,5807.27134725,2.952756,0,0.664616163,288.1, 2.3, 1.5,0,1,1024,1024,1200,1024,288.5,0,99,4.224,4.247,4.227,4.218,0,0,82.31,6,GPS_Atti,
0.352661620323372,36.8960293197432,5807.59943125,3.28084,0,0.67377626828,9800,2017-11-08 06:17:58,15,16.84,5807.59943125,3.28084,0,0.67377626828,288.1, 2.4, 1.7,0,1,1024,1024,1199,1024,288.5,0,99,4.224,4.247,4.227,4.218,0,0,82.31,6,GPS_Atti,
0.352661638529376,36.8960293046416,5807.92751525,3.608924,0,0.68239503496,9900,2017-11-08 06:17:58,15,16.84,5807.92751525,3.608924,0,0.68239503496,288.1, 2.2, 1.8,0,1,1024,1024,1197,1024,288.5,0,99,4.224,4.247,4.227,4.218,0,0,82.31,6,GPS_Atti,
0.352661672534544,36.8960292939924,5807.92751525,3.608924,0,0.69422246316,10000,2017-11-08 06:17:58,15,16.84,5807.92751525,3.608924,0,0.69422246316,288.1, 1.8, 1.3,0,1,1024,1024,1197,1024,288.5,0,99,4.224,4.247,4.227,4.218,0,0,82.31,6,GPS_Atti,
0.352661685421235,36.8960292723166,5808.25559925,3.937008,0,0.70299871016,10100,2017-11-08 06:17:58,15,16.84,5808.25559925,3.937008,0,0.70299871016,288.2, 1.8, 0.6,0,1,1024,1024,1197,1024,288.5,0,99,4.224,4.247,4.227,4.218,0,0,82.31,6,GPS_Atti,
0.35266169401942,36.8960292370811,5808.58368325,4.265092,0,0.71396327744,10200,2017-11-08 06:17:58,15,16.84,5808.58368325,4.265092,0,0.71396327744,288.2, 2, 0.3,0,1,1024,1024,1197,1024,288.5,0,99,4.224,4.247,4.227,4.218,0,0,82.31,6,GPS_Atti,
0.352661677577835,36.8960292250329,5808.58368325,4.265092,0,0.71255579708,10300,2017-11-08 06:17:58,15,16.84,5808.58368325,4.265092,0,0.71396327744,288.1, 2.1, 0.4,0,1,1024,1024,1197,1024,288.5,0,99,4.224,4.247,4.227,4.218,0,0,82.31,6,GPS_Atti,
0.352661643499387,36.8960291658998,5809.23985125,4.92126,0,0.71863847444,10500,2017-11-08 06:17:58,15,16.682,5809.23985125,4.92126,0,0.71863847444,288.1, 1.8, 0.7,0,1,1024,1024,1197,1024,288.5,0,99,4.201,4.204,4.2,4.195,0,0,82.31,6,GPS_Atti,
0.352661625474141,36.8960291085356,5809.23985125,4.92126,0,0.7290682648,10600,2017-11-08 06:17:58,15,16.682,5809.23985125,4.92126,0,0.7290682648,288, 1.9, 1.2,0,1,1024,1024,1195,1024,288.5,0,99,4.201,4.204,4.2,4.195,0,0,82.31,6,GPS_Atti,
0.35266160012741,36.8960290662361,5809.56793525,5.249344,0,0.73412732008,10700,2017-11-08 06:17:59,15,16.682,5809.56793525,5.249344,0,0.73412732008,288, 2.2, 1.8,0,1,1024,1024,1195,1024,288.5,0,99,4.201,4.204,4.2,4.195,0,0,82.31,6,GPS_Atti,
0.352661573219001,36.8960290175839,5809.89601925,5.577428,0,0.74098099484,10800,2017-11-08 06:17:59,15,16.682,5809.89601925,5.577428,0,0.74098099484,288, 2.2, 2.2,0,1,1024,1024,1196,1024,288.5,0,99,4.201,4.204,4.2,4.195,0,0,82.31,6,GPS_Atti,
0.352661575353891,36.8960289753517,5809.89601925,5.577428,0,0.7532480556,10900,2017-11-08 06:17:59,15,16.682,5809.89601925,5.577428,0,0.7532480556,288, 2.5, 2,0,1,1024,1024,1195,1024,288.5,0,99,4.201,4.204,4.2,4.195,0,0,82.31,6,GPS_Atti,
0.352661585731965,36.8960289283956,5810.22410325,5.905512,0,0.76886813484,11000,2017-11-08 06:17:59,15,16.682,5810.22410325,5.905512,0,0.76886813484,288.1, 2.7, 1.9,0,1,1024,1024,1196,1024,288.5,0,99,4.201,4.204,4.2,4.195,0,0,82.31,6,GPS_Atti,
0.352661587080317,36.8960288996427,5810.55218725,6.233596,0,0.7773294212,11100,2017-11-08 06:17:59,15,16.682,5810.55218725,6.233596,0,0.7773294212,288.1, 2.7, 1.6,0,1,1024,1024,1196,1024,288.5,0,99,4.201,4.204,4.2,4.195,0,0,82.31,6,GPS_Atti,
0.352661588152647,36.896028871941,5810.55218725,6.233596,0,0.78547574692,11200,2017-11-08 06:17:59,15,16.682,5810.55218725,6.233596,0,0.78547574692,288.1, 2.4, 1.3,0,1,1024,1024,1196,1024,288.5,0,99,4.201,4.204,4.2,4.195,0,0,82.31,6,GPS_Atti,
0.35266159393688,36.8960288193323,5810.88027125,6.56168,0,0.8019029128,11300,2017-11-08 06:17:59,15,16.682,5810.88027125,6.56168,0,0.8019029128,288.1, 2.1, 1.4,0,1,1024,1024,1196,1024,288.5,0,99,4.201,4.204,4.2,4.195,0,0,82.31,6,GPS_Atti,
0.352661604153738,36.8960287592267,5811.20835525,6.889764,0,0.82161091868,11400,2017-11-08 06:17:59,15,16.682,5811.20835525,6.889764,0,0.82161091868,288.1, 2.3, 1.4,0,1,1024,1024,1201,1024,288.5,0,99,4.201,4.204,4.2,4.195,0,0,82.31,6,GPS_Atti,
0.352661618061464,36.8960287225615,5811.20835525,6.889764,0,0.8353674808,11500,2017-11-08 06:17:59,15,16.787,5811.20835525,6.889764,0,0.8353674808,288.1, 2.7, 1.2,0,1,1024,1024,1201,1024,288.5,0,99,4.201,4.204,4.2,4.195,0,0,82.31,6,GPS_Atti,
0.352661628643093,36.896028646704,5811.86452325,7.545932,0,0.85998690416,11700,2017-11-08 06:18:00,15,16.787,5811.86452325,7.545932,0,0.85998690416,288.1, 2.6, 0.8,0,1,1024,1024,1200,1024,288.5,0,99,4.201,4.204,4.2,4.195,0,0,82.31,6,GPS_Atti,
0.352661611896989,36.8960286048059,5811.86452325,7.545932,0,0.86894031652,11800,2017-11-08 06:18:00,15,16.787,5811.86452325,7.545932,0,0.86894031652,288.2, 2.5, 0.9,0,1,1024,1024,1200,1024,288.5,0,99,4.201,4.204,4.2,4.195,0,0,82.31,6,GPS_Atti,
0.35266160893892,36.8960285914735,5812.19260725,7.874016,0,0.8723261434,11900,2017-11-08 06:18:00,15,16.787,5812.19260725,7.874016,0,0.8723261434,288.1, 2.5, 1.1,0,1,1024,1024,1200,1024,288.5,0,99,4.201,4.204,4.2,4.195,0,0,82.31,6,GPS_Atti,
0.352661596657196,36.8960285675157,5812.52069125,8.2021,0,0.87702102544,12000,2017-11-08 06:18:00,15,16.787,5812.52069125,8.2021,0,0.87702102544,288.1, 2.3, 1.6,0,1,1024,1024,1201,1024,288.5,0,99,4.201,4.204,4.2,4.195,0,0,82.31,6,GPS_Atti,
0.352661552503565,36.8960285264763,5812.84877525,8.530184,0,0.8806922854,12100,2017-11-08 06:18:00,15,16.787,5812.84877525,8.530184,0,0.8806922854,288.2, 2.4, 1.9,0,1,1024,1024,1200,1024,288.5,0,99,4.201,4.204,4.2,4.195,0,0,82.31,6,GPS_Atti,
0.352661512589589,36.896028460949,5812.84877525,8.530184,0,0.89334648528,12200,2017-11-08 06:18:00,15,16.787,5812.84877525,8.530184,0,0.89334648528,288.2, 2.8, 1.4,0,1,1024,1024,1200,1024,288.5,0,99,4.201,4.204,4.2,4.195,0,0,82.31,6,GPS_Atti,
0.35266148658171,36.8960284136207,5813.17685925,8.858268,0,0.90342522576,12300,2017-11-08 06:18:00,15,16.787,5813.17685925,8.858268,0,0.90342522576,288.2, 3.1, 1.4,0,1,1024,1024,1202,1024,288.5,0,99,4.201,4.204,4.2,4.195,0,0,82.31,6,GPS_Atti,
0.352661446247594,36.8960283509225,5813.50494325,9.186352,0,0.9162401868,12400,2017-11-08 06:18:00,15,16.787,5813.50494325,9.186352,0,0.9162401868,288.2, 3.3, 2.1,0,1,1024,1024,1202,1024,288.5,0,99,4.201,4.204,4.2,4.195,0,0,82.31,6,GPS_Atti,
0.352661391736246,36.8960282691459,5813.50494325,9.186352,0,0.93356958368,12500,2017-11-08 06:18:00,15,16.735,5813.50494325,9.186352,0,0.93356958368,288.2, 3.6, 2.4,0,1,1024,1024,1202,1024,288.5,0,99,4.199,4.203,4.199,4.193,0,0,82.31,6,GPS_Atti,
0.35266133746835,36.8960281772949,5813.83302725,9.514436,0,0.9553149912,12600,2017-11-08 06:18:00,15,16.735,5813.83302725,9.514436,0,0.9553149912,288.3, 4.1, 2.6,0,1,1024,1024,1202,1024,288.5,0,99,4.199,4.203,4.199,4.193,0,0,82.31,6,GPS_Atti,
0.352661282449741,36.8960281166551,5814.16111125,9.84252,0,0.96751643516,12700,2017-11-08 06:18:01,15,16.735,5814.16111125,9.84252,0,0.96751643516,288.3, 3.8, 2.2,0,1,1024,1024,1202,1024,288.5,0,99,4.199,4.203,4.199,4.193,0,0,82.31,6,GPS_Atti,
0.352661222962682,36.8960280608106,5814.16111125,9.84252,0,0.97825790532,12800,2017-11-08 06:18:01,15,16.735,5814.16111125,9.84252,0,0.97825790532,288.3, 3.5, 2.3,0,1,1024,1024,1199,1024,288.5,0,99,4.199,4.203,4.199,4.193,0,0,82.31,6,GPS_Atti,
0.352661186938243,36.8960280268282,5814.48919525,10.170604,0,0.98520016276,12900,2017-11-08 06:18:01,15,16.735,5814.48919525,10.170604,0,0.98520016276,288.3, 3.4, 2.7,0,1,1024,1024,1200,1024,288.5,0,99,4.199,4.203,4.199,4.193,0,0,82.31,6,GPS_Atti,
0.352661148640498,36.8960279807272,5814.81727925,10.498688,0,0.99632221036,13000,2017-11-08 06:18:01,15,16.735,5814.81727925,10.498688,0,0.99632221036,288.2, 3.6, 3.1,0,1,1024,1024,1200,1024,288.4,0,99,4.199,4.203,4.199,4.193,0,0,82.31,6,GPS_Atti,
0.352661149423779,36.896027917223,5814.81727925,10.498688,0,1.01833008508,13100,2017-11-08 06:18:01,15,16.735,5814.81727925,10.498688,0,1.01833008508,288.2, 3.7, 3.3,0,1,1024,1024,1199,1024,288.4,0,99,4.199,4.203,4.199,4.193,0,0,82.31,6,GPS_Atti,
0.352661149928597,36.8960278513345,5815.14536325,10.826772,0,1.04117785484,13200,2017-11-08 06:18:01,15,16.735,5815.14536325,10.826772,0,1.04117785484,288.3, 3.9, 3.3,0,1,1024,1024,1195,1024,288.4,0,99,4.199,4.203,4.199,4.193,0,0,82.31,6,GPS_Atti,
0.352661125547533,36.8960278396004,5815.47344725,11.154856,0,1.04249019084,13300,2017-11-08 06:18:01,15,16.735,5815.47344725,11.154856,0,1.04249019084,288.3, 3.8, 3.2,0,1,1024,1024,1197,1024,288.4,0,99,4.199,4.203,4.199,4.193,0,0,82.31,6,GPS_Atti,
0.35266109447845,36.8960278372883,5815.80153125,11.48294,0,1.03988848472,13400,2017-11-08 06:18:01,15,16.735,5815.80153125,11.48294,0,1.04249019084,288.3, 3.5, 2.9,0,1,1024,1024,1199,1024,288.4,0,99,4.199,4.203,4.199,4.193,0,0,82.31,6,GPS_Atti,
0.352661086245037,36.8960278731748,5815.80153125,11.48294,0,1.026492815,13500,2017-11-08 06:18:01,15,16.656,5815.80153125,11.48294,0,1.04249019084,288.3, 3.4, 2.9,0,1,1024,1024,1202,1024,288.4,0,99,4.191,4.196,4.192,4.187,0,0,82.31,6,GPS_Atti,
0.352661079109196,36.8960279003358,5816.12961525,11.811024,0,1.0162565942,13600,2017-11-08 06:18:01,15,16.656,5816.12961525,11.811024,0,1.04249019084,288.3, 3.2, 3.1,0,1,1024,1024,1210,1024,288.4,0,99,4.191,4.196,4.192,4.187,0,0,82.31,6,GPS_Atti,
0.352661056983527,36.8960279129358,5816.45769925,12.139108,0,1.00949150212,13700,2017-11-08 06:18:02,15,16.656,5816.45769925,12.139108,0,1.04249019084,288.3, 3.1, 3.2,0,1,1024,1024,1215,1024,288.4,0,99,4.191,4.196,4.192,4.187,0,0,82.31,6,GPS_Atti,
0.352661039715507,36.8960278997528,5816.45769925,12.139108,0,1.0122867778,13800,2017-11-08 06:18:02,15,16.656,5816.45769925,12.139108,0,1.04249019084,288.3, 3.2, 3.2,0,1,1024,1024,1216,1024,288.4,0,99,4.191,4.196,4.192,4.187,0,0,82.31,6,GPS_Atti,
0.35266102231884,36.8960279176925,5816.78578325,12.467192,0,1.00421919224,13900,2017-11-08 06:18:02,15,16.656,5816.78578325,12.467192,0,1.04249019084,288.3, 3.3, 3,0,1,1024,1024,1217,1024,288.4,0,99,4.191,4.196,4.192,4.187,0,0,82.31,6,GPS_Atti,
0.352661019726357,36.896027927856,5817.11386725,12.795276,0,1.0003937328,14000,2017-11-08 06:18:02,15,16.656,5817.11386725,12.795276,0,1.04249019084,288.3, 3.5, 2.8,0,1,1024,1024,1229,1024,288.4,0,99,4.191,4.196,4.192,4.187,0,0,82.31,6,GPS_Atti,
0.352661034449119,36.896027943225,5817.44195125,13.12336,0,0.99653546496,14100,2017-11-08 06:18:02,15,16.656,5817.44195125,13.12336,0,1.04249019084,288.2, 3.9, 2.5,0,1,1024,1024,1235,1024,288.4,0,99,4.191,4.196,4.192,4.187,0,0,82.31,6,GPS_Atti,
0.352661061631106,36.8960279403843,5817.44195125,13.12336,0,1.00041341784,14200,2017-11-08 06:18:02,15,16.656,5817.44195125,13.12336,0,1.04249019084,288.2, 4.1, 2.4,0,1,1024,1024,1232,1024,288.4,0,99,4.191,4.196,4.192,4.187,0,0,82.31,6,GPS_Atti,
0.352661108248573,36.8960279537948,5817.77003525,13.451444,0,1.00091538636,14300,2017-11-08 06:18:02,15,16.656,5817.77003525,13.451444,0,1.04249019084,288.2, 4, 2.5,0,1,1024,1024,1230,1024,288.4,0,99,4.191,4.196,4.192,4.187,0,0,82.31,6,GPS_Atti,
0.352661156504254,36.8960279591043,5818.09811925,13.779528,0,1.00471787992,14400,2017-11-08 06:18:02,15,16.656,5818.09811925,13.779528,0,1.04249019084,288.2, 3.9, 2.4,0,1,1024,1024,1227,1024,288.4,0,99,4.191,4.196,4.192,4.187,0,0,82.31,6,GPS_Atti,
0.352661187758979,36.8960280112911,5818.42620325,14.107612,0,0.99062339128,14500,2017-11-08 06:18:02,15,16.656,5818.42620325,14.107612,0,1.04249019084,288.2, 3.9, 2.4,0,1,1024,1024,1227,1024,288.4,0,99,4.191,4.196,4.192,4.187,0,0,82.31,6,GPS_Atti,
0.352661217230559,36.8960280515574,5818.75428725,14.435696,0,0.98065291852,14600,2017-11-08 06:18:02,15,16.656,5818.75428725,14.435696,0,1.04249019084,288.2, 3.9, 2.2,0,1,1024,1024,1217,1024,288.4,0,99,4.191,4.196,4.192,4.187,0,0,82.31,6,GPS_Atti,
0.352661258477417,36.8960280926325,5819.08237125,14.76378,0,0.97226381064,14700,2017-11-08 06:18:03,16,16.656,5819.08237125,14.76378,0,1.04249019084,288.2, 3.9, 1.8,0,1,1024,1024,1217,1024,288.4,0,99,4.191,4.196,4.192,4.187,0,0,82.31,6,GPS_Atti,
0.35266129573133,36.8960281113343,5819.41045525,15.091864,0,0.97119753764,14800,2017-11-08 06:18:03,16,16.656,5819.41045525,15.091864,0,1.04249019084,288.2, 3.9, 1.8,0,1,1024,1024,1224,1024,288.4,0,99,4.191,4.196,4.192,4.187,0,0,82.31,6,GPS_Atti,
0.352661368117294,36.8960281558559,5819.41045525,15.091864,0,0.9670932068,14900,2017-11-08 06:18:03,16,16.656,5819.41045525,15.091864,0,1.04249019084,288.2, 4.1, 1.7,0,1,1024,1024,1224,1024,288.4,0,99,4.191,4.196,4.192,4.187,0,0,82.31,6,GPS_Atti,
0.352661425085965,36.896028182813,5819.73853925,15.419948,0,0.96719491284,15000,2017-11-08 06:18:03,16,16.656,5819.73853925,15.419948,0,1.04249019084,288.2, 4.2, 1.6,0,1,1024,1024,1218,1024,288.4,0,99,4.191,4.196,4.192,4.187,0,0,82.31,6,GPS_Atti,
0.352661434144999,36.8960282864877,5820.39470725,16.076116,0,0.9349409748,15200,2017-11-08 06:18:03,16,16.656,5820.39470725,16.076116,0,1.04249019084,288.2, 4.2, 2,0,1,1024,1024,1227,1024,288.4,0,99,4.191,4.196,4.192,4.187,0,0,82.31,6,GPS_Atti,
0.352661429224655,36.8960283406094,5820.72279125,16.4042,0,0.91662404508,15300,2017-11-08 06:18:03,16,16.656,5820.72279125,16.4042,0,1.04249019084,288.2, 3.8, 2.1,0,1,1024,1024,1231,1024,288.4,0,99,4.191,4.196,4.192,4.187,0,0,82.31,6,GPS_Atti,
0.352661407720238,36.8960283780525,5821.05087525,16.732284,0,0.90087929392,15400,2017-11-08 06:18:03,16,16.656,5821.05087525,16.732284,0,1.04249019084,288.2, 3.6, 2.3,0,1,1024,1024,1235,1024,288.4,0,99,4.191,4.196,4.192,4.187,0,0,82.31,6,GPS_Atti,
0.35266134292038,36.8960284047953,5821.05087525,16.732284,0,0.88134517256,15500,2017-11-08 06:18:03,16,16.682,5821.05087525,16.732284,0,1.04249019084,288.2, 3.2, 2.6,0,1,1024,1024,1236,1024,288.4,0,99,4.185,4.188,4.184,4.178,0,0,82.31,6,GPS_Atti,
0.352661273157839,36.8960284180917,5821.37895925,17.060368,0,0.86576774424,15600,2017-11-08 06:18:03,16,16.682,5821.37895925,17.060368,0,1.04249019084,288.2, 3.2, 2.7,0,1,1024,1024,1230,1024,288.4,0,99,4.185,4.188,4.184,4.178,0,0,82.31,6,GPS_Atti,
0.352661225055232,36.896028443371,5821.70704325,17.388452,0,0.84997378048,15700,2017-11-08 06:18:04,16,16.682,5821.70704325,17.388452,0,1.04249019084,288.2, 3.4, 2.9,0,1,1024,1024,1226,1024,288.4,0,99,4.185,4.188,4.184,4.178,0,0,82.31,6,GPS_Atti,
0.352661175024547,36.8960284650723,5822.03512725,17.716536,0,0.83526249392,15800,2017-11-08 06:18:04,16,16.682,5822.03512725,17.716536,0,1.04249019084,288.2, 3.4, 3.2,0,1,1024,1024,1240,1024,288.4,0,99,4.185,4.188,4.184,4.178,0,0,82.31,6,GPS_Atti,
0.352661095339897,36.8960285153277,5822.36321125,18.04462,0,0.80699477648,15900,2017-11-08 06:18:04,16,16.682,5822.36321125,18.04462,0,1.04249019084,288.2, 3.2, 3.1,0,1,1024,1024,1240,1024,288.4,0,99,4.185,4.188,4.184,4.178,0,0,82.31,6,GPS_Atti,
0.352661019755669,36.8960285561188,5822.69129525,18.372704,0,0.78297574684,16000,2017-11-08 06:18:04,16,16.682,5822.69129525,18.372704,0,1.04249019084,288.2, 3, 2.8,0,1,1024,1024,1247,1024,288.4,0,99,4.185,4.188,4.184,4.178,0,0,82.31,6,GPS_Atti,
0.352660945760802,36.8960286170939,5823.01937925,18.700788,0,0.75274280624,16100,2017-11-08 06:18:04,16,16.682,5823.01937925,18.700788,0,1.04249019084,288.2, 2.7, 3,0,1,1024,1024,1309,1024,288.4,0,99,4.185,4.188,4.184,4.178,0,0,82.31,6,GPS_Atti,
0.352660871892954,36.8960286592428,5823.34746325,19.028872,0,0.72948165064,16200,2017-11-08 06:18:04,16,16.682,5823.34746325,19.028872,0,1.04249019084,288.2, 2.6, 3.7,0,1,1024,1024,1340,1024,288.4,0,99,4.185,4.188,4.184,4.178,0,0,82.31,6,GPS_Atti,
0.352660817641342,36.8960287230704,5823.67554725,19.356956,0,0.70130251588,16300,2017-11-08 06:18:04,16,16.682,5823.67554725,19.356956,0,1.04249019084,288.2, 2.6, 4,0,1,1024,1024,1342,1024,288.4,0,99,4.185,4.188,4.184,4.178,0,0,82.31,6,GPS_Atti,
0.352660799145475,36.8960287780256,5824.00363125,19.68504,0,0.68015422124,16400,2017-11-08 06:18:04,16,16.682,5824.00363125,19.68504,0,1.04249019084,288.2, 2.4, 3.3,0,1,1024,1024,1344,1024,288.4,0,99,4.185,4.188,4.184,4.178,0,0,82.31,6,GPS_Atti,
0.35266081626205,36.8960288509857,5824.33171525,20.013124,0,0.65668309188,16500,2017-11-08 06:18:04,16,16.682,5824.33171525,20.013124,0,1.04249019084,288.2, 2.1, 2.6,0,1,1024,1024,1344,1024,288.4,0,99,4.181,4.185,4.181,4.177,0,0,82.31,6,GPS_Atti,
0.352660834997298,36.8960289004853,5824.98788325,20.669292,0,0.64179135912,16600,2017-11-08 06:18:04,16,16.682,5824.98788325,20.669292,0,1.04249019084,288.2, 1.9, 2.4,0,1,1024,1024,1351,1024,288.4,0,99,4.181,4.185,4.181,4.177,0,0,82.31,6,GPS_Atti,
0.352660835534685,36.8960289378801,5825.64405125,21.32546,0,0.62899936396,16700,2017-11-08 06:18:05,16,16.682,5825.64405125,21.32546,0,1.04249019084,288.2, 2.2, 2.7,0,1,1024,1024,1377,1024,288.4,0,99,4.181,4.185,4.181,4.177,0,0,82.31,6,GPS_Atti,
0.352660840628458,36.8960289432907,5825.97213525,21.653544,0,0.62777561064,16800,2017-11-08 06:18:05,16,16.682,5825.97213525,21.653544,0,1.04249019084,288.2, 2.6, 3,0,1,1024,1024,1387,1024,288.4,0,99,4.181,4.185,4.181,4.177,0,0,82.31,6,GPS_Atti,
0.352660853726033,36.8960289631172,5826.62830325,22.309712,0,0.62265093856,16900,2017-11-08 06:18:05,16,16.682,5826.62830325,22.309712,0,1.04249019084,288.3, 2.9, 2.9,0,1,1024,1024,1389,1024,288.4,0,99,4.181,4.185,4.181,4.177,0,0,82.31,6,GPS_Atti,
0.352660882463184,36.8960289766747,5827.28447125,22.96588,0,0.62182416688,17000,2017-11-08 06:18:05,16,16.682,5827.28447125,22.96588,0,1.04249019084,288.3, 2.9, 2.3,0,1,1024,1024,1404,1024,288.4,0,99,4.181,4.185,4.181,4.177,0,0,82.31,6,GPS_Atti,
0.352660931513546,36.8960290294111,5827.94063925,23.622048,0,0.61102692244,17100,2017-11-08 06:18:05,16,16.682,5827.94063925,23.622048,0,1.04249019084,288.3, 2.6, 1.9,0,1,1024,1024,1421,1024,288.4,0,99,4.181,4.185,4.181,4.177,0,0,82.31,6,GPS_Atti,
0.352660970687394,36.8960290583174,5828.59680725,24.278216,0,0.6074311218,17200,2017-11-08 06:18:05,16,16.682,5828.59680725,24.278216,0,1.04249019084,288.2, 2.4, 2.1,0,1,1024,1024,1446,1024,288.4,0,99,4.181,4.185,4.181,4.177,0,0,82.31,6,GPS_Atti,
0.352661012220859,36.8960290818789,5829.58105925,25.262468,0,0.60646655484,17300,2017-11-08 06:18:05,16,16.682,5829.58105925,25.262468,0,1.04249019084,288.3, 2.3, 2.3,0,1,1024,1024,1477,1024,288.4,0,99,4.181,4.185,4.181,4.177,0,0,82.31,6,GPS_Atti,
0.352661049544795,36.8960290785153,5830.23722725,25.918636,0,0.61389109576,17400,2017-11-08 06:18:05,16,16.682,5830.23722725,25.918636,0,1.04249019084,288.3, 2.5, 2.2,0,1,1024,1024,1500,1024,288.4,0,99,4.181,4.185,4.181,4.177,0,0,82.31,6,GPS_Atti,
0.352661068317497,36.896029105572,5830.89339525,26.574804,0,0.60853676488,17500,2017-11-08 06:18:05,16,16.55,5830.89339525,26.574804,0,1.04249019084,288.4, 2.7, 2.1,0,1,1024,1024,1502,1024,288.4,0,99,4.155,4.146,4.146,4.143,0,0,82.31,6,GPS_Atti,
0.352661086360657,36.8960291234357,5831.87764725,27.559056,0,0.60614175168,17600,2017-11-08 06:18:05,16,16.55,5831.87764725,27.559056,0,1.04249019084,288.3, 2.5, 1.7,0,1,1024,1024,1500,1024,288.4,0,99,4.155,4.146,4.146,4.143,0,0,82.31,6,GPS_Atti,
0.35266111765935,36.8960291509101,5832.86189925,28.543308,0,0.60338912692,17700,2017-11-08 06:18:06,16,16.55,5832.86189925,28.543308,0,1.04249019084,288.3, 2.4, 1.4,0,1,1024,1024,1500,1024,288.4,0,99,4.155,4.146,4.146,4.143,0,0,82.31,6,GPS_Atti,
0.35266113708343,36.8960291509923,5833.84615125,29.52756,0,0.6071030378,17800,2017-11-08 06:18:06,16,16.55,5833.84615125,29.52756,0,1.04249019084,288.2, 2.1, 1.3,0,1,1024,1024,1500,1024,288.4,0,99,4.155,4.146,4.146,4.143,0,0,82.31,6,GPS_Atti,
0.352661124366911,36.8960291403693,5834.83040325,30.511812,0,0.60794621368,17900,2017-11-08 06:18:06,16,16.55,5834.83040325,30.511812,0,1.04249019084,288.3, 2.1, 1.6,0,1,1024,1024,1501,1024,288.4,0,99,4.155,4.146,4.146,4.143,0,0,82.31,6,GPS_Atti,
0.352661103988563,36.896029098668,5835.81465525,31.496064,0,0.61718505912,18000,2017-11-08 06:18:06,16,16.55,5835.81465525,31.496064,0,1.04249019084,288.2, 2.3, 1.9,0,1,1024,1024,1501,1024,288.4,0,99,4.155,4.146,4.146,4.143,0,0,82.31,6,GPS_Atti,
0.352661083211246,36.8960290586458,5836.79890725,32.480316,0,0.62613847148,18100,2017-11-08 06:18:06,16,16.55,5836.79890725,32.480316,0,1.04249019084,288.3, 2.7, 1.7,0,1,1024,1024,1501,1024,288.4,0,99,4.155,4.146,4.146,4.143,0,0,82.31,6,GPS_Atti,
0.352661063502188,36.8960289979853,5837.78315925,33.464568,0,0.64224739588,18200,2017-11-08 06:18:06,16,16.55,5837.78315925,33.464568,0,1.04249019084,288.3, 2.9, 1.6,0,1,1024,1024,1502,1024,288.4,0,99,4.155,4.146,4.146,4.143,0,0,82.31,6,GPS_Atti,
0.352661046445866,36.8960289706468,5838.76741125,34.44882,0,0.6483103882,18300,2017-11-08 06:18:06,16,16.55,5838.76741125,34.44882,0,1.04249019084,288.3, 3, 1.5,0,1,1024,1024,1501,1024,288.4,0,99,4.155,4.146,4.146,4.143,0,0,82.31,6,GPS_Atti,
0.352661023847949,36.8960289295949,5839.75166325,35.433072,0,0.65817259324,18400,2017-11-08 06:18:06,16,16.55,5839.75166325,35.433072,0,1.04249019084,288.3, 2.9, 1.5,0,1,1024,1024,1501,1024,288.4,0,99,4.155,4.146,4.146,4.143,0,0,82.31,6,GPS_Atti,
0.352660972752261,36.8960288969148,5841.06399925,36.745408,0,0.66134188468,18500,2017-11-08 06:18:06,16,16.629,5841.06399925,36.745408,0,1.04249019084,288.3, 2.8, 1.6,0,1,1024,1024,1502,1024,288.4,0,99,4.155,4.146,4.146,4.143,0,0,82.31,6,GPS_Atti,
0.352660911501597,36.8960288506969,5842.04825125,37.72966,0,0.66848427336,18600,2017-11-08 06:18:07,16,16.629,5842.04825125,37.72966,0,1.04249019084,288.3, 2.9, 1.8,0,1,1024,1024,1502,1024,288.4,0,99,4.155,4.146,4.146,4.143,0,0,82.31,6,GPS_Atti,
0.352660864325575,36.8960287880097,5843.03250325,38.713912,0,0.68406170168,18700,2017-11-08 06:18:07,17,16.629,5843.03250325,38.713912,0,1.04249019084,288.2, 2.8, 1.5,0,1,1024,1024,1503,1024,288.4,0,99,4.155,4.146,4.146,4.143,0,0,82.31,6,GPS_Atti,
0.352660815048859,36.8960286986378,5844.01675525,39.698164,0,0.70955382848,18800,2017-11-08 06:18:07,17,16.629,5844.01675525,39.698164,0,1.04249019084,288.3, 3, 1.7,0,1,1024,1024,1511,1024,288.4,0,99,4.155,4.146,4.146,4.143,0,0,82.31,6,GPS_Atti,
0.352660750612959,36.8960286178854,5845.00100725,40.682416,0,0.7316109158,18900,2017-11-08 06:18:07,17,16.629,5845.00100725,40.682416,0,1.04249019084,288.3, 3, 1.9,0,1,1024,1024,1513,1024,288.4,0,99,4.155,4.146,4.146,4.143,0,0,82.31,6,GPS_Atti,
0.352660679459727,36.8960285292978,5845.98525925,41.666668,0,0.75719162528,19000,2017-11-08 06:18:07,17,16.629,5845.98525925,41.666668,0,1.04249019084,288.3, 3.2, 2.4,0,1,1024,1024,1511,1024,288.4,0,99,4.155,4.146,4.146,4.143,0,0,82.31,6,GPS_Atti,
0.352660586776837,36.896028439007,5846.96951125,42.65092,0,0.7834809962,19100,2017-11-08 06:18:07,17,16.629,5846.96951125,42.65092,0,1.04249019084,288.3, 3.4, 2.7,0,1,1024,1024,1511,1024,288.4,0,99,4.155,4.146,4.146,4.143,0,0,82.31,6,GPS_Atti,
0.352660506359387,36.8960283576806,5848.28184725,43.963256,0,0.80892062956,19200,2017-11-08 06:18:07,17,16.629,5848.28184725,43.963256,0,1.04249019084,288.3, 3.2, 2.3,0,1,1024,1024,1511,1024,288.4,0,99,4.155,4.146,4.146,4.143,0,0,82.31,6,GPS_Atti,
0.352660439736486,36.8960283476728,5849.26609925,44.947508,0,0.81013454036,19300,2017-11-08 06:18:07,17,16.629,5849.26609925,44.947508,0,1.04249019084,288.2, 2.8, 2.2,0,1,1024,1024,1518,1024,288.4,0,99,4.155,4.146,4.146,4.143,0,0,82.31,6,GPS_Atti,
0.352660381369796,36.8960283305975,5850.25035125,45.93176,0,0.81483270324,19400,2017-11-08 06:18:07,17,16.629,5850.25035125,45.93176,0,1.04249019084,288.2, 2.6, 2.2,0,1,1024,1024,1522,1024,288.4,0,99,4.155,4.146,4.146,4.143,0,0,82.31,6,GPS_Atti,
0.352660309123878,36.8960283465262,5851.56268725,47.244096,0,0.80792653504,19500,2017-11-08 06:18:07,17,16.498,5851.56268725,47.244096,0,1.04249019084,288.2, 2.8, 2.2,0,1,1024,1024,1524,1024,288.4,0,99,4.139,4.143,4.14,4.137,0,0,82.31,6,GPS_Atti,
0.352660238281679,36.8960283435212,5852.54693925,48.228348,0,0.80877299176,19600,2017-11-08 06:18:07,17,16.498,5852.54693925,48.228348,0,1.04249019084,288.3, 3.1, 2.5,0,1,1024,1024,1524,1024,288.4,0,99,4.139,4.143,4.14,4.137,0,0,82.31,6,GPS_Atti,
0.352660176452918,36.8960283787704,5853.53119125,49.2126,0,0.7963746974,19700,2017-11-08 06:18:08,17,16.498,5853.53119125,49.2126,0,1.04249019084,288.3, 3.4, 2.3,0,1,1024,1024,1522,1024,288.4,0,99,4.139,4.143,4.14,4.137,0,0,82.31,6,GPS_Atti,
0.352660120453985,36.8960283907619,5854.84352725,50.524936,0,0.792979028,19800,2017-11-08 06:18:08,17,16.498,5854.84352725,50.524936,0,1.04249019084,288.3, 3.6, 2.2,0,1,1024,1024,1522,1024,288.4,0,99,4.139,4.143,4.14,4.137,0,0,82.31,6,GPS_Atti,
0.352660026987814,36.8960284149657,5855.82777925,51.509188,0,0.786991495,19900,2017-11-08 06:18:08,17,16.498,5855.82777925,51.509188,0,1.04249019084,288.2, 3.2, 2.5,0,1,1024,1024,1522,1024,288.4,0,99,4.139,4.143,4.14,4.137,0,0,82.31,6,GPS_Atti,
0.352659933015196,36.896028424896,5857.14011525,52.821524,0,0.78772640316,20000,2017-11-08 06:18:08,17,16.498,5857.14011525,52.821524,0,1.04249019084,288.2, 2.9, 2.6,0,1,1024,1024,1524,1024,288.4,0,99,4.139,4.143,4.14,4.137,0,0,82.31,6,GPS_Atti,
0.352659851601138,36.8960284574653,5858.12436725,53.805776,0,0.7809875578,20100,2017-11-08 06:18:08,17,16.498,5858.12436725,53.805776,0,1.04249019084,288.2, 2.7, 2.8,0,1,1024,1024,1525,1024,288.4,0,99,4.139,4.143,4.14,4.137,0,0,82.31,6,GPS_Atti,
0.352659788893017,36.8960284771785,5859.43670325,55.118112,0,0.77856957872,20200,2017-11-08 06:18:08,17,16.498,5859.43670325,55.118112,0,1.04249019084,288.2, 2.6, 2.7,0,1,1024,1024,1525,1024,288.4,0,99,4.139,4.143,4.14,4.137,0,0,82.31,6,GPS_Atti,
0.352659719757427,36.896028532397,5860.42095525,56.102364,0,0.76493112684,20300,2017-11-08 06:18:08,17,16.498,5860.42095525,56.102364,0,1.04249019084,288.3, 2.8, 2.8,0,1,1024,1024,1525,1024,288.4,0,99,4.139,4.143,4.14,4.137,0,0,82.31,6,GPS_Atti,
0.352659663623334,36.8960285742164,5861.40520725,57.086616,0,0.75574477484,20400,2017-11-08 06:18:08,17,16.498,5861.40520725,57.086616,0,1.04249019084,288.3, 3, 2.9,0,1,1024,1024,1525,1024,288.4,0,99,4.139,4.143,4.14,4.137,0,0,82.31,6,GPS_Atti,
0.352659624037489,36.8960286537495,5862.71754325,58.398952,0,0.73236222816,20500,2017-11-08 06:18:08,17,16.445,5862.71754325,58.398952,0,1.04249019084,288.3, 3, 2.7,0,1,1024,1024,1525,1024,288.4,0,99,4.143,4.145,4.139,4.135,0,0,82.31,6,GPS_Atti,
0.35265960009122,36.8960287187872,5863.70179525,59.383204,0,0.71273296244,20600,2017-11-08 06:18:08,17,16.445,5863.70179525,59.383204,0,1.04249019084,288.3, 2.9, 2.6,0,1,1024,1024,1525,1024,288.4,0,99,4.143,4.145,4.139,4.135,0,0,82.31,6,GPS_Atti,
0.352659571985905,36.8960288113094,5865.01413125,60.69554,0,0.68465881456,20700,2017-11-08 06:18:09,17,16.445,5865.01413125,60.69554,0,1.04249019084,288.3, 2.9, 2.8,0,1,1024,1024,1524,1024,288.4,0,99,4.143,4.145,4.139,4.135,0,0,82.31,6,GPS_Atti,
0.352659552892399,36.896028884751,5865.99838325,61.679792,0,0.66240815768,20800,2017-11-08 06:18:09,17,16.445,5865.99838325,61.679792,0,1.04249019084,288.3, 2.8, 2.7,0,1,1024,1024,1524,1024,288.4,0,99,4.143,4.145,4.139,4.135,0,0,82.31,6,GPS_Atti,
0.352659523626004,36.8960290072611,5866.98263525,62.664044,0,0.62585960008,20900,2017-11-08 06:18:09,17,16.445,5866.98263525,62.664044,0,1.04249019084,288.2, 2.5, 2.3,0,1,1024,1024,1525,1024,288.3,0,99,4.143,4.145,4.139,4.135,0,0,82.31,6,GPS_Atti,
0.352659502863343,36.8960291120991,5868.29497125,63.97638,0,0.59490159384,21000,2017-11-08 06:18:09,17,16.445,5868.29497125,63.97638,0,1.04249019084,288.2, 2.3, 2.2,0,1,1024,1024,1527,1024,288.3,0,99,4.143,4.145,4.139,4.135,0,0,82.31,6,GPS_Atti,
0.352659461175176,36.8960292116825,5869.27922325,64.960632,0,0.5704232466,21100,2017-11-08 06:18:09,17,16.445,5869.27922325,64.960632,0,1.04249019084,288.2, 2, 2.1,0,1,1024,1024,1535,1024,288.3,0,99,4.143,4.145,4.139,4.135,0,0,82.31,6,GPS_Atti,
0.352659431055476,36.8960292746371,5870.26347525,65.944884,0,0.55657154012,21200,2017-11-08 06:18:09,17,16.445,5870.26347525,65.944884,0,1.04249019084,288.2, 1.9, 2.1,0,1,1024,1024,1542,1024,288.3,0,99,4.143,4.145,4.139,4.135,0,0,82.31,6,GPS_Atti,
0.352659411320363,36.8960293819799,5871.57581125,67.25722,0,0.52814306152,21300,2017-11-08 06:18:09,17,16.445,5871.57581125,67.25722,0,1.04249019084,288.3, 2.2, 2.4,0,1,1024,1024,1542,1024,288.3,0,99,4.143,4.145,4.139,4.135,0,0,82.31,6,GPS_Atti,
0.35265941366858,36.896029460861,5872.56006325,68.241472,0,0.50447508176,21400,2017-11-08 06:18:09,17,16.445,5872.56006325,68.241472,0,1.04249019084,288.3, 2.6, 2.5,0,1,1024,1024,1545,1024,288.3,0,99,4.143,4.145,4.139,4.135,0,0,82.31,6,GPS_Atti,
0.352659398072972,36.8960295836126,5873.87239925,69.553808,0,0.47337928024,21500,2017-11-08 06:18:09,17,16.498,5873.87239925,69.553808,0,1.04249019084,288.3, 2.7, 2.1,0,1,1024,1024,1555,1024,288.3,0,99,4.142,4.141,4.135,4.129,0,0,82.31,6,GPS_Atti,
0.35265939124002,36.8960296836783,5874.85665125,70.53806,0,0.44829069676,21600,2017-11-08 06:18:09,17,16.498,5874.85665125,70.53806,0,1.04249019084,288.2, 2.2, 1.9,0,1,1024,1024,1565,1090,288.3,0,99,4.142,4.141,4.135,4.129,0,0,82.31,6,GPS_Atti,Home Point Recorded. RTH Altitude: 30m.
0.352659384328904,36.8960298140213,5876.16898725,71.850396,0,0.41761156192,21700,2017-11-08 06:18:10,17,16.498,5876.16898725,71.850396,0,1.04249019084,288.2, 1.7, 1.4,0,1,1024,1024,1569,1104,288.4,0,99,4.142,4.141,4.135,4.129,0,0,82.31,6,GPS_Atti,
0.35265938215656,36.8960298994884,5877.15323925,72.834648,0,0.39861549832,21800,2017-11-08 06:18:10,17,16.498,5877.15323925,72.834648,0,1.04249019084,288.8, 1.8, 1.7,0,1,1024,1024,1562,1119,288.7,0,99,4.142,4.141,4.135,4.129,0,0,82.31,6,GPS_Atti,
0.352659398996299,36.8960299838999,5878.46557525,74.146984,0,0.37567586504,21900,2017-11-08 06:18:10,17,16.498,5878.46557525,74.146984,0,1.04249019084,289.6, 2.3, 2,0,1,1024,1024,1559,1131,289.2,0,99,4.142,4.141,4.135,4.129,0,0,82.31,6,GPS_Atti,
0.352659425258216,36.896030027312,5879.77791125,75.45932,0,0.35895342356,22000,2017-11-08 06:18:10,17,16.498,5879.77791125,75.45932,0,1.04249019084,290.6, 2.7, 1.9,0,1,1024,1024,1562,1134,289.7,0,99,4.142,4.141,4.135,4.129,0,0,82.31,6,GPS_Atti,
0.352659439577124,36.8960301033924,5881.09024725,76.771656,0,0.34014436784,22100,2017-11-08 06:18:10,17,16.498,5881.09024725,76.771656,0,1.04249019084,291.8, 2.8, 2.3,0,1,1024,1024,1562,1132,290.3,0,99,4.142,4.141,4.135,4.129,0,0,82.31,6,GPS_Atti,
0.352659448312097,36.8960301564099,5882.40258325,78.083992,0,0.32824476116,22200,2017-11-08 06:18:10,17,16.498,5882.40258325,78.083992,0,1.04249019084,293.1, 2.9, 2.4,0,1,1024,1024,1568,1125,291,0,99,4.142,4.141,4.135,4.129,0,0,82.31,6,GPS_Atti,
0.35265945132309,36.896030243455,5883.71491925,79.396328,0,0.314249025804,22300,2017-11-08 06:18:10,17,16.498,5883.71491925,79.396328,0,1.04249019084,294.3, 2.8, 2.4,0,1,1024,1024,1570,1124,291.7,0,99,4.142,4.141,4.135,4.129,0,0,82.31,6,GPS_Atti,
0.35265945742487,36.896030314544,5884.69917125,80.38058,0,0.303535442784,22400,2017-11-08 06:18:10,17,16.498,5884.69917125,80.38058,0,1.04249019084,295.3, 2.6, 2.1,0,1,1024,1024,1570,1125,293.4,0,99,4.142,4.141,4.135,4.129,0,0,82.31,6,GPS_Atti,
0.352659501459624,36.8960305531385,5887.32384325,83.005252,0,0.273942594068,22600,2017-11-08 06:18:10,17,16.498,5887.32384325,83.005252,0,1.04249019084,297.3, 1.5, 2,0,1,1024,1024,1569,1124,294.3,0,99,4.142,4.141,4.135,4.129,0,0,82.31,6,GPS_Atti,
0.352659514097978,36.896030657386,5888.63617925,84.317588,0,0.271641084808,22700,2017-11-08 06:18:11,17,16.498,5888.63617925,84.317588,0,1.04249019084,298.3, 1, 1.8,0,1,1024,1024,1569,1125,295.2,0,99,4.142,4.141,4.135,4.129,0,0,82.31,6,GPS_Atti,
0.352659523569008,36.8960306934605,5889.94851525,85.629924,0,0.270269693688,22800,2017-11-08 06:18:11,17,16.498,5889.94851525,85.629924,0,1.04249019084,299.3, 1.3, 1.9,0,1,1024,1024,1569,1124,296.2,0,99,4.142,4.141,4.135,4.129,0,0,82.31,6,GPS_Atti,
0.352659530126752,36.8960307579856,5891.26085125,86.94226,0,0.273169956248,22900,2017-11-08 06:18:11,17,16.498,5891.26085125,86.94226,0,1.04249019084,300.3, 1.8, 2.2,0,1,1024,1024,1569,1122,297.2,0,99,4.142,4.141,4.135,4.129,0,0,82.31,6,GPS_Atti,
0.352659538198949,36.896030777895,5892.57318725,88.254596,0,0.2723589326,23000,2017-11-08 06:18:11,17,16.498,5892.57318725,88.254596,0,1.04249019084,301.4, 2.4, 2.5,0,1,1024,1024,1569,1121,298.2,0,99,4.142,4.141,4.135,4.129,0,0,82.31,6,GPS_Atti,
0.352659572145493,36.8960308114001,5893.88552325,89.566932,0,0.264518709252,23100,2017-11-08 06:18:11,17,16.498,5893.88552325,89.566932,0,1.04249019084,302.4, 2.9, 2.7,0,1,1024,1024,1569,1121,298.2,0,99,4.142,4.141,4.135,4.129,0,0,82.31,6,GPS_Atti,
0.352659603854554,36.8960308153977,5895.19785925,90.879268,0,0.254228026508,23200,2017-11-08 06:18:11,17,16.498,5895.19785925,90.879268,0,1.04249019084,303.4, 3.1, 2.7,0,1,1024,1024,1569,1119,299.2,0,99,4.142,4.141,4.135,4.129,0,0,82.31,6,GPS_Atti,
0.352659619834475,36.8960308456793,5896.51019525,92.191604,0,0.25315289524,23300,2017-11-08 06:18:11,17,16.498,5896.51019525,92.191604,0,1.04249019084,304.4, 2.8, 2.8,0,1,1024,1024,1569,1119,300.2,0,99,4.142,4.141,4.135,4.129,0,0,82.31,6,GPS_Atti,
0.35265962398375,36.8960308590898,5897.49444725,93.175856,0,0.253836622296,23400,2017-11-08 06:18:11,17,16.498,5897.49444725,93.175856,0,1.04249019084,305.4, 2.6, 2.9,0,1,1024,1024,1569,1117,301.2,0,99,4.142,4.141,4.135,4.129,0,0,82.31,6,GPS_Atti,
0.352659617658874,36.896030898946,5898.80678325,94.488192,0,0.26244751496,23500,2017-11-08 06:18:11,17,16.366,5898.80678325,94.488192,0,1.04249019084,306.3, 2.4, 2.8,0,1,1024,1024,1570,1113,302.2,0,98,4.127,4.138,4.131,4.118,0,0,82.31,6,GPS_Atti,
0.352659606604996,36.8960309219973,5900.11911925,95.800528,0,0.270021662184,23600,2017-11-08 06:18:11,17,16.366,5900.11911925,95.800528,0,1.04249019084,307.2, 2.1, 2.7,0,1,1024,1024,1569,1112,303.2,0,98,4.127,4.138,4.131,4.118,0,0,82.31,6,GPS_Atti,
0.352659619981035,36.8960309818827,5901.43145525,97.112864,0,0.277273959004,23700,2017-11-08 06:18:12,17,16.366,5901.43145525,97.112864,0,1.04249019084,308.1, 1.8, 2.6,0,1,1024,1024,1570,1112,304.2,0,98,4.127,4.138,4.131,4.118,0,0,82.31,6,GPS_Atti,
0.352659630896495,36.8960310130895,5902.74379125,98.4252,0,0.280520678268,23800,2017-11-08 06:18:12,17,16.366,5902.74379125,98.4252,0,1.04249019084,309, 1.8, 2.8,0,1,1024,1024,1571,1112,305.1,0,98,4.127,4.138,4.131,4.118,0,0,82.31,6,GPS_Atti,
0.352659610871519,36.8960310700343,5904.05612725,99.737536,0,0.29892225366,23900,2017-11-08 06:18:12,17,16.366,5904.05612725,99.737536,0,1.04249019084,309.9, 1.6, 3,0,1,1024,1024,1571,1112,306.1,0,98,4.127,4.138,4.131,4.118,0,0,82.31,6,GPS_Atti,
0.352659584666598,36.8960310939113,5905.36846325,101.049872,0,0.311828750136,24000,2017-11-08 06:18:12,17,16.366,5905.36846325,101.049872,0,1.04249019084,310.7, 1.5, 3.1,0,1,1024,1024,1571,1113,307,0,98,4.127,4.138,4.131,4.118,0,0,82.31,6,GPS_Atti,
0.352659567922937,36.896031150085,5906.35271525,102.034124,0,0.32962271396,24100,2017-11-08 06:18:12,17,16.366,5906.35271525,102.034124,0,1.04249019084,311.6, 1.3, 2.9,0,1,1024,1024,1571,1112,308,0,98,4.127,4.138,4.131,4.118,0,0,82.31,6,GPS_Atti,
0.35265955932801,36.8960311644259,5907.66505125,103.34646,0,0.33541995824,24200,2017-11-08 06:18:12,17,16.366,5907.66505125,103.34646,0,1.04249019084,312.5, 1.2, 3.2,0,1,1024,1024,1571,1114,308.9,0,98,4.127,4.138,4.131,4.118,0,0,82.31,6,GPS_Atti,
0.352659568541746,36.8960312050464,5908.97738725,104.658796,0,0.34288715008,24300,2017-11-08 06:18:12,17,16.366,5908.97738725,104.658796,0,1.04249019084,313.4, 1.7, 3,0,1,1024,1024,1570,1114,309.9,0,98,4.127,4.138,4.131,4.118,0,0,82.31,6,GPS_Atti,
0.352659576840297,36.8960312144995,5910.28972325,105.971132,0,0.34308071964,24400,2017-11-08 06:18:12,17,16.366,5910.28972325,105.971132,0,1.04249019084,314.4, 2.1, 3,0,1,1024,1024,1570,1113,309.9,0,98,4.127,4.138,4.131,4.118,0,0,82.31,6,GPS_Atti,
0.35265957335217,36.896031227541,5911.60205925,107.283468,0,0.34731300324,24500,2017-11-08 06:18:12,17,16.471,5911.60205925,107.283468,0,1.04249019084,315.2, 2.1, 3.2,0,1,1024,1024,1570,1114,310.9,0,98,4.13,4.133,4.128,4.12,0,0,84.11,6,GPS_Atti,
0.352659553556804,36.8960312243265,5912.91439525,108.595804,0,0.35169292464,24600,2017-11-08 06:18:12,17,16.471,5912.91439525,108.595804,0,1.04249019084,316, 1.6, 3.6,0,1,1024,1024,1570,1113,311.8,0,98,4.13,4.133,4.128,4.12,0,0,84.11,6,GPS_Atti,
0.352659504392452,36.8960312451226,5914.22673125,109.90814,0,0.36998360764,24700,2017-11-08 06:18:13,17,16.471,5914.22673125,109.90814,0,1.04249019084,316.7, 1.3, 3.9,0,1,1024,1024,1570,1113,312.7,0,98,4.13,4.133,4.128,4.12,0,0,84.11,6,GPS_Atti,
0.352659471108685,36.8960312316973,5915.53906725,111.220476,0,0.37581694116,24800,2017-11-08 06:18:13,17,16.471,5915.53906725,111.220476,0,1.04249019084,317.5, 1.4, 3.9,0,1,1024,1024,1570,1113,313.6,0,98,4.13,4.133,4.128,4.12,0,0,84.11,6,GPS_Atti,
0.352659470524073,36.8960312426206,5916.52331925,112.204728,0,0.37858925096,24900,2017-11-08 06:18:13,17,16.471,5916.52331925,112.204728,0,1.04249019084,318.4, 1.5, 3.5,0,1,1024,1024,1570,1113,314.5,0,98,4.13,4.133,4.128,4.12,0,0,84.11,6,GPS_Atti,
0.352659484393531,36.8960312326756,5917.83565525,113.517064,0,0.3723917442,25000,2017-11-08 06:18:13,17,16.471,5917.83565525,113.517064,0,1.04249019084,319.2, 1.7, 3.3,0,1,1024,1024,1570,1113,315.4,0,98,4.13,4.133,4.128,4.12,0,0,84.11,6,GPS_Atti,
0.352659469835242,36.8960312407674,5919.14799125,114.8294,0,0.37833334544,25100,2017-11-08 06:18:13,17,16.471,5919.14799125,114.8294,0,1.04249019084,320.1, 1.8, 3.5,0,1,1024,1024,1570,1114,316.3,0,98,4.13,4.133,4.128,4.12,0,0,84.11,6,GPS_Atti,
0.352659446309111,36.8960312309589,5920.46032725,116.141736,0,0.38255250568,25200,2017-11-08 06:18:13,17,16.471,5920.46032725,116.141736,0,1.04249019084,321, 1.6, 3.8,0,1,1024,1024,1570,1115,317.2,0,98,4.13,4.133,4.128,4.12,0,0,84.11,6,GPS_Atti,
0.352659417015032,36.8960312533419,5921.77266325,117.454072,0,0.39599410716,25300,2017-11-08 06:18:13,17,16.471,5921.77266325,117.454072,0,1.04249019084,321.9, 1.3, 3.8,0,1,1024,1024,1571,1114,318.2,0,98,4.13,4.133,4.128,4.12,0,0,84.11,6,GPS_Atti,
0.352659401637635,36.8960312641656,5923.08499925,118.766408,0,0.40283137772,25400,2017-11-08 06:18:13,17,16.471,5923.08499925,118.766408,0,1.04249019084,322.8, 1.1, 3.9,0,1,1024,1024,1571,1114,319.1,0,98,4.13,4.133,4.128,4.12,0,0,84.11,6,GPS_Atti,
