latitude,longitude,altitude(feet),ascent(feet),speed(mph),distance(feet),time(millisecond),datetime(utc),satellites,gpslevel,voltage(v),max_altitude(feet),max_ascent(feet),max_speed(mph),max_distance(feet), xSpeed(mph), ySpeed(mph), zSpeed(mph), compass_heading(degrees), pitch(degrees), roll(degrees),isPhoto,isVideo,rc_elevator,rc_aileron,rc_throttle,rc_rudder,gimbal_heading(degrees),gimbal_pitch(degrees),battery_percent,voltageCell1,voltageCell2,voltageCell3,voltageCell4,voltageCell5,voltageCell6,current(A),battery_temperature(f),flycStateRaw,flycState,message
0.364634566177088,36.8985610572899,5630.8093334011,0,0,0,0,2018-04-03 06:01:16,12,0,0,5630.8093334011,0,0,0,0,0,0,89.5, -1.8, 2.7,0,0,364,364,364,1684,94.1,0,99,4.292,4.295,4.295,4.293,0,0,0,76.91,6,P-GPS,
0.364634609590184,36.8985611040572,5630.8093334011,0,0,0.0232812671492,100,2018-04-03 06:01:16,12,0,0,5630.8093334011,0,0,0.0232812671492,0,0,0,89.5, -1.8, 2.7,0,0,364,364,364,1684,94.1,0,99,4.292,4.295,4.295,4.293,0,0,0,76.91,41,Motors_Started,
0.364634656347696,36.8985611523951,5630.8093334011,0,0,0.047815290244,200,2018-04-03 06:01:16,12,0,0,5630.8093334011,0,0,0.047815290244,0,0,0,89.5, -1.8, 2.7,0,0,364,364,364,1684,94.1,0,99,4.292,4.295,4.295,4.293,0,0,0,76.91,41,Motors_Started,
0.364634679691848,36.8985612003048,5630.8093334011,0,0,0.066616800032,300,2018-04-03 06:01:16,12,0,0,5630.8093334011,0,0,0.066616800032,0,0,0,89.5, -1.8, 2.7,0,0,364,364,364,1684,94.1,0,99,4.292,4.295,4.295,4.293,0,0,0,76.91,41,Motors_Started,
0.364634698525617,36.8985612495774,5630.8093334011,0,0,0.085166341308,400,2018-04-03 06:01:16,12,0,0,5630.8093334011,0,0,0.085166341308,0,0,0,89.5, -1.8, 2.7,0,0,364,364,364,1684,94.1,0,99,4.292,4.295,4.295,4.293,0,0,0,76.91,41,Motors_Started,
0.364634715403625,36.8985612981417,5630.8093334011,0,0,0.10337270672,500,2018-04-03 06:01:16,12,0,0,5630.8093334011,0,0,0.10337270672,0,0,0,89.4, -1.8, 2.7,0,0,364,364,364,1684,94.1,0,99,4.292,4.295,4.295,4.293,0,0,0,76.91,41,Motors_Started,
0.364634743383143,36.898561346713,5630.8093334011,0,0,0.123814964592,600,2018-04-03 06:01:16,12,0,17.129,5630.8093334011,0,0,0.123814964592,0,0,0,89.5, -1.8, 2.7,0,0,364,364,364,1684,94.1,0,99,4.292,4.295,4.295,4.293,0,0,1.496,76.91,41,Motors_Started,Setting new Return-To-Home altitude to 30m (98 ft). Setting new Maximum Flight Altitude to 150m (492 ft)
0.364634772206194,36.8985613951853,5630.8093334011,0,0,0.144388456064,700,2018-04-03 06:01:17,12,0,17.129,5630.8093334011,0,0,0.144388456064,0,0,0,89.4, -1.8, 2.7,0,0,364,364,364,1684,94.1,0,99,4.292,4.295,4.295,4.293,0,0,1.496,76.91,41,Motors_Started,
0.364634808120305,36.8985614439273,5630.8093334011,0,0,0.166404532884,800,2018-04-03 06:01:17,12,0,17.129,5630.8093334011,0,0,0.166404532884,0,0,0,89.4, -1.8, 2.7,0,0,364,364,364,1684,94.1,0,99,4.292,4.295,4.295,4.293,0,0,1.496,76.91,41,Motors_Started,
0.364634847887722,36.8985614926324,5630.8093334011,0,0,0.18918635776,900,2018-04-03 06:01:17,12,0,17.129,5630.8093334011,0,0,0.18918635776,0,0,0,89.4, -1.8, 2.7,0,0,364,364,364,1684,94,0,99,4.292,4.295,4.295,4.293,0,0,1.496,76.91,41,Motors_Started,
0.364634891938761,36.8985615427315,5630.8093334011,0,0,0.213293313912,1000,2018-04-03 06:01:17,12,0,17.129,5630.8093334011,0,0,0.213293313912,0,0,0,89.4, -1.8, 2.7,0,0,364,364,364,1684,94,0,99,4.292,4.295,4.295,4.293,0,0,1.496,76.91,41,Motors_Started,
0.364634939550799,36.898561592822,5630.8093334011,0,0,0.23818570316,1100,2018-04-03 06:01:17,12,0,17.129,5630.8093334011,0,0,0.23818570316,0,0,0,89.4, -1.8, 2.7,0,0,364,364,364,1684,94,0,99,4.292,4.295,4.295,4.293,0,0,1.496,76.91,41,Motors_Started,
0.364634987968103,36.8985616430816,5630.8093334011,0,0,0.263360900816,1200,2018-04-03 06:01:17,12,0,17.129,5630.8093334011,0,0,0.263360900816,0,0,0,89.4, -1.8, 2.7,0,0,364,364,364,1684,94,0,99,4.292,4.295,4.295,4.293,0,0,1.496,76.91,41,Motors_Started,
0.364635039731045,36.8985616718826,5630.8093334011,0,0,0.283072843704,1300,2018-04-03 06:01:17,12,0,17.129,5630.8093334011,0,0,0.283072843704,0,0,0,89.4, -1.8, 2.7,0,0,364,364,364,1684,94,0,99,4.292,4.295,4.295,4.293,0,0,1.496,76.91,41,Motors_Started,
0.364635089636747,36.8985616921497,5630.8093334011,0,0,0.300207030604,1400,2018-04-03 06:01:17,12,0,17.129,5630.8093334011,0,0,0.300207030604,0,0,0,89.4, -1.8, 2.7,0,0,468,436,364,1684,94,0,99,4.292,4.295,4.295,4.293,0,0,1.496,76.91,41,Motors_Started,
0.364635142257472,36.8985617324382,5630.8093334011,0,0,0.323807753144,1500,2018-04-03 06:01:17,12,0,17.129,5630.8093334011,0,0,0.323807753144,0,0,0,89.4, -1.8, 2.7,0,0,950,965,809,1384,94,0,99,4.292,4.295,4.295,4.293,0,0,1.496,76.91,41,Motors_Started,
0.364635192709517,36.8985617950634,5630.8093334011,0,0,0.35313649424,1600,2018-04-03 06:01:17,12,0,17.129,5630.8093334011,0,0,0.35313649424,0,0,0,89.4, -1.8, 2.7,0,0,1024,1024,1024,1066,93.6,0,99,4.292,4.295,4.286,4.283,0,0,1.49,76.91,10,Assisted_Takeoff,
0.364635246789735,36.8985618399732,5630.8093334011,0,0,0.37842520896,1700,2018-04-03 06:01:18,12,0,17.129,5630.8093334011,0,0,0.37842520896,0,0,0,89.5, -1.8, 2.7,0,0,1024,1024,1024,1024,92.2,0,99,4.292,4.295,4.286,4.283,0,0,1.49,76.91,10,Assisted_Takeoff,
0.364635298644277,36.8985618708854,5630.8093334011,0,0,0.3994094616,1800,2018-04-03 06:01:18,12,0,17.129,5630.8093334011,0,0,0.3994094616,0,0,0,89.4, -1.8, 2.7,0,0,1024,1024,1024,1024,91.2,0,99,4.292,4.295,4.286,4.283,0,0,1.49,76.91,10,Assisted_Takeoff,
0.364635352447253,36.8985619014159,5630.8093334011,0,0,0.4208825594,1900,2018-04-03 06:01:18,12,0,17.129,5630.8093334011,0,0,0.4208825594,0,0,0,89.3, -1.8, 2.7,0,0,1024,1024,1024,1024,90.8,0,99,4.292,4.295,4.286,4.283,0,0,1.49,76.91,10,Assisted_Takeoff,
0.364635403715962,36.8985619407077,5630.8093334011,0,0,0.44413715332,2000,2018-04-03 06:01:18,12,0,17.129,5630.8093334011,0,0,0.44413715332,0,0,0,89.4, -1.8, 2.7,0,0,1024,1024,1024,1024,90.8,0,99,4.292,4.295,4.286,4.283,0,0,1.49,76.91,10,Assisted_Takeoff,
0.36463543615131,36.8985619822264,5630.8093334011,0,0,0.46327757388,2100,2018-04-03 06:01:18,12,0,17.129,5630.8093334011,0,0,0.46327757388,0,0,0,89.4, -1.8, 2.7,0,0,1024,1024,1024,1024,90.5,0,99,4.292,4.295,4.286,4.283,0,0,1.49,76.91,10,Assisted_Takeoff,
0.364635457990372,36.8985620276865,5630.8093334011,0,0,0.48084975292,2200,2018-04-03 06:01:18,12,0,17.129,5630.8093334011,0,0,0.48084975292,0,0,0,89.3, -1.8, 2.7,0,0,1024,1024,1024,1024,90.3,0,99,4.292,4.295,4.286,4.283,0,0,1.49,76.91,10,Assisted_Takeoff,
0.364635479469548,36.8985620752878,5630.8093334011,0,0,0.49897639392,2300,2018-04-03 06:01:18,12,0,17.129,5630.8093334011,0,0,0.49897639392,0,0,0,89.3, -1.8, 2.7,0,0,1024,1024,1024,1024,90.2,0,99,4.292,4.295,4.286,4.283,0,0,1.49,76.91,10,Assisted_Takeoff,
0.364635511509591,36.8985621245534,5630.8093334011,0,0,0.52017062032,2400,2018-04-03 06:01:18,12,0,17.129,5630.8093334011,0,0,0.52017062032,0,0,0,89.3, -1.9, 2.7,0,0,1024,1024,1024,1024,90.1,0,99,4.292,4.295,4.286,4.283,0,0,1.49,76.91,10,Assisted_Takeoff,
0.36463552578046,36.8985621763103,5630.8093334011,0,0,0.5378281012,2500,2018-04-03 06:01:18,12,0,17.129,5630.8093334011,0,0,0.5378281012,0,0,0,89.3, -1.8, 2.7,0,0,1024,1024,1024,1024,90.1,0,99,4.292,4.295,4.286,4.283,0,0,1.49,76.91,10,Assisted_Takeoff,
0.364635535630918,36.8985622283107,5630.8093334011,0,0,0.55465224872,2600,2018-04-03 06:01:18,12,0,17.208,5630.8093334011,0,0,0.55465224872,0,0,0,89.3, -1.9, 2.7,0,0,1024,1024,1024,1024,90,0,99,4.273,4.273,4.268,4.263,0,0,4.06,76.91,10,Assisted_Takeoff,
0.364635548335224,36.8985622816634,5630.8093334011,0,0,0.572670622,2700,2018-04-03 06:01:19,12,0,17.208,5630.8093334011,0,0,0.572670622,0,0,0,89.3, -1.9, 2.7,0,0,1024,1024,1024,1024,90,0,99,4.273,4.273,4.268,4.263,0,0,4.06,76.91,10,Assisted_Takeoff,
0.364635574121634,36.8985623347221,5630.8093334011,0,0,0.59367455968,2800,2018-04-03 06:01:19,12,0,17.208,5630.8093334011,0,0,0.59367455968,0,0,0,89.3, -1.9, 2.7,0,0,1024,1024,1024,1024,89.9,0,99,4.273,4.273,4.268,4.263,0,0,4.06,76.91,10,Assisted_Takeoff,
0.364635587065322,36.8985623893691,5630.8093334011,0,0,0.61231301172,2900,2018-04-03 06:01:19,12,0,17.208,5630.8093334011,0,0,0.61231301172,0,0,0,89.3, -1.9, 2.7,0,0,1024,1024,1024,1024,89.9,0,99,4.273,4.273,4.268,4.263,0,0,4.06,76.91,10,Assisted_Takeoff,
0.36463559629005,36.8985624442527,5630.8093334011,0,0,0.63032482332,3000,2018-04-03 06:01:19,12,0,17.208,5630.8093334011,0,0,0.63032482332,0,0,0,89.3, -1.9, 2.7,0,0,1024,1024,1024,1024,89.9,0,99,4.273,4.273,4.268,4.263,0,0,4.06,76.91,10,Assisted_Takeoff,
0.364635611805457,36.8985624984185,5630.8093334011,0,0,0.64960632,3100,2018-04-03 06:01:19,12,0,17.208,5630.8093334011,0,0,0.64960632,0,0,0,89.3, -1.9, 2.7,0,0,1024,1024,1024,1024,89.9,0,99,4.273,4.273,4.268,4.263,0,0,4.06,76.91,10,Assisted_Takeoff,
0.364635639187336,36.8985625521817,5630.8093334011,0,0,0.6713582892,3200,2018-04-03 06:01:19,12,0,17.208,5630.8093334011,0,0,0.6713582892,0,0,0,89.3, -1.9, 2.7,0,0,1024,1024,1081,1024,89.8,0,99,4.273,4.273,4.268,4.263,0,0,4.06,76.91,10,Assisted_Takeoff,
0.364635668343404,36.8985626592986,5630.8093334011,0,0,0.70945212244,3400,2018-04-03 06:01:19,12,0,17.208,5630.8093334011,0,0,0.70945212244,0,0,0,89.3, -1.9, 2.7,0,0,1024,1024,1109,1024,89.8,0,99,4.273,4.273,4.268,4.263,0,0,4.06,76.91,10,Assisted_Takeoff,
0.364635667791362,36.8985627114141,5630.8093334011,0,0,0.72508532504,3500,2018-04-03 06:01:19,12,0,17.129,5630.8093334011,0,0,0.72508532504,0,0,0,89.3, -1.9, 2.7,0,0,1024,1024,1165,1024,89.8,0,99,4.273,4.273,4.268,4.263,0,0,1.934,76.91,10,Assisted_Takeoff,
0.364635678233352,36.8985628167822,5630.8093334011,0,0,0.75940947312,3700,2018-04-03 06:01:20,12,0,17.129,5630.8093334011,0,0,0.75940947312,0,0,0,89.3, -1.8, 2.7,0,0,1024,1024,1193,1024,89.8,0,99,4.273,4.273,4.268,4.263,0,0,1.934,76.91,10,Assisted_Takeoff,
0.364635701440714,36.8985628699003,5630.8093334011,0,0,0.78032154728,3800,2018-04-03 06:01:20,12,0,17.129,5630.8093334011,0,0,0.78032154728,0,0,0,89.3, -1.8, 2.7,0,0,1024,1024,1193,1024,89.8,0,99,4.273,4.273,4.268,4.263,0,0,1.934,76.91,10,Assisted_Takeoff,
0.364635718834532,36.8985629215293,5630.8093334011,0,0,0.79966537992,3900,2018-04-03 06:01:20,12,0,17.129,5630.8093334011,0,0,0.79966537992,0,0,0,89.2, -1.8, 2.7,0,0,1024,1024,1329,1024,89.8,0,99,4.273,4.273,4.268,4.263,0,0,1.934,76.91,10,Assisted_Takeoff,
0.364635725636135,36.898562976286,5630.8093334011,0,0,0.81800527552,4000,2018-04-03 06:01:20,12,0,17.129,5630.8093334011,0,0,0.81800527552,0,0,0,89.1, -1.7, 2.8,0,0,1024,1024,1537,1024,89.7,0,99,4.273,4.273,4.268,4.263,0,0,1.934,76.91,10,Assisted_Takeoff,
0.364635730574799,36.8985630370205,5630.8093334011,0,0,0.83796262524,4100,2018-04-03 06:01:20,12,0,17.129,5630.8093334011,0,0,0.83796262524,0,0,0,89.2, -0.4, 2.3,0,0,1024,1024,1684,1024,89.7,0,99,4.273,4.273,4.268,4.263,0,0,1.934,76.91,10,Assisted_Takeoff,
0.364635714753244,36.8985631237846,5630.8093334011,0,0,0.86257876776,4200,2018-04-03 06:01:20,12,0,17.129,5630.8093334011,0,0,0.86257876776,0,0,-0.223694,89.2, 1.5, 1.1,0,0,1024,1024,1684,1024,89.7,0,99,4.273,4.273,4.268,4.263,0,0,1.934,76.91,10,Assisted_Takeoff,
0.364635661096828,36.8985631931257,5630.8093334011,0,0,0.8756726002,4300,2018-04-03 06:01:20,12,0,17.129,5630.8093334011,0,0,0.8756726002,0,0,-0.671082,89.2, 1.7, 0.8,0,0,1024,1024,1684,1024,89.7,0,99,4.273,4.273,4.268,4.263,0,0,1.934,76.91,6,P-GPS,
0.364635577660243,36.8985632305991,5630.8093334011,0,0,0.87458664216,4400,2018-04-03 06:01:20,12,0,17.129,5630.8093334011,0,0,0.8756726002,0,0,-1.342164,89.2, 1.2, 0.1,0,0,1024,1024,1684,1024,89.7,0,99,4.273,4.273,4.268,4.263,0,0,1.934,76.91,6,P-GPS,
0.364635502455443,36.8985632354152,5631.1374174011,0.328084,0,0.86498362348,4500,2018-04-03 06:01:20,12,0,17.129,5631.1374174011,0.328084,0,0.8756726002,0,0,-2.23694,89.1, 1.1, -0.5,0,0,1024,1024,1684,1024,89.7,0,99,4.273,4.273,4.268,4.263,0,0,1.934,76.91,6,P-GPS,
0.364635461483792,36.8985632173471,5631.4655014011,0.656168,0,0.85309385932,4600,2018-04-03 06:01:20,12,0,17.103,5631.4655014011,0.656168,0,0.8756726002,0,0,-2.908022,89.1, 1.3, -1.2,0,0,1024,1024,1684,1024,89.7,0,99,4.284,4.287,4.286,4.284,0,0,1.934,76.91,6,P-GPS,
0.364635457002721,36.898563161705,5632.1216694011,1.312336,0,0.83374018416,4700,2018-04-03 06:01:21,12,0,17.103,5632.1216694011,1.312336,0,0.8756726002,0,0,-3.802798,89, 0.5, -1.1,0,0,1024,1024,1684,1024,89.7,0,99,4.284,4.287,4.286,4.284,0,0,1.934,76.91,6,P-GPS,Home Point Recorded. RTH Altitude:  30m.
0.364635481589783,36.8985630871645,5632.4497534011,1.64042,0.223694,0.81241144332,4800,2018-04-03 06:01:21,12,0,17.103,5632.4497534011,1.64042,0.223694,0.8756726002,0,-0.223694,-4.697574,88.9, -0.7, -1,0,0,1024,1024,1684,1024,89.7,0,99,4.284,4.287,4.286,4.284,0,0,1.934,76.91,6,P-GPS,
0.364635516418129,36.8985629876473,5633.4340054011,2.624672,0,0.78498362092,4900,2018-04-03 06:01:21,12,0,17.103,5633.4340054011,2.624672,0.223694,0.8756726002,0,0,-5.816044,88.9, -1.3, -0.6,0,0,1024,1024,1684,1024,89.6,0,99,4.284,4.287,4.286,4.284,0,0,1.934,76.91,6,P-GPS,
0.364635564815484,36.8985629015368,5634.4182574011,3.608924,0,0.765173909,5000,2018-04-03 06:01:21,12,0,17.103,5634.4182574011,3.608924,0.223694,0.8756726002,0,0,-6.934514,89, -0.9, 0.3,0,0,1024,1024,1684,1024,89.6,0,99,4.284,4.287,4.286,4.284,0,0,1.934,76.91,6,P-GPS,
0.364635646472587,36.8985628780616,5635.4025094011,4.593176,0,0.77242128456,5100,2018-04-03 06:01:21,12,0,17.103,5635.4025094011,4.593176,0.223694,0.8756726002,0,0,-8.052984,89.1, -0.6, 1.3,0,0,1024,1024,1684,1024,89.6,0,99,4.284,4.287,4.286,4.284,0,0,1.934,76.91,6,P-GPS,
0.364635734036463,36.8985629104919,5636.7148454011,5.905512,0,0.79918637728,5200,2018-04-03 06:01:21,12,0,17.103,5636.7148454011,5.905512,0.223694,0.8756726002,0,0,-9.171454,89.2, -1.2, 1.2,0,0,1024,1024,1684,1024,89.6,0,99,4.284,4.287,4.286,4.284,0,0,1.934,76.91,6,P-GPS,
0.364635842244939,36.8985630786109,5638.0271814011,7.217848,0,0.872129293,5300,2018-04-03 06:01:21,12,0,17.103,5638.0271814011,7.217848,0.223694,0.8756726002,0,0,-10.06623,89.2, -1.8, 0.6,0,0,1024,1024,1684,1024,89.6,0,99,4.284,4.287,4.286,4.284,0,0,1.934,76.91,6,P-GPS,
0.364635948968273,36.8985633194991,5639.6676014011,8.858268,0,0.96733270812,5400,2018-04-03 06:01:21,12,0,17.103,5639.6676014011,8.858268,0.223694,0.96733270812,0,0,-10.737312,89.3, -1.6, -0.3,0,0,1024,1024,1684,1024,89.6,0,99,4.284,4.287,4.286,4.284,0,0,1.934,76.91,6,P-GPS,
0.364636138694619,36.8985636740086,5641.3080214011,10.498688,0,1.11382221412,5500,2018-04-03 06:01:21,12,0,17.103,5641.3080214011,10.498688,0.223694,1.11382221412,0,0,-11.1847,89.2, -0.9, 0.1,0,0,1024,1024,1684,1035,89.6,0,99,4.284,4.287,4.286,4.284,0,0,1.934,76.91,6,P-GPS,
0.364636327981285,36.8985639902194,5642.9484414011,12.139108,0,1.24828087984,5600,2018-04-03 06:01:21,12,0,16.314,5642.9484414011,12.139108,0.223694,1.24828087984,0,0,-11.408394,89.2, -0.1, 0.7,0,0,1024,1024,1684,1032,89.6,0,99,4.148,4.152,4.142,4.131,0,0,10.554,76.91,6,P-GPS,
0.364636545953399,36.898564401204,5644.5888614011,13.779528,0,1.41779532096,5700,2018-04-03 06:01:22,12,0,16.314,5644.5888614011,13.779528,0.223694,1.41779532096,0,0,-11.632088,89.3, -0.1, 0.3,0,0,1024,1024,1684,1030,89.6,0,99,4.148,4.152,4.142,4.131,0,0,10.554,76.91,6,P-GPS,
0.364636732041802,36.8985647927742,5646.5573654011,15.748032,0,1.57538390868,5800,2018-04-03 06:01:22,12,0,16.314,5646.5573654011,15.748032,0.223694,1.57538390868,0,0,-11.408394,89.3, 0.1, 0.1,0,0,1024,1024,1684,1028,89.6,0,99,4.148,4.152,4.142,4.131,0,0,10.554,76.91,6,P-GPS,
0.364636915620772,36.898565113891,5648.1977854011,17.388452,0,1.71033141956,5900,2018-04-03 06:01:22,12,0,16.314,5648.1977854011,17.388452,0.223694,1.71033141956,0,0,-11.408394,89.2, 0.1, 0.3,0,0,1024,1024,1684,1024,89.6,0,99,4.148,4.152,4.142,4.131,0,0,10.554,76.91,6,P-GPS,
0.364637045853138,36.8985652925132,5649.8382054011,19.028872,0,1.79055780008,6000,2018-04-03 06:01:22,12,0,16.314,5649.8382054011,19.028872,0.223694,1.79055780008,0,0,-11.408394,89.2, 0, 0.2,0,0,1024,1024,1684,1024,89.6,0,99,4.148,4.152,4.142,4.131,0,0,10.554,76.91,6,P-GPS,
0.364637173982368,36.89856539536,5651.4786254011,20.669292,0,1.84668312996,6100,2018-04-03 06:01:22,12,0,16.314,5651.4786254011,20.669292,0.223694,1.84668312996,0,0,-11.1847,89.2, -0.2, 0,0,0,1024,1024,1684,1024,89.6,0,99,4.148,4.152,4.142,4.131,0,0,10.554,76.91,6,P-GPS,
0.364637298693495,36.8985654724073,5653.1190454011,22.309712,0,1.89437670104,6200,2018-04-03 06:01:22,12,0,16.314,5653.1190454011,22.309712,0.223694,1.89437670104,0,0,-11.1847,89.3, -0.2, 0,0,0,1024,1024,1684,1024,89.6,0,99,4.148,4.152,4.142,4.131,0,0,10.554,76.91,6,P-GPS,
0.364637406194411,36.8985654781875,5654.7594654011,23.950132,0,1.91708339468,6300,2018-04-03 06:01:22,12,0,16.314,5654.7594654011,23.950132,0.223694,1.91708339468,0,0,-10.961006,89.2, -0.5, 0.2,0,0,1024,1024,1684,1034,89.6,0,99,4.148,4.152,4.142,4.131,0,0,10.554,76.91,6,P-GPS,
0.36463749832933,36.898565503912,5656.3998854011,25.590552,0,1.94328746376,6400,2018-04-03 06:01:22,12,0,16.314,5656.3998854011,25.590552,0.223694,1.94328746376,0,0,-10.961006,89.2, -0.7, 0,0,0,1024,1024,1684,1039,89.6,0,99,4.148,4.152,4.142,4.131,0,0,10.554,76.91,6,P-GPS,
0.364637566206132,36.8985654725486,5658.0403054011,27.230972,0,1.9475558366,6500,2018-04-03 06:01:22,12,0,16.314,5658.0403054011,27.230972,0.223694,1.9475558366,0,0,-10.961006,89.2, -0.4, 0,0,0,1024,1024,1684,1037,89.6,0,99,4.148,4.152,4.142,4.131,0,0,10.554,76.91,6,P-GPS,
0.364637634937054,36.8985654562679,5659.6807254011,28.871392,0,1.95688326472,6600,2018-04-03 06:01:22,12,0,16.287,5659.6807254011,28.871392,0.223694,1.95688326472,0,0,-10.961006,89.2, -0.5, -0.1,0,0,1024,1024,1684,1038,89.6,0,99,4.089,4.099,4.095,4.089,0,0,20.298,76.91,6,P-GPS,
0.364637679031246,36.8985653746212,5661.3211454011,30.511812,0,1.94189310676,6700,2018-04-03 06:01:23,12,0,16.287,5661.3211454011,30.511812,0.223694,1.95688326472,0,0,-10.961006,89.2, -0.7, 0,0,0,1024,1024,1684,1038,89.6,0,99,4.089,4.099,4.095,4.089,0,0,20.298,76.91,6,P-GPS,
0.364637743987435,36.8985653284588,5662.9615654011,32.152232,0,1.94230977344,6800,2018-04-03 06:01:23,12,0,16.287,5662.9615654011,32.152232,0.223694,1.95688326472,0,0,-10.961006,89.2, -1, 0,0,0,1024,1024,1684,1038,89.6,0,99,4.089,4.099,4.095,4.089,0,0,20.298,76.91,6,P-GPS,
0.364637804271617,36.8985652383276,5664.6019854011,33.792652,0,1.92941607224,6900,2018-04-03 06:01:23,12,0,16.287,5664.6019854011,33.792652,0.223694,1.95688326472,0,0,-10.961006,89.2, -1.3, 0,0,0,1024,1024,1684,1037,89.6,0,99,4.089,4.099,4.095,4.089,0,0,20.298,76.91,6,P-GPS,
0.364637901486467,36.8985652008746,5666.2424054011,35.433072,0,1.94067263428,7000,2018-04-03 06:01:23,12,0,16.287,5666.2424054011,35.433072,0.223694,1.95688326472,0,0,-10.961006,89.2, -1.1, 0,0,0,1024,1024,1684,1036,89.6,0,99,4.089,4.099,4.095,4.089,0,0,20.298,76.91,6,P-GPS,
0.364637990460576,36.8985651542882,5667.8828254011,37.073492,0,1.94812014108,7100,2018-04-03 06:01:23,12,0,16.287,5667.8828254011,37.073492,0.223694,1.95688326472,0,0,-10.961006,89.3, -1, -0.1,0,0,1024,1024,1684,1035,89.6,0,99,4.089,4.099,4.095,4.089,0,0,20.298,76.91,6,P-GPS,
0.364638106361006,36.8985651665167,5669.5232454011,38.713912,0,1.97888129692,7200,2018-04-03 06:01:23,12,0,16.287,5669.5232454011,38.713912,0.223694,1.97888129692,0,0,-10.961006,89.3, -1.2, 0,0,0,1024,1024,1684,1041,89.6,0,99,4.089,4.099,4.095,4.089,0,0,20.298,76.91,6,P-GPS,
0.364638201379085,36.898565143611,5671.1636654011,40.354332,0,1.99542985388,7300,2018-04-03 06:01:23,12,0,16.287,5671.1636654011,40.354332,0.223694,1.99542985388,0,0,-10.961006,89.2, -1.2, 0.3,0,0,1024,1024,1684,1041,89.6,0,99,4.089,4.099,4.095,4.089,0,0,20.298,76.91,6,P-GPS,
0.364638298458774,36.8985651298013,5672.8040854011,41.994752,0,2.01542985452,7400,2018-04-03 06:01:23,12,0,16.287,5672.8040854011,41.994752,0.223694,2.01542985452,0,0,-10.961006,89.2, -1.2, 0.4,0,0,1024,1024,1684,1041,89.6,0,99,4.089,4.099,4.095,4.089,0,0,20.298,76.91,6,P-GPS,
0.364638393914904,36.8985651141522,5674.1164214011,43.307088,0,2.03496397588,7500,2018-04-03 06:01:23,12,0,16.287,5674.1164214011,43.307088,0.223694,2.03496397588,0,0,-10.961006,89.2, -1.2, 0.5,0,0,1024,1024,1684,1039,89.6,0,99,4.089,4.099,4.095,4.089,0,0,20.298,76.91,6,P-GPS,
0.364638523272796,36.8985651446238,5675.7568414011,44.947508,0,2.07561358348,7600,2018-04-03 06:01:23,12,0,16.34,5675.7568414011,44.947508,0.223694,2.07561358348,0,0,-10.961006,89.2, -1, 0.9,0,0,1024,1024,1684,1047,89.6,0,99,4.089,4.099,4.095,4.089,0,0,20.298,76.91,6,P-GPS,
0.364638650316668,36.8985651999196,5677.3972614011,46.587928,0,2.12243445112,7700,2018-04-03 06:01:24,12,0,16.34,5677.3972614011,46.587928,0.223694,2.12243445112,0,0,-10.961006,89.2, -1, 0.9,0,0,1024,1024,1684,1045,89.6,0,99,4.089,4.099,4.095,4.089,0,0,20.298,76.91,6,P-GPS,
0.364638782092799,36.8985652890669,5679.0376814011,48.228348,0,2.179379991,7800,2018-04-03 06:01:24,12,0,16.34,5679.0376814011,48.228348,0.223694,2.179379991,0,0,-10.961006,89.2, -1, 0.8,0,0,1024,1024,1684,1044,89.6,0,99,4.089,4.099,4.095,4.089,0,0,20.298,76.91,6,P-GPS,
0.364638915487603,36.8985654001873,5680.6781014011,49.868768,0,2.24245742084,7900,2018-04-03 06:01:24,12,0,16.34,5680.6781014011,49.868768,0.223694,2.24245742084,0,0,-11.1847,89.2, -0.8, 1.1,0,0,1024,1024,1684,1040,89.6,0,99,4.089,4.099,4.095,4.089,0,0,20.298,76.91,6,P-GPS,
0.364639049050137,36.8985655226187,5682.3185214011,51.509188,0,2.30850401088,8000,2018-04-03 06:01:24,12,0,16.34,5682.3185214011,51.509188,0.223694,2.30850401088,0,0,-11.1847,89.2, -0.6, 1.1,0,0,1024,1024,1684,1045,89.6,0,99,4.089,4.099,4.095,4.089,0,0,20.298,76.91,6,P-GPS,
0.364639183352799,36.8985656774446,5683.9589414011,53.149608,0,2.38309062744,8100,2018-04-03 06:01:24,12,0,16.34,5683.9589414011,53.149608,0.223694,2.38309062744,0,0,-11.1847,89.2, 0, 1.4,0,0,1024,1024,1684,1044,89.6,0,99,4.089,4.099,4.095,4.089,0,0,20.298,76.91,6,P-GPS,
0.364639305534138,36.8985658180442,5685.9274454011,55.118112,0,2.45089246688,8200,2018-04-03 06:01:24,12,0,16.34,5685.9274454011,55.118112,0.223694,2.45089246688,0,0,-11.1847,89.3, 0, 1.2,0,0,1024,1024,1684,1048,89.6,0,99,4.089,4.099,4.095,4.089,0,0,20.298,76.91,6,P-GPS,
0.364639403111316,36.8985659373365,5687.5678654011,56.758532,0,2.5068570356,8300,2018-04-03 06:01:24,12,0,16.34,5687.5678654011,56.758532,0.223694,2.5068570356,0,0,-11.1847,89.3, -0.6, 1.2,0,0,1024,1024,1684,1048,89.6,0,99,4.089,4.099,4.095,4.089,0,0,20.298,76.91,6,P-GPS,
0.364639481191949,36.8985660303455,5689.2082854011,58.398952,0,2.551017142,8400,2018-04-03 06:01:24,12,0,16.34,5689.2082854011,58.398952,0.223694,2.551017142,0,0,-11.1847,89.3, -1, 1.3,0,0,1024,1024,1684,1046,89.6,0,99,4.089,4.099,4.095,4.089,0,0,20.298,76.91,6,P-GPS,
0.364639542098197,36.8985661147672,5690.8487054011,60.039372,0,2.5885499516,8500,2018-04-03 06:01:24,12,0,16.34,5690.8487054011,60.039372,0.223694,2.5885499516,0,0,-11.1847,89.4, -0.7, 1.3,0,0,1024,1024,1684,1047,89.6,0,99,4.089,4.099,4.095,4.089,0,0,20.298,76.91,6,P-GPS,
0.364639598018964,36.898566182209,5692.4891254011,61.679792,0,2.62040034632,8600,2018-04-03 06:01:24,12,0,16.287,5692.4891254011,61.679792,0.223694,2.62040034632,0,0,-11.1847,89.6, -0.6, 1.5,0,0,1024,1024,1684,1046,89.6,0,99,4.1,4.109,4.105,4.098,0,0,17,76.91,6,P-GPS,
0.364639627852872,36.898566231004,5694.1295454011,63.320212,0,2.64073499264,8700,2018-04-03 06:01:25,12,0,16.287,5694.1295454011,63.320212,0.223694,2.64073499264,0,0,-11.1847,89.6, -0.6, 1.1,0,0,1024,1024,1684,1047,89.6,0,99,4.1,4.109,4.105,4.098,0,0,17,76.91,6,P-GPS,
0.364639646525425,36.898566284331,5695.7699654011,64.960632,0,2.65941937644,8800,2018-04-03 06:01:25,12,0,16.287,5695.7699654011,64.960632,0.223694,2.65941937644,0,0,-10.961006,89.8, -0.4, 1.1,0,0,1024,1024,1684,1046,89.6,0,99,4.1,4.109,4.105,4.098,0,0,17,76.91,6,P-GPS,
0.364639677062822,36.8985663251543,5697.4103854011,66.601052,0,2.67786753976,8900,2018-04-03 06:01:25,12,0,16.287,5697.4103854011,66.601052,0.223694,2.67786753976,0,0,-11.1847,89.9, -0.1, 1.4,0,0,1024,1024,1684,1046,89.6,0,99,4.1,4.109,4.105,4.098,0,0,17,76.91,6,P-GPS,
0.364639718101239,36.8985663637604,5699.0508054011,68.241472,0,2.69840231732,9000,2018-04-03 06:01:25,12,0,16.287,5699.0508054011,68.241472,0.223694,2.69840231732,0,0,-11.1847,89.9, -0.2, 1.7,0,0,1024,1024,1684,1047,89.6,0,99,4.1,4.109,4.105,4.098,0,0,17,76.91,6,P-GPS,
0.364639748264907,36.8985663981172,5700.6912254011,69.881892,0,2.71506242284,9100,2018-04-03 06:01:25,12,0,16.287,5700.6912254011,69.881892,0.223694,2.71506242284,0,0,-11.1847,89.9, -0.1, 1.7,0,0,1024,1024,1684,1047,89.6,0,99,4.1,4.109,4.105,4.098,0,0,17,76.91,6,P-GPS,
0.364639753344838,36.898566445695,5702.3316454011,71.522312,0,2.72883210832,9200,2018-04-03 06:01:25,12,0,16.287,5702.3316454011,71.522312,0.223694,2.72883210832,0,0,-10.961006,89.9, 0, 0.9,0,0,1024,1024,1684,1050,89.6,0,99,4.1,4.109,4.105,4.098,0,0,17,76.91,6,P-GPS,
0.364639750211712,36.8985664666125,5704.3001494011,73.490816,0,2.73354339456,9300,2018-04-03 06:01:25,12,0,16.287,5704.3001494011,73.490816,0.223694,2.73354339456,0,0,-11.1847,89.9, 0, 1,0,0,1024,1024,1684,1054,89.6,0,99,4.1,4.109,4.105,4.098,0,0,17,76.91,6,P-GPS,
0.364639738904611,36.8985664702098,5705.9405694011,75.131236,0,2.73163722652,9400,2018-04-03 06:01:25,12,0,16.287,5705.9405694011,75.131236,0.223694,2.73354339456,0,0,-11.408394,89.9, -0.2, 1.1,0,0,1024,1024,1684,1053,89.6,0,99,4.1,4.109,4.105,4.098,0,0,17,76.91,6,P-GPS,
0.364639723731584,36.8985664734376,5707.5809894011,76.771656,0,2.72866806632,9500,2018-04-03 06:01:25,12,0,16.287,5707.5809894011,76.771656,0.223694,2.73354339456,0,0,-11.1847,90.1, -0.4, 1.2,0,0,1024,1024,1684,1059,89.6,0,99,4.1,4.109,4.105,4.098,0,0,17,76.91,6,P-GPS,
0.364639704721943,36.8985664946378,5709.2214094011,78.412076,0,2.72950796136,9600,2018-04-03 06:01:25,12,0,16.34,5709.2214094011,78.412076,0.223694,2.73354339456,0,0,-11.408394,90.2, -0.3, 1.2,0,0,1024,1024,1684,1059,89.6,0,99,4.101,4.109,4.103,4.096,0,0,16.292,76.91,6,P-GPS,
0.364639681821135,36.8985665137942,5711.1899134011,80.38058,0,2.7288714784,9700,2018-04-03 06:01:26,12,0,16.34,5711.1899134011,80.38058,0.223694,2.73354339456,0,0,-11.408394,90.4, 0.3, 1.6,0,0,1024,1024,1684,1053,89.6,0,99,4.101,4.109,4.103,4.096,0,0,16.292,76.91,6,P-GPS,
0.364639645606983,36.8985665258075,5712.8303334011,82.021,0,2.72306111076,9800,2018-04-03 06:01:26,12,0,16.34,5712.8303334011,82.021,0.223694,2.73354339456,0,0,-11.408394,90.6, 0.6, 1.5,0,0,1024,1024,1684,1054,89.7,0,99,4.101,4.109,4.103,4.096,0,0,16.292,76.91,6,P-GPS,
0.364639579799118,36.8985665318146,5714.4707534011,83.66142,0,2.70839247512,9900,2018-04-03 06:01:26,12,0,16.34,5714.4707534011,83.66142,0.223694,2.73354339456,0,0,-11.1847,90.7, 0.5, 0.9,0,0,1024,1024,1684,1058,89.7,0,99,4.101,4.109,4.103,4.096,0,0,16.292,76.91,6,P-GPS,
0.364639493805062,36.8985665390145,5716.4392574011,85.629924,0,2.6892553354,10000,2018-04-03 06:01:26,12,0,16.34,5716.4392574011,85.629924,0.223694,2.73354339456,0,0,-11.408394,90.8, 0.4, 0.3,0,0,1024,1024,1684,1039,89.7,0,99,4.101,4.109,4.103,4.096,0,0,16.292,76.91,6,P-GPS,
0.364639413862304,36.8985665468567,5718.0796774011,87.270344,0,2.67198827448,10100,2018-04-03 06:01:26,12,0,16.34,5718.0796774011,87.270344,0.223694,2.73354339456,0,0,-11.1847,91, 0.6, 0.5,0,0,1024,1024,1684,1052,89.7,0,99,4.101,4.109,4.103,4.096,0,0,16.292,76.91,6,P-GPS,
0.364639345202219,36.8985665451555,5719.7200974011,88.910764,0,2.6550033658,10200,2018-04-03 06:01:26,12,0,16.34,5719.7200974011,88.910764,0.223694,2.73354339456,0,0,-11.1847,91.1, 0.3, 0.6,0,0,1024,1024,1684,1051,89.8,0,99,4.101,4.109,4.103,4.096,0,0,16.292,76.91,6,P-GPS,
0.364639281412811,36.898566535929,5721.3605174011,90.551184,0,2.63722449384,10300,2018-04-03 06:01:26,12,0,16.34,5721.3605174011,90.551184,0.223694,2.73354339456,0,0,-11.1847,91.1, -0.3, 0.4,0,0,1024,1024,1684,1046,89.8,0,99,4.101,4.109,4.103,4.096,0,0,16.292,76.91,6,P-GPS,
0.36463922710339,36.8985665286617,5723.3290214011,92.519688,0,2.62232291856,10400,2018-04-03 06:01:26,12,0,16.34,5723.3290214011,92.519688,0.223694,2.73354339456,0,0,-11.1847,91.2, 0, 0.3,0,0,1024,1024,1684,1049,89.9,0,99,4.101,4.109,4.103,4.096,0,0,16.292,76.91,6,P-GPS,
0.36463918802969,36.8985665339302,5724.9694414011,94.160108,0,2.61457029364,10500,2018-04-03 06:01:26,12,0,16.34,5724.9694414011,94.160108,0.223694,2.73354339456,0,0,-11.1847,91.2, 0.5, 0.5,0,0,1024,1024,1684,1048,89.9,0,99,4.101,4.109,4.103,4.096,0,0,16.292,76.91,6,P-GPS,
0.364639153503421,36.8985665253567,5726.6098614011,95.800528,0,2.60406504396,10600,2018-04-03 06:01:26,12,0,16.261,5726.6098614011,95.800528,0.223694,2.73354339456,0,0,-11.1847,91.3, 0.3, 0.7,0,0,1024,1024,1684,1053,89.9,0,99,4.097,4.104,4.1,4.093,0,0,15.914,76.91,6,P-GPS,
0.364639097454007,36.8985664895289,5728.5783654011,97.769032,0,2.58091871776,10700,2018-04-03 06:01:27,12,0,16.261,5728.5783654011,97.769032,0.223694,2.73354339456,0,0,-11.1847,91.3, -0.3, 0.5,0,0,1024,1024,1684,1054,90,0,99,4.097,4.104,4.1,4.093,0,0,15.914,76.91,6,P-GPS,
0.364639028976308,36.8985664486274,5730.2187854011,99.409452,0,2.55347449116,10800,2018-04-03 06:01:27,12,0,16.261,5730.2187854011,99.409452,0.223694,2.73354339456,0,0,-11.1847,91.3, -0.2, 0.7,0,0,1024,1024,1684,1053,90,0,99,4.097,4.104,4.1,4.093,0,0,15.914,76.91,6,P-GPS,
0.364638940452464,36.8985664294314,5731.8592054011,101.049872,0,2.52756569768,10900,2018-04-03 06:01:27,12,0,16.261,5731.8592054011,101.049872,0.223694,2.73354339456,0,0,-11.1847,91.4, -0.1, 0.4,0,0,1024,1024,1684,1054,90.1,0,99,4.097,4.104,4.1,4.093,0,0,15.914,76.91,6,P-GPS,
0.364638847707693,36.8985664305866,5733.4996254011,102.690292,0,2.50666674688,11000,2018-04-03 06:01:27,12,0,16.261,5733.4996254011,102.690292,0.223694,2.73354339456,0,0,-11.1847,91.5, -0.1, 0.1,0,0,1024,1024,1684,1055,90.1,0,99,4.097,4.104,4.1,4.093,0,0,15.914,76.91,6,P-GPS,
0.364638764048011,36.8985664359867,5735.4681294011,104.658796,0,2.48931438412,11100,2018-04-03 06:01:27,12,0,16.261,5735.4681294011,104.658796,0.223694,2.73354339456,0,0,-11.1847,91.7, 0.3, 0.2,0,0,1024,1024,1684,1054,90.2,0,99,4.097,4.104,4.1,4.093,0,0,15.914,76.91,6,P-GPS,
0.364638705824624,36.8985664358047,5737.1085494011,106.299216,0,2.4762467984,11200,2018-04-03 06:01:27,12,0,16.261,5737.1085494011,106.299216,0.223694,2.73354339456,0,0,-11.1847,91.9, 0.9, 0.1,0,0,1024,1024,1684,1054,90.2,0,99,4.097,4.104,4.1,4.093,0,0,15.914,76.91,6,P-GPS,
0.364638639301059,36.8985664301541,5738.7489694011,107.939636,0,2.4598754068,11300,2018-04-03 06:01:27,12,0,16.261,5738.7489694011,107.939636,0.223694,2.73354339456,0,0,-11.1847,91.9, 1.6, 0,0,0,1024,1024,1684,1053,90.3,0,99,4.097,4.104,4.1,4.093,0,0,15.914,76.91,6,P-GPS,
0.364638583710052,36.8985664052411,5740.3893894011,109.580056,0,2.4404036214,11400,2018-04-03 06:01:27,12,0,16.261,5740.3893894011,109.580056,0.223694,2.73354339456,0,0,-11.1847,92.1, 1.3, 0,0,0,1024,1024,1684,1053,90.4,0,99,4.097,4.104,4.1,4.093,0,0,15.914,76.91,6,P-GPS,
0.364638523617211,36.8985663238214,5742.0298094011,111.220476,0,2.40348432888,11500,2018-04-03 06:01:27,12,0,16.261,5742.0298094011,111.220476,0.223694,2.73354339456,0,0,-10.961006,92.1, 0.6, 0.5,0,0,1024,1024,1684,1054,90.5,0,99,4.097,4.104,4.1,4.093,0,0,15.914,76.91,6,P-GPS,
0.364638475706761,36.8985662063897,5743.9983134011,113.18898,0,2.358759918,11600,2018-04-03 06:01:27,12,0,16.314,5743.9983134011,113.18898,0.223694,2.73354339456,0,0,-11.1847,92.2, -0.4, 0.9,0,0,1024,1024,1684,1057,90.5,0,99,4.097,4.104,4.1,4.093,0,0,15.914,76.91,6,P-GPS,
0.364638437940702,36.8985660805613,5745.6387334011,114.8294,0,2.3139272394,11700,2018-04-03 06:01:28,12,0,16.314,5745.6387334011,114.8294,0.223694,2.73354339456,0,0,-10.961006,92.4, -0.2, 1.1,0,0,1024,1024,1684,1057,90.5,0,99,4.097,4.104,4.1,4.093,0,0,15.914,76.91,6,P-GPS,
0.364638416422443,36.8985659600313,5747.2791534011,116.46982,0.223694,2.27439967908,11800,2018-04-03 06:01:28,12,0,16.314,5747.2791534011,116.46982,0.223694,2.73354339456,0,-0.223694,-11.1847,92.5, -0.9, 0.8,0,0,1024,1024,1684,1059,90.7,0,99,4.097,4.104,4.1,4.093,0,0,15.914,76.91,6,P-GPS,
0.364638373292289,36.8985658150015,5748.9195734011,118.11024,0,2.22315951996,11900,2018-04-03 06:01:28,12,0,16.314,5748.9195734011,118.11024,0.223694,2.73354339456,0,0,-11.1847,92.8, -1.4, 0.4,0,0,1024,1024,1684,1057,90.7,0,99,4.097,4.104,4.1,4.093,0,0,15.914,76.91,6,P-GPS,
0.364638324948672,36.898565685169,5750.5599934011,119.75066,0,2.17521004336,12000,2018-04-03 06:01:28,12,0,16.314,5750.5599934011,119.75066,0.223694,2.73354339456,0,0,-10.961006,93, -1.3, 0.1,0,0,1024,1024,1684,1048,90.8,0,99,4.097,4.104,4.1,4.093,0,0,15.914,76.91,6,P-GPS,
0.364638271788118,36.8985655691944,5752.5284974011,121.719164,0,2.13017067184,12100,2018-04-03 06:01:28,12,0,16.314,5752.5284974011,121.719164,0.223694,2.73354339456,0,0,-10.961006,93.2, -0.8, 0.1,0,0,1024,1024,1684,1024,90.9,0,99,4.097,4.104,4.1,4.093,0,0,15.914,76.91,6,P-GPS,
0.364638233500143,36.8985654800942,5754.1689174011,123.359584,0,2.09620741616,12200,2018-04-03 06:01:28,12,0,16.314,5754.1689174011,123.359584,0.223694,2.73354339456,0,0,-10.961006,93.3, -0.7, 0.2,0,0,1024,1024,1684,1024,91.1,0,99,4.097,4.104,4.1,4.093,0,0,15.914,76.91,6,P-GPS,
0.364638192219902,36.8985653835469,5755.8093374011,125.000004,0,2.05950793992,12300,2018-04-03 06:01:28,12,0,16.314,5755.8093374011,125.000004,0.223694,2.73354339456,0,0,-10.961006,93.3, -1.2, 0.3,0,0,1024,1024,1684,1024,91.2,0,99,4.097,4.104,4.1,4.093,0,0,15.914,76.91,6,P-GPS,
0.364638157718059,36.8985652965536,5757.4497574011,126.640424,0,2.02712604912,12400,2018-04-03 06:01:28,12,0,16.314,5757.4497574011,126.640424,0.223694,2.73354339456,0,0,-11.1847,93.4, -1.5, 0,0,0,1024,1024,1684,1022,91.3,0,99,4.097,4.104,4.1,4.093,0,0,15.914,76.91,6,P-GPS,
0.364638119282709,36.8985652201798,5759.0901774011,128.280844,0,1.99681436836,12500,2018-04-03 06:01:28,12,0,16.314,5759.0901774011,128.280844,0.223694,2.73354339456,0,0,-11.1847,93.4, -1.1, 0,0,0,1024,1024,1684,1022,91.4,0,99,4.097,4.104,4.1,4.093,0,0,15.914,76.91,6,P-GPS,
0.364638097545425,36.8985651572688,5760.7305974011,129.921264,0,1.97422578496,12600,2018-04-03 06:01:28,12,0,16.287,5760.7305974011,129.921264,0.223694,2.73354339456,0,0,-10.961006,93.3, -0.6, 0.6,0,0,1024,1024,1684,968,91.5,0,99,4.084,4.093,4.091,4.086,0,0,16.442,76.91,6,P-GPS,
0.364638066245917,36.8985650735944,5762.3710174011,131.561684,0,1.94367460288,12700,2018-04-03 06:01:29,12,0,16.287,5762.3710174011,131.561684,0.223694,2.73354339456,0,0,-10.961006,93.3, -1.2, 0.8,0,0,1024,1024,1684,968,91.6,0,99,4.084,4.093,4.091,4.086,0,0,16.442,76.91,6,P-GPS,
0.364638034050765,36.8985649887723,5764.0114374011,133.202104,0,1.9126641032,12800,2018-04-03 06:01:29,12,0,16.287,5764.0114374011,133.202104,0.223694,2.73354339456,0,0,-10.961006,93.2, -1.7, 0.8,0,0,1024,1024,1684,944,91.5,0,99,4.084,4.093,4.091,4.086,0,0,16.442,76.91,6,P-GPS,
0.364637990704842,36.8985649072338,5765.9799414011,135.170608,0,1.87990819664,12900,2018-04-03 06:01:29,12,0,16.287,5765.9799414011,135.170608,0.223694,2.73354339456,0,0,-11.1847,92.7, -1.5, 0.6,0,0,1024,1024,1684,944,91.2,0,99,4.084,4.093,4.091,4.086,0,0,16.442,76.91,6,P-GPS,
0.364637962956157,36.8985648458977,5767.6203614011,136.811028,0,1.85647315652,13000,2018-04-03 06:01:29,12,0,16.287,5767.6203614011,136.811028,0.223694,2.73354339456,0,0,-10.961006,92, -1.2, 0.4,0,0,1024,1024,1684,948,90.9,0,99,4.084,4.093,4.091,4.086,0,0,16.442,76.91,6,P-GPS,
0.364637922772673,36.8985647780512,5769.2607814011,138.451448,0,1.8282644942,13100,2018-04-03 06:01:29,12,0,16.287,5769.2607814011,138.451448,0.223694,2.73354339456,0,0,-11.1847,91.2, -1, 0.4,0,0,1024,1024,1684,950,90.9,0,99,4.084,4.093,4.091,4.086,0,0,16.442,76.91,6,P-GPS,
0.364637883004442,36.8985647173221,5770.9012014011,140.091868,0,1.8020997952,13200,2018-04-03 06:01:29,12,0,16.287,5770.9012014011,140.091868,0.223694,2.73354339456,0,0,-11.1847,90.4, -0.9, 0.5,0,0,1024,1024,1684,961,90.6,0,99,4.084,4.093,4.091,4.086,0,0,16.442,76.91,6,P-GPS,
0.364637825324955,36.8985646451985,5772.5416214011,141.732288,0,1.7684711852,13300,2018-04-03 06:01:29,12,0,16.287,5772.5416214011,141.732288,0.223694,2.73354339456,0,0,-11.1847,89.7, -0.9, 0.3,0,0,1024,1024,1684,961,90.3,0,99,4.084,4.093,4.091,4.086,0,0,16.442,76.91,6,P-GPS,
0.364637777658771,36.8985645888161,5774.1820414011,143.372708,0,1.741551893,13400,2018-04-03 06:01:29,12,0,16.287,5774.1820414011,143.372708,0.223694,2.73354339456,0,0,-10.961006,89.1, -0.8, 0.1,0,0,1024,1024,1684,963,90.1,0,99,4.084,4.093,4.091,4.086,0,0,16.442,76.91,6,P-GPS,
0.364637737605563,36.8985645017414,5776.1505454011,145.341212,0,1.70824808616,13500,2018-04-03 06:01:29,12,0,16.287,5776.1505454011,145.341212,0.223694,2.73354339456,0,0,-10.961006,88.6, -1.1, 0.3,0,0,1024,1024,1684,975,89.9,0,99,4.084,4.093,4.091,4.086,0,0,16.442,76.91,6,P-GPS,
0.364637722153257,36.8985644046738,5777.7909654011,146.981632,0,1.6784941482,13600,2018-04-03 06:01:29,12,0,16.261,5777.7909654011,146.981632,0.223694,2.73354339456,0,0,-10.961006,88, -1.2, 0.2,0,0,1024,1024,1684,982,89.7,0,99,4.091,4.097,4.092,4.087,0,0,15.584,76.91,6,P-GPS,
0.364637700253943,36.8985642927686,5779.4313854011,148.622052,0,1.64345805784,13700,2018-04-03 06:01:30,12,0,16.261,5779.4313854011,148.622052,0.223694,2.73354339456,0,0,-11.1847,87.6, -1.6, 0,0,0,1024,1024,1684,984,89.5,0,99,4.091,4.097,4.092,4.087,0,0,15.584,76.91,6,P-GPS,
0.364637689022564,36.8985642089219,5781.0718054011,150.262472,0,1.61873692844,13800,2018-04-03 06:01:30,12,0,16.261,5781.0718054011,150.262472,0.223694,2.73354339456,0,0,-11.1847,87.2, -2, 0,0,0,1024,1024,1684,982,89.4,0,99,4.091,4.097,4.092,4.087,0,0,15.584,76.91,6,P-GPS,
0.364637681278499,36.8985641169835,5782.7122254011,151.902892,0,1.59306763628,13900,2018-04-03 06:01:30,12,0,16.261,5782.7122254011,151.902892,0.223694,2.73354339456,0,0,-11.1847,86.9, -2, 0.3,0,0,1024,1024,1684,984,89.3,0,99,4.091,4.097,4.092,4.087,0,0,15.584,76.91,6,P-GPS,
0.364637681045631,36.8985640370852,5784.3526454011,153.543312,0,1.57271658576,14000,2018-04-03 06:01:30,12,0,16.261,5784.3526454011,153.543312,0.223694,2.73354339456,0,0,-11.1847,86.6, -2, 0.7,0,0,1024,1024,1684,982,89.1,0,99,4.091,4.097,4.092,4.087,0,0,15.584,76.91,6,P-GPS,
0.364637685394391,36.8985639500887,5786.3211494011,155.511816,0,1.55210962972,14100,2018-04-03 06:01:30,12,0,16.261,5786.3211494011,155.511816,0.223694,2.73354339456,0,0,-11.1847,86.4, -1.8, 0.6,0,0,1024,1024,1684,986,88.9,0,99,4.091,4.097,4.092,4.087,0,0,15.584,76.91,6,P-GPS,
0.364637717662009,36.8985638820763,5787.9615694011,157.152236,0,1.54409125676,14200,2018-04-03 06:01:30,12,0,16.261,5787.9615694011,157.152236,0.223694,2.73354339456,0,0,-11.1847,86.1, -1.7, 0.5,0,0,1024,1024,1684,988,88.8,0,99,4.091,4.097,4.092,4.087,0,0,15.584,76.91,6,P-GPS,
0.364637750613573,36.8985638114446,5789.6019894011,158.792656,0,1.53608600716,14300,2018-04-03 06:01:30,12,0,16.261,5789.6019894011,158.792656,0.223694,2.73354339456,0,0,-11.1847,85.8, -1.7, 0.9,0,0,1024,1024,1684,988,88.6,0,99,4.091,4.097,4.092,4.087,0,0,15.584,76.91,6,P-GPS,
0.364637771004135,36.8985637669164,5791.2424094011,160.433076,0,1.53118115136,14400,2018-04-03 06:01:30,12,0,16.261,5791.2424094011,160.433076,0.223694,2.73354339456,0,0,-11.1847,85.6, -1.4, 1.1,0,0,1024,1024,1684,993,88.5,0,99,4.091,4.097,4.092,4.087,0,0,15.584,76.91,6,P-GPS,
0.364637766324801,36.8985637173473,5792.8828294011,162.073496,0,1.51825464176,14500,2018-04-03 06:01:30,12,0,16.261,5792.8828294011,162.073496,0.223694,2.73354339456,0,0,-11.1847,85.4, -1.7, 0.7,0,0,1024,1024,1684,998,88.3,0,99,4.091,4.097,4.092,4.087,0,0,15.584,76.91,6,P-GPS,
0.364637757143634,36.898563678798,5794.5232494011,163.713916,0,1.50671264664,14600,2018-04-03 06:01:30,12,0,16.235,5794.5232494011,163.713916,0.223694,2.73354339456,0,0,-10.961006,85.2, -1.8, 0.7,0,0,1024,1024,1684,1003,88.2,0,99,4.082,4.09,4.084,4.077,0,0,16.026,76.91,6,P-GPS,
0.364637742713177,36.8985636433347,5796.1636694011,165.354336,0,1.49444558588,14700,2018-04-03 06:01:31,13,0,16.235,5796.1636694011,165.354336,0.223694,2.73354339456,0,0,-10.961006,85.1, -1.6, 0.9,0,0,1024,1024,1684,1003,88.2,0,99,4.082,4.09,4.084,4.077,0,0,16.026,76.91,6,P-GPS,
0.364637730312576,36.8985636219434,5798.1321734011,167.32284,0,1.48601382708,14800,2018-04-03 06:01:31,13,0,16.235,5798.1321734011,167.32284,0.223694,2.73354339456,0,0,-11.1847,85, -1.6, 0.8,0,0,1024,1024,1684,1005,88,0,99,4.082,4.09,4.084,4.077,0,0,16.026,76.91,6,P-GPS,
0.364637701669875,36.8985636017507,5799.7725934011,168.96326,0,1.47325792116,14900,2018-04-03 06:01:31,13,0,16.235,5799.7725934011,168.96326,0.223694,2.73354339456,0,0,-11.1847,84.9, -1.8, 0.7,0,0,1024,1024,1684,1004,87.9,0,99,4.082,4.09,4.084,4.077,0,0,16.026,76.91,6,P-GPS,
0.364637672133972,36.8985636118931,5801.4130134011,170.60368,0,1.46725398396,15000,2018-04-03 06:01:31,13,0,16.235,5801.4130134011,170.60368,0.223694,2.73354339456,0,0,-11.1847,84.8, -1.8, 0.4,0,0,1024,1024,1684,1007,87.7,0,99,4.082,4.09,4.084,4.077,0,0,16.026,76.91,6,P-GPS,
0.364637619590598,36.8985636297701,5803.0534334011,172.2441,0.223694,1.45669296,15100,2018-04-03 06:01:31,13,0,16.235,5803.0534334011,172.2441,0.223694,2.73354339456,0,0.223694,-11.1847,84.9, -1.6, 0,0,0,1024,1024,1684,1007,87.6,0,99,4.082,4.09,4.084,4.077,0,0,16.026,76.91,6,P-GPS,
0.36463756503121,36.8985636790383,5804.6938534011,173.88452,0.223694,1.45329400976,15200,2018-04-03 06:01:31,13,0,16.235,5804.6938534011,173.88452,0.223694,2.73354339456,0,0.223694,-11.1847,84.9, -0.9, 0,0,0,1024,1024,1684,1008,87.5,0,99,4.082,4.09,4.084,4.077,0,0,16.026,76.91,6,P-GPS,
0.364637500090492,36.8985637482579,5806.3342734011,175.52494,0.223694,1.45248692312,15300,2018-04-03 06:01:31,13,0,16.235,5806.3342734011,175.52494,0.223694,2.73354339456,0,0.223694,-10.961006,84.9, 0, -0.2,0,0,1024,1024,1684,1009,87.4,0,99,4.082,4.09,4.084,4.077,0,0,16.026,76.91,6,P-GPS,
0.364637448095089,36.8985638488066,5807.9746934011,177.16536,0.223694,1.4638451912,15400,2018-04-03 06:01:31,13,0,16.235,5807.9746934011,177.16536,0.223694,2.73354339456,0,0.223694,-10.961006,84.9, 0.7, -0.6,0,0,1024,1024,1684,1019,87.3,0,99,4.082,4.09,4.084,4.077,0,0,16.026,76.91,6,P-GPS,
0.364637391853519,36.8985639423129,5809.6151134011,178.80578,0.223694,1.47335306552,15500,2018-04-03 06:01:31,13,0,16.235,5809.6151134011,178.80578,0.223694,2.73354339456,0,0.223694,-10.961006,84.9, 0.8, -0.9,0,0,1024,1024,1684,1021,87.2,0,99,4.082,4.09,4.084,4.077,0,0,16.026,76.91,6,P-GPS,
0.364637368488604,36.8985640381461,5811.2555334011,180.4462,0.223694,1.49268049396,15600,2018-04-03 06:01:31,13,0,16.261,5811.2555334011,180.4462,0.223694,2.73354339456,0,0.223694,-10.737312,84.9, 0.8, -0.4,0,0,1024,1024,1684,1020,87.1,0,99,4.082,4.09,4.084,4.077,0,0,16.026,76.91,6,P-GPS,
0.364637345633393,36.8985641171719,5812.8959534011,182.08662,0.223694,1.50819558632,15700,2018-04-03 06:01:32,13,0,16.261,5812.8959534011,182.08662,0.223694,2.73354339456,0,0.223694,-10.961006,84.8, 0.8, -0.3,0,0,1024,1024,1684,1021,87,0,99,4.082,4.09,4.084,4.077,0,0,16.026,76.91,6,P-GPS,
0.364637335444219,36.8985641849596,5814.5363734011,183.72704,0,1.52412734536,15800,2018-04-03 06:01:32,13,0,16.261,5814.5363734011,183.72704,0.223694,2.73354339456,0,0,-10.961006,84.8, 1.1, -0.2,0,0,1024,1024,1684,1024,86.9,0,99,4.082,4.09,4.084,4.077,0,0,16.026,76.91,6,P-GPS,
0.364637327622802,36.8985642129217,5816.1767934011,185.36746,0,1.52989834292,15900,2018-04-03 06:01:32,13,0,16.261,5816.1767934011,185.36746,0.223694,2.73354339456,0,0,-10.961006,84.9, 0.8, 0,0,0,1024,1024,1684,1024,86.9,0,99,4.082,4.09,4.084,4.077,0,0,16.026,76.91,6,P-GPS,
0.364637337905612,36.898564210895,5817.8172134011,187.00788,0,1.53181435348,16000,2018-04-03 06:01:32,13,0,16.261,5817.8172134011,187.00788,0.223694,2.73354339456,0,0,-10.961006,84.8, 0.1, 0,0,0,1024,1024,1684,1024,86.8,0,99,4.082,4.09,4.084,4.077,0,0,16.026,76.91,6,P-GPS,
0.364637332456024,36.8985641869359,5819.7857174011,188.976384,0,1.52394361832,16100,2018-04-03 06:01:32,13,0,16.261,5819.7857174011,188.976384,0.223694,2.73354339456,0,0,-11.1847,84.8, 0, 0.1,0,0,1024,1024,1684,1024,86.7,0,99,4.082,4.09,4.084,4.077,0,0,16.026,76.91,6,P-GPS,
0.364637321113097,36.8985641565649,5821.4261374011,190.616804,0,1.51290687256,16200,2018-04-03 06:01:32,13,0,16.261,5821.4261374011,190.616804,0.223694,2.73354339456,0,0,-11.1847,84.9, -0.8, 0.5,0,0,1024,1024,1684,1024,86.7,0,99,4.082,4.09,4.084,4.077,0,0,16.026,76.91,6,P-GPS,
0.36463729112123,36.8985641219083,5823.0665574011,192.257224,0,1.49618771192,16300,2018-04-03 06:01:32,13,0,16.261,5823.0665574011,192.257224,0.223694,2.73354339456,0,0,-10.961006,84.9, -1, 0.4,0,0,1024,1024,1684,1024,86.7,0,99,4.082,4.09,4.084,4.077,0,0,16.026,76.91,6,P-GPS,
0.364637268567281,36.898564108924,5824.7069774011,193.897644,0,1.48718180612,16400,2018-04-03 06:01:32,13,0,16.261,5824.7069774011,193.897644,0.223694,2.73354339456,0,0,-10.961006,84.9, -0.8, 0.1,0,0,1024,1024,1684,1024,86.6,0,99,4.082,4.09,4.084,4.077,0,0,16.026,76.91,6,P-GPS,
0.364637238617753,36.8985641071136,5826.0193134011,195.20998,0,1.4794619896,16500,2018-04-03 06:01:32,13,0,16.261,5826.0193134011,195.20998,0.223694,2.73354339456,0,0,-10.961006,84.9, -0.3, 0.1,0,0,1024,1024,1684,1024,86.6,0,99,4.082,4.09,4.084,4.077,0,0,16.026,76.91,6,P-GPS,
0.364637229995142,36.8985641088929,5827.6597334011,196.8504,0,1.47788062472,16600,2018-04-03 06:01:33,13,0,16.182,5827.6597334011,196.8504,0.223694,2.73354339456,0,0,-10.961006,84.8, -0.3, 0.5,0,0,1024,1024,1684,1024,86.5,0,99,4.072,4.082,4.076,4.07,0,0,16.13,78.71,6,P-GPS,
0.364637216295857,36.8985641144644,5829.3001534011,198.49082,0,1.476131937,16700,2018-04-03 06:01:33,13,0,16.182,5829.3001534011,198.49082,0.223694,2.73354339456,0,0,-10.961006,84.8, -0.6, 0.4,0,0,1024,1024,1684,1024,86.5,0,99,4.072,4.082,4.076,4.07,0,0,16.13,78.71,6,P-GPS,
0.364637210910593,36.8985641304432,5830.9405734011,200.13124,0,1.47926185836,16800,2018-04-03 06:01:33,13,0,16.182,5830.9405734011,200.13124,0.223694,2.73354339456,0,0,-10.961006,84.8, -1.1, 0,0,0,1024,1024,1684,1024,86.4,0,99,4.072,4.082,4.076,4.07,0,0,16.13,78.71,6,P-GPS,
0.364637218453545,36.8985641648568,5832.5809934011,201.77166,0,1.4905840372,16900,2018-04-03 06:01:33,13,0,16.182,5832.5809934011,201.77166,0.223694,2.73354339456,0,0,-10.961006,84.8, -1.1, 0.4,0,0,1024,1024,1684,1024,86.4,0,99,4.072,4.082,4.076,4.07,0,0,16.13,78.71,6,P-GPS,
0.364637239223534,36.8985642081842,5834.2214134011,203.41208,0,1.50753613748,17000,2018-04-03 06:01:33,13,0,16.182,5834.2214134011,203.41208,0.223694,2.73354339456,0,0,-10.961006,84.8, -0.9, 0.5,0,0,1024,1024,1684,1024,86.4,0,99,4.072,4.082,4.076,4.07,0,0,16.13,78.71,6,P-GPS,
0.364637259014828,36.8985642750854,5835.8618334011,205.0525,0,1.53085306736,17100,2018-04-03 06:01:33,13,0,16.182,5835.8618334011,205.0525,0.223694,2.73354339456,0,0,-11.1847,84.8, -0.4, 0.6,0,0,1024,1024,1492,1024,86.3,0,99,4.072,4.082,4.076,4.07,0,0,16.13,78.71,6,P-GPS,
0.364637281642058,36.8985643477036,5837.5022534011,206.69292,0,1.55650595532,17200,2018-04-03 06:01:33,13,0,16.182,5837.5022534011,206.69292,0.223694,2.73354339456,0,0,-11.1847,84.8, 0.1, 0.5,0,0,1024,1024,985,1024,86.3,0,99,4.072,4.082,4.076,4.07,0,0,16.13,78.71,6,P-GPS,
0.364637294310538,36.8985644185992,5839.1426734011,208.33334,0,1.57944886944,17300,2018-04-03 06:01:33,13,0,16.182,5839.1426734011,208.33334,0.223694,2.73354339456,0,0,-10.961006,84.8, 0.5, 0.7,0,0,1024,1024,1024,1024,86.2,0,99,4.072,4.082,4.076,4.07,0,0,16.13,78.71,6,P-GPS,
0.364637311228442,36.8985644811119,5840.7830934011,209.97376,0,1.60107616672,17400,2018-04-03 06:01:33,13,0,16.182,5840.7830934011,209.97376,0.223694,2.73354339456,0,0,-10.06623,84.8, 0.1, 1.3,0,0,1024,1024,1024,1024,86.2,0,99,4.072,4.082,4.076,4.07,0,0,16.13,78.71,6,P-GPS,
0.364637310915781,36.8985645372064,5842.0954294011,211.286096,0,1.61702432996,17500,2018-04-03 06:01:33,13,0,16.182,5842.0954294011,211.286096,0.223694,2.73354339456,0,0,-8.724066,84.8, -0.1, 1.4,0,0,1024,1024,1024,1024,86.2,0,99,4.072,4.082,4.076,4.07,0,0,16.13,78.71,6,P-GPS,
0.364637308693769,36.8985645946509,5843.4077654011,212.598432,0,1.63303482916,17600,2018-04-03 06:01:33,13,0,16.156,5843.4077654011,212.598432,0.223694,2.73354339456,0,0,-6.934514,84.9, 0.3, 1.2,0,0,1024,1024,1024,1024,86.2,0,99,4.067,4.072,4.065,4.06,0,0,16.742,78.71,6,P-GPS,
0.364637291235221,36.8985646499092,5844.0639334011,213.2546,0,1.64515753296,17700,2018-04-03 06:01:34,13,0,16.156,5844.0639334011,213.2546,0.223694,2.73354339456,0,0,-5.368656,84.8, 0.7, 1,0,0,1024,1024,1024,1024,86.1,0,99,4.067,4.072,4.065,4.06,0,0,16.742,78.71,6,P-GPS,
0.364637281549236,36.8985646999708,5844.7201014011,213.910768,0,1.65763128664,17800,2018-04-03 06:01:34,13,0,16.156,5844.7201014011,213.910768,0.223694,2.73354339456,0,0,-3.802798,84.9, 0.6, 1,0,0,1024,1024,1024,1024,86.1,0,99,4.067,4.072,4.065,4.06,0,0,16.742,78.71,6,P-GPS,
0.364637261358159,36.8985647261674,5845.0481854011,214.238852,0,1.66093181168,17900,2018-04-03 06:01:34,13,0,16.156,5845.0481854011,214.238852,0.223694,2.73354339456,0,0,-2.460634,84.8, 0.8, 0.9,0,0,1024,1024,1024,1024,86.1,0,99,4.067,4.072,4.065,4.06,0,0,16.742,78.71,6,P-GPS,
0.364637246404972,36.8985647355502,5845.3762694011,214.566936,0,1.66047249408,18000,2018-04-03 06:01:34,13,0,16.156,5845.3762694011,214.566936,0.223694,2.73354339456,0,0,-1.565858,84.8, 1.1, 0.5,0,0,1024,1024,1024,1024,86.1,0,99,4.067,4.072,4.065,4.06,0,0,16.742,78.71,6,P-GPS,
0.364637219091081,36.8985647266364,5845.7043534011,214.89502,0,1.65198824184,18100,2018-04-03 06:01:34,13,0,16.156,5845.7043534011,214.89502,0.223694,2.73354339456,0,0,-1.11847,84.9, 1.2, 0,0,0,1024,1024,1024,1024,86.1,0,99,4.067,4.072,4.065,4.06,0,0,16.742,78.71,6,P-GPS,
0.364637204031231,36.8985647227576,5845.7043534011,214.89502,0,1.64762472464,18200,2018-04-03 06:01:34,13,0,16.156,5845.7043534011,214.89502,0.223694,2.73354339456,0,0,-0.671082,84.9, 1.4, -0.1,0,0,1024,1024,1024,1024,86,0,99,4.067,4.072,4.065,4.06,0,0,16.742,78.71,6,P-GPS,
0.364637191619231,36.8985647231697,5845.7043534011,214.89502,0,1.64510503952,18300,2018-04-03 06:01:34,13,0,16.156,5845.7043534011,214.89502,0.223694,2.73354339456,0,0,-0.447388,84.9, 1.4, -0.5,0,0,1024,1024,1024,1024,86,0,99,4.067,4.072,4.065,4.06,0,0,16.742,78.71,6,P-GPS,
0.364637197321227,36.8985647321136,5846.0324374011,215.223104,0,1.64896986904,18400,2018-04-03 06:01:34,13,0,16.156,5846.0324374011,215.223104,0.223694,2.73354339456,0,0,-0.223694,84.9, 1.6, -0.7,0,0,1024,1024,1024,1024,86,0,99,4.067,4.072,4.065,4.06,0,0,16.742,78.71,6,P-GPS,
0.364637215583413,36.8985647061278,5846.0324374011,215.223104,0,1.645177218,18500,2018-04-03 06:01:34,13,0,16.156,5846.0324374011,215.223104,0.223694,2.73354339456,0,0,0,84.9, 1.7, -0.9,0,0,1024,1024,1024,1024,86,0,99,4.067,4.072,4.065,4.06,0,0,16.742,78.71,6,P-GPS,
0.364637256736635,36.8985646319497,5846.0324374011,215.223104,0,1.63233929108,18600,2018-04-03 06:01:34,13,0,16.787,5846.0324374011,215.223104,0.223694,2.73354339456,0,0,-0.223694,84.9, 1.8, -1,0,0,1024,1024,1024,1024,86,0,99,4.141,4.149,4.143,4.132,0,0,8.128,78.71,6,P-GPS,
0.364637310087717,36.8985645078129,5846.0324374011,215.223104,0,1.60843181,18700,2018-04-03 06:01:35,13,0,16.787,5846.0324374011,215.223104,0.223694,2.73354339456,0,0,0,84.9, 1.7, -0.9,0,0,1024,1024,1024,1024,85.9,0,99,4.141,4.149,4.143,4.132,0,0,8.128,78.71,6,P-GPS,
0.364637380315179,36.8985643475173,5846.0324374011,215.223104,0,1.57961291144,18800,2018-04-03 06:01:35,13,0,16.787,5846.0324374011,215.223104,0.223694,2.73354339456,0,0,-0.223694,84.9, 1.5, -0.8,0,0,1024,1024,1024,1024,85.9,0,99,4.141,4.149,4.143,4.132,0,0,8.128,78.71,6,P-GPS,
0.364637464492706,36.8985641395251,5846.0324374011,215.223104,0,1.5436188158,18900,2018-04-03 06:01:35,13,0,16.787,5846.0324374011,215.223104,0.223694,2.73354339456,0,0,-0.223694,84.9, 1.5, -0.6,0,0,1024,1024,1024,1024,85.9,0,99,4.141,4.149,4.143,4.132,0,0,8.128,78.71,6,P-GPS,
0.364637571378885,36.8985639182125,5846.0324374011,215.223104,0,1.5138287886,19000,2018-04-03 06:01:35,13,0,16.787,5846.0324374011,215.223104,0.223694,2.73354339456,0,0,-0.223694,84.9, 1.3, -0.5,0,0,1024,1024,1024,1024,85.9,0,99,4.141,4.149,4.143,4.132,0,0,8.128,78.71,6,P-GPS,
0.364637693400636,36.8985636724627,5846.0324374011,215.223104,0,1.48733272476,19100,2018-04-03 06:01:35,13,0,16.787,5846.0324374011,215.223104,0.223694,2.73354339456,0,0,0,84.8, 1.1, -0.2,0,0,1024,1024,1024,1024,85.9,0,99,4.141,4.149,4.143,4.132,0,0,8.128,78.71,6,P-GPS,
0.364637832489295,36.8985634418662,5846.0324374011,215.223104,0,1.47548889236,19200,2018-04-03 06:01:35,13,0,16.787,5846.0324374011,215.223104,0.223694,2.73354339456,0,0,0,84.8, 1, 0,0,0,1024,1024,1024,1024,85.9,0,99,4.141,4.149,4.143,4.132,0,0,8.128,78.71,6,P-GPS,
0.364637980715153,36.8985631950886,5846.0324374011,215.223104,0,1.46980647748,19300,2018-04-03 06:01:35,13,0,16.787,5846.0324374011,215.223104,0.223694,2.73354339456,0,0,0,84.7, 0.8, 0.1,0,0,1024,1024,1024,1024,85.8,0,99,4.141,4.149,4.143,4.132,0,0,8.128,78.71,6,P-GPS,
0.364638137491156,36.8985629549253,5846.0324374011,215.223104,0,1.47550529656,19400,2018-04-03 06:01:35,13,0,16.787,5846.0324374011,215.223104,0.223694,2.73354339456,0,0,0,84.7, 0.6, 0.2,0,0,1024,1024,1024,1024,85.8,0,99,4.141,4.149,4.143,4.132,0,0,8.128,78.71,6,P-GPS,
0.364638296032392,36.8985627135569,5846.0324374011,215.223104,0,1.48896658308,19500,2018-04-03 06:01:35,13,0,16.787,5846.0324374011,215.223104,0.223694,2.73354339456,0,0,0,84.7, 0.6, 0.3,0,0,1024,1024,1024,1024,85.8,0,99,4.141,4.149,4.143,4.132,0,0,8.128,78.71,6,P-GPS,
0.364638449421232,36.8985624872622,5845.7043534011,214.89502,0,1.50980319792,19600,2018-04-03 06:01:35,13,0,16.392,5846.0324374011,215.223104,0.223694,2.73354339456,0,0,0.223694,84.7, 0.5, 0.5,0,0,1024,1024,1024,1024,85.8,0,99,4.141,4.149,4.143,4.132,0,0,8.128,78.71,6,P-GPS,
0.364638610174709,36.8985622547756,5845.7043534011,214.89502,0,1.53877629596,19700,2018-04-03 06:01:36,13,0,16.392,5846.0324374011,215.223104,0.223694,2.73354339456,0,0,0.223694,84.6, 0.3, 0.4,0,0,1024,1024,1024,1024,85.8,0,99,4.141,4.149,4.143,4.132,0,0,8.128,78.71,6,P-GPS,
0.364638776023588,36.8985620220508,5845.7043534011,214.89502,0,1.57577432864,19800,2018-04-03 06:01:36,13,0,16.392,5846.0324374011,215.223104,0.223694,2.73354339456,0,0,0.223694,84.6, 0.2, 0.6,0,0,1024,1024,1024,1024,85.7,0,99,4.141,4.149,4.143,4.132,0,0,8.128,78.71,6,P-GPS,
0.364638926547995,36.8985617799716,5845.7043534011,214.89502,0,1.61257879176,19900,2018-04-03 06:01:36,13,0,16.392,5846.0324374011,215.223104,0.223694,2.73354339456,0,0,0,84.6, 0, 0.6,0,0,1024,1024,1024,1024,85.7,0,99,4.141,4.149,4.143,4.132,0,0,8.128,78.71,6,P-GPS,
0.364639040422641,36.8985615436934,5845.3762694011,214.566936,0,1.6420440158,20000,2018-04-03 06:01:36,13,0,16.392,5846.0324374011,215.223104,0.223694,2.73354339456,0,0,0,84.6, 0, 0.5,0,0,1024,1024,1024,1024,85.7,0,99,4.141,4.149,4.143,4.132,0,0,8.128,78.71,6,P-GPS,
0.364639152251961,36.898561268457,5845.3762694011,214.566936,0,1.6750000536,20100,2018-04-03 06:01:36,13,0,16.392,5846.0324374011,215.223104,0.223694,2.73354339456,0,0,0,84.6, -0.2, 0.6,0,0,1024,1024,1024,1024,85.7,-0.1,99,4.141,4.149,4.143,4.132,0,0,8.128,78.71,6,P-GPS,
0.364639265081961,36.8985609791736,5845.3762694011,214.566936,0.223694,1.71462931996,20200,2018-04-03 06:01:36,13,0,16.392,5846.0324374011,215.223104,0.223694,2.73354339456,0,-0.223694,0,84.6, -0.3, 0.7,0,0,1024,1024,1024,1024,85.7,-0.8,99,4.141,4.149,4.143,4.132,0,0,8.128,78.71,6,P-GPS,
0.364639361277404,36.8985606457502,5845.3762694011,214.566936,0.223694,1.7559219722,20300,2018-04-03 06:01:36,13,0,16.392,5846.0324374011,215.223104,0.223694,2.73354339456,0,-0.223694,0,84.6, -0.5, 0.7,0,0,1024,1024,1024,1024,85.6,-3.2,99,4.141,4.149,4.143,4.132,0,0,8.128,78.71,6,P-GPS,
0.364639438827164,36.8985603348807,5845.3762694011,214.566936,0.223694,1.79721462444,20400,2018-04-03 06:01:36,13,0,16.392,5846.0324374011,215.223104,0.223694,2.73354339456,0,-0.223694,0,84.7, -0.7, 0.7,0,0,1024,1024,1024,1024,85.6,-5.9,99,4.141,4.149,4.143,4.132,0,0,8.128,78.71,6,P-GPS,
0.364639502408132,36.898559993545,5845.3762694011,214.566936,0.223694,1.8423228936,20500,2018-04-03 06:01:36,13,0,16.392,5846.0324374011,215.223104,0.223694,2.73354339456,0,-0.223694,0,84.7, -0.9, 0.6,0,0,1024,1024,1024,1024,85.6,-8.6,99,4.141,4.149,4.143,4.132,0,0,8.128,78.71,6,P-GPS,
0.364639560265119,36.8985596871453,5845.0481854011,214.238852,0.223694,1.88941607096,20600,2018-04-03 06:01:36,13,0,16.392,5846.0324374011,215.223104,0.223694,2.73354339456,0,-0.223694,0,84.6, -1.2, 0.6,0,0,1024,1024,1024,1024,85.6,-11.3,98,4.141,4.149,4.143,4.132,0,0,8.128,78.71,6,P-GPS,
0.364639614740641,36.8985593414401,5845.0481854011,214.238852,0,1.9454396948,20700,2018-04-03 06:01:37,13,0,16.392,5846.0324374011,215.223104,0.223694,2.73354339456,0,0,0,84.7, -1.1, 0.6,0,0,1024,1024,1024,1024,85.6,-14.1,98,4.141,4.149,4.143,4.132,0,0,8.128,78.71,6,P-GPS,
0.364639670391086,36.8985590505032,5845.0481854011,214.238852,0,2.00102696692,20800,2018-04-03 06:01:37,13,0,16.392,5846.0324374011,215.223104,0.223694,2.73354339456,0,0,0,84.7, -1.2, 0.7,0,0,1024,1024,1024,1024,85.6,-16.9,98,4.141,4.149,4.143,4.132,0,0,8.128,78.71,6,P-GPS,
0.364639715036507,36.898558736848,5844.7201014011,213.910768,0,2.06051187696,20900,2018-04-03 06:01:37,13,0,16.392,5846.0324374011,215.223104,0.223694,2.73354339456,0,0,0,84.7, -1.2, 0.6,0,0,1024,1024,1024,1024,85.6,-19.7,98,4.141,4.149,4.143,4.132,0,0,8.128,78.71,6,P-GPS,
0.364639743566032,36.89855848796,5844.7201014011,213.910768,0,2.10876975252,21000,2018-04-03 06:01:37,13,0,16.392,5846.0324374011,215.223104,0.223694,2.73354339456,0,0,0,84.7, -1.2, 0.5,0,0,1024,1024,1024,1024,85.6,-19.7,98,4.141,4.149,4.143,4.132,0,0,8.128,78.71,6,P-GPS,
0.364639770576218,36.8985582186039,5844.7201014011,213.910768,0,2.16290033168,21100,2018-04-03 06:01:37,13,0,16.392,5846.0324374011,215.223104,0.223694,2.73354339456,0,0,0,84.7, -1.4, 0.4,0,0,1024,1024,1024,1024,85.6,-22.4,98,4.141,4.149,4.143,4.132,0,0,8.128,78.71,6,P-GPS,
0.364639798920914,36.8985580184156,5844.7201014011,213.910768,0,2.20774613364,21200,2018-04-03 06:01:37,13,0,16.392,5846.0324374011,215.223104,0.223694,2.73354339456,0,0,-0.223694,84.8, -1.4, 0.5,0,0,1024,1024,1024,1024,85.5,-25.3,98,4.141,4.149,4.143,4.132,0,0,8.128,78.71,6,P-GPS,
0.36463983311091,36.8985578215029,5844.7201014011,213.910768,0,2.25530190944,21300,2018-04-03 06:01:37,13,0,16.392,5846.0324374011,215.223104,0.223694,2.73354339456,0,0,0,84.8, -1.4, 0.7,0,0,1024,1024,1024,1024,85.5,-28.1,98,4.141,4.149,4.143,4.132,0,0,8.128,78.71,6,P-GPS,
0.364639867254495,36.8985576815186,5844.7201014011,213.910768,0,2.29294954844,21400,2018-04-03 06:01:37,13,0,16.392,5846.0324374011,215.223104,0.223694,2.73354339456,0,0,-0.223694,84.8, -1.3, 0.9,0,0,1024,1024,1024,1024,85.5,-30.9,98,4.141,4.149,4.143,4.132,0,0,8.128,78.71,6,P-GPS,
0.364639888291549,36.8985575239456,5845.0481854011,214.238852,0,2.3307251402,21500,2018-04-03 06:01:37,12,0,16.392,5846.0324374011,215.223104,0.223694,2.73354339456,0,0,-0.223694,84.8, -1.5, 0.8,0,0,1024,1024,1024,1024,85.5,-33.7,98,4.141,4.149,4.143,4.132,0,0,8.128,78.71,6,P-GPS,
0.364639892668807,36.8985574109835,5845.0481854011,214.238852,0,2.35508865804,21600,2018-04-03 06:01:37,12,0,16.34,5846.0324374011,215.223104,0.223694,2.73354339456,0,0,-0.223694,84.8, -1.2, 0.9,0,0,1024,1024,1024,1024,85.5,-36.6,98,4.11,4.115,4.111,4.105,0,0,12.468,78.71,6,P-GPS,
0.364639884712229,36.898557303756,5845.0481854011,214.238852,0,2.3750328844,21700,2018-04-03 06:01:38,12,0,16.34,5846.0324374011,215.223104,0.223694,2.73354339456,0,0,0,84.8, -1.1, 0.8,0,0,1024,1024,1024,1024,85.5,-39.4,98,4.11,4.115,4.111,4.105,0,0,12.468,78.71,6,P-GPS,
0.364639872617776,36.8985572506362,5845.0481854011,214.238852,0,2.38267396076,21800,2018-04-03 06:01:38,12,0,16.34,5846.0324374011,215.223104,0.223694,2.73354339456,0,0,-0.223694,84.9, -1.1, 0.9,0,0,1024,1024,1024,1024,85.5,-42.1,98,4.11,4.115,4.111,4.105,0,0,12.468,78.71,6,P-GPS,
0.364639855144572,36.8985571901919,5845.0481854011,214.238852,0,2.39044627072,21900,2018-04-03 06:01:38,12,0,16.34,5846.0324374011,215.223104,0.223694,2.73354339456,0,0,-0.223694,84.9, -1.2, 0.8,0,0,1024,1024,1024,1024,85.5,-44.8,98,4.11,4.115,4.111,4.105,0,0,12.468,78.71,6,P-GPS,
