latitude,longitude,altitude(feet),ascent(feet),speed(mph),distance(feet),time(millisecond),datetime(utc),satellites,gpslevel,voltage(v),max_altitude(feet),max_ascent(feet),max_speed(mph),max_distance(feet), xSpeed(mph), ySpeed(mph), zSpeed(mph), compass_heading(degrees), pitch(degrees), roll(degrees),isPhoto,isVideo,rc_elevator,rc_aileron,rc_throttle,rc_rudder,gimbal_heading(degrees),gimbal_pitch(degrees),battery_percent,voltageCell1,voltageCell2,voltageCell3,voltageCell4,voltageCell5,voltageCell6,current(A),battery_temperature(f),flycStateRaw,flycState,message
0.375914681878198,36.9254400101137,5349.4076173753,0,0,0,0,2018-04-17 06:40:58,13,0,0,5349.4076173753,0,0,0,0,0,0,285.7, 3.2, 1.1,0,0,364,364,364,1684,290.2,0,99,4.296,4.297,4.297,4.296,0,0,0,80.51,41,Motors_Started,
0.375914679971493,36.9254399950959,5349.4076173753,0,0,0.005523130098,100,2018-04-17 06:40:58,13,0,0,5349.4076173753,0,0,0.005523130098,0,0,0,285.7, 3.2, 1.1,0,0,364,364,364,1684,290.2,0,99,4.296,4.297,4.297,4.296,0,0,0,80.51,41,Motors_Started,
0.375914681320863,36.9254399814853,5349.4076173753,0,0,0.0104468179196,200,2018-04-17 06:40:58,13,0,0,5349.4076173753,0,0,0.0104468179196,0,0,0,285.8, 3.2, 1.1,0,0,364,364,364,1684,290.2,0,99,4.296,4.297,4.297,4.296,0,0,0,80.51,41,Motors_Started,
0.375914682886968,36.9254399709608,5349.4076173753,0,0,0.014289370536,300,2018-04-17 06:40:58,13,0,0,5349.4076173753,0,0,0.014289370536,0,0,0,285.7, 3.2, 1.1,0,0,364,364,364,1684,290.2,0,99,4.296,4.297,4.297,4.296,0,0,0,80.51,41,Motors_Started,
0.375914686016786,36.9254399631969,5349.4076173753,0,0,0.0171836947756,400,2018-04-17 06:40:58,13,0,17.149,5349.4076173753,0,0,0.0171836947756,0,0,0,285.7, 3.2, 1.1,0,0,364,364,364,1684,290.2,0,99,4.296,4.297,4.297,4.296,0,0,1.46,80.51,41,Motors_Started,Setting new Return-To-Home altitude to 30m (98 ft). Setting new Maximum Flight Altitude to 150m (492 ft)
0.375914688823664,36.9254399560558,5349.4076173753,0,0,0.019884679114,500,2018-04-17 06:40:58,13,0,17.149,5349.4076173753,0,0,0.019884679114,0,0,0,285.7, 3.2, 1.1,0,0,364,364,372,1684,290.2,0,99,4.296,4.297,4.297,4.296,0,0,1.46,80.51,41,Motors_Started,
0.37591466003542,36.9254399534872,5349.4076173753,0,0,0.0221435046456,600,2018-04-17 06:40:59,13,0,17.149,5349.4076173753,0,0,0.0221435046456,0,0,0,285.7, 3.2, 1.1,0,0,364,364,442,1662,290.2,0,99,4.296,4.297,4.297,4.296,0,0,1.46,80.51,41,Motors_Started,
0.375914633176068,36.9254399499712,5349.4076173753,0,0,0.0282348762316,700,2018-04-17 06:40:59,13,0,17.149,5349.4076173753,0,0,0.0282348762316,0,0,0,285.7, 3.2, 1.1,0,0,364,364,511,1621,290.2,0,99,4.296,4.297,4.297,4.296,0,0,1.46,80.51,41,Motors_Started,
0.375914608178232,36.9254399511473,5349.4076173753,0,0,0.034436352808,800,2018-04-17 06:40:59,13,0,17.149,5349.4076173753,0,0,0.034436352808,0,0,0,285.7, 3.2, 1.1,0,0,364,364,540,1596,290.1,0,99,4.296,4.297,4.297,4.296,0,0,1.46,80.51,41,Motors_Started,
0.375914591180584,36.9254399500422,5349.4076173753,0,0,0.039690618068,900,2018-04-17 06:40:59,13,0,17.149,5349.4076173753,0,0,0.039690618068,0,0,0,285.7, 3.3, 1.1,0,0,427,371,684,1456,290.1,0,99,4.296,4.297,4.297,4.296,0,0,1.46,80.51,41,Motors_Started,
0.375914578904508,36.9254399527942,5349.4076173753,0,0,0.042998032872,1000,2018-04-17 06:40:59,13,0,17.149,5349.4076173753,0,0,0.042998032872,0,0,0,285.7, 3.3, 1.1,0,0,583,520,821,1347,289.5,0,99,4.296,4.297,4.297,4.296,0,0,1.46,80.51,41,Motors_Started,
0.375914569394548,36.925439952863,5349.4076173753,0,0,0.046049214072,1100,2018-04-17 06:40:59,13,0,17.149,5349.4076173753,0,0,0.046049214072,0,0,0,285.7, 3.2, 1.1,0,0,1048,1213,972,1220,288.8,0,99,4.296,4.297,4.297,4.296,0,0,1.46,80.51,41,Motors_Started,
0.375914565587042,36.925439955683,5349.4076173753,0,0,0.046846130108,1200,2018-04-17 06:40:59,13,0,17.149,5349.4076173753,0,0,0.046846130108,0,0,0,285.7, 3.2, 1,0,0,1024,1070,1024,1167,288.4,0,99,4.296,4.297,4.297,4.296,0,0,1.46,80.51,41,Motors_Started,
0.375914562003295,36.9254399557941,5349.4076173753,0,0,0.04801673382,1300,2018-04-17 06:40:59,13,0,17.149,5349.4076173753,0,0,0.04801673382,0,0,0,285.7, 3.3, 1,0,0,1024,1024,1024,1024,288.4,0,99,4.296,4.297,4.297,4.296,0,0,1.46,80.51,41,Motors_Started,
0.375914563649041,36.9254399580635,5349.4076173753,0,0,0.04713090702,1400,2018-04-17 06:40:59,13,0,17.122,5349.4076173753,0,0,0.04801673382,0,0,0,285.7, 3.3, 1.1,0,0,1024,1024,1024,1024,287.7,0,99,4.296,4.297,4.297,4.293,0,0,1.46,80.51,41,Motors_Started,
0.375914564110146,36.9254399585169,5349.4076173753,0,0,0.046910434572,1500,2018-04-17 06:40:59,13,0,17.122,5349.4076173753,0,0,0.04801673382,0,0,0,285.7, 3.3, 1.1,0,0,1024,1024,1024,1024,287.2,0,99,4.296,4.297,4.297,4.293,0,0,1.46,80.51,41,Motors_Started,
0.375914568820674,36.9254399934077,5349.4076173753,0,0,0.041696851728,1600,2018-04-17 06:41:00,13,0,17.122,5349.4076173753,0,0,0.04801673382,0,0,0,285.7, 3.2, 1.1,0,0,1024,1024,1024,1024,286.9,0,99,4.296,4.297,4.297,4.293,0,0,1.46,80.51,10,Assisted_Takeoff,
0.375914570763052,36.925440022298,5349.4076173753,0,0,0.040783137788,1700,2018-04-17 06:41:00,13,0,17.122,5349.4076173753,0,0,0.04801673382,0,0,0,285.7, 3.2, 1.1,0,0,1024,1024,1024,1024,286.7,0,99,4.296,4.297,4.297,4.293,0,0,1.46,80.51,10,Assisted_Takeoff,
0.375914575561974,36.9254400169216,5349.4076173753,0,0,0.038868767648,1800,2018-04-17 06:41:00,13,0,17.122,5349.4076173753,0,0,0.04801673382,0,0,0,285.7, 3.2, 1.1,0,0,1024,1024,1024,1024,286.6,0,99,4.296,4.297,4.297,4.293,0,0,1.46,80.51,10,Assisted_Takeoff,
0.37591457827944,36.9254400038934,5349.4076173753,0,0,0.037866142944,1900,2018-04-17 06:41:00,13,0,17.122,5349.4076173753,0,0,0.04801673382,0,0,0,285.7, 3.2, 1.1,0,0,1024,1024,1024,1024,286.5,0,99,4.296,4.297,4.297,4.293,0,0,1.46,80.51,10,Assisted_Takeoff,
0.375914582340322,36.9254400238172,5349.4076173753,0,0,0.036658793824,2000,2018-04-17 06:41:00,13,0,17.122,5349.4076173753,0,0,0.04801673382,0,0,0,285.7, 3.2, 1.1,0,0,1024,1024,1024,1024,286.4,0,99,4.296,4.297,4.297,4.293,0,0,1.46,80.51,10,Assisted_Takeoff,
0.375914584669353,36.9254400429166,5349.4076173753,0,0,0.037431431644,2100,2018-04-17 06:41:00,13,0,17.122,5349.4076173753,0,0,0.04801673382,0,0,0,285.7, 3.3, 1.1,0,0,1024,1024,1024,1024,286.4,0,99,4.296,4.297,4.297,4.293,0,0,1.46,80.51,10,Assisted_Takeoff,
0.375914587595361,36.9254400273872,5349.4076173753,0,0,0.034971457812,2200,2018-04-17 06:41:00,13,0,17.122,5349.4076173753,0,0,0.04801673382,0,0,0,285.7, 3.2, 1.1,0,0,1024,1024,1024,1024,286.3,0,99,4.296,4.297,4.297,4.293,0,0,1.46,80.51,10,Assisted_Takeoff,
0.375914589873453,36.9254400085903,5349.4076173753,0,0,0.033572507636,2300,2018-04-17 06:41:00,13,0,17.122,5349.4076173753,0,0,0.04801673382,0,0,0,285.7, 3.3, 1.1,0,0,1024,1024,1024,1024,286.3,0,99,4.296,4.297,4.297,4.293,0,0,1.46,80.51,10,Assisted_Takeoff,
0.375914592202789,36.925440019642,5349.4076173753,0,0,0.032902232024,2400,2018-04-17 06:41:00,13,0,17.203,5349.4076173753,0,0,0.04801673382,0,0,0,285.7, 3.3, 1.1,0,0,1024,1024,1024,1024,286.2,0,99,4.285,4.282,4.278,4.272,0,0,4.032,80.51,10,Assisted_Takeoff,
0.375914594102165,36.9254400368962,5349.4076173753,0,0,0.03348261262,2500,2018-04-17 06:41:00,13,0,17.203,5349.4076173753,0,0,0.04801673382,0,0,0,285.7, 3.2, 1.1,0,0,1024,1024,1024,1024,286.2,0,99,4.285,4.282,4.278,4.272,0,0,4.032,80.51,10,Assisted_Takeoff,
0.375914596373743,36.9254400568397,5349.4076173753,0,0,0.035550197988,2600,2018-04-17 06:41:01,13,0,17.203,5349.4076173753,0,0,0.04801673382,0,0,0,285.7, 3.2, 1.1,0,0,1024,1024,1024,1024,286.2,0,99,4.285,4.282,4.278,4.272,0,0,4.032,80.51,10,Assisted_Takeoff,
0.375914598673818,36.9254400669807,5349.4076173753,0,0,0.036769686216,2700,2018-04-17 06:41:01,13,0,17.203,5349.4076173753,0,0,0.04801673382,0,0,0,285.7, 3.2, 1.1,0,0,1024,1024,1024,1024,286.2,0,99,4.285,4.282,4.278,4.272,0,0,4.032,80.51,10,Assisted_Takeoff,
0.375914600742349,36.9254400439045,5349.4076173753,0,0,0.0320668973516,2800,2018-04-17 06:41:01,13,0,17.203,5349.4076173753,0,0,0.04801673382,0,0,0,285.7, 3.2, 1.1,0,0,1024,1024,1024,1024,286.2,0,99,4.285,4.282,4.278,4.272,0,0,4.032,80.51,10,Assisted_Takeoff,
0.375914602638978,36.9254400196755,5349.4076173753,0,0,0.029120079672,2900,2018-04-17 06:41:01,13,0,17.203,5349.4076173753,0,0,0.04801673382,0,0,0,285.7, 3.2, 1.1,0,0,1024,1024,1024,1024,286.1,0,99,4.285,4.282,4.278,4.272,0,0,4.032,80.51,10,Assisted_Takeoff,
0.375914603326487,36.9254400285153,5349.4076173753,0,0,0.0294354012044,3000,2018-04-17 06:41:01,13,0,17.203,5349.4076173753,0,0,0.04801673382,0,0,0,285.7, 3.2, 1.1,0,0,1024,1024,1024,1024,286.1,0,99,4.285,4.282,4.278,4.272,0,0,4.032,80.51,10,Assisted_Takeoff,
0.375914604550567,36.9254400538599,5349.4076173753,0,0,0.0324145679664,3200,2018-04-17 06:41:01,13,0,17.203,5349.4076173753,0,0,0.04801673382,0,0,0,285.7, 3.2, 1.1,0,0,1024,1024,1024,1024,286.1,0,99,4.285,4.282,4.278,4.272,0,0,4.032,80.51,10,Assisted_Takeoff,
0.375914605243878,36.9254400612298,5349.4076173753,0,0,0.03360892496,3300,2018-04-17 06:41:01,13,0,17.203,5349.4076173753,0,0,0.04801673382,0,0,0,285.7, 3.2, 1.1,0,0,1024,1024,1024,1024,286.1,0,99,4.285,4.282,4.278,4.272,0,0,4.032,80.51,10,Assisted_Takeoff,
0.375914637535515,36.9254400685342,5349.4076173753,0,0,0.0267588263156,3400,2018-04-17 06:41:01,13,0,17.149,5349.4076173753,0,0,0.04801673382,0,0,0,285.7, 3.2, 1.1,0,0,1024,1024,1024,1024,286.1,0,99,4.291,4.282,4.278,4.272,0,0,1.898,80.51,10,Assisted_Takeoff,
0.375914668039884,36.9254400720677,5349.4076173753,0,0,0.0231604010036,3500,2018-04-17 06:41:01,13,0,17.149,5349.4076173753,0,0,0.04801673382,0,0,0,285.7, 3.2, 1.1,0,0,1024,1024,1024,1024,286.1,0,99,4.291,4.282,4.278,4.272,0,0,1.898,80.51,10,Assisted_Takeoff,
0.375914695008698,36.9254400748551,5349.4076173753,0,0,0.0241012802988,3600,2018-04-17 06:41:02,13,0,17.149,5349.4076173753,0,0,0.04801673382,0,0,0,285.7, 3.2, 1.1,0,0,1024,1024,1024,1024,286.1,0,99,4.291,4.282,4.278,4.272,0,0,1.898,80.51,10,Assisted_Takeoff,
0.375914714902177,36.9254400752735,5349.4076173753,0,0,0.0266519693568,3700,2018-04-17 06:41:02,13,0,17.149,5349.4076173753,0,0,0.04801673382,0,0,0,285.7, 3.2, 1.1,0,0,1024,1024,1024,1024,286.1,0,99,4.291,4.282,4.278,4.272,0,0,1.898,80.51,10,Assisted_Takeoff,
0.37591472792637,36.9254400425159,5349.4076173753,0,0,0.0205429468516,3800,2018-04-17 06:41:02,13,0,17.149,5349.4076173753,0,0,0.04801673382,0,0,0,285.7, 3.2, 1.1,0,0,1024,1024,1024,1024,286.1,0,99,4.291,4.282,4.278,4.272,0,0,1.898,80.51,10,Assisted_Takeoff,
0.375914738948595,36.9254400113798,5349.4076173753,0,0,0.0208272316376,3900,2018-04-17 06:41:02,13,0,17.149,5349.4076173753,0,0,0.04801673382,0,0,0,285.7, 3.2, 1.1,0,0,1024,1024,1024,1024,286.1,0,99,4.291,4.282,4.278,4.272,0,0,1.898,80.51,10,Assisted_Takeoff,
0.375914742504252,36.925439984085,5349.4076173753,0,0,0.0240717199304,4000,2018-04-17 06:41:02,13,0,17.149,5349.4076173753,0,0,0.04801673382,0,0,0,285.7, 3.2, 1.1,0,0,1024,1024,1024,1024,286.1,0,99,4.291,4.282,4.278,4.272,0,0,1.898,80.51,10,Assisted_Takeoff,
0.375914746806906,36.9254399631913,5349.4076173753,0,0,0.0292274943736,4100,2018-04-17 06:41:02,13,0,17.149,5349.4076173753,0,0,0.04801673382,0,0,0,285.7, 3.2, 1.1,0,0,1024,1024,1024,1024,286.1,0,99,4.291,4.282,4.278,4.272,0,0,1.898,80.51,10,Assisted_Takeoff,
0.3759147754921,36.9254399489349,5349.4076173753,0,0,0.040801510492,4200,2018-04-17 06:41:02,13,0,17.149,5349.4076173753,0,0,0.04801673382,0,0,0,285.7, 3.2, 1,0,0,1024,1024,1024,1024,286,0,99,4.291,4.282,4.278,4.272,0,0,1.898,80.51,10,Assisted_Takeoff,
0.375914805765891,36.9254399368205,5349.4076173753,0,0,0.052517718216,4300,2018-04-17 06:41:02,13,0,17.149,5349.4076173753,0,0,0.052517718216,0,0,0,285.7, 3.2, 1,0,0,1024,1024,1024,1024,286,0,99,4.291,4.282,4.278,4.272,0,0,1.898,80.51,10,Assisted_Takeoff,
0.375914828038883,36.9254399324821,5349.4076173753,0,0,0.060381563612,4400,2018-04-17 06:41:02,13,0,17.122,5349.4076173753,0,0,0.060381563612,0,0,0,285.7, 3.2, 1,0,0,1024,1024,1024,1024,286,0,99,4.291,4.282,4.278,4.272,0,0,1.898,80.51,10,Assisted_Takeoff,
0.375914844929461,36.9254399269213,5349.4076173753,0,0,0.06678477904,4500,2018-04-17 06:41:02,13,0,17.122,5349.4076173753,0,0,0.06678477904,0,0,0,285.7, 3.2, 1,0,0,1024,1024,1024,1024,286,0,99,4.291,4.282,4.278,4.272,0,0,1.898,80.51,10,Assisted_Takeoff,
0.375914852050493,36.9254398957062,5349.4076173753,0,0,0.074813978772,4600,2018-04-17 06:41:03,13,0,17.122,5349.4076173753,0,0,0.074813978772,0,0,0,285.7, 3.2, 1,0,0,1024,1024,1024,1024,286,0,99,4.291,4.282,4.278,4.272,0,0,1.898,80.51,10,Assisted_Takeoff,
0.375914859963459,36.9254398634684,5349.4076173753,0,0,0.084167325528,4700,2018-04-17 06:41:03,13,0,17.122,5349.4076173753,0,0,0.084167325528,0,0,0,285.7, 3.2, 1,0,0,1024,1024,1024,1024,286,0,99,4.291,4.282,4.278,4.272,0,0,1.898,80.51,10,Assisted_Takeoff,
0.37591485818189,36.9254398404109,5349.4076173753,0,0,0.089280514668,4800,2018-04-17 06:41:03,13,0,17.122,5349.4076173753,0,0,0.089280514668,0,0,0,285.7, 3.2, 1,0,0,1024,1024,1024,1024,286,0,99,4.291,4.282,4.278,4.272,0,0,1.898,80.51,10,Assisted_Takeoff,
0.375914859425207,36.9254398207251,5349.4076173753,0,0,0.09471292954,4900,2018-04-17 06:41:03,13,0,17.122,5349.4076173753,0,0,0.09471292954,0,0,0,285.7, 3.2, 1,0,0,1024,1024,1024,1024,286,0,99,4.291,4.282,4.278,4.272,0,0,1.898,80.51,10,Assisted_Takeoff,
0.375914853526729,36.9254398115796,5349.4076173753,0,0,0.09575295582,5000,2018-04-17 06:41:03,13,0,17.122,5349.4076173753,0,0,0.09575295582,0,0,0,285.7, 3.2, 1,0,0,1024,1024,1024,1024,286,0,99,4.291,4.282,4.278,4.272,0,0,1.898,80.51,10,Assisted_Takeoff,
0.375914850603926,36.9254398014386,5349.4076173753,0,0,0.097907483448,5100,2018-04-17 06:41:03,13,0,17.122,5349.4076173753,0,0,0.097907483448,0,0,0,285.7, 3.2, 1,0,0,1024,1024,1024,1024,286,0,99,4.291,4.282,4.278,4.272,0,0,1.898,80.51,10,Assisted_Takeoff,
0.3759148414652,36.9254398018406,5349.4076173753,0,0,0.095729661856,5200,2018-04-17 06:41:03,13,0,17.122,5349.4076173753,0,0,0.097907483448,0,0,0,285.7, 3.2, 1,0,0,1024,1024,1024,1024,286,0,99,4.291,4.282,4.278,4.272,0,0,1.898,80.51,10,Assisted_Takeoff,
0.375914837333431,36.9254397971331,5349.4076173753,0,0,0.096202102816,5300,2018-04-17 06:41:03,13,0,17.122,5349.4076173753,0,0,0.097907483448,0,0,0,285.7, 3.2, 1,0,0,1024,1024,1024,1024,286,0,99,4.291,4.282,4.278,4.272,0,0,1.898,80.51,10,Assisted_Takeoff,
0.375914860584456,36.9254398022627,5349.4076173753,0,0,0.100008861468,5400,2018-04-17 06:41:03,13,0,17.122,5349.4076173753,0,0,0.100008861468,0,0,0,285.7, 3.2, 1,0,0,1024,1024,1024,1024,286,0,99,4.291,4.293,4.292,4.291,0,0,1.906,80.51,10,Assisted_Takeoff,
0.375914886357432,36.9254398008187,5349.4076173753,0,0,0.106754596592,5500,2018-04-17 06:41:03,13,0,17.122,5349.4076173753,0,0,0.106754596592,0,0,0,285.7, 3.2, 1,0,0,1024,1024,1024,1024,286,0,99,4.291,4.293,4.292,4.291,0,0,1.906,80.51,10,Assisted_Takeoff,
0.375914907511123,36.9254397752654,5349.4076173753,0,0,0.118820869944,5600,2018-04-17 06:41:04,13,0,17.122,5349.4076173753,0,0,0.118820869944,0,0,0,285.7, 3.2, 1,0,0,1024,1024,1024,1024,286,0,99,4.291,4.293,4.292,4.291,0,0,1.906,80.51,10,Assisted_Takeoff,
0.375914922958288,36.9254397446188,5349.4076173753,0,0,0.130840227284,5700,2018-04-17 06:41:04,13,0,17.122,5349.4076173753,0,0,0.130840227284,0,0,0,285.7, 3.2, 1,0,0,1024,1024,1024,1024,286,0,99,4.291,4.293,4.292,4.291,0,0,1.906,80.51,10,Assisted_Takeoff,
0.375914938900297,36.9254397023048,5349.4076173753,0,0,0.146305450876,5900,2018-04-17 06:41:04,13,0,17.122,5349.4076173753,0,0,0.146305450876,0,0,0,285.7, 3.2, 1,0,0,1024,1024,1024,1024,286,0,99,4.291,4.293,4.292,4.291,0,0,1.906,80.51,10,Assisted_Takeoff,
0.37591493974663,36.9254396931529,5349.4076173753,0,0,0.149078416844,6000,2018-04-17 06:41:04,13,0,17.122,5349.4076173753,0,0,0.149078416844,0,0,0,285.7, 3.2, 1,0,0,1024,1024,1024,1024,286,0,99,4.291,4.293,4.292,4.291,0,0,1.906,80.51,10,Assisted_Takeoff,
0.375914941868289,36.9254396811662,5349.4076173753,0,0,0.152974414344,6100,2018-04-17 06:41:04,13,0,17.122,5349.4076173753,0,0,0.152974414344,0,0,0,285.7, 3.2, 1,0,0,1024,1024,1024,1024,286,-0.3,99,4.291,4.293,4.292,4.291,0,0,1.906,80.51,10,Assisted_Takeoff,
0.375914937574693,36.9254396817502,5349.4076173753,0,0,0.151839899872,6200,2018-04-17 06:41:04,13,0,17.122,5349.4076173753,0,0,0.152974414344,0,0,0,285.7, 3.1, 1,0,0,1024,1024,1024,1024,286,-0.3,99,4.291,4.293,4.292,4.291,0,0,1.906,80.51,10,Assisted_Takeoff,
0.375914936650449,36.9254396746884,5349.4076173753,0,0,0.153676514104,6300,2018-04-17 06:41:04,13,0,17.122,5349.4076173753,0,0,0.153676514104,0,0,0,285.7, 3.2, 1,0,0,1024,1024,1024,1024,286,-1.1,99,4.291,4.293,4.292,4.291,0,0,1.906,80.51,10,Assisted_Takeoff,
0.375914930745355,36.925439646792,5349.4076173753,0,0,0.160671264984,6400,2018-04-17 06:41:04,13,0,17.149,5349.4076173753,0,0,0.160671264984,0,0,0,285.7, 3.2, 1,0,0,1024,1024,1024,1024,286,-2.2,99,4.291,4.292,4.292,4.291,0,0,1.91,80.51,10,Assisted_Takeoff,
0.375914928350117,36.9254396131891,5349.4076173753,0,0,0.170463588132,6500,2018-04-17 06:41:04,13,0,17.149,5349.4076173753,0,0,0.170463588132,0,0,0,285.7, 3.2, 1,0,0,1024,1024,1024,1024,286,-3.8,99,4.291,4.292,4.292,4.291,0,0,1.91,80.51,10,Assisted_Takeoff,
0.375914894825595,36.9254396504816,5349.4076173753,0,0,0.152486225352,6600,2018-04-17 06:41:05,14,0,17.149,5349.4076173753,0,0,0.170463588132,0,0,0,285.7, 3.1, 1,0,0,1024,1024,1024,1024,286,-6,99,4.291,4.292,4.292,4.291,0,0,1.91,80.51,10,Assisted_Takeoff,
0.375914861669203,36.9254396917038,5349.4076173753,0,0,0.133409781172,6700,2018-04-17 06:41:05,14,0,17.149,5349.4076173753,0,0,0.170463588132,0,0,0,285.7, 3.1, 1,0,0,1024,1024,1024,1024,286,-8.1,99,4.291,4.292,4.292,4.291,0,0,1.91,80.51,10,Assisted_Takeoff,
0.375914793690419,36.9254397795074,5349.4076173753,0,0,0.093503283832,6800,2018-04-17 06:41:05,14,0,17.149,5349.4076173753,0,0,0.170463588132,0,0,0,285.7, 3.1, 1,0,0,1024,1024,1024,1024,286,-10.2,99,4.291,4.292,4.292,4.291,0,0,1.91,80.51,10,Assisted_Takeoff,
0.37591474376309,36.9254398329452,5349.4076173753,0,0,0.068468506128,6900,2018-04-17 06:41:05,14,0,17.149,5349.4076173753,0,0,0.170463588132,0,0,0,285.7, 3.1, 1,0,0,1024,1024,1024,1024,286,-12.2,99,4.291,4.292,4.292,4.291,0,0,1.91,80.51,10,Assisted_Takeoff,
0.375914667714348,36.9254399206356,5349.4076173753,0,0,0.033051838328,7000,2018-04-17 06:41:05,14,0,17.149,5349.4076173753,0,0,0.170463588132,0,0,0,285.7, 3.1, 1,0,0,1024,1024,1024,1024,286,-14.2,99,4.291,4.292,4.292,4.291,0,0,1.91,80.51,10,Assisted_Takeoff,
0.375914607227475,36.9254399823822,5349.4076173753,0,0,0.029054790956,7100,2018-04-17 06:41:05,14,0,17.149,5349.4076173753,0,0,0.170463588132,0,0,0,285.7, 3.1, 1,0,0,1024,1024,1024,1024,286,-16.2,99,4.291,4.292,4.292,4.291,0,0,1.91,80.51,10,Assisted_Takeoff,
0.375914528065555,36.9254400703221,5349.4076173753,0,0,0.060264437624,7200,2018-04-17 06:41:05,14,0,17.149,5349.4076173753,0,0,0.170463588132,0,0,0,285.7, 3.1, 1,0,0,1024,1024,1024,1024,286,-18.1,99,4.291,4.292,4.292,4.291,0,0,1.91,80.51,10,Assisted_Takeoff,
0.375914463337731,36.9254401345051,5349.4076173753,0,0,0.09174540976,7300,2018-04-17 06:41:05,14,0,17.149,5349.4076173753,0,0,0.170463588132,0,0,0,285.7, 3.1, 1,0,0,1024,1024,1024,1024,286,-20,99,4.291,4.292,4.292,4.291,0,0,1.91,80.51,10,Assisted_Takeoff,
0.375914387884669,36.9254402155176,5349.4076173753,0,0,0.130848757468,7400,2018-04-17 06:41:05,14,0,17.122,5349.4076173753,0,0,0.170463588132,0,0,0,285.7, 3.1, 1,0,0,1024,1024,1024,1024,286,-20.4,99,4.291,4.292,4.292,4.291,0,0,1.902,80.51,10,Assisted_Takeoff,
0.37591432354075,36.9254402782411,5349.4076173753,0,0,0.16328576638,7500,2018-04-17 06:41:05,14,0,17.122,5349.4076173753,0,0,0.170463588132,0,0,0,285.7, 3.1, 1,0,0,1024,1024,1024,1024,286,-20.4,99,4.291,4.292,4.292,4.291,0,0,1.902,80.51,10,Assisted_Takeoff,
0.375914250968482,36.9254403562694,5349.4076173753,0,0,0.201660439524,7600,2018-04-17 06:41:06,14,0,17.122,5349.4076173753,0,0,0.201660439524,0,0,0,285.7, 3.1, 1,0,0,1024,1024,1024,1024,286,-20.4,99,4.291,4.292,4.292,4.291,0,0,1.902,80.51,10,Assisted_Takeoff,
0.375914188941323,36.9254404150605,5349.4076173753,0,0,0.232750335532,7700,2018-04-17 06:41:06,14,0,17.122,5349.4076173753,0,0,0.232750335532,0,0,0,285.7, 3.1, 1,0,0,1024,1024,1024,1024,286,-20.4,99,4.291,4.292,4.292,4.291,0,0,1.902,80.51,10,Assisted_Takeoff,
0.375914122922814,36.9254404842314,5349.4076173753,0,0,0.26741470672,7800,2018-04-17 06:41:06,14,0,17.122,5349.4076173753,0,0,0.26741470672,0,0,0,285.7, 3.1, 1,0,0,1024,1024,1024,1024,286,-20.4,99,4.291,4.292,4.292,4.291,0,0,1.902,80.51,10,Assisted_Takeoff,
0.375914002163129,36.9254406031594,5349.4076173753,0,0,0.32911418376,8000,2018-04-17 06:41:06,14,0,17.122,5349.4076173753,0,0,0.32911418376,0,0,0,285.7, 3.1, 1,0,0,1024,1024,1080,1024,286,-20.4,99,4.291,4.292,4.292,4.291,0,0,1.902,80.51,10,Assisted_Takeoff,
0.375913944493477,36.9254406551566,5349.4076173753,0,0,0.35744095632,8100,2018-04-17 06:41:06,14,0,17.122,5349.4076173753,0,0,0.35744095632,0,0,0,285.7, 3.1, 1,0,0,1024,1024,1191,1024,286,-20.4,99,4.291,4.292,4.292,4.291,0,0,1.902,80.51,10,Assisted_Takeoff,
0.375913886801523,36.9254407146886,5349.4076173753,0,0,0.38759187592,8200,2018-04-17 06:41:06,14,0,17.122,5349.4076173753,0,0,0.38759187592,0,0,0,285.7, 3.1, 1,0,0,1024,1024,1269,1024,286,-20.4,99,4.291,4.292,4.292,4.291,0,0,1.902,80.51,10,Assisted_Takeoff,
0.375913830924915,36.9254407637483,5349.4076173753,0,0,0.41472114188,8300,2018-04-17 06:41:06,14,0,17.122,5349.4076173753,0,0,0.41472114188,0,0,0,285.7, 3.1, 1,0,0,1024,1024,1286,1024,286,-20.4,99,4.291,4.292,4.292,4.291,0,0,1.902,80.51,10,Assisted_Takeoff,
0.375913775790712,36.9254408194517,5349.4076173753,0,0,0.4432578882,8400,2018-04-17 06:41:06,14,0,17.122,5349.4076173753,0,0,0.4432578882,0,0,0,285.8, 3.1, 1,0,0,1024,1024,1286,1024,286,-20.4,99,4.291,4.292,4.292,4.291,0,0,1.902,80.51,10,Assisted_Takeoff,
0.3759137222791,36.9254408672039,5349.4076173753,0,0,0.4694225872,8500,2018-04-17 06:41:06,14,0,17.122,5349.4076173753,0,0,0.4694225872,0,0,0,285.7, 3.2, 1.1,0,0,1024,1024,1286,1024,286,-20.4,99,4.291,4.292,4.292,4.291,0,0,1.902,80.51,10,Assisted_Takeoff,
0.375913672645069,36.9254409279968,5349.4076173753,0,0,0.49772639388,8600,2018-04-17 06:41:07,14,0,17.122,5349.4076173753,0,0,0.49772639388,0,0,0,285.8, 3.4, 1.3,0,0,1024,1024,1286,1024,286,-20.4,99,4.291,4.292,4.292,4.291,0,0,1.902,80.51,10,Assisted_Takeoff,
0.375913622257984,36.9254410158409,5349.4076173753,0,0,0.53300854724,8700,2018-04-17 06:41:07,14,0,17.122,5349.4076173753,0,0,0.53300854724,0,0,-0.223694,285.7, 3.5, 1.7,0,0,1024,1024,1286,1024,286,-20.4,99,4.291,4.292,4.292,4.291,0,0,1.902,80.51,10,Assisted_Takeoff,
0.375913616983555,36.9254411601959,5349.4076173753,0,0.223694,0.57185369284,8800,2018-04-17 06:41:07,14,0,17.122,5349.4076173753,0,0.223694,0.57185369284,0,0.223694,-0.671082,285.7, 2.7, 1.2,0,0,1024,1024,1286,1024,286,-20.4,99,4.291,4.292,4.292,4.291,0,0,1.902,80.51,6,P-GPS,
0.375913619405917,36.9254413420728,5349.4076173753,0,0.223694,0.62162403564,8900,2018-04-17 06:41:07,14,0,17.122,5349.4076173753,0,0.223694,0.62162403564,0,0.223694,-0.894776,285.6, 0.9, 0.3,0,0,1024,1024,1286,1024,286,-20.4,99,4.291,4.292,4.292,4.291,0,0,1.902,80.51,6,P-GPS,
0.375913619411209,36.9254415998301,5349.4076173753,0,0.223694,0.69760829004,9000,2018-04-17 06:41:07,13,0,17.122,5349.4076173753,0,0.223694,0.69760829004,0,0.223694,-1.342164,285.6, 0, 0,0,0,1024,1024,1285,1024,285.9,-20.4,99,4.291,4.292,4.292,4.291,0,0,1.902,80.51,6,P-GPS,
0.375913615415109,36.925441816787,5349.7357013753,0.328084,0.223694,0.76542653368,9100,2018-04-17 06:41:07,13,0,17.122,5349.7357013753,0.328084,0.223694,0.76542653368,0,0.223694,-1.789552,285.6, -0.5, -0.4,0,0,1024,1024,1287,1024,285.9,-20.4,99,4.291,4.292,4.292,4.291,0,0,1.902,80.51,6,P-GPS,
0.375913591076589,36.9254420816067,5350.0637853753,0.656168,0,0.8541502898,9200,2018-04-17 06:41:07,14,0,17.122,5350.0637853753,0.656168,0.223694,0.8541502898,0,0,-2.013246,285.5, -0.5, -0.7,0,0,1024,1024,1287,1024,285.9,-20.4,99,4.291,4.292,4.292,4.291,0,0,1.902,80.51,6,P-GPS,
0.375913550849493,36.9254422767984,5350.3918693753,0.984252,0,0.92421918968,9300,2018-04-17 06:41:07,14,0,17.122,5350.3918693753,0.984252,0.223694,0.92421918968,0,0,-2.23694,285.5, -0.2, -0.9,0,0,1024,1024,1287,1024,285.9,-20.4,99,4.291,4.292,4.292,4.291,0,0,1.902,80.51,6,P-GPS,
0.375913500069877,36.9254424292256,5350.7199533753,1.312336,0,0.98228677684,9400,2018-04-17 06:41:07,14,0,16.824,5350.7199533753,1.312336,0.223694,0.98228677684,0,0,-2.23694,285.5, 0, -0.6,0,0,1024,1024,1288,1024,285.9,-20.4,99,4.269,4.27,4.269,4.258,0,0,4.908,80.51,6,P-GPS,
0.375913429153227,36.9254425279981,5351.0480373753,1.64042,0,1.0260499016,9500,2018-04-17 06:41:07,14,0,16.824,5351.0480373753,1.64042,0.223694,1.0260499016,0,0,-2.460634,285.5, 0.2, 0,0,0,1024,1024,1286,1024,285.9,-20.4,99,4.269,4.27,4.269,4.258,0,0,4.908,80.51,6,P-GPS,Home Point Recorded. RTH Altitude:  30m.
0.37591333924602,36.9254426698069,5351.3761213753,1.968504,0,1.08700134712,9600,2018-04-17 06:41:08,13,0,16.824,5351.3761213753,1.968504,0.223694,1.08700134712,0,0,-2.460634,285.5, 0.3, 0.3,0,0,1024,1024,1286,1024,285.9,-20.4,99,4.269,4.27,4.269,4.258,0,0,4.908,80.51,6,P-GPS,
0.375913246541604,36.9254427826859,5351.7042053753,2.296588,0,1.13906827792,9700,2018-04-17 06:41:08,13,0,16.824,5351.7042053753,2.296588,0.223694,1.13906827792,0,0,-2.684328,285.6, 0.3, 0.8,0,0,1024,1024,1285,1024,285.9,-20.4,99,4.269,4.27,4.269,4.258,0,0,4.908,80.51,6,P-GPS,
0.37591313926353,36.9254430105541,5352.3603733753,2.952756,0,1.23089570868,9800,2018-04-17 06:41:08,14,0,16.824,5352.3603733753,2.952756,0.223694,1.23089570868,0,0,-2.908022,285.6, 0.4, 0.9,0,0,1024,1024,1286,1024,285.9,-20.4,99,4.269,4.27,4.269,4.258,0,0,4.908,80.51,6,P-GPS,
0.375913042730184,36.9254431922452,5352.6884573753,3.28084,0,1.3059547662,9900,2018-04-17 06:41:08,14,0,16.824,5352.6884573753,3.28084,0.223694,1.3059547662,0,0,-2.908022,285.6, 0.5, 0.9,0,0,1024,1024,1286,1024,285.9,-20.4,99,4.269,4.27,4.269,4.258,0,0,4.908,80.51,6,P-GPS,
0.375912946099131,36.9254433774507,5353.0165413753,3.608924,0,1.3821686794,10000,2018-04-17 06:41:08,14,0,16.824,5353.0165413753,3.608924,0.223694,1.3821686794,0,0,-2.908022,285.6, 0.6, 0.8,0,0,1024,1024,1285,1024,285.9,-20.4,99,4.269,4.27,4.269,4.258,0,0,4.908,80.51,6,P-GPS,
0.375912861137915,36.9254435191428,5353.6727093753,4.265092,0,1.44232616164,10100,2018-04-17 06:41:08,14,0,16.824,5353.6727093753,4.265092,0.223694,1.44232616164,0,0,-2.908022,285.7, 0.7, 0.8,0,0,1024,1024,1284,1024,285.9,-20.4,99,4.269,4.27,4.269,4.258,0,0,4.908,80.51,6,P-GPS,
0.375912836034739,36.9254435963486,5354.0007933753,4.593176,0,1.4715551652,10200,2018-04-17 06:41:08,14,0,16.824,5354.0007933753,4.593176,0.223694,1.4715551652,0,0,-2.908022,285.7, 0.8, 1,0,0,1024,1024,1284,1024,285.9,-20.4,99,4.269,4.27,4.269,4.258,0,0,4.908,80.51,6,P-GPS,
0.375912822805056,36.9254436504654,5354.3288773753,4.92126,0,1.49132550704,10300,2018-04-17 06:41:08,14,0,16.824,5354.3288773753,4.92126,0.223694,1.49132550704,0,0,-2.908022,285.7, 0.9, 0.9,0,0,1024,1024,1284,1024,285.9,-20.4,99,4.269,4.27,4.269,4.258,0,0,4.908,80.51,6,P-GPS,
0.375912801719862,36.9254436831467,5354.9850453753,5.577428,0,1.50544296156,10400,2018-04-17 06:41:08,13,0,16.742,5354.9850453753,5.577428,0.223694,1.50544296156,0,0,-2.908022,285.7, 1, 0.5,0,0,1024,1024,1284,1024,285.9,-20.4,99,4.206,4.211,4.212,4.209,0,0,13.944,80.51,6,P-GPS,
0.375912778203705,36.9254437154881,5355.3131293753,5.905512,0,1.51985897252,10500,2018-04-17 06:41:08,13,0,16.742,5355.3131293753,5.905512,0.223694,1.51985897252,0,0,-2.908022,285.7, 1.2, 0.4,0,0,1024,1024,1284,1024,285.9,-20.4,99,4.206,4.211,4.212,4.209,0,0,13.944,80.51,6,P-GPS,
0.375912758121429,36.9254437658181,5355.6412133753,6.233596,0,1.53954073168,10600,2018-04-17 06:41:09,16,0,16.742,5355.6412133753,6.233596,0.223694,1.53954073168,0,0,-2.684328,285.7, 1.3, 0.2,0,0,1024,1024,1285,1024,285.9,-20.4,99,4.206,4.211,4.212,4.209,0,0,13.944,80.51,6,P-GPS,
0.375912741669259,36.9254438218652,5356.2973813753,6.889764,0,1.5604823334,10700,2018-04-17 06:41:09,16,0,16.742,5356.2973813753,6.889764,0.223694,1.5604823334,0,0,-2.684328,285.7, 1.6, -0.1,0,0,1024,1024,1285,1024,285.9,-20.4,99,4.206,4.211,4.212,4.209,0,0,13.944,80.51,6,P-GPS,
0.375912732855713,36.9254438580512,5356.6254653753,7.217848,0,1.57371068028,10800,2018-04-17 06:41:09,16,0,16.742,5356.6254653753,7.217848,0.223694,1.57371068028,0,0,-2.684328,285.7, 1.5, 0,0,0,1024,1024,1286,1024,285.9,-20.4,99,4.206,4.211,4.212,4.209,0,0,13.944,80.51,6,P-GPS,
0.375912719848211,36.9254438972793,5356.9535493753,7.545932,0,1.58862209808,10900,2018-04-17 06:41:09,16,0,16.742,5356.9535493753,7.545932,0.223694,1.58862209808,0,0,-2.684328,285.7, 1.3, 0.2,0,0,1024,1024,1285,1024,285.9,-20.4,99,4.206,4.211,4.212,4.209,0,0,13.944,80.51,6,P-GPS,
0.375912692799044,36.9254439729403,5357.6097173753,8.2021,0,1.6177165872,11000,2018-04-17 06:41:09,16,0,16.742,5357.6097173753,8.2021,0.223694,1.6177165872,0,0,-2.684328,285.7, 1.2, -0.1,0,0,1024,1024,1285,1024,285.9,-20.4,99,4.206,4.211,4.212,4.209,0,0,13.944,80.51,6,P-GPS,
0.375912665895521,36.9254440514897,5357.9378013753,8.530184,0,1.64773955404,11100,2018-04-17 06:41:09,16,0,16.742,5357.9378013753,8.530184,0.223694,1.64773955404,0,0,-2.684328,285.7, 1.3, -0.4,0,0,1024,1024,1286,1024,285.9,-20.4,99,4.206,4.211,4.212,4.209,0,0,13.944,80.51,6,P-GPS,
0.37591264564928,36.9254441207558,5358.2658853753,8.858268,0,1.6736549092,11200,2018-04-17 06:41:09,16,0,16.742,5358.2658853753,8.858268,0.223694,1.6736549092,0,0,-2.684328,285.7, 1.4, -0.3,0,0,1024,1024,1289,1024,285.9,-20.4,99,4.206,4.211,4.212,4.209,0,0,13.944,80.51,6,P-GPS,
0.375912621086543,36.925444180579,5358.5939693753,9.186352,0,1.69719165536,11300,2018-04-17 06:41:09,16,0,16.742,5358.5939693753,9.186352,0.223694,1.69719165536,0,0,-2.684328,285.7, 1.6, -0.2,0,0,1024,1024,1289,1024,285.9,-20.4,99,4.206,4.211,4.212,4.209,0,0,13.944,80.51,6,P-GPS,
0.375912575183251,36.9254442678985,5359.2501373753,9.84252,0,1.73317262764,11400,2018-04-17 06:41:09,15,0,16.742,5359.2501373753,9.84252,0.223694,1.73317262764,0,0,-2.684328,285.6, 1.5, -0.1,0,0,1024,1024,1287,1024,285.9,-20.4,99,4.206,4.211,4.212,4.209,0,0,13.944,80.51,6,P-GPS,
0.375912525017202,36.9254443541142,5359.5782213753,10.170604,0,1.76948496476,11500,2018-04-17 06:41:09,15,0,16.742,5359.5782213753,10.170604,0.223694,1.76948496476,0,0,-2.684328,285.6, 1.6, 0,0,0,1024,1024,1287,1024,285.9,-20.4,99,4.206,4.211,4.212,4.209,0,0,13.944,80.51,6,P-GPS,
0.375912493983334,36.9254444350709,5359.9063053753,10.498688,0,1.80097774792,11600,2018-04-17 06:41:10,16,0,16.742,5359.9063053753,10.498688,0.223694,1.80097774792,0,0,-2.684328,285.6, 1.7, 0,0,0,1024,1024,1287,1024,285.9,-20.4,99,4.206,4.211,4.212,4.209,0,0,13.944,80.51,6,P-GPS,
0.375912468824078,36.9254445139844,5360.5624733753,11.154856,0,1.83085963864,11700,2018-04-17 06:41:10,16,0,16.742,5360.5624733753,11.154856,0.223694,1.83085963864,0,0,-2.684328,285.6, 1.7, -0.2,0,0,1024,1024,1286,1024,285.9,-20.4,99,4.206,4.211,4.212,4.209,0,0,13.944,80.51,6,P-GPS,
0.375912466343042,36.9254446142948,5360.8905573753,11.48294,0,1.86417000716,11800,2018-04-17 06:41:10,16,0,16.742,5360.8905573753,11.48294,0.223694,1.86417000716,0,0,-2.684328,285.6, 1.5, -0.5,0,0,1024,1024,1286,1024,285.9,-20.4,99,4.206,4.211,4.212,4.209,0,0,13.944,80.51,6,P-GPS,
0.375912457136837,36.9254447159012,5361.2186413753,11.811024,0,1.89907486392,11900,2018-04-17 06:41:10,16,0,16.742,5361.2186413753,11.811024,0.223694,1.89907486392,0,0,-2.908022,285.6, 1.4, -0.6,0,0,1024,1024,1284,1024,285.9,-20.4,99,4.206,4.211,4.212,4.209,0,0,13.944,80.51,6,P-GPS,
0.375912432471814,36.9254448986062,5361.5467253753,12.139108,0,1.9632874644,12000,2018-04-17 06:41:10,15,0,16.742,5361.5467253753,12.139108,0.223694,1.9632874644,0,0,-2.684328,285.6, 1.3, -0.6,0,0,1024,1024,1284,1024,285.9,-20.4,99,4.206,4.211,4.212,4.209,0,0,13.944,80.51,6,P-GPS,
0.375912390324121,36.9254450701955,5362.2028933753,12.795276,0,2.0266240806,12100,2018-04-17 06:41:10,15,0,16.742,5362.2028933753,12.795276,0.223694,2.0266240806,0,0,-2.684328,285.6, 1.2, -0.4,0,0,1024,1024,1282,1024,285.9,-20.4,99,4.206,4.211,4.212,4.209,0,0,13.944,80.51,6,P-GPS,
0.375912333205226,36.925445213599,5362.5309773753,13.12336,0,2.08288392492,12200,2018-04-17 06:41:10,15,0,16.742,5362.5309773753,13.12336,0.223694,2.08288392492,0,0,-2.684328,285.6, 1.1, -0.3,0,0,1024,1024,1282,1024,285.9,-20.4,99,4.206,4.211,4.212,4.209,0,0,13.944,80.51,6,P-GPS,
0.375912278458161,36.9254453334933,5362.8590613753,13.451444,0,2.1309711968,12300,2018-04-17 06:41:10,15,0,16.742,5362.8590613753,13.451444,0.223694,2.1309711968,0,0,-2.684328,285.6, 0.8, -0.4,0,0,1024,1024,1282,1024,285.9,-20.4,99,4.206,4.211,4.212,4.209,0,0,13.944,80.51,6,P-GPS,
0.375912220620308,36.9254454448841,5363.5152293753,14.107612,0,2.17669298304,12400,2018-04-17 06:41:10,15,0,16.742,5363.5152293753,14.107612,0.223694,2.17669298304,0,0,-2.684328,285.6, 0.8, -0.6,0,0,1024,1024,1281,1024,285.9,-20.4,99,4.206,4.211,4.212,4.209,0,0,12.678,80.51,6,P-GPS,
0.375912163584464,36.9254455453203,5363.8433133753,14.435696,0,2.21866148832,12500,2018-04-17 06:41:11,15,0,16.742,5363.8433133753,14.435696,0.223694,2.21866148832,0,0,-2.684328,285.6, 0.9, -0.7,0,0,1024,1024,1281,1024,285.9,-20.4,99,4.206,4.211,4.212,4.209,0,0,12.678,80.51,6,P-GPS,
0.37591213418189,36.9254456338447,5364.1713973753,14.76378,0,2.25250663376,12600,2018-04-17 06:41:11,15,0,16.742,5364.1713973753,14.76378,0.223694,2.25250663376,0,0,-2.684328,285.6, 0.9, -0.6,0,0,1024,1024,1281,1024,285.9,-20.4,99,4.206,4.211,4.212,4.209,0,0,12.678,80.51,6,P-GPS,
0.375912102114978,36.925445719622,5364.4994813753,15.091864,0,2.28583996816,12700,2018-04-17 06:41:11,15,0,16.742,5364.4994813753,15.091864,0.223694,2.28583996816,0,0,-2.684328,285.6, 0.7, -0.5,0,0,1024,1024,1280,1024,285.9,-20.4,99,4.206,4.211,4.212,4.209,0,0,12.678,80.51,6,P-GPS,
0.375912069270891,36.9254458355009,5364.8275653753,15.419948,0,2.32931109816,12800,2018-04-17 06:41:11,15,0,16.742,5364.8275653753,15.419948,0.223694,2.32931109816,0,0,-2.684328,285.6, 0.6, -0.6,0,0,1024,1024,1277,1024,285.9,-20.4,99,4.206,4.211,4.212,4.209,0,0,12.678,80.51,6,P-GPS,
0.375912025979725,36.925445946881,5365.4837333753,16.076116,0,2.37285440664,12900,2018-04-17 06:41:11,15,0,16.742,5365.4837333753,16.076116,0.223694,2.37285440664,0,0,-2.684328,285.6, 0.4, -0.8,0,0,1024,1024,1278,1024,285.9,-20.4,99,4.206,4.211,4.212,4.209,0,0,12.678,80.51,6,P-GPS,
0.375911976527545,36.925446058123,5365.8118173753,16.4042,0,2.41727041856,13000,2018-04-17 06:41:11,16,0,16.742,5365.8118173753,16.4042,0.223694,2.41727041856,0,0,-2.684328,285.6, 0.4, -0.8,0,0,1024,1024,1278,1024,285.9,-20.4,99,4.206,4.211,4.212,4.209,0,0,12.678,80.51,6,P-GPS,
0.375911917914146,36.9254461495403,5366.1399013753,16.732284,0,2.45645349068,13100,2018-04-17 06:41:11,16,0,16.742,5366.1399013753,16.732284,0.223694,2.45645349068,0,0,-2.684328,285.6, 0.5, -0.6,0,0,1024,1024,1278,1024,285.9,-20.4,99,4.206,4.211,4.212,4.209,0,0,12.678,80.51,6,P-GPS,
0.375911855760102,36.9254462372157,5366.4679853753,17.060368,0,2.49494102472,13200,2018-04-17 06:41:11,16,0,16.742,5366.4679853753,17.060368,0.223694,2.49494102472,0,0,-2.684328,285.6, 0.5, -0.4,0,0,1024,1024,1279,1024,285.9,-20.4,99,4.206,4.211,4.212,4.209,0,0,12.678,80.51,6,P-GPS,
0.375911790702951,36.9254463127546,5367.1241533753,17.716536,0,2.52986884736,13300,2018-04-17 06:41:11,16,0,16.742,5367.1241533753,17.716536,0.223694,2.52986884736,0,0,-2.684328,285.6, 0.5, -0.4,0,0,1024,1024,1279,1024,285.9,-20.4,99,4.206,4.211,4.212,4.209,0,0,12.678,80.51,6,P-GPS,
0.375911732498698,36.9254464008026,5367.4522373753,18.04462,0,2.56792659136,13400,2018-04-17 06:41:11,15,0,16.769,5367.4522373753,18.04462,0.223694,2.56792659136,0,0,-2.684328,285.6, 0.5, -0.4,0,0,1024,1024,1279,1024,285.9,-20.4,99,4.204,4.208,4.209,4.206,0,0,12.678,80.51,6,P-GPS,
0.375911670834002,36.9254464763811,5367.7803213753,18.372704,0,2.60240821976,13500,2018-04-17 06:41:11,15,0,16.769,5367.7803213753,18.372704,0.223694,2.60240821976,0,0,-2.684328,285.6, 0.4, -0.2,0,0,1024,1024,1279,1024,285.9,-20.4,99,4.204,4.208,4.209,4.206,0,0,12.678,80.51,6,P-GPS,
0.375911621671278,36.9254465680446,5368.1084053753,18.700788,0,2.64029536008,13600,2018-04-17 06:41:12,15,0,16.769,5368.1084053753,18.700788,0.223694,2.64029536008,0,0,-2.684328,285.6, 0.5, -0.2,0,0,1024,1024,1279,1024,285.9,-20.4,99,4.204,4.208,4.209,4.206,0,0,12.678,80.51,6,P-GPS,
0.375911570754109,36.9254466489334,5368.7645733753,19.356956,0,2.67489837956,13700,2018-04-17 06:41:12,15,0,16.769,5368.7645733753,19.356956,0.223694,2.67489837956,0,0,-2.684328,285.7, 0.5, -0.3,0,0,1024,1024,1281,1024,285.9,-20.4,99,4.204,4.208,4.209,4.206,0,0,12.678,80.51,6,P-GPS,
0.375911496408312,36.9254467822645,5369.0926573753,19.68504,0,2.73045940496,13800,2018-04-17 06:41:12,15,0,16.769,5369.0926573753,19.68504,0.223694,2.73045940496,0,0,-2.684328,285.7, 0.4, -0.3,0,0,1024,1024,1280,1024,285.9,-20.4,99,4.204,4.208,4.209,4.206,0,0,12.678,80.51,6,P-GPS,
0.375911417249853,36.9254468972944,5369.4207413753,20.013124,0,2.7807415588,13900,2018-04-17 06:41:12,15,0,16.769,5369.4207413753,20.013124,0.223694,2.7807415588,0,0,-2.684328,285.7, 0.4, -0.2,0,0,1024,1024,1280,1024,285.9,-20.4,99,4.204,4.208,4.209,4.206,0,0,12.678,80.51,6,P-GPS,
0.375911348549261,36.9254470271898,5369.7488253753,20.341208,0,2.8343012718,14000,2018-04-17 06:41:12,15,0,16.769,5369.7488253753,20.341208,0.223694,2.8343012718,0,0,-2.684328,285.7, 0.4, -0.3,0,0,1024,1024,1281,1024,285.9,-20.4,99,4.204,4.208,4.209,4.206,0,0,12.678,80.51,6,P-GPS,
0.375911283629917,36.9254471307983,5370.4049933753,20.997376,0,2.87861557768,14100,2018-04-17 06:41:12,15,0,16.769,5370.4049933753,20.997376,0.223694,2.87861557768,0,0,-2.684328,285.7, 0.5, -0.3,0,0,1024,1024,1283,1024,285.9,-20.4,99,4.204,4.208,4.209,4.206,0,0,12.678,80.51,6,P-GPS,
0.375911230386719,36.9254472144825,5370.7330773753,21.32546,0,2.91454077568,14200,2018-04-17 06:41:12,16,0,16.769,5370.7330773753,21.32546,0.223694,2.91454077568,0,0,-2.684328,285.7, 0.4, -0.3,0,0,1024,1024,1285,1024,285.9,-20.4,99,4.204,4.208,4.209,4.206,0,0,12.678,80.51,6,P-GPS,
0.375911175760565,36.9254472813686,5371.0611613753,21.653544,0,2.94516741708,14300,2018-04-17 06:41:12,16,0,16.769,5371.0611613753,21.653544,0.223694,2.94516741708,0,0,-2.684328,285.7, 0.3, -0.2,0,0,1024,1024,1285,1024,285.9,-20.4,99,4.204,4.208,4.209,4.206,0,0,12.678,80.51,6,P-GPS,
0.375911132480187,36.9254473599555,5371.3892453753,21.981628,0,2.97785114516,14400,2018-04-17 06:41:12,16,0,16.715,5371.3892453753,21.981628,0.223694,2.97785114516,0,0,-2.684328,285.7, 0.3, -0.2,0,0,1024,1024,1286,1024,285.9,-20.4,99,4.197,4.202,4.204,4.201,0,0,12.766,80.51,6,P-GPS,
0.375911087211276,36.9254474286221,5372.0454133753,22.637796,0,3.00759852144,14500,2018-04-17 06:41:13,16,0,16.715,5372.0454133753,22.637796,0.223694,3.00759852144,0,0,-2.684328,285.7, 0.4, -0.3,0,0,1024,1024,1289,1024,285.9,-20.4,99,4.197,4.202,4.204,4.201,0,0,12.766,80.51,6,P-GPS,
0.375911018887466,36.9254475180705,5372.3734973753,22.96588,0,3.04784786656,14600,2018-04-17 06:41:13,16,0,16.715,5372.3734973753,22.96588,0.223694,3.04784786656,0,0,-2.908022,285.7, 0.5, -0.4,0,0,1024,1024,1289,1024,285.9,-20.4,99,4.197,4.202,4.204,4.201,0,0,12.766,80.51,6,P-GPS,
0.375910939441993,36.9254475939648,5372.7015813753,23.293964,0,3.08547253968,14700,2018-04-17 06:41:13,16,0,16.715,5372.7015813753,23.293964,0.223694,3.08547253968,0,0,-2.908022,285.7, 0.5, -0.3,0,0,1024,1024,1288,1024,285.9,-20.4,99,4.197,4.202,4.204,4.201,0,0,12.766,80.51,6,P-GPS,
0.375910862019863,36.9254476353208,5373.3577493753,23.950132,0,3.11155849852,14800,2018-04-17 06:41:13,16,0,16.715,5373.3577493753,23.950132,0.223694,3.11155849852,0,0,-2.908022,285.7, 0.4, -0.2,0,0,1024,1024,1287,1024,285.9,-20.5,99,4.197,4.202,4.204,4.201,0,0,12.766,80.51,6,P-GPS,
0.375910788612661,36.9254476612042,5373.6858333753,24.278216,0,3.13206046768,14900,2018-04-17 06:41:13,16,0,16.715,5373.6858333753,24.278216,0.223694,3.13206046768,0,0,-2.908022,285.7, 0.4, -0.2,0,0,1024,1024,1287,1024,285.9,-20.6,99,4.197,4.202,4.204,4.201,0,0,12.766,80.51,6,P-GPS,
0.375910758026208,36.9254477502682,5374.0139173753,24.6063,0,3.16608605932,15000,2018-04-17 06:41:13,16,0,16.715,5374.0139173753,24.6063,0.223694,3.16608605932,0,0,-2.908022,285.7, 0.5, -0.2,0,0,1024,1024,1288,1024,285.9,-20.7,99,4.197,4.202,4.204,4.201,0,0,12.766,80.51,6,P-GPS,
0.375910722646837,36.9254478344192,5374.3420013753,24.934384,0,3.19930784516,15100,2018-04-17 06:41:13,16,0,16.715,5374.3420013753,24.934384,0.223694,3.19930784516,0,0,-2.908022,285.7, 0.5, 0,0,0,1024,1024,1287,1024,285.9,-20.8,99,4.197,4.202,4.204,4.201,0,0,12.766,80.51,6,P-GPS,
0.375910670413478,36.92544798336,5374.9981693753,25.590552,0,3.25640758452,15200,2018-04-17 06:41:13,16,0,16.715,5374.9981693753,25.590552,0.223694,3.25640758452,0,0,-2.908022,285.7, 0.2, -0.1,0,0,1024,1024,1287,1024,285.9,-20.9,99,4.197,4.202,4.204,4.201,0,0,12.766,80.51,6,P-GPS,
0.375910613192399,36.9254481124225,5375.3262533753,25.918636,0,3.3078413132,15300,2018-04-17 06:41:13,16,0,16.715,5375.3262533753,25.918636,0.223694,3.3078413132,0,0,-2.684328,285.7, 0.2, -0.3,0,0,1024,1024,1287,1024,285.9,-20.9,99,4.197,4.202,4.204,4.201,0,0,12.766,80.51,6,P-GPS,
0.375910565258335,36.9254482349253,5375.6543373753,26.24672,0,3.355643152,15400,2018-04-17 06:41:13,16,0,16.688,5375.6543373753,26.24672,0.223694,3.355643152,0,0,-2.684328,285.7, 0.2, -0.4,0,0,1024,1024,1285,1024,285.9,-21,99,4.192,4.198,4.199,4.197,0,0,12.958,80.51,6,P-GPS,
0.375910514358876,36.9254483263812,5376.3105053753,26.902888,0,3.3937993212,15500,2018-04-17 06:41:13,16,0,16.688,5376.3105053753,26.902888,0.223694,3.3937993212,0,0,-2.908022,285.7, 0.2, -0.4,0,0,1024,1024,1285,1024,285.9,-21.1,99,4.192,4.198,4.199,4.197,0,0,12.958,80.51,6,P-GPS,
0.375910468497007,36.9254484382184,5376.6385893753,27.230972,0,3.4377625772,15600,2018-04-17 06:41:14,16,0,16.688,5376.6385893753,27.230972,0.223694,3.4377625772,0,0,-2.908022,285.7, 0.1, -0.5,0,0,1024,1024,1286,1024,285.9,-21.2,99,4.192,4.198,4.199,4.197,0,0,12.958,80.51,6,P-GPS,
0.37591041819193,36.925448533658,5376.9666733753,27.559056,0,3.4771326572,15700,2018-04-17 06:41:14,16,0,16.688,5376.9666733753,27.559056,0.223694,3.4771326572,0,0,-2.684328,285.7, 0.1, -0.5,0,0,1024,1024,1286,1024,285.9,-21.3,99,4.192,4.198,4.199,4.197,0,0,12.958,80.51,6,P-GPS,
0.375910400722389,36.9254486427674,5377.6228413753,28.215224,0,3.515584102,15800,2018-04-17 06:41:14,16,0,16.688,5377.6228413753,28.215224,0.223694,3.515584102,0,0,-2.684328,285.7, 0, -0.4,0,0,1024,1024,1284,1024,285.9,-21.4,99,4.192,4.198,4.199,4.197,0,0,12.958,80.51,6,P-GPS,
0.375910378905311,36.9254487315263,5377.9509253753,28.543308,0,3.5481628432,15900,2018-04-17 06:41:14,16,0,16.688,5377.9509253753,28.543308,0.223694,3.5481628432,0,0,-2.684328,285.7, 0.1, -0.2,0,0,1024,1024,1285,1024,285.9,-21.6,99,4.192,4.198,4.199,4.197,0,0,12.958,80.51,6,P-GPS,
0.375910361341728,36.9254488036445,5378.2790093753,28.871392,0,3.5746064136,16000,2018-04-17 06:41:14,16,0,16.688,5378.2790093753,28.871392,0.223694,3.5746064136,0,0,-2.684328,285.7, 0, -0.2,0,0,1024,1024,1284,1024,285.9,-21.7,99,4.192,4.198,4.199,4.197,0,0,12.958,80.51,6,P-GPS,
0.375910335304944,36.9254488572324,5378.6070933753,29.199476,0,3.5963255744,16100,2018-04-17 06:41:14,16,0,16.688,5378.6070933753,29.199476,0.223694,3.5963255744,0,0,-2.684328,285.7, 0, -0.3,0,0,1024,1024,1284,1024,285.9,-21.8,99,4.192,4.198,4.199,4.197,0,0,12.958,80.51,6,P-GPS,
0.375910310576615,36.9254489613719,5379.2632613753,29.855644,0,3.6344161268,16200,2018-04-17 06:41:14,16,0,16.688,5379.2632613753,29.855644,0.223694,3.6344161268,0,0,-2.684328,285.7, -0.1, -0.6,0,0,1024,1024,1284,1024,285.9,-21.9,99,4.192,4.198,4.199,4.197,0,0,12.958,80.51,6,P-GPS,
0.375910274323381,36.9254490485731,5379.5913453753,30.183728,0,3.66879933,16300,2018-04-17 06:41:14,16,0,16.688,5379.5913453753,30.183728,0.223694,3.66879933,0,0,-2.684328,285.8, 0, -0.3,0,0,1024,1024,1282,1024,285.9,-22,99,4.192,4.198,4.199,4.197,0,0,12.958,80.51,6,P-GPS,
0.375910230669682,36.9254491266504,5379.9194293753,30.511812,0,3.7014108796,16400,2018-04-17 06:41:15,16,0,16.688,5379.9194293753,30.511812,0.223694,3.7014108796,0,0,-2.684328,285.8, -0.1, -0.3,0,0,1024,1024,1284,1024,285.9,-22.2,99,4.192,4.198,4.199,4.197,0,0,12.958,80.51,6,P-GPS,
0.375910174049092,36.9254492149147,5380.9036813753,31.496064,0,3.7394030068,16600,2018-04-17 06:41:15,16,0,16.688,5380.9036813753,31.496064,0.223694,3.7394030068,0,0,-2.908022,285.7, 0, -0.4,0,0,1024,1024,1284,1024,285.9,-22.3,99,4.192,4.198,4.199,4.197,0,0,12.958,80.51,6,P-GPS,
0.375910160591631,36.9254492305362,5381.2317653753,31.824148,0,3.7466864716,16700,2018-04-17 06:41:15,16,0,16.688,5381.2317653753,31.824148,0.223694,3.7466864716,0,0,-2.684328,285.7, 0, -0.5,0,0,1024,1024,1289,1024,285.9,-22.4,99,4.192,4.198,4.199,4.197,0,0,12.958,80.51,6,P-GPS,
0.375910142139732,36.9254492772367,5381.5598493753,32.152232,0,3.764927942,16800,2018-04-17 06:41:15,16,0,16.688,5381.5598493753,32.152232,0.223694,3.764927942,0,0,-2.908022,285.7, 0.3, -0.5,0,0,1024,1024,1302,1024,285.9,-22.5,99,4.192,4.198,4.199,4.197,0,0,12.958,80.51,6,P-GPS,
0.375910115044052,36.9254493111958,5382.2160173753,32.8084,0,3.7804135068,16900,2018-04-17 06:41:15,16,0,16.688,5382.2160173753,32.8084,0.223694,3.7804135068,0,0,-2.908022,285.7, 0.2, -0.4,0,0,1024,1024,1317,1024,285.9,-22.5,99,4.192,4.198,4.199,4.197,0,0,12.958,80.51,6,P-GPS,
0.375910079224798,36.9254493623609,5382.5441013753,33.136484,0,3.8029200692,17000,2018-04-17 06:41:15,16,0,16.688,5382.5441013753,33.136484,0.223694,3.8029200692,0,0,-3.131716,285.6, 0.4, -0.7,0,0,1024,1024,1331,1024,285.9,-22.6,99,4.192,4.198,4.199,4.197,0,0,12.958,80.51,6,P-GPS,
0.375910039742359,36.9254493904101,5383.2002693753,33.792652,0,3.8184712508,17100,2018-04-17 06:41:15,16,0,16.688,5383.2002693753,33.792652,0.223694,3.8184712508,0,0,-3.35541,285.6, 0.7, -1,0,0,1024,1024,1337,1024,285.9,-22.8,99,4.192,4.198,4.199,4.197,0,0,12.958,80.51,6,P-GPS,
0.375910002621571,36.9254494465001,5383.5283533753,34.120736,0,3.842847892,17200,2018-04-17 06:41:15,16,0,16.688,5383.5283533753,34.120736,0.223694,3.842847892,0,0,-3.35541,285.6, 0.6, -1,0,0,1024,1024,1354,1024,285.9,-22.9,99,4.192,4.198,4.199,4.197,0,0,12.958,80.51,6,P-GPS,
0.375909948415963,36.925449483201,5384.1845213753,34.776904,0,3.8636484176,17300,2018-04-17 06:41:15,16,0,16.688,5384.1845213753,34.776904,0.223694,3.8636484176,0,0,-3.579104,285.7, 0.4, -0.4,0,0,1024,1024,1362,1024,285.9,-23,99,4.192,4.198,4.199,4.197,0,0,12.958,80.51,6,P-GPS,
0.375909875401826,36.9254495459995,5384.5126053753,35.104988,0,3.8960631168,17400,2018-04-17 06:41:15,16,0,16.715,5384.5126053753,35.104988,0.223694,3.8960631168,0,0,-3.802798,285.7, 0.3, 0.2,0,0,1024,1024,1366,1024,285.9,-23.1,99,4.189,4.194,4.195,4.191,0,0,12.892,80.51,6,P-GPS,
0.375909803600474,36.9254495901423,5385.1687733753,35.761156,0,3.9222770284,17500,2018-04-17 06:41:15,16,0,16.715,5385.1687733753,35.761156,0.223694,3.9222770284,0,0,-4.026492,285.8, 0.3, 0.2,0,0,1024,1024,1373,1024,285.9,-23.2,99,4.189,4.194,4.195,4.191,0,0,12.892,80.51,6,P-GPS,
0.375909751493115,36.9254496667336,5385.8249413753,36.417324,0,3.9558072132,17600,2018-04-17 06:41:16,16,0,16.715,5385.8249413753,36.417324,0.223694,3.9558072132,0,0,-4.026492,285.8, 0.3, 0,0,0,1024,1024,1382,1024,285.9,-23.3,99,4.189,4.194,4.195,4.191,0,0,12.892,80.51,6,P-GPS,
0.375909669100363,36.9254498433511,5387.1372773753,37.72966,0,4.0268702076,17800,2018-04-17 06:41:16,16,0,16.715,5387.1372773753,37.72966,0.223694,4.0268702076,0,0,-4.250186,285.7, -0.1, -0.3,0,0,1024,1024,1389,1024,285.9,-23.5,99,4.189,4.194,4.195,4.191,0,0,12.892,80.51,6,P-GPS,
0.375909629723773,36.9254499351227,5387.7934453753,38.385828,0,4.0632219148,17900,2018-04-17 06:41:16,16,0,16.715,5387.7934453753,38.385828,0.223694,4.0632219148,0,0,-4.250186,285.6, -0.1, -0.1,0,0,1024,1024,1389,1024,285.9,-23.5,99,4.189,4.194,4.195,4.191,0,0,12.892,80.51,6,P-GPS,
0.37590959327024,36.9254500323096,5388.4496133753,39.041996,0,4.1008531496,18000,2018-04-17 06:41:16,16,0,16.715,5388.4496133753,39.041996,0.223694,4.1008531496,0,0,-4.47388,285.6, -0.2, 0,0,0,1024,1024,1390,1024,285.9,-23.6,99,4.189,4.194,4.195,4.191,0,0,12.892,80.51,6,P-GPS,
0.375909559815079,36.9254500981347,5389.1057813753,39.698164,0,4.127788846,18100,2018-04-17 06:41:16,16,0,16.715,5389.1057813753,39.698164,0.223694,4.127788846,0,0,-4.47388,285.7, -0.3, 0.1,0,0,1024,1024,1394,1024,285.9,-23.7,99,4.189,4.194,4.195,4.191,0,0,12.892,80.51,6,P-GPS,
0.37590953708078,36.9254501918249,5389.7619493753,40.354332,0,4.1620408156,18200,2018-04-17 06:41:16,16,0,16.715,5389.7619493753,40.354332,0.223694,4.1620408156,0,0,-4.47388,285.7, -0.1, 0,0,0,1024,1024,1396,1024,285.9,-23.8,99,4.189,4.194,4.195,4.191,0,0,12.892,80.51,6,P-GPS,
0.375909518108593,36.9254502573085,5390.4181173753,41.0105,0,4.1864830736,18300,2018-04-17 06:41:16,16,0,16.715,5390.4181173753,41.0105,0.223694,4.1864830736,0,0,-4.47388,285.7, 0, 0,0,0,1024,1024,1395,1024,285.9,-23.9,99,4.189,4.194,4.195,4.191,0,0,12.892,80.51,6,P-GPS,
0.375909494181458,36.9254503302158,5391.0742853753,41.666668,0,4.2141733632,18400,2018-04-17 06:41:16,16,0,16.688,5391.0742853753,41.666668,0.223694,4.2141733632,0,0,-4.47388,285.7, 0.1, -0.1,0,0,1024,1024,1397,1024,285.9,-24,99,4.185,4.188,4.186,4.184,0,0,12.982,80.51,6,P-GPS,
0.375909470829571,36.9254503743287,5391.7304533753,42.322836,0,4.2323820252,18500,2018-04-17 06:41:16,16,0,16.688,5391.7304533753,42.322836,0.223694,4.2323820252,0,0,-4.697574,285.7, 0.1, 0,0,0,1024,1024,1402,1024,285.9,-24,99,4.185,4.188,4.186,4.184,0,0,12.982,80.51,6,P-GPS,
0.375909432317685,36.9254504564701,5392.3866213753,42.979004,0,4.2654528924,18600,2018-04-17 06:41:17,16,0,16.688,5392.3866213753,42.979004,0.223694,4.2654528924,0,0,-4.697574,285.7, 0.1, 0,0,0,1024,1024,1408,1024,285.9,-24.1,99,4.185,4.188,4.186,4.184,0,0,12.982,80.51,6,P-GPS,
0.375909400125383,36.925450518032,5393.0427893753,43.635172,0,4.2908137856,18700,2018-04-17 06:41:17,16,0,16.688,5393.0427893753,43.635172,0.223694,4.2908137856,0,0,-4.697574,285.7, 0.2, 0,0,0,1024,1024,1410,1024,285.9,-24.2,99,4.185,4.188,4.186,4.184,0,0,12.982,80.51,6,P-GPS,
0.375909385004873,36.9254505632647,5394.0270413753,44.619424,0,4.3080053872,18800,2018-04-17 06:41:17,16,0,16.688,5394.0270413753,44.619424,0.223694,4.3080053872,0,0,-4.921268,285.7, 0.4, 0.1,0,0,1024,1024,1414,1024,285.9,-24.3,99,4.185,4.188,4.186,4.184,0,0,12.982,80.51,6,P-GPS,
0.375909380676876,36.9254505853988,5394.6832093753,45.275592,0,4.31594502,18900,2018-04-17 06:41:17,16,0,16.688,5394.6832093753,45.275592,0.223694,4.31594502,0,0,-4.921268,285.7, 0.5, 0.1,0,0,1024,1024,1416,1024,285.9,-24.4,99,4.185,4.188,4.186,4.184,0,0,12.982,80.51,6,P-GPS,
0.375909391213723,36.9254506608531,5395.6674613753,46.259844,0,4.3388780916,19000,2018-04-17 06:41:17,16,0,16.688,5395.6674613753,46.259844,0.223694,4.3388780916,0,0,-5.144962,285.7, 0.4, 0,0,0,1024,1024,1417,1024,285.9,-24.5,99,4.185,4.188,4.186,4.184,0,0,12.982,80.51,6,P-GPS,
0.375909403815437,36.9254507266728,5396.3236293753,46.916012,0,4.3583334728,19100,2018-04-17 06:41:17,16,0,16.688,5396.3236293753,46.916012,0.223694,4.3583334728,0,0,-5.144962,285.7, 0.4, -0.1,0,0,1024,1024,1417,1024,285.9,-24.6,99,4.185,4.188,4.186,4.184,0,0,12.982,80.51,6,P-GPS,
0.375909420275749,36.9254508095969,5396.9797973753,47.57218,0,4.382874156,19200,2018-04-17 06:41:17,16,0,16.688,5396.9797973753,47.57218,0.223694,4.382874156,0,0,-5.144962,285.7, 0.3, -0.1,0,0,1024,1024,1424,1024,285.9,-24.7,99,4.185,4.188,4.186,4.184,0,0,12.982,80.51,6,P-GPS,
0.375909433988468,36.9254508657339,5397.9640493753,48.556432,0,4.399114314,19300,2018-04-17 06:41:17,16,0,16.688,5397.9640493753,48.556432,0.223694,4.399114314,0,0,-5.144962,285.7, 0.4, -0.1,0,0,1024,1024,1433,1024,285.9,-24.7,99,4.185,4.188,4.186,4.184,0,0,12.982,80.51,6,P-GPS,
0.37590947705837,36.92545093171,5398.6202173753,49.2126,0,4.4140093276,19400,2018-04-17 06:41:17,16,0,16.526,5398.6202173753,49.2126,0.223694,4.4140093276,0,0,-5.144962,285.7, 0.5, -0.2,0,0,1024,1024,1441,1024,285.9,-24.8,99,4.175,4.179,4.18,4.177,0,0,14.172,80.51,6,P-GPS,
0.375909519723195,36.9254509739953,5399.6044693753,50.196852,0,4.4212927924,19500,2018-04-17 06:41:17,16,0,16.526,5399.6044693753,50.196852,0.223694,4.4212927924,0,0,-5.368656,285.7, 0.9, -0.3,0,0,1024,1024,1457,1024,285.9,-24.8,99,4.175,4.179,4.18,4.177,0,0,14.172,80.51,6,P-GPS,
0.375909551260456,36.9254510641268,5400.2606373753,50.85302,0,4.4462271764,19600,2018-04-17 06:41:18,16,0,16.526,5400.2606373753,50.85302,0.223694,4.4462271764,0,0,-5.368656,285.7, 1, -0.3,0,0,1024,1024,1480,1024,285.9,-24.9,99,4.175,4.179,4.18,4.177,0,0,14.172,80.51,6,P-GPS,
0.375909568780885,36.9254511466386,5401.2448893753,51.837272,0,4.4708662848,19700,2018-04-17 06:41:18,16,0,16.526,5401.2448893753,51.837272,0.223694,4.4708662848,0,0,-5.59235,285.7, 0.9, -0.3,0,0,1024,1024,1498,1024,285.9,-24.9,99,4.175,4.179,4.18,4.177,0,0,14.172,80.51,6,P-GPS,
0.37590959948886,36.9254512777439,5401.9010573753,52.49344,0,4.5097770472,19800,2018-04-17 06:41:18,16,0,16.526,5401.9010573753,52.49344,0.223694,4.5097770472,0,0,-5.816044,285.7, 0.7, -0.2,0,0,1024,1024,1512,1024,285.9,-24.9,99,4.175,4.179,4.18,4.177,0,0,14.172,80.51,6,P-GPS,
0.375909627835999,36.9254513871241,5402.8853093753,53.477692,0,4.5419620876,19900,2018-04-17 06:41:18,16,0,16.526,5402.8853093753,53.477692,0.223694,4.5419620876,0,0,-6.263432,285.7, 0.5, -0.4,0,0,1024,1024,1524,1024,285.9,-24.9,99,4.175,4.179,4.18,4.177,0,0,14.172,80.51,6,P-GPS,
0.375909648838041,36.9254514961884,5403.8695613753,54.461944,0,4.5752626136,20000,2018-04-17 06:41:18,16,0,16.526,5403.8695613753,54.461944,0.223694,4.5752626136,0,0,-6.71082,285.7, 0.4, -0.5,0,0,1024,1024,1533,1024,285.9,-24.9,99,4.175,4.179,4.18,4.177,0,0,14.172,80.51,6,P-GPS,
0.375909662239321,36.9254515700646,5405.1818973753,55.77428,0,4.5980316432,20100,2018-04-17 06:41:18,16,0,16.526,5405.1818973753,55.77428,0.223694,4.5980316432,0,0,-7.158208,285.7, 0.6, -0.6,0,0,1024,1024,1522,1024,285.9,-24.9,99,4.175,4.179,4.18,4.177,0,0,14.172,80.51,6,P-GPS,
0.375909697268373,36.9254517008851,5406.1661493753,56.758532,0,4.636811172,20200,2018-04-17 06:41:18,16,0,16.526,5406.1661493753,56.758532,0.223694,4.636811172,0,0,-7.158208,285.7, 0.7, -0.6,0,0,1024,1024,1521,1024,285.9,-24.9,99,4.175,4.179,4.18,4.177,0,0,14.172,80.51,6,P-GPS,
0.37590973095803,36.9254518106732,5407.1504013753,57.742784,0,4.6689305956,20300,2018-04-17 06:41:18,16,0,16.526,5407.1504013753,57.742784,0.223694,4.6689305956,0,0,-7.381902,285.7, 0.6, -0.9,0,0,1024,1024,1515,1024,285.9,-24.9,99,4.175,4.179,4.18,4.177,0,0,14.172,80.51,6,P-GPS,
0.375909781383205,36.9254519495587,5408.4627373753,59.05512,0,4.708661568,20400,2018-04-17 06:41:18,16,0,16.58,5408.4627373753,59.05512,0.223694,4.708661568,0,0,-7.381902,285.7, 0.6, -1.1,0,0,1024,1024,1510,1024,285.9,-24.9,99,4.175,4.179,4.18,4.177,0,0,14.172,80.51,6,P-GPS,
0.375909828535208,36.9254520790698,5409.4469893753,60.039372,0,4.7459647188,20500,2018-04-17 06:41:19,16,0,16.58,5409.4469893753,60.039372,0.223694,4.7459647188,0,0,-7.381902,285.7, 0.7, -1.3,0,0,1024,1024,1501,1024,285.9,-24.9,99,4.175,4.179,4.18,4.177,0,0,14.172,80.51,6,P-GPS,
0.375909864305202,36.9254522442327,5410.7593253753,61.351708,0,4.7971130144,20600,2018-04-17 06:41:19,16,0,16.58,5410.7593253753,61.351708,0.223694,4.7971130144,0,0,-7.381902,285.7, 0.7, -1.5,0,0,1024,1024,1501,1024,285.9,-24.9,99,4.175,4.179,4.18,4.177,0,0,14.172,80.51,6,P-GPS,
0.375909876597104,36.9254523689838,5411.7435773753,62.33596,0,4.8378938556,20700,2018-04-17 06:41:19,16,0,16.58,5411.7435773753,62.33596,0.223694,4.8378938556,0,0,-7.381902,285.7, 0.3, -1.6,0,0,1024,1024,1502,1024,285.9,-24.9,99,4.175,4.179,4.18,4.177,0,0,14.172,80.51,6,P-GPS,
0.375909897579605,36.9254525418466,5412.7278293753,63.320212,0,4.8939634112,20800,2018-04-17 06:41:19,16,0,16.58,5412.7278293753,63.320212,0.223694,4.8939634112,0,0,-7.158208,285.7, 0, -1.5,0,0,1024,1024,1502,1024,285.9,-24.9,99,4.175,4.179,4.18,4.177,0,0,14.172,80.51,6,P-GPS,
0.375909911520307,36.9254526722399,5414.0401653753,64.632548,0,4.9366471396,20900,2018-04-17 06:41:19,16,0,16.58,5414.0401653753,64.632548,0.223694,4.9366471396,0,0,-7.158208,285.7, 0.1, -1.5,0,0,1024,1024,1495,1024,285.9,-24.9,99,4.175,4.179,4.18,4.177,0,0,14.172,80.51,6,P-GPS,
0.375909918172501,36.9254528056556,5415.0244173753,65.6168,0,4.9813977972,21000,2018-04-17 06:41:19,16,0,16.58,5415.0244173753,65.6168,0.223694,4.9813977972,0,0,-7.158208,285.7, 0.3, -1.7,0,0,1024,1024,1483,1024,285.9,-24.9,99,4.175,4.179,4.18,4.177,0,0,14.172,80.51,6,P-GPS,
0.375909910480138,36.9254529047075,5416.0086693753,66.601052,0,5.016240318,21100,2018-04-17 06:41:19,16,0,16.58,5416.0086693753,66.601052,0.223694,5.016240318,0,0,-6.934514,285.7, 0.3, -1.7,0,0,1024,1024,1483,1024,285.9,-24.9,99,4.175,4.179,4.18,4.177,0,0,14.172,80.51,6,P-GPS,
0.375909926397364,36.9254530434613,5416.9929213753,67.585304,0,5.0617455688,21200,2018-04-17 06:41:19,16,0,16.58,5416.9929213753,67.585304,0.223694,5.0617455688,0,0,-6.71082,285.7, 0.3, -1.4,0,0,1024,1024,1484,1024,285.9,-24.9,99,4.175,4.179,4.18,4.177,0,0,14.172,80.51,6,P-GPS,
0.375909941323682,36.9254531559217,5417.9771733753,68.569556,0,5.0984581684,21300,2018-04-17 06:41:19,16,0,16.58,5417.9771733753,68.569556,0.223694,5.0984581684,0,0,-6.71082,285.7, 0.2, -1.5,0,0,1024,1024,1484,1024,285.9,-24.9,99,4.175,4.179,4.18,4.177,0,0,14.172,80.51,6,P-GPS,
0.375909966648429,36.925453308631,5418.9614253753,69.553808,0,5.1478348104,21400,2018-04-17 06:41:19,16,0,16.553,5418.9614253753,69.553808,0.223694,5.1478348104,0,0,-6.71082,285.7, 0.2, -1.7,0,0,1024,1024,1482,1024,285.9,-24.9,99,4.17,4.173,4.173,4.167,0,0,14.12,80.51,6,P-GPS,
0.375909978904505,36.9254534239039,5419.9456773753,70.53806,0,5.1859909796,21500,2018-04-17 06:41:19,16,0,16.553,5419.9456773753,70.53806,0.223694,5.1859909796,0,0,-6.487126,285.7, 0.2, -1.6,0,0,1024,1024,1485,1024,285.9,-24.9,99,4.17,4.173,4.173,4.167,0,0,14.12,80.51,6,P-GPS,
0.375909996798255,36.9254535738789,5420.9299293753,71.522312,0,5.2355316636,21600,2018-04-17 06:41:20,16,0,16.553,5420.9299293753,71.522312,0.223694,5.2355316636,0,0,-6.71082,285.7, 0.2, -1.6,0,0,1024,1024,1491,1024,285.9,-24.9,99,4.17,4.173,4.173,4.167,0,0,14.12,80.51,6,P-GPS,
0.375910013228848,36.9254536862269,5421.9141813753,72.506564,0,5.2723426884,21700,2018-04-17 06:41:20,16,0,16.553,5421.9141813753,72.506564,0.223694,5.2723426884,0,0,-6.487126,285.6, 0.4, -1.9,0,0,1024,1024,1494,1024,285.9,-24.9,99,4.17,4.173,4.173,4.167,0,0,14.12,80.51,6,P-GPS,
0.375910025341622,36.9254538406899,5422.8984333753,73.490816,0,5.324311194,21800,2018-04-17 06:41:20,16,0,16.553,5422.8984333753,73.490816,0.223694,5.324311194,0,0,-6.71082,285.6, 0.7, -1.9,0,0,1024,1024,1496,1024,285.9,-24.9,99,4.17,4.173,4.173,4.167,0,0,14.12,80.51,6,P-GPS,
0.375910024199675,36.925453963485,5423.8826853753,74.475068,0,5.3668964972,21900,2018-04-17 06:41:20,16,0,16.553,5423.8826853753,74.475068,0.223694,5.3668964972,0,0,-6.71082,285.6, 0.4, -1.8,0,0,1024,1024,1496,1024,285.9,-24.9,99,4.17,4.173,4.173,4.167,0,0,14.12,80.51,6,P-GPS,
0.375910019535812,36.9254540813906,5425.1950213753,75.787404,0,5.4082678896,22000,2018-04-17 06:41:20,16,0,16.553,5425.1950213753,75.787404,0.223694,5.4082678896,0,0,-6.934514,285.7, 0.1, -1.9,0,0,1024,1024,1499,1024,285.9,-24.9,99,4.17,4.173,4.173,4.167,0,0,14.12,80.51,6,P-GPS,
0.375910013837886,36.9254541497809,5426.1792733753,76.771656,0,5.4326117224,22100,2018-04-17 06:41:20,16,0,16.553,5426.1792733753,76.771656,0.223694,5.4326117224,0,0,-6.71082,285.7, 0, -1.9,0,0,1024,1024,1510,1024,285.9,-24.9,99,4.17,4.173,4.173,4.167,0,0,14.12,80.51,6,P-GPS,
0.375909984082957,36.9254542297907,5427.1635253753,77.755908,0,5.463746894,22200,2018-04-17 06:41:20,16,0,16.553,5427.1635253753,77.755908,0.223694,5.463746894,0,0,-6.934514,285.7, 0.3, -1.9,0,0,1024,1024,1517,1024,285.9,-24.9,99,4.17,4.173,4.173,4.167,0,0,14.12,80.51,6,P-GPS,
