latitude,longitude,altitude(feet),ascent(feet),speed(mph),distance(feet),time(millisecond),datetime(utc),satellites,voltage(v),max_altitude(feet),max_ascent(feet),max_speed(mph),max_distance(feet),compass_heading(degrees), pitch(degrees), roll(degrees),isPhoto,isVideo,rc_elevator,rc_aileron,rc_throttle,rc_rudder,gimbal_heading(degrees),gimbal_pitch(degrees),battery_percent,voltageCell1,voltageCell2,voltageCell3,voltageCell4,voltageCell5,voltageCell6,battery_temperature(f),flycStateRaw,flycState,message
0.307705973765198,36.8794494429223,5805.2164967905,0,0,0,100,2017-11-08 12:33:11,12,0,5805.2164967905,0,0,0,186.8, 2.8, 0.6,0,0,1024,1024,1024,1024,0,0,100,4.3,4.3,4.301,4.3,0,0,82.31,41,Motors_Started,
0.307705935992218,36.8794494671632,5805.2164967905,0,0,0.0163752301828,200,2017-11-08 12:33:11,12,0,5805.2164967905,0,0,0.0163752301828,186.8, 2.8, 0.6,0,0,1024,1024,1024,1024,191.3,0,100,4.3,4.3,4.301,4.3,0,0,82.31,41,Motors_Started,
0.307705908667946,36.8794494792439,5805.2164967905,0,0,0.027197507432,300,2017-11-08 12:33:11,12,0,5805.2164967905,0,0,0.027197507432,186.8, 2.8, 0.6,0,0,1024,1024,1024,1024,191.3,0,100,4.3,4.3,4.301,4.3,0,0,82.31,41,Motors_Started,
0.307705846330397,36.8794494626964,5805.2164967905,0,0,0.047050854524,400,2017-11-08 12:33:11,12,0,5805.2164967905,0,0,0.047050854524,186.8, 2.8, 0.6,0,0,1024,1024,1024,1024,191.3,0,100,4.3,4.3,4.301,4.3,0,0,82.31,41,Motors_Started,
0.307705798590526,36.8794494422283,5805.2164967905,0,0,0.063912731704,500,2017-11-08 12:33:11,12,0,5805.2164967905,0,0,0.063912731704,186.8, 2.8, 0.6,0,0,1024,1024,1024,1024,191.3,0,100,4.3,4.3,4.301,4.3,0,0,82.31,41,Motors_Started,
0.307705752160432,36.8794493940439,5805.2164967905,0,0,0.082795606324,600,2017-11-08 12:33:11,12,0,5805.2164967905,0,0,0.082795606324,186.8, 2.8, 0.6,0,0,1024,1024,1024,1024,191.3,0,100,4.3,4.3,4.301,4.3,0,0,82.31,41,Motors_Started,
0.307705715875036,36.8794493408696,5805.2164967905,0,0,0.101190291952,700,2017-11-08 12:33:11,12,0,5805.2164967905,0,0,0.101190291952,186.8, 2.8, 0.6,0,0,1022,1042,1045,780,191.3,0,100,4.3,4.3,4.301,4.3,0,0,82.31,41,Motors_Started,
0.307705668591333,36.8794492819573,5805.2164967905,0,0,0.12588090954,800,2017-11-08 12:33:11,12,0,5805.2164967905,0,0,0.12588090954,186.8, 2.8, 0.6,0,0,1024,1024,1024,1013,189.9,0,100,4.3,4.3,4.301,4.3,0,0,82.31,41,Motors_Started,
0.307705624140104,36.8794492271144,5805.2164967905,0,0,0.149903548104,900,2017-11-08 12:33:11,12,17.204,5805.2164967905,0,0,0.149903548104,186.8, 2.8, 0.6,0,0,1024,1024,1024,1024,188.6,0,100,4.3,4.3,4.301,4.3,0,0,82.31,41,Motors_Started,Setting new Return-To-Home altitude to 30m (98 ft). Setting new Maximum Flight Altitude to 100m (328 ft)
0.3077055875909,36.8794491526791,5805.2164967905,0,0,0.176252630312,1000,2017-11-08 12:33:12,12,17.204,5805.2164967905,0,0,0.176252630312,186.8, 2.8, 0.6,0,0,1024,1024,1024,1024,188.1,0,100,4.3,4.3,4.301,4.3,0,0,82.31,41,Motors_Started,
0.307705563255229,36.8794490918029,5805.2164967905,0,0,0.197085964312,1100,2017-11-08 12:33:12,12,17.204,5805.2164967905,0,0,0.197085964312,186.8, 2.8, 0.6,0,0,1024,1024,1024,1024,187.8,0,100,4.3,4.3,4.301,4.3,0,0,82.31,41,Motors_Started,
0.307705522395737,36.8794490197034,5805.2164967905,0,0,0.22574803872,1200,2017-11-08 12:33:12,12,17.204,5805.2164967905,0,0,0.22574803872,186.8, 2.8, 0.6,0,0,1024,1024,1024,1024,187.6,0,100,4.3,4.3,4.301,4.3,0,0,82.31,41,Motors_Started,
0.307705484018198,36.8794489586193,5805.2164967905,0,0,0.251294955548,1300,2017-11-08 12:33:12,12,17.204,5805.2164967905,0,0,0.251294955548,186.8, 2.8, 0.6,0,0,1024,1024,1024,1024,187.5,0,100,4.3,4.3,4.301,4.3,0,0,82.31,41,Motors_Started,
0.307705455744135,36.8794488859649,5805.2164967905,0,0,0.277510835652,1400,2017-11-08 12:33:12,12,17.204,5805.2164967905,0,0,0.277510835652,186.8, 2.7, 0.7,0,0,1024,1024,1024,1024,187.4,0,100,4.3,4.3,4.301,4.3,0,0,82.31,41,Motors_Started,
0.307705437015197,36.8794488266692,5805.2164967905,0,0,0.29816437962,1500,2017-11-08 12:33:12,12,17.204,5805.2164967905,0,0,0.29816437962,186.8, 2.7, 0.7,0,0,1024,1024,1024,1024,187.4,0,100,4.3,4.3,4.301,4.3,0,0,82.31,41,Motors_Started,
0.307705401249885,36.8794487905794,5805.2164967905,0,0,0.316666020632,1600,2017-11-08 12:33:12,12,17.204,5805.2164967905,0,0,0.316666020632,186.8, 2.7, 0.6,0,0,1024,1024,1024,1024,187.4,0,100,4.3,4.3,4.301,4.3,0,0,82.31,10,Assisted_Takeoff,
0.307705367656714,36.8794487629712,5805.2164967905,0,0,0.3323326878,1700,2017-11-08 12:33:12,12,17.204,5805.2164967905,0,0,0.3323326878,186.8, 2.8, 0.6,0,0,1024,1024,1024,1024,187.3,0,100,4.3,4.3,4.301,4.3,0,0,82.31,10,Assisted_Takeoff,
0.307705345612264,36.879448728854,5805.2164967905,0,0,0.3469816384,1800,2017-11-08 12:33:12,12,17.204,5805.2164967905,0,0,0.3469816384,186.7, 2.8, 0.6,0,0,1024,1024,1024,1024,187.2,0,100,4.3,4.3,4.301,4.3,0,0,82.31,10,Assisted_Takeoff,
0.307705330453079,36.8794486926935,5805.2164967905,0,0,0.36057087768,1900,2017-11-08 12:33:12,12,17.204,5805.2164967905,0,0,0.36057087768,186.7, 2.8, 0.7,0,0,1024,1024,1024,1024,187.2,0,100,4.298,4.298,4.298,4.298,0,0,82.31,10,Assisted_Takeoff,
0.307705325600112,36.8794486752715,5805.2164967905,0,0,0.36655841068,2000,2017-11-08 12:33:13,12,17.204,5805.2164967905,0,0,0.36655841068,186.7, 2.8, 0.7,0,0,1024,1024,1024,1024,187.2,0,100,4.298,4.298,4.298,4.298,0,0,82.31,10,Assisted_Takeoff,
0.307705326994875,36.8794486685365,5805.2164967905,0,0,0.36811352884,2100,2017-11-08 12:33:13,12,17.204,5805.2164967905,0,0,0.36811352884,186.7, 2.8, 0.7,0,0,1024,1024,1024,1024,187.2,0,100,4.298,4.298,4.298,4.298,0,0,82.31,10,Assisted_Takeoff,
0.307705367519925,36.8794486539708,5805.2164967905,0,0,0.36301182264,2200,2017-11-08 12:33:13,12,17.204,5805.2164967905,0,0,0.36811352884,186.7, 2.8, 0.7,0,0,1024,1024,1024,1024,187.1,0,100,4.298,4.298,4.298,4.298,0,0,82.31,10,Assisted_Takeoff,
0.30770540184386,36.8794486257743,5805.2164967905,0,0,0.36390093028,2300,2017-11-08 12:33:13,12,17.204,5805.2164967905,0,0,0.36811352884,186.7, 2.8, 0.6,0,0,1024,1024,1024,1024,187.1,0,100,4.298,4.298,4.298,4.298,0,0,82.31,10,Assisted_Takeoff,
0.307705440746573,36.8794486124726,5805.2164967905,0,0,0.36002625824,2400,2017-11-08 12:33:13,12,17.204,5805.2164967905,0,0,0.36811352884,186.7, 2.8, 0.6,0,0,1024,1024,1024,1024,187.1,0,100,4.298,4.298,4.298,4.298,0,0,82.31,10,Assisted_Takeoff,
0.307705467721137,36.8794486031282,5805.2164967905,0,0,0.35772310856,2500,2017-11-08 12:33:13,12,17.204,5805.2164967905,0,0,0.36811352884,186.7, 2.8, 0.7,0,0,1024,1024,1024,1024,187.1,0,100,4.298,4.298,4.298,4.298,0,0,82.31,10,Assisted_Takeoff,
0.307705466878621,36.8794485801858,5805.2164967905,0,0,0.36507219016,2600,2017-11-08 12:33:13,12,17.204,5805.2164967905,0,0,0.36811352884,186.7, 2.8, 0.7,0,0,1024,1024,1024,1024,187.1,0,100,4.298,4.298,4.298,4.298,0,0,82.31,10,Assisted_Takeoff,
0.307705455929371,36.8794485521338,5805.2164967905,0,0,0.37592520888,2700,2017-11-08 12:33:13,12,17.204,5805.2164967905,0,0,0.37592520888,186.7, 2.8, 0.7,0,0,1024,1024,1024,1024,187.1,0,100,4.298,4.298,4.298,4.298,0,0,82.31,10,Assisted_Takeoff,
0.307705441706337,36.8794485364491,5805.2164967905,0,0,0.38348426424,2800,2017-11-08 12:33:13,12,17.204,5805.2164967905,0,0,0.38348426424,186.7, 2.8, 0.7,0,0,1024,1024,1024,1024,187.1,0,100,4.298,4.298,4.298,4.298,0,0,82.31,10,Assisted_Takeoff,
0.307705434783822,36.8794485250165,5805.2164967905,0,0,0.38835959248,2900,2017-11-08 12:33:13,12,17.039,5805.2164967905,0,0,0.38835959248,186.7, 2.8, 0.7,0,0,1024,1024,1024,1024,187,0,100,4.296,4.294,4.292,4.291,0,0,82.31,10,Assisted_Takeoff,
0.307705427125657,36.879448497365,5805.2164967905,0,0,0.39848426472,3000,2017-11-08 12:33:14,12,17.039,5805.2164967905,0,0,0.39848426472,186.7, 2.8, 0.7,0,0,1024,1024,1024,1024,187,0,100,4.296,4.294,4.292,4.291,0,0,82.31,10,Assisted_Takeoff,
0.307705424706603,36.8794484671613,5805.2164967905,0,0,0.40849082672,3100,2017-11-08 12:33:14,12,17.039,5805.2164967905,0,0,0.40849082672,186.7, 2.8, 0.7,0,0,1024,1024,1024,1024,187,0,100,4.296,4.294,4.292,4.291,0,0,82.31,10,Assisted_Takeoff,
0.307705421983845,36.8794484489673,5805.2164967905,0,0,0.41477035448,3200,2017-11-08 12:33:14,12,17.039,5805.2164967905,0,0,0.41477035448,186.7, 2.8, 0.7,0,0,1024,1024,1024,1024,187,0,100,4.296,4.294,4.292,4.291,0,0,82.31,10,Assisted_Takeoff,
0.307705423156732,36.8794484364713,5805.2164967905,0,0,0.41855644384,3300,2017-11-08 12:33:14,12,17.039,5805.2164967905,0,0,0.41855644384,186.7, 2.8, 0.7,0,0,1024,1024,1024,1024,187,0,100,4.296,4.294,4.292,4.291,0,0,82.31,10,Assisted_Takeoff,
0.307705394917681,36.879448407019,5805.2164967905,0,0,0.43294620808,3400,2017-11-08 12:33:14,12,17.039,5805.2164967905,0,0,0.43294620808,186.8, 2.8, 0.7,0,0,1024,1024,1024,1024,187,0,100,4.296,4.294,4.292,4.291,0,0,82.31,10,Assisted_Takeoff,
0.307705367562875,36.8794483756959,5805.2164967905,0,0,0.4478018516,3500,2017-11-08 12:33:14,12,17.039,5805.2164967905,0,0,0.4478018516,186.7, 2.8, 0.7,0,0,1024,1024,1025,1024,187,0,100,4.296,4.294,4.292,4.291,0,0,82.31,10,Assisted_Takeoff,
0.307705339931437,36.8794483547906,5805.2164967905,0,0,0.45944227192,3600,2017-11-08 12:33:14,12,17.039,5805.2164967905,0,0,0.45944227192,186.7, 2.8, 0.6,0,0,1024,1024,1025,1024,187,0,100,4.296,4.294,4.292,4.291,0,0,82.31,10,Assisted_Takeoff,
0.307705324842886,36.8794483407688,5805.2164967905,0,0,0.46663715404,3700,2017-11-08 12:33:14,12,17.039,5805.2164967905,0,0,0.46663715404,186.7, 2.8, 0.6,0,0,1024,1024,1035,1024,187,0,100,4.296,4.294,4.292,4.291,0,0,82.31,10,Assisted_Takeoff,
0.307705284461749,36.8794483096928,5805.2164967905,0,0,0.48393374252,3800,2017-11-08 12:33:14,12,17.039,5805.2164967905,0,0,0.48393374252,186.7, 2.8, 0.6,0,0,1024,1024,1061,1024,187,0,100,4.296,4.294,4.292,4.291,0,0,82.31,10,Assisted_Takeoff,
0.307705249031897,36.8794482775605,5805.2164967905,0,0,0.50069227324,3900,2017-11-08 12:33:14,12,17.176,5805.2164967905,0,0,0.50069227324,186.7, 2.8, 0.6,0,0,1024,1024,1061,1024,187,0,100,4.296,4.294,4.292,4.291,0,0,82.31,10,Assisted_Takeoff,
0.3077052182311,36.8794482557465,5805.2164967905,0,0,0.51341208992,4000,2017-11-08 12:33:15,12,17.176,5805.2164967905,0,0,0.51341208992,186.7, 2.8, 0.7,0,0,1024,1024,1364,1024,187,0,100,4.296,4.294,4.292,4.291,0,0,82.31,10,Assisted_Takeoff,
0.307705199732383,36.8794482409712,5805.2164967905,0,0,0.52159122404,4100,2017-11-08 12:33:15,12,17.176,5805.2164967905,0,0,0.52159122404,186.7, 2.8, 0.7,0,0,1024,1024,1364,1024,187,0,100,4.296,4.294,4.292,4.291,0,0,82.31,10,Assisted_Takeoff,
0.307705157284344,36.8794482090468,5805.2164967905,0,0,0.53980972856,4200,2017-11-08 12:33:15,12,17.176,5805.2164967905,0,0,0.53980972856,186.7, 2.7, 0.7,0,0,1024,1024,1472,1024,187,0,100,4.296,4.294,4.292,4.291,0,0,82.31,10,Assisted_Takeoff,
0.307705120876408,36.8794481746479,5805.2164967905,0,0,0.55762140892,4300,2017-11-08 12:33:15,12,17.176,5805.2164967905,0,0,0.55762140892,186.7, 2.7, 0.7,0,0,1024,1024,1611,1024,187,0,100,4.296,4.294,4.292,4.291,0,0,82.31,10,Assisted_Takeoff,
0.307705058543032,36.8794481510391,5805.2164967905,0,0,0.57763125208,4400,2017-11-08 12:33:15,12,17.176,5805.2164967905,0,0,0.57763125208,186.6, 2.2, 1,0,0,1024,1024,1661,1024,187,0,100,4.296,4.294,4.292,4.291,0,0,82.31,10,Assisted_Takeoff,
0.307705004067305,36.8794481091408,5805.2164967905,0,0,0.6016404392,4500,2017-11-08 12:33:15,12,17.176,5805.2164967905,0,0,0.6016404392,186.6, 0, 2.3,0,0,1024,1024,1684,1024,187,0,100,4.296,4.294,4.292,4.291,0,0,82.31,10,Assisted_Takeoff,
0.307704898520726,36.8794479853063,5805.2164967905,0,0.223694,0.660843197,4600,2017-11-08 12:33:15,12,17.176,5805.2164967905,0,0.223694,0.660843197,186.8, -1.8, 4.5,0,0,1024,1024,1684,1024,187,0,100,4.296,4.294,4.292,4.291,0,0,82.31,6,GPS_Atti,
0.307704730281698,36.8794477200459,5805.2164967905,0,0.70687304,0.77520671772,4700,2017-11-08 12:33:15,12,17.176,5805.2164967905,0,0.70687304,0.77520671772,186.8, -1, 2.9,0,0,1024,1024,1684,1024,187,0,100,4.296,4.294,4.292,4.291,0,0,82.31,6,GPS_Atti,
0.307704472829384,36.8794472701879,5805.5445807905,0.328084,1.20571066,0.9634678786,4800,2017-11-08 12:33:15,12,17.176,5805.5445807905,0.328084,1.20571066,0.9634678786,187, 0.8, 1.1,0,0,1024,1024,1684,1024,187,0,100,4.296,4.294,4.292,4.291,0,0,82.31,6,GPS_Atti,
0.307704172719572,36.8794466931286,5805.8726647905,0.656168,1.41374608,1.19929137696,4900,2017-11-08 12:33:15,12,17.176,5805.8726647905,0.656168,1.41374608,1.19929137696,187, 1.5, -1.8,0,0,1024,1024,1684,1024,187,0,100,4.294,4.295,4.296,4.295,0,0,82.31,6,GPS_Atti,Home Point Recorded. RTH Altitude:  30m.
0.307703820508305,36.879445947386,5806.2007487905,0.984252,1.50098674,1.49788062536,5000,2017-11-08 12:33:16,12,17.176,5806.2007487905,0.984252,1.50098674,1.49788062536,187.1, 2.4, -3.9,0,0,1024,1024,1684,1024,187,0,100,4.294,4.295,4.296,4.295,0,0,82.31,6,GPS_Atti,
0.307703409519981,36.8794451726232,5806.8569167905,1.64042,1.80297364,1.81731305028,5100,2017-11-08 12:33:16,12,17.176,5806.8569167905,1.64042,1.80297364,1.81731305028,187.1, 3.7, -5.5,0,0,1024,1024,1684,1024,187,0,100,4.294,4.295,4.296,4.295,0,0,82.31,6,GPS_Atti,
0.307702928214224,36.8794443687205,5807.5130847905,2.296588,1.61283374,2.15916017408,5200,2017-11-08 12:33:16,12,17.176,5807.5130847905,2.296588,1.80297364,2.15916017408,186.8, 5.6, -7.2,0,0,1024,1024,1684,1024,187,0,100,4.294,4.295,4.296,4.295,0,0,82.31,6,GPS_Atti,
0.307701877489232,36.8794429563321,5809.4815887905,4.265092,1.50098674,2.79899615256,5400,2017-11-08 12:33:16,12,17.176,5809.4815887905,4.265092,1.80297364,2.79899615256,186.6, 7.4, -7.8,0,0,1024,1024,1684,1024,187,0,100,4.294,4.295,4.296,4.295,0,0,82.31,6,GPS_Atti,
0.307701367068117,36.879442341384,5810.7939247905,5.577428,1.30413602,3.08835967888,5500,2017-11-08 12:33:16,12,17.176,5810.7939247905,5.577428,1.80297364,3.08835967888,186.5, 6.8, -9.7,0,0,1024,1024,1684,1024,187,0,100,4.294,4.295,4.296,4.295,0,0,82.31,6,GPS_Atti,
0.307700851747422,36.8794418409575,5812.1062607905,6.889764,0.94846256,3.3443570624,5600,2017-11-08 12:33:16,12,17.176,5812.1062607905,6.889764,1.80297364,3.3443570624,186.6, 6.7, -9.5,0,0,1024,1024,1684,1024,187,0,100,4.294,4.295,4.296,4.295,0,0,82.31,6,GPS_Atti,
0.30770036169977,36.8794414759237,5813.7466807905,8.530184,0.80753534,3.5554791164,5700,2017-11-08 12:33:16,12,17.176,5813.7466807905,8.530184,1.80297364,3.5554791164,186.7, 6.3, -8.3,0,0,1024,1024,1684,1024,187,0,100,4.294,4.295,4.296,4.295,0,0,82.31,6,GPS_Atti,
0.307699802176183,36.8794412498392,5815.0590167905,9.84252,0.99991218,3.7423885712,5800,2017-11-08 12:33:16,12,17.176,5815.0590167905,9.84252,1.80297364,3.7423885712,186.7, 6.9, -5.3,0,0,1024,1024,1684,1024,187,0,100,4.294,4.295,4.296,4.295,0,0,82.31,6,GPS_Atti,
0.307699230566285,36.8794410597356,5816.6994367905,11.48294,0.99991218,3.9252625928,5900,2017-11-08 12:33:16,12,16.847,5816.6994367905,11.48294,1.80297364,3.9252625928,186.6, 8.3, -4.1,0,0,1024,1024,1684,1024,187,0,100,4.233,4.21,4.296,4.295,0,0,82.31,6,GPS_Atti,
0.307698637986099,36.8794408871618,5818.3398567905,13.12336,0.99991218,4.1118439636,6000,2017-11-08 12:33:17,12,16.847,5818.3398567905,13.12336,1.80297364,4.1118439636,186.5, 9.3, -4,0,0,1024,1024,1684,1024,187,0,100,4.233,4.21,4.296,4.295,0,0,82.31,6,GPS_Atti,
0.307698106426153,36.8794406915938,5820.3083607905,15.091864,0.99991218,4.2934384576,6100,2017-11-08 12:33:17,12,16.847,5820.3083607905,15.091864,1.80297364,4.2934384576,186.4, 8.7, -4.3,0,0,1024,1024,1684,1024,187,0,100,4.233,4.21,4.296,4.295,0,0,82.31,6,GPS_Atti,
0.307697573815046,36.8794404327894,5821.9487807905,16.732284,1.11847,4.4942914824,6200,2017-11-08 12:33:17,12,16.847,5821.9487807905,16.732284,1.80297364,4.4942914824,186.4, 8.4, -4.9,0,0,1024,1024,1684,1024,187,0,100,4.233,4.21,4.296,4.295,0,0,82.31,6,GPS_Atti,
0.307697074284151,36.8794401349533,5823.5892007905,18.372704,1.11847,4.6984253472,6300,2017-11-08 12:33:17,12,16.847,5823.5892007905,18.372704,1.80297364,4.6984253472,186.4, 8.6, -5.6,0,0,1024,1024,1684,1024,187.1,0,100,4.233,4.21,4.296,4.295,0,0,82.31,6,GPS_Atti,
0.307696621084115,36.8794398411523,5825.2296207905,20.013124,1.11847,4.8903872956,6400,2017-11-08 12:33:17,12,16.847,5825.2296207905,20.013124,1.80297364,4.8903872956,186.4, 8.1, -6.2,0,0,1024,1024,1684,1024,187,0,100,4.233,4.21,4.296,4.295,0,0,82.31,6,GPS_Atti,
0.307696195989395,36.8794395749555,5826.8700407905,21.653544,0.94846256,5.0683728656,6500,2017-11-08 12:33:17,12,16.847,5826.8700407905,21.653544,1.80297364,5.0683728656,186.4, 7.4, -5.7,0,0,1024,1024,1684,1024,187,0,100,4.233,4.21,4.296,4.295,0,0,82.31,6,GPS_Atti,
0.307695788882466,36.8794393412478,5828.8385447905,23.622048,0.94846256,5.2336943932,6600,2017-11-08 12:33:17,12,16.847,5828.8385447905,23.622048,1.80297364,5.2336943932,186.4, 7.3, -5.8,0,0,1024,1024,1684,1024,187,0,100,4.233,4.21,4.296,4.295,0,0,82.31,6,GPS_Atti,
0.307695355490824,36.8794391089618,5830.4789647905,25.262468,1.11847,5.4058728764,6700,2017-11-08 12:33:17,12,16.847,5830.4789647905,25.262468,1.80297364,5.4058728764,186.4, 7.8, -6.8,0,0,1024,1024,1684,1021,187,0,100,4.233,4.21,4.296,4.295,0,0,82.31,6,GPS_Atti,
0.307694933912728,36.8794389338336,5832.1193847905,26.902888,1.11847,5.5609909916,6800,2017-11-08 12:33:17,12,16.847,5832.1193847905,26.902888,1.80297364,5.5609909916,186.4, 8.8, -5.9,0,0,1024,1024,1684,1021,187,0,100,4.233,4.21,4.296,4.295,0,0,82.31,6,GPS_Atti,
0.307694506629379,36.8794387759226,5833.7598047905,28.543308,0.80753534,5.7140093692,6900,2017-11-08 12:33:17,12,16.464,5833.7598047905,28.543308,1.80297364,5.7140093692,186.5, 8.3, -5.3,0,0,1024,1024,1684,1023,187,0,100,4.159,4.168,4.159,4.168,0,0,82.31,6,GPS_Atti,
0.307694042303,36.8794386035351,5835.7283087905,30.511812,1.11847,5.8812994008,7000,2017-11-08 12:33:18,12,16.464,5835.7283087905,30.511812,1.80297364,5.8812994008,186.5, 9, -5.1,0,0,1024,1024,1684,1024,187,0,100,4.159,4.168,4.159,4.168,0,0,82.31,6,GPS_Atti,
0.307693544476271,36.8794383964027,5837.3687287905,32.152232,1.11847,6.066929328,7100,2017-11-08 12:33:18,12,16.464,5837.3687287905,32.152232,1.80297364,6.066929328,186.4, 9.8, -4.9,0,0,1024,1024,1684,1023,187,0,100,4.159,4.168,4.159,4.168,0,0,82.31,6,GPS_Atti,
0.307693056076604,36.8794381681315,5839.0091487905,33.792652,0.94846256,6.2557088616,7200,2017-11-08 12:33:18,12,16.464,5839.0091487905,33.792652,1.80297364,6.2557088616,186.3, 9.7, -5.6,0,0,1024,1024,1684,1006,187,0,100,4.159,4.168,4.159,4.168,0,0,82.31,6,GPS_Atti,
0.307692575459271,36.8794379369214,5840.9776527905,35.761156,0.80753534,6.4434713348,7300,2017-11-08 12:33:18,12,16.464,5840.9776527905,35.761156,1.80297364,6.4434713348,186.3, 9.9, -5.9,0,0,1024,1024,1684,1022,187,-0.5,100,4.159,4.168,4.159,4.168,0,0,82.31,6,GPS_Atti,
0.307692076072493,36.8794377013049,5842.6180727905,37.401576,0.80753534,6.6379267216,7400,2017-11-08 12:33:18,12,16.464,5842.6180727905,37.401576,1.80297364,6.6379267216,186.3, 9.8, -5.5,0,0,1024,1024,1684,1024,187,-2.3,100,4.159,4.168,4.159,4.168,0,0,82.31,6,GPS_Atti,
0.307691592567929,36.8794374725519,5844.2584927905,39.041996,0.80753534,6.8267390636,7500,2017-11-08 12:33:18,12,16.464,5844.2584927905,39.041996,1.80297364,6.8267390636,186.3, 9.1, -5.4,0,0,1024,1024,1684,1022,187,-5.5,100,4.159,4.168,4.159,4.168,0,0,82.31,6,GPS_Atti,
0.307691136735514,36.8794372385948,5845.8989127905,40.682416,0.80753534,7.0092850012,7600,2017-11-08 12:33:18,12,16.464,5845.8989127905,40.682416,1.80297364,7.0092850012,186.5, 8.3, -6.2,0,0,1024,1024,1684,1008,187.1,-9.5,100,4.159,4.168,4.159,4.168,0,0,82.31,6,GPS_Atti,
0.307690671134063,36.8794370518249,5847.8674167905,42.65092,0.99991218,7.1839569228,7700,2017-11-08 12:33:18,12,16.464,5847.8674167905,42.65092,1.80297364,7.1839569228,186.5, 8.8, -5.1,0,0,1024,1024,1684,1017,187.1,-13.6,100,4.159,4.168,4.159,4.168,0,0,82.31,6,GPS_Atti,
0.307690169185742,36.8794368671342,5849.5078367905,44.29134,0.92161928,7.3689634904,7800,2017-11-08 12:33:18,12,16.464,5849.5078367905,44.29134,1.80297364,7.3689634904,186.5, 9.3, -4.4,0,0,1024,1024,1684,1009,187.1,-16.7,100,4.159,4.168,4.159,4.168,0,0,82.31,6,GPS_Atti,
0.307689672596631,36.8794366832914,5851.4763407905,46.259844,0.99991218,7.5527561472,7900,2017-11-08 12:33:18,12,16.628,5851.4763407905,46.259844,1.80297364,7.5527561472,186.4, 9.8, -4.3,0,0,1024,1024,1684,1010,187.1,-16.7,100,4.159,4.168,4.159,4.168,0,0,82.31,6,GPS_Atti,
0.307689204497147,36.879436499774,5853.1167607905,47.900264,0.80753534,7.728674788,8000,2017-11-08 12:33:19,12,16.628,5853.1167607905,47.900264,1.80297364,7.728674788,186.3, 10.6, -4.1,0,0,1024,1024,1684,1020,187.1,-16.7,100,4.159,4.168,4.159,4.168,0,0,82.31,6,GPS_Atti,
0.307688791836411,36.8794362972612,5854.7571807905,49.540684,0.80753534,7.8930776804,8100,2017-11-08 12:33:19,12,16.628,5854.7571807905,49.540684,1.80297364,7.8930776804,186.3, 10, -5.4,0,0,1024,1024,1684,1023,187.1,-16.7,100,4.159,4.168,4.159,4.168,0,0,82.31,6,GPS_Atti,
0.307688422673042,36.8794360330877,5856.7256847905,51.509188,0.80753534,8.0586288668,8200,2017-11-08 12:33:19,12,16.628,5856.7256847905,51.509188,1.80297364,8.0586288668,186.4, 9, -6.1,0,0,1024,1024,1684,1024,187.1,-16.7,100,4.159,4.168,4.159,4.168,0,0,82.31,6,GPS_Atti,
0.307688064938093,36.8794357906055,5858.3661047905,53.149608,0.80753534,8.21604357,8300,2017-11-08 12:33:19,12,16.628,5858.3661047905,53.149608,1.80297364,8.21604357,186.4, 8.6, -5.5,0,0,1024,1024,1684,1024,187.1,-16.7,100,4.159,4.168,4.159,4.168,0,0,82.31,6,GPS_Atti,
0.307687724990638,36.8794355583078,5860.3346087905,55.118112,0.80753534,8.3660763832,8400,2017-11-08 12:33:19,12,16.628,5860.3346087905,55.118112,1.80297364,8.3660763832,186.4, 8.4, -5.3,0,0,1024,1024,1684,1023,187.1,-16.7,100,4.159,4.168,4.159,4.168,0,0,82.31,6,GPS_Atti,
0.307687391569987,36.8794353330684,5861.9750287905,56.758532,0.80753534,8.5126643144,8500,2017-11-08 12:33:19,12,16.628,5861.9750287905,56.758532,1.80297364,8.5126643144,186.5, 8.1, -5.7,0,0,1024,1024,1684,1022,187.1,-16.7,100,4.159,4.168,4.159,4.168,0,0,82.31,6,GPS_Atti,
0.307687064226688,36.8794350769822,5863.9435327905,58.727036,0.80753534,8.6642719308,8600,2017-11-08 12:33:19,12,16.628,5863.9435327905,58.727036,1.80297364,8.6642719308,186.5, 8.8, -5.8,0,0,1024,1024,1684,983,187.1,-16.7,100,4.159,4.168,4.159,4.168,0,0,82.31,6,GPS_Atti,
0.307686732327003,36.8794348114919,5865.5839527905,60.367456,0.80753534,8.8192916208,8700,2017-11-08 12:33:19,12,16.628,5865.5839527905,60.367456,1.80297364,8.8192916208,186.4, 8.6, -6.4,0,0,1024,1024,1684,948,187.1,-16.7,100,4.159,4.168,4.159,4.168,0,0,82.31,6,GPS_Atti,
0.307686447469809,36.8794345325571,5867.5524567905,62.33596,0.80753534,8.9636485808,8800,2017-11-08 12:33:19,12,16.628,5867.5524567905,62.33596,1.80297364,8.9636485808,186.3, 8.9, -6.1,0,0,1024,1024,1684,856,187,-16.7,100,4.159,4.168,4.159,4.168,0,0,82.31,6,GPS_Atti,
0.307686163762296,36.879434283616,5869.1928767905,63.97638,0.80753534,9.1010173516,8900,2017-11-08 12:33:19,12,16.628,5869.1928767905,63.97638,1.80297364,9.1010173516,185.7, 9.3, -6,0,0,1024,1024,1684,851,186.4,-16.7,100,4.169,4.175,4.166,4.174,0,0,82.31,6,GPS_Atti,
0.30768593937574,36.8794340557355,5871.1613807905,65.944884,0.63305402,9.2166013448,9000,2017-11-08 12:33:20,12,16.628,5871.1613807905,65.944884,1.80297364,9.2166013448,184.1, 9, -6.2,0,0,1024,1024,1684,850,185.4,-16.7,100,4.169,4.175,4.166,4.174,0,0,82.31,6,GPS_Atti,
0.307685734155971,36.8794338359262,5872.8018007905,67.585304,0.63305402,9.3248362564,9100,2017-11-08 12:33:20,12,16.628,5872.8018007905,67.585304,1.80297364,9.3248362564,181.8, 8.5, -6.8,0,0,1024,1024,1684,853,184.3,-16.7,100,4.169,4.175,4.166,4.174,0,0,82.31,6,GPS_Atti,
0.307685577918169,36.879433598495,5874.7703047905,69.553808,0.50107456,9.4229333724,9200,2017-11-08 12:33:20,12,16.628,5874.7703047905,69.553808,1.80297364,9.4229333724,179.5, 7.7, -7.2,0,0,1024,1024,1684,944,183.1,-16.7,100,4.169,4.175,4.166,4.174,0,0,82.31,6,GPS_Atti,
0.307685444936175,36.8794333523621,5876.4107247905,71.194228,0.50107456,9.5164373124,9300,2017-11-08 12:33:20,12,16.628,5876.4107247905,71.194228,1.80297364,9.5164373124,177.2, 7, -7.6,0,0,1024,1024,1684,1024,181.9,-16.7,100,4.169,4.175,4.166,4.174,0,0,82.31,6,GPS_Atti,
0.307685362501083,36.8794330963711,5878.3792287905,73.162732,0.50107456,9.5978677612,9400,2017-11-08 12:33:20,12,16.628,5878.3792287905,73.162732,1.80297364,9.5978677612,175.6, 6, -7.6,0,0,1024,1024,1684,1024,181.1,-16.7,100,4.169,4.175,4.166,4.174,0,0,82.31,6,GPS_Atti,
0.307685267917799,36.8794328478454,5880.3477327905,75.131236,0.50107456,9.6813651392,9500,2017-11-08 12:33:20,12,16.628,5880.3477327905,75.131236,1.80297364,9.6813651392,175.4, 5.8, -7.7,0,0,1024,1024,1684,1024,180.5,-16.7,100,4.169,4.175,4.166,4.174,0,0,82.31,6,GPS_Atti,
0.307685232606619,36.8794325845198,5881.9881527905,76.771656,0.50107456,9.7517391572,9600,2017-11-08 12:33:20,12,16.628,5881.9881527905,76.771656,1.80297364,9.7517391572,175.4, 5.9, -8.1,0,0,1024,1024,1684,979,179.9,-16.7,100,4.169,4.175,4.166,4.174,0,0,82.31,6,GPS_Atti,
0.307685177903928,36.8794323305887,5883.9566567905,78.74016,0.50107456,9.8258533328,9700,2017-11-08 12:33:20,12,16.628,5883.9566567905,78.74016,1.80297364,9.8258533328,175.5, 5.5, -8,0,0,1024,1024,1684,984,179.6,-16.7,100,4.169,4.175,4.166,4.174,0,0,82.31,6,GPS_Atti,
0.307685120639695,36.8794320937998,5885.5970767905,80.38058,0.50107456,9.8970147524,9800,2017-11-08 12:33:20,12,16.628,5885.5970767905,80.38058,1.80297364,9.8970147524,175.5, 5.3, -8.5,0,0,1024,1024,1684,1006,179.6,-16.7,100,4.169,4.175,4.166,4.174,0,0,82.31,6,GPS_Atti,
0.307685006796804,36.8794318800426,5887.5655807905,82.349084,0.50107456,9.9788717104,9900,2017-11-08 12:33:20,12,16.573,5887.5655807905,82.349084,1.80297364,9.9788717104,175.1, 6.4, -9.2,0,0,1024,1024,1684,1022,179.3,-16.7,99,4.173,4.179,4.17,4.175,0,0,82.31,6,GPS_Atti,
0.307684813808277,36.8794316579262,5889.2060007905,83.989504,0.31540854,10.0849084592,10000,2017-11-08 12:33:21,12,16.573,5889.2060007905,83.989504,1.80297364,10.0849084592,174.9, 7, -9,0,0,1024,1024,1684,1016,179.1,-16.7,99,4.173,4.179,4.17,4.175,0,0,82.31,6,GPS_Atti,
0.307684611947988,36.8794314704016,5890.8464207905,85.629924,0.31540854,10.1853021632,10100,2017-11-08 12:33:21,12,16.573,5890.8464207905,85.629924,1.80297364,10.1853021632,174.9, 6.7, -8.4,0,0,1024,1024,1684,1008,179,-16.7,99,4.173,4.179,4.17,4.175,0,0,82.31,6,GPS_Atti,
0.307684383408901,36.8794312688116,5892.8149247905,87.598428,0.31540854,10.2964570224,10200,2017-11-08 12:33:21,12,16.573,5892.8149247905,87.598428,1.80297364,10.2964570224,174.9, 7.1, -8.3,0,0,1024,1024,1684,1009,178.8,-16.7,99,4.173,4.179,4.17,4.175,0,0,82.31,6,GPS_Atti,
0.307684167324153,36.8794311008274,5894.4553447905,89.238848,0.31540854,10.3962601752,10300,2017-11-08 12:33:21,12,16.573,5894.4553447905,89.238848,1.80297364,10.3962601752,174.9, 7.8, -8.3,0,0,1024,1024,1684,1008,178.7,-16.7,99,4.173,4.179,4.17,4.175,0,0,82.31,6,GPS_Atti,
0.307683966455586,36.8794309139259,5896.4238487905,91.207352,0.31540854,10.49622737,10400,2017-11-08 12:33:21,12,16.573,5896.4238487905,91.207352,1.80297364,10.49622737,174.9, 7.8, -8.1,0,0,1024,1024,1684,1007,178.6,-16.7,99,4.173,4.179,4.17,4.175,0,0,82.31,6,GPS_Atti,
0.307683801324851,36.8794307609065,5898.0642687905,92.847772,0.31540854,10.5782811784,10500,2017-11-08 12:33:21,12,16.573,5898.0642687905,92.847772,1.80297364,10.5782811784,174.8, 7.9, -7.9,0,0,1024,1024,1684,1007,178.5,-16.7,99,4.173,4.179,4.17,4.175,0,0,82.31,6,GPS_Atti,
0.307683735216538,36.8794306274981,5900.0327727905,94.816276,0.223694,10.628117138,10600,2017-11-08 12:33:21,12,16.573,5900.0327727905,94.816276,1.80297364,10.628117138,174.8, 7.6, -8.2,0,0,1024,1024,1684,1007,178.4,-16.7,99,4.173,4.179,4.17,4.175,0,0,82.31,6,GPS_Atti,
0.307683703005916,36.8794305136794,5901.6731927905,96.456696,0.223694,10.6639111024,10700,2017-11-08 12:33:21,12,16.573,5901.6731927905,96.456696,1.80297364,10.6639111024,174.9, 7.1, -8.4,0,0,1024,1024,1684,1014,178.3,-16.7,99,4.173,4.179,4.17,4.175,0,0,82.31,6,GPS_Atti,
0.30768373289112,36.8794303873112,5903.3136127905,98.097116,0,10.6855646464,10800,2017-11-08 12:33:21,12,16.573,5903.3136127905,98.097116,1.80297364,10.6855646464,175, 6.4, -8.7,0,0,1024,1024,1684,1022,178.2,-16.7,99,4.173,4.179,4.17,4.175,0,0,82.31,6,GPS_Atti,
0.307683728753244,36.8794302834425,5904.9540327905,99.737536,0,10.7113848572,10900,2017-11-08 12:33:21,12,16.546,5904.9540327905,99.737536,1.80297364,10.7113848572,175, 6.3, -8.8,0,0,1024,1024,1684,1022,178.1,-16.7,99,4.173,4.179,4.17,4.175,0,0,82.31,6,GPS_Atti,
0.307683722607496,36.8794301784198,5906.9225367905,101.70604,0,10.7381237032,11000,2017-11-08 12:33:22,12,16.546,5906.9225367905,101.70604,1.80297364,10.7381237032,175, 6.6, -8.7,0,0,1024,1024,1684,1024,178,-16.7,99,4.173,4.179,4.17,4.175,0,0,82.31,6,GPS_Atti,
0.307683695166587,36.8794300900554,5908.5629567905,103.34646,0,10.7668310532,11100,2017-11-08 12:33:22,12,16.546,5908.5629567905,103.34646,1.80297364,10.7668310532,175, 6.6, -8.7,0,0,1024,1024,1684,1023,178,-16.7,99,4.173,4.179,4.17,4.175,0,0,82.31,6,GPS_Atti,
0.30768365311202,36.8794300035881,5910.2033767905,104.98688,0,10.7991145188,11200,2017-11-08 12:33:22,12,16.546,5910.2033767905,104.98688,1.80297364,10.7991145188,174.9, 6.8, -8.7,0,0,1024,1024,1684,1022,178,-16.7,99,4.173,4.179,4.17,4.175,0,0,82.31,6,GPS_Atti,
0.307683599050937,36.8794299385733,5912.1718807905,106.955384,0,10.829560714,11300,2017-11-08 12:33:22,12,16.546,5912.1718807905,106.955384,1.80297364,10.829560714,175, 6.6, -8.4,0,0,1024,1024,1684,1022,177.8,-16.7,99,4.173,4.179,4.17,4.175,0,0,82.31,6,GPS_Atti,
0.307683584276064,36.8794298467295,5913.8123007905,108.595804,0,10.855643392,11400,2017-11-08 12:33:22,12,16.546,5913.8123007905,108.595804,1.80297364,10.855643392,175, 6.2, -8.9,0,0,1024,1024,1684,1024,177.8,-16.7,99,4.173,4.179,4.17,4.175,0,0,82.31,6,GPS_Atti,
0.307683556024189,36.8794297535882,5915.7808047905,110.564308,0,10.88582712,11500,2017-11-08 12:33:22,12,16.546,5915.7808047905,110.564308,1.80297364,10.88582712,175, 6.3, -9.4,0,0,1024,1024,1684,1024,177.8,-16.7,99,4.173,4.179,4.17,4.175,0,0,82.31,6,GPS_Atti,
0.307683586941827,36.8794296513682,5917.4212247905,112.204728,0,10.9020016612,11600,2017-11-08 12:33:22,12,16.546,5917.4212247905,112.204728,1.80297364,10.9020016612,174.9, 6.8, -9.5,0,0,1024,1024,1684,1024,177.7,-16.7,99,4.173,4.179,4.17,4.175,0,0,82.31,6,GPS_Atti,
0.307683628960567,36.8794295485702,5919.3897287905,114.173232,0.223694,10.9154202968,11700,2017-11-08 12:33:22,12,16.546,5919.3897287905,114.173232,1.80297364,10.9154202968,174.6, 7.1, -9.3,0,0,1024,1024,1684,1024,177.7,-16.7,99,4.173,4.179,4.17,4.175,0,0,82.31,6,GPS_Atti,
0.307683745464336,36.879429413785,5921.0301487905,115.813652,0.31540854,10.9165685908,11800,2017-11-08 12:33:22,12,16.546,5921.0301487905,115.813652,1.80297364,10.9165685908,174.5, 6.7, -9.6,0,0,1024,1024,1684,1024,177.6,-16.7,99,4.173,4.179,4.17,4.175,0,0,82.31,6,GPS_Atti,
0.307683892533999,36.8794292737026,5922.9986527905,117.782156,0.31540854,10.9111880132,11900,2017-11-08 12:33:22,12,16.601,5922.9986527905,117.782156,1.80297364,10.9165685908,174.7, 4.9, -10.9,0,0,1024,1024,1684,1024,177.5,-16.7,99,4.154,4.163,4.154,4.163,0,0,82.31,6,GPS_Atti,
0.307684121512766,36.8794291264301,5924.6390727905,119.422576,0.223694,10.886155204,12000,2017-11-08 12:33:23,12,16.601,5924.6390727905,119.422576,1.80297364,10.9165685908,175.3, 1.8, -11.5,0,0,1024,1024,1684,1024,177.5,-16.7,99,4.154,4.163,4.154,4.163,0,0,82.31,6,GPS_Atti,
0.307684299522865,36.879429053585,5926.2794927905,121.062996,0.223694,10.8568573028,12100,2017-11-08 12:33:23,12,16.601,5926.2794927905,121.062996,1.80297364,10.9165685908,175.5, 1, -10,0,0,1024,1024,1684,1050,177.4,-16.7,99,4.154,4.163,4.154,4.163,0,0,82.31,6,GPS_Atti,
0.307684431309581,36.8794290548183,5927.9199127905,122.703416,0,10.8215882728,12200,2017-11-08 12:33:23,12,16.601,5927.9199127905,122.703416,1.80297364,10.9165685908,175.2, 3.1, -8.3,0,0,1024,1024,1684,1049,177.4,-16.7,99,4.154,4.163,4.154,4.163,0,0,82.31,6,GPS_Atti,
0.307684470297787,36.8794290598543,5929.5603327905,124.343836,0,10.8100069076,12300,2017-11-08 12:33:23,12,16.601,5929.5603327905,124.343836,1.80297364,10.9165685908,174.9, 4.8, -8.6,0,0,1024,1024,1684,1032,177.3,-16.7,99,4.154,4.163,4.154,4.163,0,0,82.31,6,GPS_Atti,
0.307684515509906,36.8794290284047,5931.2007527905,125.984256,0,10.805938666,12400,2017-11-08 12:33:23,12,16.601,5931.2007527905,125.984256,1.80297364,10.9165685908,175, 4.4, -9.4,0,0,1024,1024,1684,1032,177.3,-16.7,99,4.154,4.163,4.154,4.163,0,0,82.31,6,GPS_Atti,
0.307684544427815,36.8794289931951,5932.8411727905,127.624676,0,10.8071525768,12500,2017-11-08 12:33:23,12,16.601,5932.8411727905,127.624676,1.80297364,10.9165685908,175, 4.4, -10.1,0,0,1024,1024,1684,1026,177.3,-16.7,99,4.154,4.163,4.154,4.163,0,0,82.31,6,GPS_Atti,
0.307684627716211,36.8794289582746,5934.4815927905,129.265096,0,10.7939964084,12600,2017-11-08 12:33:23,12,16.601,5934.4815927905,129.265096,1.80297364,10.9165685908,175, 4, -10.4,0,0,1024,1024,1684,1024,177.3,-16.7,99,4.154,4.163,4.154,4.163,0,0,82.31,6,GPS_Atti,
0.307684690593691,36.8794289534355,5936.1220127905,130.905516,0,10.778707694,12700,2017-11-08 12:33:23,12,16.601,5936.1220127905,130.905516,1.80297364,10.9165685908,175.1, 3.7, -9.9,0,0,1024,1024,1684,1024,177.2,-16.7,99,4.154,4.163,4.154,4.163,0,0,82.31,6,GPS_Atti,
0.307684786904754,36.8794289949123,5937.7624327905,132.545936,0,10.7428809212,12800,2017-11-08 12:33:23,12,16.601,5937.7624327905,132.545936,1.80297364,10.9165685908,175.1, 3.5, -9.2,0,0,1024,1024,1684,1024,177.2,-16.7,99,4.154,4.163,4.154,4.163,0,0,82.31,6,GPS_Atti,
0.307684830898797,36.8794290673313,5939.4028527905,134.186356,0,10.7129924688,12900,2017-11-08 12:33:23,12,16.573,5939.4028527905,134.186356,1.80297364,10.9165685908,175.2, 3.2, -8.7,0,0,1024,1024,1684,1024,177.1,-16.7,99,4.151,4.155,4.145,4.154,0,0,82.31,6,GPS_Atti,
0.307684842607309,36.8794291692451,5940.7151887905,135.498692,0.223694,10.6841538852,13000,2017-11-08 12:33:24,12,16.573,5940.7151887905,135.498692,1.80297364,10.9165685908,175.2, 4.5, -8.5,0,0,1024,1024,1684,1024,177.1,-16.7,99,4.151,4.155,4.145,4.154,0,0,82.31,6,GPS_Atti,
0.307684785460324,36.8794292813402,5942.3556087905,137.139112,0.223694,10.6709649084,13100,2017-11-08 12:33:24,12,16.573,5942.3556087905,137.139112,1.80297364,10.9165685908,175.2, 5.5, -8,0,0,1024,1024,1684,1024,177.1,-16.7,99,4.151,4.155,4.145,4.154,0,0,82.31,6,GPS_Atti,
0.307684726295697,36.8794294168341,5943.9960287905,138.779532,0.31540854,10.6526578212,13200,2017-11-08 12:33:24,12,16.573,5943.9960287905,138.779532,1.80297364,10.9165685908,175.1, 6.4, -8.1,0,0,1024,1024,1684,1024,177.1,-16.7,99,4.151,4.155,4.145,4.154,0,0,82.31,6,GPS_Atti,
0.307684643113149,36.8794295461935,5945.6364487905,140.419952,0.223694,10.6425200256,13300,2017-11-08 12:33:24,12,16.573,5945.6364487905,140.419952,1.80297364,10.9165685908,174.9, 6.5, -8.2,0,0,1024,1024,1684,1024,177,-16.7,99,4.151,4.155,4.145,4.154,0,0,82.31,6,GPS_Atti,
0.307684653685008,36.8794296949841,5947.2768687905,142.060372,0.223694,10.6027234364,13400,2017-11-08 12:33:24,12,16.573,5947.2768687905,142.060372,1.80297364,10.9165685908,175, 5.7, -7.6,0,0,1024,1024,1684,1024,177,-16.7,99,4.151,4.155,4.145,4.154,0,0,82.31,6,GPS_Atti,
0.307684666048154,36.8794298381113,5948.9172887905,143.700792,0.223694,10.563976716,13500,2017-11-08 12:33:24,12,16.573,5948.9172887905,143.700792,1.80297364,10.9165685908,175, 5.4, -7,0,0,1024,1024,1684,1024,177,-16.7,99,4.151,4.155,4.145,4.154,0,0,82.31,6,GPS_Atti,
0.307684748408338,36.8794299817138,5950.5577087905,145.341212,0.223694,10.5064307824,13600,2017-11-08 12:33:24,12,16.573,5950.5577087905,145.341212,1.80297364,10.9165685908,175, 5, -7.1,0,0,1024,1024,1684,1038,177,-16.7,99,4.151,4.155,4.145,4.154,0,0,82.31,6,GPS_Atti,
0.307684816013191,36.8794301054676,5952.1981287905,146.981632,0,10.4577431168,13700,2017-11-08 12:33:24,12,16.573,5952.1981287905,146.981632,1.80297364,10.9165685908,175, 4.5, -7.4,0,0,1024,1024,1684,1090,176.9,-16.7,99,4.151,4.155,4.145,4.154,0,0,82.31,6,GPS_Atti,
0.307684956404604,36.8794301997374,5953.8385487905,148.622052,0,10.3967194928,13800,2017-11-08 12:33:24,12,16.573,5953.8385487905,148.622052,1.80297364,10.9165685908,175.1, 4.3, -7.2,0,0,1024,1024,1684,1129,177.2,-16.7,99,4.151,4.155,4.145,4.154,0,0,82.31,6,GPS_Atti,
0.307685056053978,36.8794302542732,5955.4789687905,150.262472,0,10.3564963944,13900,2017-11-08 12:33:24,12,16.601,5955.4789687905,150.262472,1.80297364,10.9165685908,175.5, 4.3, -7.3,0,0,1024,1024,1684,1129,177.7,-16.7,99,4.161,4.167,4.157,4.163,0,0,82.31,6,GPS_Atti,
0.307685190778407,36.87943029305,5957.4474727905,152.230976,0,10.3107286764,14000,2017-11-08 12:33:25,13,16.601,5957.4474727905,152.230976,1.80297364,10.9165685908,176.5, 4.1, -8.3,0,0,1024,1024,1684,1170,177.7,-16.7,99,4.161,4.167,4.157,4.163,0,0,82.31,6,GPS_Atti,
0.307685285338893,36.8794303166501,5959.0878927905,153.871396,0,10.279527888,14100,2017-11-08 12:33:25,13,16.601,5959.0878927905,153.871396,1.80297364,10.9165685908,177.6, 3.8, -8.9,0,0,1024,1024,1684,1183,178.3,-16.7,99,4.161,4.167,4.157,4.163,0,0,82.31,6,GPS_Atti,
0.30768539211108,36.8794303180055,5960.7283127905,155.511816,0,10.2506236876,14200,2017-11-08 12:33:25,13,16.601,5960.7283127905,155.511816,1.80297364,10.9165685908,179.3, 3.5, -8.9,0,0,1024,1024,1684,1145,179.2,-16.7,99,4.161,4.167,4.157,4.163,0,0,82.31,6,GPS_Atti,
0.30768544051495,36.8794303121108,5962.3687327905,157.152236,0,10.239173556,14300,2017-11-08 12:33:25,13,16.601,5962.3687327905,157.152236,1.80297364,10.9165685908,181.3, 3.9, -8.7,0,0,1024,1024,1684,1057,180.2,-16.7,99,4.161,4.167,4.157,4.163,0,0,82.31,6,GPS_Atti,
0.307685477399206,36.8794303324285,5964.3372367905,159.12074,0,10.224245734,14400,2017-11-08 12:33:25,13,16.601,5964.3372367905,159.12074,1.80297364,10.9165685908,182.6, 4.6, -8.5,0,0,1024,1024,1684,1024,180.7,-16.7,99,4.161,4.167,4.157,4.163,0,0,82.31,6,GPS_Atti,
0.307685480504649,36.8794303554868,5965.9776567905,160.76116,0,10.217684054,14500,2017-11-08 12:33:25,13,16.601,5965.9776567905,160.76116,1.80297364,10.9165685908,183, 5.1, -8.5,0,0,1024,1024,1684,1024,181.1,-16.7,99,4.161,4.167,4.157,4.163,0,0,82.31,6,GPS_Atti,
0.307685507510764,36.8794303681476,5967.6180767905,162.40158,0,10.207349408,14600,2017-11-08 12:33:25,13,16.601,5967.6180767905,162.40158,1.80297364,10.9165685908,183, 5.2, -9,0,0,1024,1024,1684,1024,181.3,-16.7,99,4.161,4.167,4.157,4.163,0,0,82.31,6,GPS_Atti,
0.307685505740645,36.879430381787,5969.2584967905,164.042,0,10.2044294604,14700,2017-11-08 12:33:25,13,16.601,5969.2584967905,164.042,1.80297364,10.9165685908,183, 5.2, -9.1,0,0,1024,1024,1684,1024,181.5,-16.7,99,4.161,4.167,4.157,4.163,0,0,82.31,6,GPS_Atti,
0.307685508339642,36.8794304510413,5970.5708327905,165.354336,0,10.186516074,14800,2017-11-08 12:33:25,13,16.601,5970.5708327905,165.354336,1.80297364,10.9165685908,183.1, 5.4, -7.9,0,0,1024,1024,1684,1024,181.7,-16.7,99,4.161,4.167,4.157,4.163,0,0,82.31,6,GPS_Atti,
0.307685493629907,36.8794305342797,5972.2112527905,166.994756,0,10.1698165984,14900,2017-11-08 12:33:25,13,16.628,5972.2112527905,166.994756,1.80297364,10.9165685908,183.1, 5.6, -7,0,0,1024,1024,1684,1024,181.8,-16.7,99,4.161,4.167,4.157,4.163,0,0,82.31,6,GPS_Atti,
0.307685513540892,36.8794306118311,5973.8516727905,168.635176,0,10.1453087236,15000,2017-11-08 12:33:26,13,16.628,5973.8516727905,168.635176,1.80297364,10.9165685908,183.1, 5.5, -7.2,0,0,1024,1024,1684,1024,181.9,-16.7,99,4.161,4.167,4.157,4.163,0,0,82.31,6,GPS_Atti,
0.30768552972274,36.8794306625878,5975.4920927905,170.275596,0,10.128445206,15100,2017-11-08 12:33:26,13,16.628,5975.4920927905,170.275596,1.80297364,10.9165685908,183.1, 5.2, -7.8,0,0,1024,1024,1684,1024,182,-16.7,99,4.161,4.167,4.157,4.163,0,0,82.31,6,GPS_Atti,
0.307685569279273,36.8794307339212,5977.4605967905,172.2441,0,10.1001971736,15200,2017-11-08 12:33:26,13,16.628,5977.4605967905,172.2441,1.80297364,10.9165685908,183, 5.1, -7.8,0,0,1024,1024,1684,1024,182,-16.7,99,4.161,4.167,4.157,4.163,0,0,82.31,6,GPS_Atti,
0.307685593995796,36.8794307972809,5979.1010167905,173.88452,0,10.07792027,15300,2017-11-08 12:33:26,13,16.628,5979.1010167905,173.88452,1.80297364,10.9165685908,183, 4.9, -8,0,0,1024,1024,1684,1024,182,-16.7,99,4.161,4.167,4.157,4.163,0,0,82.31,6,GPS_Atti,
0.307685652603496,36.8794308758044,5980.7414367905,175.52494,0,10.042815282,15400,2017-11-08 12:33:26,13,16.628,5980.7414367905,175.52494,1.80297364,10.9165685908,183.1, 4.9, -7.5,0,0,1024,1024,1684,1024,182.1,-16.7,99,4.161,4.167,4.157,4.163,0,0,82.31,6,GPS_Atti,
0.307685701982803,36.8794309476174,5982.3818567905,177.16536,0,10.0118441524,15500,2017-11-08 12:33:26,13,16.628,5982.3818567905,177.16536,1.80297364,10.9165685908,183.1, 4.6, -7.2,0,0,1024,1024,1684,981,182.2,-16.7,99,4.161,4.167,4.157,4.163,0,0,82.31,6,GPS_Atti,
0.307685779355063,36.8794310194176,5983.6941927905,178.477696,0,9.9733598992,15600,2017-11-08 12:33:26,13,16.628,5983.6941927905,178.477696,1.80297364,10.9165685908,183.1, 4.5, -7.5,0,0,1024,1024,1684,803,182.2,-16.7,99,4.161,4.167,4.157,4.163,0,0,82.31,6,GPS_Atti,
0.307685838267281,36.8794310774971,5985.3346127905,180.118116,0,9.9431761712,15700,2017-11-08 12:33:26,13,16.628,5985.3346127905,180.118116,1.80297364,10.9165685908,182.9, 4.6, -7.5,0,0,1024,1024,1684,632,181.9,-16.7,99,4.161,4.167,4.157,4.163,0,0,82.31,6,GPS_Atti,
0.307685922446437,36.8794311404457,5986.9750327905,181.758536,0,9.905020002,15800,2017-11-08 12:33:26,13,16.628,5986.9750327905,181.758536,1.80297364,10.9165685908,181.3, 4.1, -7.7,0,0,1024,1024,1684,599,180.4,-16.7,99,4.161,4.167,4.157,4.163,0,0,82.31,6,GPS_Atti,
0.307685989338031,36.8794312024436,5988.6154527905,183.398956,0,9.8717522844,15900,2017-11-08 12:33:26,13,16.573,5988.6154527905,183.398956,1.80297364,10.9165685908,176, 3.4, -7.9,0,0,1024,1024,1684,651,177.6,-16.7,99,4.159,4.167,4.161,4.165,0,0,84.11,6,GPS_Atti,
0.307686064363703,36.879431301077,5990.2558727905,185.039376,0,9.827264094,16000,2017-11-08 12:33:27,13,16.573,5990.2558727905,185.039376,1.80297364,10.9165685908,168, 2.7, -8.2,0,0,1024,1024,1684,654,173.7,-16.7,99,4.159,4.167,4.161,4.165,0,0,84.11,6,GPS_Atti,
0.307686124318125,36.879431413913,5991.5682087905,186.351712,0.223694,9.7833992632,16100,2017-11-08 12:33:27,13,16.573,5991.5682087905,186.351712,1.80297364,10.9165685908,160.5, 2.5, -7.9,0,0,1024,1024,1684,663,166.7,-16.7,99,4.159,4.167,4.161,4.165,0,0,84.11,6,GPS_Atti,
0.307686200029372,36.8794315252886,5993.2086287905,187.992132,0,9.7356302328,16200,2017-11-08 12:33:27,13,16.573,5993.2086287905,187.992132,1.80297364,10.9165685908,153.6, 1.6, -7.1,0,0,1024,1024,1684,706,159.3,-16.7,99,4.159,4.167,4.161,4.165,0,0,84.11,6,GPS_Atti,
0.307686290981226,36.8794316001143,5994.8490487905,189.632552,0.223694,9.6927168456,16300,2017-11-08 12:33:27,13,16.573,5994.8490487905,189.632552,1.80297364,10.9165685908,146.9, 0.7, -6.5,0,0,1024,1024,1684,706,152,-16.7,99,4.159,4.167,4.161,4.165,0,0,84.11,6,GPS_Atti,
0.307686418577955,36.8794316365904,5996.4894687905,191.272972,0.223694,9.6493113324,16400,2017-11-08 12:33:27,13,16.573,5996.4894687905,191.272972,1.80297364,10.9165685908,140.6, -0.1, -5.8,0,0,1024,1024,1684,1024,146,-16.7,99,4.159,4.167,4.161,4.165,0,0,84.11,6,GPS_Atti,
0.307686567924183,36.8794316017212,5998.4579727905,193.241476,0.223694,9.6176840348,16500,2017-11-08 12:33:27,13,16.573,5998.4579727905,193.241476,1.80297364,10.9165685908,136.7, -2, -6.8,0,0,1024,1024,1684,1024,141.8,-16.7,99,4.159,4.167,4.161,4.165,0,0,84.11,6,GPS_Atti,
0.307686803094294,36.8794314907706,6000.0983927905,194.881896,0.50107456,9.5823165796,16600,2017-11-08 12:33:27,13,16.573,6000.0983927905,194.881896,1.80297364,10.9165685908,136.4, -4.6, -7.5,0,0,1024,1024,1684,1024,139.8,-16.7,99,4.159,4.167,4.161,4.165,0,0,84.11,6,GPS_Atti,
0.307687059497687,36.8794313625161,6001.4107287905,196.194232,0.50107456,9.5465226152,16700,2017-11-08 12:33:27,13,16.573,6001.4107287905,196.194232,1.80297364,10.9165685908,136.5, -7, -7.5,0,0,1024,1024,1684,1024,139.8,-16.7,99,4.159,4.167,4.161,4.165,0,0,84.11,6,GPS_Atti,
0.307687296892253,36.8794312706873,6003.0511487905,197.834652,0.223694,9.5074478108,16800,2017-11-08 12:33:27,13,16.573,6003.0511487905,197.834652,1.80297364,10.9165685908,136.3, -7.2, -6.3,0,0,1024,1024,1684,1064,138.8,-16.7,99,4.159,4.167,4.161,4.165,0,0,84.11,6,GPS_Atti,
0.307687451027734,36.8794312183461,6004.6915687905,199.475072,0,9.4805777312,16900,2017-11-08 12:33:27,13,16.519,6004.6915687905,199.475072,1.80297364,10.9165685908,136.3, -7.2, -5.9,0,0,1024,1024,1684,1064,138.2,-16.7,99,4.154,4.162,4.152,4.16,0,0,84.11,6,GPS_Atti,
0.307687500714817,36.8794311845925,6006.3319887905,201.115492,0,9.4763454476,17000,2017-11-08 12:33:28,13,16.519,6006.3319887905,201.115492,1.80297364,10.9165685908,136.3, -6.4, -6.9,0,0,1024,1024,1684,1084,137.8,-16.7,99,4.154,4.162,4.152,4.16,0,0,84.11,6,GPS_Atti,
0.307687478224377,36.8794311801817,6007.9724087905,202.755912,0,9.4833008284,17100,2017-11-08 12:33:28,13,16.519,6007.9724087905,202.755912,1.80297364,10.9165685908,136.1, -4.6, -7.1,0,0,1024,1024,1684,1119,137.7,-16.7,99,4.154,4.162,4.152,4.16,0,0,84.11,6,GPS_Atti,
0.307687383014142,36.8794311500574,6009.6128287905,204.396332,0,9.515748336,17200,2017-11-08 12:33:28,13,16.519,6009.6128287905,204.396332,1.80297364,10.9165685908,136.4, -3.4, -7,0,0,1024,1024,1684,1143,137.9,-16.7,99,4.154,4.162,4.152,4.16,0,0,84.11,6,GPS_Atti,
0.307687284674037,36.8794310967292,6011.5813327905,206.364836,0,9.5549871824,17300,2017-11-08 12:33:28,13,16.519,6011.5813327905,206.364836,1.80297364,10.9165685908,137.3, -3.8, -7.9,0,0,1024,1024,1684,1143,138.4,-16.7,99,4.154,4.162,4.152,4.16,0,0,84.11,6,GPS_Atti,
0.30768716058172,36.8794310017871,6013.2217527905,208.005256,0,9.611548864,17400,2017-11-08 12:33:28,13,16.519,6013.2217527905,208.005256,1.80297364,10.9165685908,138.5, -4.3, -8.6,0,0,1024,1024,1684,1138,139,-16.7,99,4.154,4.162,4.152,4.16,0,0,84.11,6,GPS_Atti,
0.307687064339051,36.8794309156025,6015.1902567905,209.97376,0,9.6586617264,17500,2017-11-08 12:33:28,13,16.519,6015.1902567905,209.97376,1.80297364,10.9165685908,139.7, -4.3, -9,0,0,1024,1024,1684,1140,139.6,-16.7,99,4.154,4.162,4.152,4.16,0,0,84.11,6,GPS_Atti,
0.307686991984027,36.8794308181167,6016.8306767905,211.61418,0,9.7023953236,17600,2017-11-08 12:33:28,13,16.519,6016.8306767905,211.61418,1.80297364,10.9165685908,140.9, -4.3, -8.4,0,0,1024,1024,1684,1136,140.2,-16.7,99,4.154,4.162,4.152,4.16,0,0,84.11,6,GPS_Atti,
0.307686936748835,36.8794307171429,6018.7991807905,213.582684,0.223694,9.7425856136,17700,2017-11-08 12:33:28,13,16.519,6018.7991807905,213.582684,1.80297364,10.9165685908,142, -4.5, -7.6,0,0,1024,1024,1684,1128,140.8,-16.7,99,4.154,4.162,4.152,4.16,0,0,84.11,6,GPS_Atti,
0.307686857700907,36.879430547039,6020.7676847905,215.551188,0.223694,9.8066932272,17800,2017-11-08 12:33:28,13,16.519,6020.7676847905,215.551188,1.80297364,10.9165685908,143.1, -5.1, -8.4,0,0,1024,1024,1684,1131,141.4,-16.7,99,4.154,4.162,4.152,4.16,0,0,84.11,6,GPS_Atti,
0.307686728518073,36.8794303504444,6022.4081047905,217.191608,0.31540854,9.8906499228,17900,2017-11-08 12:33:28,13,16.628,6022.4081047905,217.191608,1.80297364,10.9165685908,144, -4.8, -11.2,0,0,1024,1024,1684,1131,141.4,-16.7,99,4.145,4.151,4.141,4.148,0,0,84.11,6,GPS_Atti,
0.307686533261124,36.8794301443986,6024.3766087905,219.160112,0.31540854,9.9941932332,18000,2017-11-08 12:33:29,13,16.628,6024.3766087905,219.160112,1.80297364,10.9165685908,144.9, -3.8, -12.9,0,0,1024,1024,1684,1131,142,-16.7,99,4.145,4.151,4.141,4.148,0,0,84.11,6,GPS_Atti,
0.307686342420515,36.8794299988583,6026.0170287905,220.800532,0.223694,10.0810042596,18100,2017-11-08 12:33:29,13,16.628,6026.0170287905,220.800532,1.80297364,10.9165685908,145.8, -2.5, -12.5,0,0,1024,1024,1684,1131,142.7,-16.7,99,4.145,4.151,4.141,4.148,0,0,84.11,6,GPS_Atti,
0.307686175832323,36.879429865831,6027.6574487905,222.440952,0.223694,10.1583664668,18200,2017-11-08 12:33:29,13,16.628,6027.6574487905,222.440952,1.80297364,10.9165685908,147.1, -2.7, -11,0,0,1024,1024,1684,1131,143.5,-16.7,99,4.145,4.151,4.141,4.148,0,0,84.11,6,GPS_Atti,
0.307686032304526,36.8794297622107,6029.2978687905,224.081372,0.223694,10.2221788048,18300,2017-11-08 12:33:29,13,16.628,6029.2978687905,224.081372,1.80297364,10.9165685908,148.2, -3.3, -10.7,0,0,1024,1024,1684,1131,144.4,-16.7,99,4.145,4.151,4.141,4.148,0,0,84.11,6,GPS_Atti,
0.307685769341761,36.8794296432896,6030.9382887905,225.721792,0.223694,10.3209977056,18400,2017-11-08 12:33:29,13,16.628,6030.9382887905,225.721792,1.80297364,10.9165685908,148.9, -2.1, -10.8,0,0,1024,1024,1684,1131,145.3,-16.7,99,4.145,4.151,4.141,4.148,0,0,84.11,6,GPS_Atti,
0.307685521554465,36.8794295554348,6032.5787087905,227.362212,0,10.4080711992,18500,2017-11-08 12:33:29,13,16.628,6032.5787087905,227.362212,1.80297364,10.9165685908,149.8, -1.3, -10.7,0,0,1024,1024,1684,1126,146.3,-16.7,99,4.145,4.151,4.141,4.148,0,0,84.11,6,GPS_Atti,
0.307685230463587,36.8794294560648,6034.2191287905,229.002632,0,10.5096131972,18600,2017-11-08 12:33:29,13,16.628,6034.2191287905,229.002632,1.80297364,10.9165685908,151, -1.9, -10.7,0,0,1024,1024,1684,1125,147.3,-16.7,99,4.145,4.151,4.141,4.148,0,0,84.11,6,GPS_Atti,
0.307684977756762,36.8794293812219,6035.8595487905,230.643052,0,10.5950462708,18700,2017-11-08 12:33:29,13,16.628,6035.8595487905,230.643052,1.80297364,10.9165685908,152.1, -2, -11.2,0,0,1024,1024,1684,1124,148.3,-16.7,99,4.145,4.151,4.141,4.148,0,0,84.11,6,GPS_Atti,
0.307684634941617,36.8794292715036,6037.4999687905,232.283472,0,10.7132877444,18800,2017-11-08 12:33:29,13,16.628,6037.4999687905,232.283472,1.80297364,10.9165685908,153.1, -1.9, -12.4,0,0,1024,1024,1684,1121,149.3,-16.7,99,4.145,4.151,4.141,4.148,0,0,84.11,6,GPS_Atti,
0.307684367982651,36.8794292248066,6039.1403887905,233.923892,0,10.7958992956,18900,2017-11-08 12:33:29,13,16.546,6039.1403887905,233.923892,1.80297364,10.9165685908,154.1, -1.6, -11.1,0,0,1024,1024,1684,1119,151.3,-16.7,99,4.145,4.151,4.141,4.148,0,0,84.11,6,GPS_Atti,
0.30768384894381,36.8794291916868,6042.4212287905,237.204732,0,10.9431105864,19100,2017-11-08 12:33:30,13,16.546,6042.4212287905,237.204732,1.80297364,10.9431105864,155.8, -1.1, -9,0,0,1024,1024,1684,1119,152.3,-16.7,99,4.145,4.151,4.141,4.148,0,0,84.11,6,GPS_Atti,
0.307683601495231,36.8794290933916,6044.0616487905,238.845152,0,11.033957046,19200,2017-11-08 12:33:30,13,16.546,6044.0616487905,238.845152,1.80297364,11.033957046,156.8, -1.6, -10,0,0,1024,1024,1684,1120,152.3,-16.7,99,4.145,4.151,4.141,4.148,0,0,84.11,6,GPS_Atti,
0.307683402212768,36.8794289953705,6045.7020687905,240.485572,0,11.1118441876,19300,2017-11-08 12:33:30,13,16.546,6045.7020687905,240.485572,1.80297364,11.1118441876,157.8, -1.7, -11,0,0,1024,1024,1684,1120,153.3,-16.7,99,4.145,4.151,4.141,4.148,0,0,84.11,6,GPS_Atti,
0.307683197895157,36.8794288760147,6047.3424887905,242.125992,0,11.1963258176,19400,2017-11-08 12:33:30,13,16.546,6047.3424887905,242.125992,1.80297364,11.1963258176,158.8, -1.9, -11.8,0,0,1024,1024,1684,1119,154.3,-16.7,99,4.145,4.151,4.141,4.148,0,0,84.11,6,GPS_Atti,
0.307683022883024,36.8794287959581,6049.3109927905,244.094496,0,11.2633205704,19500,2017-11-08 12:33:30,13,16.546,6049.3109927905,244.094496,1.80297364,11.2633205704,159.8, -1.8, -11.3,0,0,1024,1024,1684,1120,155.4,-16.7,99,4.145,4.151,4.141,4.148,0,0,84.11,6,GPS_Atti,
0.307682864355629,36.8794287056988,6050.9514127905,245.734916,0,11.3283468192,19600,2017-11-08 12:33:30,13,16.546,6050.9514127905,245.734916,1.80297364,11.3283468192,160.6, -1.4, -10.8,0,0,1024,1024,1684,1113,156.4,-16.7,99,4.145,4.151,4.141,4.148,0,0,84.11,6,GPS_Atti,
0.307682726108876,36.8794286317724,6052.5918327905,247.375336,0,11.3839242488,19700,2017-11-08 12:33:30,13,16.546,6052.5918327905,247.375336,1.80297364,11.3839242488,161.8, -1.6, -10.9,0,0,1024,1024,1684,1068,157.4,-16.7,99,4.145,4.151,4.141,4.148,0,0,84.11,6,GPS_Atti,
0.307682609789121,36.8794285695861,6054.5603367905,249.34384,0,11.4306762188,19800,2017-11-08 12:33:30,13,16.546,6054.5603367905,249.34384,1.80297364,11.4306762188,162.8, -1.3, -11.1,0,0,1024,1024,1684,1024,158.2,-16.7,99,4.145,4.151,4.141,4.148,0,0,84.11,6,GPS_Atti,
0.307682450423078,36.8794285462815,6056.2007567905,250.98426,0,11.4797575852,19900,2017-11-08 12:33:30,13,16.519,6056.2007567905,250.98426,1.80297364,11.4797575852,163.1, 0.1, -11.4,0,0,1024,1024,1684,1024,159.3,-16.7,99,4.146,4.153,4.143,4.152,0,0,84.11,6,GPS_Atti,
0.307682096334215,36.8794285646678,6059.4815967905,254.2651,0,11.5722444648,20100,2017-11-08 12:33:31,13,16.519,6059.4815967905,254.2651,1.80297364,11.5722444648,162.9, 2.1, -10.5,0,0,1024,1024,1684,1024,159.6,-16.7,99,4.146,4.153,4.143,4.152,0,0,84.11,6,GPS_Atti,
0.307681979089504,36.8794285834845,6061.1220167905,255.90552,0,11.5999675628,20200,2017-11-08 12:33:31,13,16.519,6061.1220167905,255.90552,1.80297364,11.5999675628,162.9, 2, -10.1,0,0,1024,1024,1684,1024,159.9,-16.7,99,4.146,4.153,4.143,4.152,0,0,84.11,6,GPS_Atti,
0.307681888295609,36.8794285910622,6062.7624367905,257.54594,0,11.6231631016,20300,2017-11-08 12:33:31,13,16.519,6062.7624367905,257.54594,1.80297364,11.6231631016,163.1, 1, -10.6,0,0,1024,1024,1684,1024,160.2,-16.7,99,4.146,4.153,4.143,4.152,0,0,84.11,6,GPS_Atti,
0.307681789419747,36.8794285681965,6064.4028567905,259.18636,0,11.6559058848,20400,2017-11-08 12:33:31,13,16.519,6064.4028567905,259.18636,1.80297364,11.6559058848,163.2, 0.3, -11.2,0,0,1024,1024,1684,1024,160.4,-16.7,99,4.146,4.153,4.143,4.152,0,0,84.11,6,GPS_Atti,
0.307681670631271,36.8794285502406,6066.0432767905,260.82678,0,11.6930449936,20500,2017-11-08 12:33:31,13,16.519,6066.0432767905,260.82678,1.80297364,11.6930449936,163.1, 0.8, -11.7,0,0,1024,1024,1684,1024,160.4,-16.7,99,4.146,4.153,4.143,4.152,0,0,84.11,6,GPS_Atti,
0.307681569171068,36.8794285461295,6067.6836967905,262.4672,0,11.722113236,20600,2017-11-08 12:33:31,13,16.519,6067.6836967905,262.4672,1.80297364,11.722113236,163, 1.2, -11.6,0,0,1024,1024,1684,1024,160.6,-16.7,99,4.146,4.153,4.143,4.152,0,0,84.11,6,GPS_Atti,
0.307681493078765,36.8794285691814,6069.3241167905,264.10762,0,11.7377628428,20700,2017-11-08 12:33:31,13,16.519,6069.3241167905,264.10762,1.80297364,11.7377628428,163, 1, -10.9,0,0,1024,1024,1684,1024,160.8,-16.7,99,4.146,4.153,4.143,4.152,0,0,84.11,6,GPS_Atti,
0.307681415996369,36.8794285911371,6071.2926207905,266.076124,0,11.7539701924,20800,2017-11-08 12:33:31,13,16.519,6071.2926207905,266.076124,1.80297364,11.7539701924,163.1, 0.4, -10.4,0,0,1024,1024,1684,1024,160.9,-16.7,99,4.146,4.153,4.143,4.152,0,0,84.11,6,GPS_Atti,
0.307681324451761,36.8794286189767,6072.9330407905,267.716544,0,11.7729006392,20900,2017-11-08 12:33:31,13,16.409,6072.9330407905,267.716544,1.80297364,11.7729006392,163.2, 0.3, -10.2,0,0,1024,1024,1684,1024,161,-16.7,99,4.125,4.136,4.127,4.135,0,0,84.11,6,GPS_Atti,
0.307681206780398,36.8794286171953,6074.5734607905,269.356964,0,11.8061355484,21000,2017-11-08 12:33:32,13,16.409,6074.5734607905,269.356964,1.80297364,11.8061355484,163.2, 0.3, -10.4,0,0,1024,1024,1684,1024,161.2,-16.7,99,4.125,4.136,4.127,4.135,0,0,84.11,6,GPS_Atti,
0.30768107519398,36.8794286109473,6076.2138807905,270.997384,0,11.8443901428,21100,2017-11-08 12:33:32,13,16.409,6076.2138807905,270.997384,1.80297364,11.8443901428,163.2, 0.7, -10.8,0,0,1024,1024,1684,1024,161.3,-16.7,99,4.125,4.136,4.127,4.135,0,0,84.11,6,GPS_Atti,
0.307680868642144,36.8794285827779,6077.8543007905,272.637804,0,11.9088586488,21200,2017-11-08 12:33:32,13,16.409,6077.8543007905,272.637804,1.80297364,11.9088586488,163.1, 1.4, -11.4,0,0,1024,1024,1684,1024,161.4,-16.7,99,4.125,4.136,4.127,4.135,0,0,84.11,6,GPS_Atti,
0.307680663194392,36.8794285689224,6079.4947207905,274.278224,0,11.969816656,21300,2017-11-08 12:33:32,13,16.409,6079.4947207905,274.278224,1.80297364,11.969816656,163.2, 1.3, -11.3,0,0,1024,1024,1684,1024,161.5,-16.7,99,4.125,4.136,4.127,4.135,0,0,84.11,6,GPS_Atti,
0.307680440675662,36.8794285554244,6081.4632247905,276.246728,0,12.0356959232,21400,2017-11-08 12:33:32,13,16.409,6081.4632247905,276.246728,1.80297364,12.0356959232,163.3, 0.7, -11.2,0,0,1024,1024,1412,1024,161.5,-16.7,99,4.125,4.136,4.127,4.135,0,0,84.11,6,GPS_Atti,
0.307680203048229,36.8794285633574,6083.1036447905,277.887148,0.223694,12.1010830644,21500,2017-11-08 12:33:32,13,16.409,6083.1036447905,277.887148,1.80297364,12.1010830644,163.2, 1.8, -11.1,0,0,1024,1024,1107,1024,161.6,-16.7,99,4.125,4.136,4.127,4.135,0,0,84.11,6,GPS_Atti,
0.307679993890882,36.8794285520777,6084.7440647905,279.527568,0.223694,12.163058132,21600,2017-11-08 12:33:32,13,16.409,6084.7440647905,279.527568,1.80297364,12.163058132,162.8, 2.8, -13.2,0,0,1024,1024,797,1024,161.7,-16.7,99,4.125,4.136,4.127,4.135,0,0,84.11,6,GPS_Atti,
0.307679796113102,36.8794285091984,6086.3844847905,281.167988,0.223694,12.2291342496,21700,2017-11-08 12:33:32,13,16.409,6086.3844847905,281.167988,1.80297364,12.2291342496,162.7, 3.2, -15.7,0,0,1024,1024,625,1024,161.8,-16.7,99,4.125,4.136,4.127,4.135,0,0,84.11,6,GPS_Atti,
0.307679625510795,36.8794284253391,6087.6968207905,282.480324,0.223694,12.2968835956,21800,2017-11-08 12:33:32,13,16.409,6087.6968207905,282.480324,1.80297364,12.2968835956,162.7, 3.2, -16.4,0,0,1024,1024,410,1024,161.9,-16.7,99,4.125,4.136,4.127,4.135,0,0,84.11,6,GPS_Atti,
0.307679426957875,36.8794283241041,6088.6810727905,283.464576,0.223694,12.3765423908,21900,2017-11-08 12:33:32,13,16.437,6088.6810727905,283.464576,1.80297364,12.3765423908,162.6, 3.5, -16.2,0,0,1024,1024,364,1024,162,-16.7,99,4.128,4.132,4.124,4.134,0,0,84.11,6,GPS_Atti,
0.307679248887524,36.8794281764033,6089.3372407905,284.120744,0.31540854,12.4609255956,22000,2017-11-08 12:33:33,13,16.437,6089.3372407905,284.120744,1.80297364,12.4609255956,162.6, 3.7, -16.2,0,0,1024,1024,364,1024,162,-16.7,99,4.128,4.132,4.124,4.134,0,0,84.11,6,GPS_Atti,
0.307679046553357,36.8794279964136,6089.6653247905,284.448828,0.31540854,12.5595804544,22100,2017-11-08 12:33:33,13,16.437,6089.6653247905,284.448828,1.80297364,12.5595804544,162.6, 3.8, -16.9,0,0,1024,1024,364,1024,162,-16.7,99,4.128,4.132,4.124,4.134,0,0,84.11,6,GPS_Atti,
0.307678875175911,36.8794277725896,6089.9934087905,284.776912,0.31540854,12.6593836072,22200,2017-11-08 12:33:33,13,16.437,6089.9934087905,284.776912,1.80297364,12.6593836072,162.4, 4.3, -17.4,0,0,1024,1024,364,1024,162.1,-16.7,99,4.128,4.132,4.124,4.134,0,0,84.11,6,GPS_Atti,
0.307678686989666,36.8794275298354,6089.6653247905,284.448828,0.31540854,12.768373112,22300,2017-11-08 12:33:33,13,16.437,6089.9934087905,284.776912,1.80297364,12.768373112,162.3, 4.6, -17.9,0,0,1024,1024,364,1024,162.2,-16.7,99,4.128,4.132,4.124,4.134,0,0,84.11,6,GPS_Atti,
0.30767852199572,36.8794272421507,6089.3372407905,284.120744,0.31540854,12.8811027744,22400,2017-11-08 12:33:33,13,16.437,6089.9934087905,284.776912,1.80297364,12.8811027744,162.3, 4.6, -18.4,0,0,1024,1024,364,1024,162.3,-16.7,99,4.128,4.132,4.124,4.134,0,0,84.11,6,GPS_Atti,
0.307678324621794,36.8794269505069,6088.6810727905,283.464576,0.31540854,13.0040358492,22500,2017-11-08 12:33:33,13,16.437,6089.9934087905,284.776912,1.80297364,13.0040358492,162.4, 4.6, -18.2,0,0,1024,1024,364,1024,162.3,-16.7,99,4.128,4.132,4.124,4.134,0,0,84.11,6,GPS_Atti,
0.307678117916884,36.8794266530263,6088.0249047905,282.808408,0.31540854,13.1311027824,22600,2017-11-08 12:33:33,13,16.437,6089.9934087905,284.776912,1.80297364,13.1311027824,162.6, 4.6, -16.3,0,0,1024,1024,364,1024,162.4,-16.7,99,4.128,4.132,4.124,4.134,0,0,84.11,6,GPS_Atti,
0.307677912599408,36.8794264010779,6087.0406527905,281.824156,0,13.2473101352,22700,2017-11-08 12:33:33,13,16.437,6089.9934087905,284.776912,1.80297364,13.2473101352,162.7, 4.2, -15.3,0,0,1024,1024,364,1024,162.4,-16.7,99,4.128,4.132,4.124,4.134,0,0,84.11,6,GPS_Atti,
0.307677912224866,36.8794262613231,6085.7283167905,280.51182,0,13.2798232596,22800,2017-11-08 12:33:33,13,16.437,6089.9934087905,284.776912,1.80297364,13.2798232596,162.7, 3.5, -13.5,0,0,1024,1024,364,1024,162.5,-16.7,99,4.128,4.132,4.124,4.134,0,0,84.11,6,GPS_Atti,
