latitude,longitude,altitude(feet),ascent(feet),speed(mph),distance(feet),time(millisecond),datetime(utc),satellites,gpslevel,voltage(v),max_altitude(feet),max_ascent(feet),max_speed(mph),max_distance(feet), xSpeed(mph), ySpeed(mph), zSpeed(mph), compass_heading(degrees), pitch(degrees), roll(degrees),isPhoto,isVideo,rc_elevator,rc_aileron,rc_throttle,rc_rudder,gimbal_heading(degrees),gimbal_pitch(degrees),battery_percent,voltageCell1,voltageCell2,voltageCell3,voltageCell4,voltageCell5,voltageCell6,current(A),battery_temperature(f),flycStateRaw,flycState,message
0.0461417934691011,36.866934713841,5987.4264688286,0,0,0,0,2018-04-12 12:34:58,12,0,0,5987.4264688286,0,0,0,0,0,0,166.5, 1.4, 1.7,0,0,364,364,364,1684,171,0,100,4.303,4.306,4.301,4.305,0,0,0,91.31,6,P-GPS,
0.0461419789032759,36.8669344650883,5987.4264688286,0,0,0.113199478688,100,2018-04-12 12:34:58,12,0,17.203,5987.4264688286,0,0,0.113199478688,0,0,0,166.5, 1.4, 1.7,0,0,364,364,364,1684,171,0,100,4.303,4.306,4.301,4.305,0,0,1.498,91.31,41,Motors_Started,Setting new Return-To-Home altitude to 30m (98 ft). Setting new Maximum Flight Altitude to 150m (492 ft)
0.0461421719325135,36.8669341949715,5987.4264688286,0,0,0.234317264716,200,2018-04-12 12:34:58,12,0,17.203,5987.4264688286,0,0,0.234317264716,0,0,0,166.5, 1.4, 1.7,0,0,364,364,364,1684,171,0,100,4.303,4.306,4.301,4.305,0,0,1.498,91.31,41,Motors_Started,
0.0461423456712035,36.8669339544152,5987.4264688286,0,0,0.34258203196,300,2018-04-12 12:34:58,12,0,17.203,5987.4264688286,0,0,0.34258203196,0,0,0,166.5, 1.3, 1.7,0,0,364,364,364,1684,171,0,100,4.303,4.306,4.301,4.305,0,0,1.498,91.31,41,Motors_Started,
0.0461425276384211,36.8669337135847,5987.4264688286,0,0,0.45269358404,400,2018-04-12 12:34:59,12,0,17.203,5987.4264688286,0,0,0.45269358404,0,0,0,166.5, 1.3, 1.7,0,0,364,364,364,1684,171,0,100,4.303,4.306,4.301,4.305,0,0,1.498,91.31,41,Motors_Started,
0.0461426952085652,36.8669334979769,5987.4264688286,0,0,0.55229332476,500,2018-04-12 12:34:59,12,0,17.203,5987.4264688286,0,0,0.55229332476,0,0,0,166.5, 1.3, 1.7,0,0,364,364,364,1684,171,0,100,4.303,4.306,4.301,4.305,0,0,1.498,91.31,41,Motors_Started,
0.0461428801167526,36.8669332624265,5987.4264688286,0,0,0.6615157692,600,2018-04-12 12:34:59,12,0,17.203,5987.4264688286,0,0,0.6615157692,0,0,0,166.5, 1.4, 1.7,0,0,364,364,364,1684,171,0,100,4.303,4.306,4.301,4.305,0,0,1.498,91.31,41,Motors_Started,
0.0461430360190956,36.8669330460906,5987.4264688286,0,0,0.7587926752,700,2018-04-12 12:34:59,12,0,17.203,5987.4264688286,0,0,0.7587926752,0,0,0,166.5, 1.4, 1.7,0,0,364,364,364,1684,171,0,100,4.303,4.306,4.301,4.305,0,0,1.498,91.31,41,Motors_Started,
0.0461431913856804,36.8669328151822,5987.4264688286,0,0,0.86022968632,800,2018-04-12 12:34:59,12,0,17.203,5987.4264688286,0,0,0.86022968632,0,0,0,166.5, 1.3, 1.7,0,0,364,364,364,1684,171,0,100,4.303,4.306,4.301,4.305,0,0,1.498,91.31,41,Motors_Started,
0.0461433191045431,36.866932598446,5987.4264688286,0,0,0.95158139528,900,2018-04-12 12:34:59,12,0,17.203,5987.4264688286,0,0,0.95158139528,0,0,0,166.5, 1.4, 1.7,0,0,364,364,376,1684,171,0,100,4.303,4.306,4.301,4.305,0,0,1.498,91.31,41,Motors_Started,
0.0461435752929811,36.8669321460245,5987.4264688286,0,0,1.14032812048,1100,2018-04-12 12:34:59,12,0,17.203,5987.4264688286,0,0,1.14032812048,0,0,0,166.3, 1.4, 1.7,0,0,369,364,381,1684,171,0,100,4.303,4.305,4.301,4.305,0,0,1.498,91.31,41,Motors_Started,
0.0461437064397184,36.8669319121806,5987.4264688286,0,0,1.23773626008,1200,2018-04-12 12:34:59,12,0,17.203,5987.4264688286,0,0,1.23773626008,0,0,0,166.5, 1.3, 1.6,0,0,381,364,395,1684,171,0,100,4.303,4.305,4.301,4.305,0,0,1.498,91.31,41,Motors_Started,
0.0461438404769438,36.866931703784,5987.4264688286,0,0,1.32810699788,1300,2018-04-12 12:35:00,12,0,17.203,5987.4264688286,0,0,1.32810699788,0,0,0,166.4, 1.4, 1.7,0,0,458,379,446,1642,170.9,0,100,4.303,4.305,4.301,4.305,0,0,1.498,91.31,41,Motors_Started,
0.046143999512413,36.8669314978691,5987.4264688286,0,0,1.42287078044,1400,2018-04-12 12:35:00,12,0,17.203,5987.4264688286,0,0,1.42287078044,0,0,0,166.4, 1.4, 1.6,0,0,536,412,491,1602,170.9,0,100,4.303,4.305,4.301,4.305,0,0,1.498,91.31,41,Motors_Started,
0.0461441312551608,36.8669312941188,5987.4264688286,0,0,1.51136487776,1500,2018-04-12 12:35:00,12,0,17.203,5987.4264688286,0,0,1.51136487776,0,0,0,166.4, 1.5, 1.7,0,0,580,429,571,1517,170.8,0,100,4.303,4.305,4.301,4.305,0,0,1.498,91.31,41,Motors_Started,
0.0461442536131858,36.8669310738411,5987.4264688286,0,0,1.60292656048,1600,2018-04-12 12:35:00,12,0,17.203,5987.4264688286,0,0,1.60292656048,0,0,0,166.5, 1.3, 1.6,0,0,712,580,691,1387,170.7,0,100,4.303,4.305,4.301,4.305,0,0,1.498,91.31,10,Assisted_Takeoff,
0.0461443619926476,36.8669308738999,5987.4264688286,0,0,1.68552826916,1700,2018-04-12 12:35:00,12,0,17.203,5987.4264688286,0,0,1.68552826916,0,0,0,166.4, 1.4, 1.6,0,0,957,986,919,1024,170.2,0,100,4.303,4.305,4.301,4.305,0,0,1.498,91.31,10,Assisted_Takeoff,
0.0461444871874221,36.8669306744255,5987.4264688286,0,0,1.77141737952,1800,2018-04-12 12:35:00,12,0,17.203,5987.4264688286,0,0,1.77141737952,0,0,0,166.4, 1.3, 1.6,0,0,1024,1024,1024,1024,169,0,100,4.303,4.305,4.301,4.305,0,0,1.498,91.31,10,Assisted_Takeoff,
0.0461446075212912,36.8669304906263,5987.4264688286,0,0,1.85156830072,1900,2018-04-12 12:35:00,12,0,17.203,5987.4264688286,0,0,1.85156830072,0,0,0,166.4, 1.3, 1.6,0,0,1024,1024,1024,1024,168.2,0,100,4.303,4.305,4.301,4.305,0,0,1.498,91.31,10,Assisted_Takeoff,
0.0461447432195295,36.8669302968409,5987.4264688286,0,0,1.93785767356,2000,2018-04-12 12:35:00,12,0,17.203,5987.4264688286,0,0,1.93785767356,0,0,0,166.4, 1.3, 1.6,0,0,1024,1024,1024,1024,167.7,0,100,4.303,4.305,4.301,4.305,0,0,1.498,91.31,10,Assisted_Takeoff,
0.0461448579417806,36.8669301147311,5987.4264688286,0,0,2.01635833224,2100,2018-04-12 12:35:00,12,0,17.176,5987.4264688286,0,0,2.01635833224,0,0,0,166.4, 1.3, 1.6,0,0,1024,1024,1024,1024,167.7,0,100,4.289,4.289,4.283,4.303,0,0,2.656,91.31,10,Assisted_Takeoff,
0.0461449689381519,36.8669299265918,5987.4264688286,0,0,2.09594166812,2200,2018-04-12 12:35:00,12,0,17.176,5987.4264688286,0,0,2.09594166812,0,0,0,166.4, 1.3, 1.6,0,0,1024,1024,1024,1024,167.5,0,100,4.289,4.289,4.283,4.303,0,0,2.656,91.31,10,Assisted_Takeoff,
0.0461450776058483,36.8669297667348,5987.4264688286,0,0,2.16646332392,2300,2018-04-12 12:35:00,12,0,17.176,5987.4264688286,0,0,2.16646332392,0,0,0,166.4, 1.3, 1.6,0,0,1024,1024,1024,1024,167.3,0,100,4.289,4.289,4.283,4.303,0,0,2.656,91.31,10,Assisted_Takeoff,
0.0461452035171381,36.8669296103742,5987.4264688286,0,0,2.23940952048,2400,2018-04-12 12:35:01,12,0,17.176,5987.4264688286,0,0,2.23940952048,0,0,0,166.4, 1.3, 1.6,0,0,1024,1024,1024,1024,167.2,0,100,4.289,4.289,4.283,4.303,0,0,2.656,91.31,10,Assisted_Takeoff,
0.0461453128769232,36.8669294616147,5987.4264688286,0,0,2.30670611056,2500,2018-04-12 12:35:01,12,0,17.176,5987.4264688286,0,0,2.30670611056,0,0,0,166.4, 1.3, 1.6,0,0,1024,1024,1024,1024,167.1,0,100,4.289,4.289,4.283,4.303,0,0,2.656,91.31,10,Assisted_Takeoff,
0.0461454206668882,36.8669292934672,5987.4264688286,0,0,2.37956372444,2600,2018-04-12 12:35:01,12,0,17.176,5987.4264688286,0,0,2.37956372444,0,0,0,166.4, 1.3, 1.6,0,0,1024,1024,1024,1024,167,0,100,4.289,4.289,4.283,4.303,0,0,2.656,91.31,10,Assisted_Takeoff,
0.0461455312252081,36.8669291257586,5987.4264688286,0,0,2.45284784752,2700,2018-04-12 12:35:01,12,0,17.176,5987.4264688286,0,0,2.45284784752,0,0,0,166.4, 1.3, 1.6,0,0,1024,1024,1037,1024,167,0,100,4.289,4.289,4.283,4.303,0,0,2.656,91.31,10,Assisted_Takeoff,
0.0461456579116372,36.8669289464601,5987.4264688286,0,0,2.53292002856,2800,2018-04-12 12:35:01,12,0,17.176,5987.4264688286,0,0,2.53292002856,0,0,0,166.4, 1.3, 1.6,0,0,1024,1024,1081,1024,166.9,0,100,4.289,4.289,4.283,4.303,0,0,2.656,91.31,10,Assisted_Takeoff,
0.0461457722870298,36.8669287824064,5987.4264688286,0,0,2.60587606764,2900,2018-04-12 12:35:01,12,0,17.176,5987.4264688286,0,0,2.60587606764,0,0,0,166.4, 1.3, 1.6,0,0,1024,1024,1150,1024,166.9,0,100,4.289,4.289,4.283,4.303,0,0,2.656,91.31,10,Assisted_Takeoff,
0.0461458827541568,36.866928624136,5987.4264688286,0,0,2.67628289404,3000,2018-04-12 12:35:01,12,0,17.176,5987.4264688286,0,0,2.67628289404,0,0,0,166.3, 1.3, 1.6,0,0,1024,1024,1199,1024,166.9,0,100,4.289,4.289,4.283,4.303,0,0,2.656,91.31,10,Assisted_Takeoff,
0.0461460093412509,36.8669284389065,5987.4264688286,0,0,2.7581365712,3100,2018-04-12 12:35:01,12,0,17.176,5987.4264688286,0,0,2.7581365712,0,0,0,166.4, 1.3, 1.6,0,0,1024,1024,1245,1024,166.9,0,100,4.297,4.301,4.296,4.3,0,0,2.066,91.31,10,Assisted_Takeoff,
0.0461460785061528,36.8669283387614,5987.4264688286,0,0,2.80253617892,3200,2018-04-12 12:35:01,12,0,17.176,5987.4264688286,0,0,2.80253617892,0,0,0,166.4, 1.3, 1.6,0,0,1024,1024,1245,1024,166.8,0,100,4.297,4.301,4.296,4.3,0,0,2.066,91.31,10,Assisted_Takeoff,
0.0461461454254304,36.8669282281869,5987.4264688286,0,0,2.8496391988,3300,2018-04-12 12:35:01,12,0,17.176,5987.4264688286,0,0,2.8496391988,0,0,0,166.4, 1.3, 1.6,0,0,1024,1024,1250,1024,166.8,0,100,4.297,4.301,4.296,4.3,0,0,2.066,91.31,10,Assisted_Takeoff,
0.0461462107325484,36.8669281183981,5987.4264688286,0,0,2.8961779142,3400,2018-04-12 12:35:02,12,0,17.176,5987.4264688286,0,0,2.8961779142,0,0,0,166.4, 1.1, 1.3,0,0,1024,1024,1262,1024,166.8,0,100,4.297,4.301,4.296,4.3,0,0,2.066,91.31,10,Assisted_Takeoff,
0.0461463328691051,36.8669278997862,5987.4264688286,0,0,2.98725731344,3600,2018-04-12 12:35:02,12,0,17.176,5987.4264688286,0,0,2.98725731344,0,0,0,166.2, 1.1, 0.2,0,0,1024,1024,1292,1024,166.8,0,100,4.297,4.301,4.296,4.3,0,0,2.066,91.31,10,Assisted_Takeoff,
0.0461463839273382,36.8669278136805,5987.4264688286,0,0,3.02373041172,3700,2018-04-12 12:35:02,12,0,17.176,5987.4264688286,0,0,3.02373041172,0,0,-0.223694,166.1, 1.4, -0.9,0,0,1024,1024,1308,1024,166.8,0,100,4.297,4.301,4.296,4.3,0,0,2.066,91.31,10,Assisted_Takeoff,
0.0461464553736901,36.8669277581909,5987.4264688286,0,0,3.05504274868,3800,2018-04-12 12:35:02,12,0,17.176,5987.4264688286,0,0,3.05504274868,0,0,-0.671082,166.1, 1.1, -0.5,0,0,1024,1024,1327,1024,166.7,0,100,4.297,4.301,4.296,4.3,0,0,2.066,91.31,6,P-GPS,Obstacle Avoided. Revise Flight Route
0.0461465574347891,36.8669277307116,5987.4264688286,0,0,3.08420613544,3900,2018-04-12 12:35:02,12,0,17.176,5987.4264688286,0,0,3.08420613544,0,0,-1.11847,166, 0.8, 0.1,0,0,1024,1024,1352,1024,166.7,0,100,4.297,4.301,4.296,4.3,0,0,2.066,91.31,6,P-GPS,
0.0461466909867382,36.8669276983462,5987.7545528286,0.328084,0,3.12160114976,4000,2018-04-12 12:35:02,12,0,17.176,5987.7545528286,0.328084,0,3.12160114976,0,0,-1.789552,166, 0.7, 0.5,0,0,1024,1024,1365,1024,166.7,0,100,4.297,4.301,4.296,4.3,0,0,2.066,91.31,6,P-GPS,
0.0461468034649935,36.8669276908095,5988.0826368286,0.656168,0,3.14750994324,4100,2018-04-12 12:35:02,12,0,17.041,5988.0826368286,0.656168,0,3.14750994324,0,0,-2.23694,166, 0.4, 1,0,0,1024,1024,1371,1024,166.7,0,100,4.297,4.301,4.296,4.3,0,0,2.066,91.31,6,P-GPS,
0.0461468971526336,36.8669276947534,5988.4107208286,0.984252,0,3.16631899896,4200,2018-04-12 12:35:02,12,0,17.041,5988.4107208286,0.984252,0,3.16631899896,0,0.223694,-2.684328,166, -0.1, 1.4,0,0,1024,1024,1368,1024,166.7,0,100,4.297,4.301,4.296,4.3,0,0,2.066,91.31,6,P-GPS,Home Point Recorded. RTH Altitude:  30m.
0.0461469826882829,36.8669276969288,5988.7388048286,1.312336,0.223694,3.18413396016,4300,2018-04-12 12:35:02,12,0,17.041,5988.7388048286,1.312336,0.223694,3.18413396016,0,0.223694,-3.131716,166, -0.4, 1.4,0,0,1024,1024,1369,1024,166.7,0,100,4.297,4.301,4.296,4.3,0,0,2.066,91.31,6,P-GPS,
0.0461470664668412,36.8669276877862,5989.3949728286,1.968504,0.223694,3.20507228104,4400,2018-04-12 12:35:03,12,0,17.041,5989.3949728286,1.968504,0.223694,3.20507228104,0,0.223694,-3.579104,166.2, 0.2, 1.2,0,0,1024,1024,1376,1024,166.6,0,100,4.297,4.301,4.296,4.3,0,0,2.066,91.31,6,P-GPS,
0.0461471147632333,36.8669276706828,5989.7230568286,2.296588,0.223694,3.22065627104,4500,2018-04-12 12:35:03,12,0,17.041,5989.7230568286,2.296588,0.223694,3.22065627104,0,0.223694,-4.026492,166.2, 0.8, 1.3,0,0,1024,1024,1381,1024,166.6,0,100,4.297,4.301,4.296,4.3,0,0,2.066,91.31,6,P-GPS,
0.0461471584250737,36.8669276534274,5990.3792248286,2.952756,0.223694,3.23529537912,4600,2018-04-12 12:35:03,12,0,17.041,5990.3792248286,2.952756,0.223694,3.23529537912,0,0.223694,-4.250186,166.3, 0.8, 1.7,0,0,1024,1024,1382,1024,166.6,0,100,4.297,4.301,4.296,4.3,0,0,2.066,91.31,6,P-GPS,
0.0461471947328611,36.8669276374203,5991.0353928286,3.608924,0.223694,3.2479659832,4700,2018-04-12 12:35:03,12,0,17.041,5991.0353928286,3.608924,0.223694,3.2479659832,0,0.223694,-4.47388,166.2, 0.5, 2.3,0,0,1024,1024,1384,1024,166.6,0,100,4.297,4.301,4.296,4.3,0,0,2.066,91.31,6,P-GPS,
0.0461472324932205,36.866927623398,5991.6915608286,4.265092,0,3.2604003668,4800,2018-04-12 12:35:03,12,0,17.041,5991.6915608286,4.265092,0.223694,3.2604003668,0,0,-4.697574,166.1, 0.4, 2.8,0,0,1024,1024,1387,1024,166.6,0,100,4.297,4.301,4.296,4.3,0,0,2.066,91.31,6,P-GPS,
0.0461472616407396,36.8669276062561,5992.6758128286,5.249344,0,3.27184065588,4900,2018-04-12 12:35:03,12,0,17.041,5992.6758128286,5.249344,0.223694,3.27184065588,0,0,-4.697574,166.1, 0.4, 2.6,0,0,1024,1024,1387,1024,166.6,0,100,4.297,4.301,4.296,4.3,0,0,2.066,91.31,6,P-GPS,
0.0461472957305862,36.8669275880308,5993.3319808286,5.905512,0,3.2847113912,5000,2018-04-12 12:35:03,12,0,17.041,5993.3319808286,5.905512,0.223694,3.2847113912,0,0,-4.697574,166.1, 0.7, 2.3,0,0,1024,1024,1389,1024,166.6,0,100,4.297,4.301,4.296,4.3,0,0,2.066,91.31,6,P-GPS,
0.0461472983458673,36.8669275518713,5993.9881488286,6.56168,0,3.2957350136,5100,2018-04-12 12:35:03,12,0,16.799,5993.9881488286,6.56168,0.223694,3.2957350136,0,0,-4.697574,166.1, 1.1, 2,0,0,1024,1024,1390,1024,166.6,0,100,4.246,4.247,4.241,4.237,0,0,11.892,91.31,6,P-GPS,
0.0461472859924911,36.8669274942491,5994.6443168286,7.217848,0,3.3096785836,5200,2018-04-12 12:35:03,12,0,16.799,5994.6443168286,7.217848,0.223694,3.3096785836,0,0,-4.697574,166.1, 1.2, 2,0,0,1024,1024,1391,1024,166.6,0,100,4.246,4.247,4.241,4.237,0,0,11.892,91.31,6,P-GPS,
0.0461472624891589,36.8669274329784,5995.3004848286,7.874016,0,3.322342626,5300,2018-04-12 12:35:04,12,0,16.799,5995.3004848286,7.874016,0.223694,3.322342626,0,0,-4.697574,166.1, 1.3, 2.3,0,0,1024,1024,1392,1024,166.6,0,100,4.246,4.247,4.241,4.237,0,0,11.892,91.31,6,P-GPS,
0.0461472499305988,36.8669273658603,5995.9566528286,8.530184,0,3.339238952,5400,2018-04-12 12:35:04,12,0,16.799,5995.9566528286,8.530184,0.223694,3.339238952,0,0,-4.697574,166.1, 1.4, 2.3,0,0,1024,1024,1394,1024,166.6,0,100,4.246,4.247,4.241,4.237,0,0,11.892,91.31,6,P-GPS,
0.0461472320421415,36.866927306673,5996.9409048286,9.514436,0,3.3527232044,5500,2018-04-12 12:35:04,12,0,16.799,5996.9409048286,9.514436,0.223694,3.3527232044,0,0,-4.697574,166, 1.4, 1.8,0,0,1024,1024,1397,1024,166.6,0,100,4.246,4.247,4.241,4.237,0,0,11.892,91.31,6,P-GPS,
0.0461472282348395,36.8669272629232,5997.5970728286,10.170604,0,3.3647966956,5600,2018-04-12 12:35:04,12,0,16.799,5997.5970728286,10.170604,0.223694,3.3647966956,0,0,-4.697574,166, 1.2, 1.8,0,0,1024,1024,1402,1024,166.6,0,100,4.246,4.247,4.241,4.237,0,0,11.892,91.31,6,P-GPS,
0.0461472170930256,36.8669272343712,5998.2532408286,10.826772,0,3.3708334412,5700,2018-04-12 12:35:04,12,0,16.799,5998.2532408286,10.826772,0.223694,3.3708334412,0,0,-4.697574,165.9, 1.3, 2.2,0,0,1024,1024,1406,1024,166.6,0,100,4.246,4.247,4.241,4.237,0,0,11.892,91.31,6,P-GPS,
0.0461472038342346,36.8669271982203,5998.9094088286,11.48294,0,3.3786746488,5800,2018-04-12 12:35:04,12,0,16.799,5998.9094088286,11.48294,0.223694,3.3786746488,0,0,-4.697574,165.9, 1.4, 2.4,0,0,1024,1024,1408,1024,166.6,0,100,4.246,4.247,4.241,4.237,0,0,11.892,91.31,6,P-GPS,
0.0461471928748065,36.8669271584744,5999.5655768286,12.139108,0,3.388123468,5900,2018-04-12 12:35:04,12,0,16.799,5999.5655768286,12.139108,0.223694,3.388123468,0,0,-4.697574,166, 1.8, 2.3,0,0,1024,1024,1415,1024,166.6,0,100,4.246,4.247,4.241,4.237,0,0,11.892,91.31,6,P-GPS,
0.0461471959932768,36.8669271019827,6000.2217448286,12.795276,0,3.4055775368,6000,2018-04-12 12:35:04,12,0,16.799,6000.2217448286,12.795276,0.223694,3.4055775368,0,0,-4.921268,166, 1.7, 1.9,0,0,1024,1024,1416,1024,166.6,0,100,4.246,4.247,4.241,4.237,0,0,11.892,91.31,6,P-GPS,
0.0461472046093739,36.8669270308778,6001.2059968286,13.779528,0,3.4285762252,6100,2018-04-12 12:35:04,12,0,16.88,6001.2059968286,13.779528,0.223694,3.4285762252,0,0,-4.921268,166, 1.5, 1.7,0,0,1024,1024,1418,1024,166.6,0,100,4.228,4.23,4.226,4.221,0,0,14.656,91.31,6,P-GPS,
0.0461472021471666,36.8669269480609,6001.8621648286,14.435696,0,3.4528216328,6200,2018-04-12 12:35:04,12,0,16.88,6001.8621648286,14.435696,0.223694,3.4528216328,0,0,-4.921268,166, 1.5, 1.8,0,0,1024,1024,1420,1024,166.5,0,100,4.228,4.23,4.226,4.221,0,0,14.656,91.31,6,P-GPS,
0.0461471767190136,36.866926874027,6002.5183328286,15.091864,0,3.4697507672,6300,2018-04-12 12:35:04,12,0,16.88,6002.5183328286,15.091864,0.223694,3.4697507672,0,0,-5.144962,166.1, 1.7, 2,0,0,1024,1024,1420,1024,166.5,0,100,4.228,4.23,4.226,4.221,0,0,14.656,91.31,6,P-GPS,
0.0461471266818149,36.8669268097116,6003.5025848286,16.076116,0,3.4788715024,6400,2018-04-12 12:35:05,12,0,16.88,6003.5025848286,16.076116,0.223694,3.4788715024,0,0,-5.144962,166.1, 2.1, 1.9,0,0,1024,1024,1420,1024,166.5,0,100,4.228,4.23,4.226,4.221,0,0,14.656,91.31,6,P-GPS,
0.0461470719579544,36.8669267671137,6004.1587528286,16.732284,0,3.4806759644,6500,2018-04-12 12:35:05,12,0,16.88,6004.1587528286,16.732284,0.223694,3.4806759644,0,0,-5.144962,166.1, 2.3, 1.7,0,0,1024,1024,1423,1024,166.5,0,100,4.228,4.23,4.226,4.221,0,0,14.656,91.31,6,P-GPS,
0.0461470290012302,36.8669267382363,6004.8149208286,17.388452,0,3.4808400064,6600,2018-04-12 12:35:05,12,0,16.88,6004.8149208286,17.388452,0.223694,3.4808400064,0,0,-5.144962,166.1, 2.5, 1.7,0,0,1024,1024,1424,1024,166.5,0,100,4.228,4.23,4.226,4.221,0,0,14.656,91.31,6,P-GPS,
0.046146977975566,36.8669267008007,6005.7991728286,18.372704,0,3.482119534,6700,2018-04-12 12:35:05,11,0,16.88,6005.7991728286,18.372704,0.223694,3.482119534,0,0,-5.368656,166.1, 2.8, 1.6,0,0,1024,1024,1426,1024,166.5,0,100,4.228,4.23,4.226,4.221,0,0,14.656,91.31,6,P-GPS,
0.0461469259581794,36.866926635237,6006.4553408286,19.028872,0,3.4920276708,6800,2018-04-12 12:35:05,11,0,16.88,6006.4553408286,19.028872,0.223694,3.4920276708,0,0,-5.368656,166.1, 3, 1.8,0,0,1024,1024,1427,1024,166.5,0,100,4.228,4.23,4.226,4.221,0,0,14.656,91.31,6,P-GPS,
0.0461468919041585,36.8669265505124,6007.4395928286,20.013124,0,3.5115486688,6900,2018-04-12 12:35:05,12,0,16.88,6007.4395928286,20.013124,0.223694,3.5115486688,0,0,-5.368656,166.1, 3.1, 1.8,0,0,1024,1024,1429,1024,166.5,0,100,4.228,4.23,4.226,4.221,0,0,14.656,91.31,6,P-GPS,
0.0461468771797679,36.8669264447875,6008.0957608286,20.669292,0,3.541502738,7000,2018-04-12 12:35:05,12,0,16.88,6008.0957608286,20.669292,0.223694,3.541502738,0,0,-5.368656,166.2, 3.1, 1.4,0,0,1024,1024,1430,1024,166.5,0,100,4.228,4.23,4.226,4.221,0,0,14.656,91.31,6,P-GPS,
0.0461468698859673,36.8669263379235,6008.7519288286,21.32546,0,3.5733925028,7100,2018-04-12 12:35:05,12,0,16.799,6008.7519288286,21.32546,0.223694,3.5733925028,0,0,-5.368656,166.2, 2.9, 1,0,0,1024,1024,1431,1024,166.5,0,100,4.228,4.23,4.226,4.221,0,0,14.12,91.31,6,P-GPS,
0.0461468584396344,36.8669262523167,6009.7361808286,22.309712,0,3.5979988028,7200,2018-04-12 12:35:05,12,0,16.799,6009.7361808286,22.309712,0.223694,3.5979988028,0,0,-5.59235,166.2, 3.2, 0.7,0,0,1024,1024,1431,1024,166.5,0,100,4.228,4.23,4.226,4.221,0,0,14.12,91.31,6,P-GPS,
0.0461468695619069,36.8669261760089,6010.3923488286,22.96588,0,3.6239830556,7300,2018-04-12 12:35:06,12,0,16.799,6010.3923488286,22.96588,0.223694,3.6239830556,0,0,-5.59235,166.2, 3.3, 0.9,0,0,1024,1024,1434,1024,166.5,0,100,4.228,4.23,4.226,4.221,0,0,14.12,91.31,6,P-GPS,
0.0461469047460679,36.8669261073556,6011.3766008286,23.950132,0,3.652067046,7400,2018-04-12 12:35:06,12,0,16.799,6011.3766008286,23.950132,0.223694,3.652067046,0,0,-5.59235,166.2, 3, 1.2,0,0,1024,1024,1435,1024,166.5,0,100,4.228,4.23,4.226,4.221,0,0,14.12,91.31,6,P-GPS,
0.0461469538762233,36.866926057814,6012.3608528286,24.934384,0,3.6767717712,7500,2018-04-12 12:35:06,12,0,16.799,6012.3608528286,24.934384,0.223694,3.6767717712,0,0,-5.59235,166.2, 2.9, 1.4,0,0,1024,1024,1437,1024,166.5,0,100,4.228,4.23,4.226,4.221,0,0,14.12,91.31,6,P-GPS,
0.0461470035258523,36.866926025151,6013.0170208286,25.590552,0,3.6962927692,7600,2018-04-12 12:35:06,12,0,16.799,6013.0170208286,25.590552,0.223694,3.6962927692,0,0,-5.59235,166.2, 2.7, 1.4,0,0,1024,1024,1437,1024,166.5,0,100,4.228,4.23,4.226,4.221,0,0,14.12,91.31,6,P-GPS,
0.046147071839078,36.8669260044355,6014.0012728286,26.574804,0,3.7156497252,7700,2018-04-12 12:35:06,12,0,16.799,6014.0012728286,26.574804,0.223694,3.7156497252,0,0,-5.59235,166.2, 2.5, 1.7,0,0,1024,1024,1439,1024,166.5,0,100,4.228,4.23,4.226,4.221,0,0,14.12,91.31,6,P-GPS,
0.0461471447624286,36.8669259822406,6014.6574408286,27.230972,0,3.7364174424,7800,2018-04-12 12:35:06,12,0,16.799,6014.6574408286,27.230972,0.223694,3.7364174424,0,0,-5.59235,166.3, 2.7, 1.8,0,0,1024,1024,1440,1024,166.5,0,100,4.228,4.23,4.226,4.221,0,0,14.12,91.31,6,P-GPS,
0.0461472068989662,36.8669259787762,6015.6416928286,28.215224,0,3.7493767604,7900,2018-04-12 12:35:06,11,0,16.799,6015.6416928286,28.215224,0.223694,3.7493767604,0,0,-5.59235,166.2, 2.9, 1.8,0,0,1024,1024,1441,1024,166.5,0,100,4.228,4.23,4.226,4.221,0,0,14.12,91.31,6,P-GPS,
0.0461472548810686,36.8669259890751,6016.2978608286,28.871392,0,3.7554463144,8000,2018-04-12 12:35:06,11,0,16.799,6016.2978608286,28.871392,0.223694,3.7554463144,0,0,-5.59235,166.2, 3.2, 2.2,0,0,1024,1024,1442,1024,166.5,0,100,4.228,4.23,4.226,4.221,0,0,14.12,91.31,6,P-GPS,
0.0461473244791366,36.8669259943829,6017.2821128286,29.855644,0,3.7673557636,8100,2018-04-12 12:35:06,12,0,16.826,6017.2821128286,29.855644,0.223694,3.7673557636,0,0,-5.59235,166.1, 2.7, 2.6,0,0,1024,1024,1444,1024,166.5,0,100,4.222,4.224,4.22,4.215,0,0,14.12,91.31,6,P-GPS,
0.0461474083993695,36.8669259709718,6017.9382808286,30.511812,0,3.79101062,8200,2018-04-12 12:35:06,12,0,16.826,6017.9382808286,30.511812,0.223694,3.79101062,0,0,-5.59235,166.2, 2.5, 2.4,0,0,1024,1024,1444,1024,166.5,0,100,4.222,4.224,4.22,4.215,0,0,14.12,91.31,6,P-GPS,
0.0461474555916765,36.8669259454366,6018.9225328286,31.496064,0,3.8081694132,8300,2018-04-12 12:35:06,12,0,16.826,6018.9225328286,31.496064,0.223694,3.8081694132,0,0,-5.59235,166.1, 2.7, 2,0,0,1024,1024,1445,1024,166.5,0,100,4.222,4.224,4.22,4.215,0,0,14.12,91.31,6,P-GPS,
0.0461474746802971,36.8669259255712,6019.9067848286,32.480316,0,3.8180447416,8400,2018-04-12 12:35:07,12,0,16.826,6019.9067848286,32.480316,0.223694,3.8180447416,0,0,-5.59235,166.1, 3, 2,0,0,1024,1024,1444,1024,166.5,0,100,4.222,4.224,4.22,4.215,0,0,14.12,91.31,6,P-GPS,
0.0461475065033496,36.8669259173107,6020.5629528286,33.136484,0,3.8268702012,8500,2018-04-12 12:35:07,12,0,16.826,6020.5629528286,33.136484,0.223694,3.8268702012,0,0,-5.59235,166.1, 3.3, 2.2,0,0,1024,1024,1446,1024,166.5,0,100,4.222,4.224,4.22,4.215,0,0,14.12,91.31,6,P-GPS,
0.046147567978739,36.8669259046009,6021.5472048286,34.120736,0,3.843011934,8600,2018-04-12 12:35:07,12,0,16.826,6021.5472048286,34.120736,0.223694,3.843011934,0,0,-5.816044,166.1, 2.9, 2.3,0,0,1024,1024,1447,1024,166.5,0,100,4.222,4.224,4.22,4.215,0,0,14.12,91.31,6,P-GPS,
0.0461476135914553,36.866925893103,6022.2033728286,34.776904,0,3.8556759764,8700,2018-04-12 12:35:07,12,0,16.826,6022.2033728286,34.776904,0.223694,3.8556759764,0,0,-5.816044,166.1, 2.8, 2.1,0,0,1024,1024,1447,1024,166.5,0,100,4.222,4.224,4.22,4.215,0,0,14.12,91.31,6,P-GPS,
0.0461476409281447,36.8669258764686,6023.1876248286,35.761156,0,3.8662402812,8800,2018-04-12 12:35:07,12,0,16.826,6023.1876248286,35.761156,0.223694,3.8662402812,0,0,-5.816044,166.1, 2.8, 2,0,0,1024,1024,1447,1024,166.5,0,100,4.222,4.224,4.22,4.215,0,0,14.12,91.31,6,P-GPS,
0.046147677716323,36.8669258501326,6024.1718768286,36.745408,0,3.8816602292,8900,2018-04-12 12:35:07,11,0,16.826,6024.1718768286,36.745408,0.223694,3.8816602292,0,0,-5.816044,166.1, 3.1, 1.5,0,0,1024,1024,1449,1024,166.5,0,100,4.222,4.224,4.22,4.215,0,0,14.12,91.31,6,P-GPS,
0.0461477402974258,36.866925816656,6024.8280448286,37.401576,0,3.9044948756,9000,2018-04-12 12:35:07,11,0,16.826,6024.8280448286,37.401576,0.223694,3.9044948756,0,0,-5.816044,166.1, 3.1, 1.7,0,0,1024,1024,1449,1024,166.5,0,100,4.222,4.224,4.22,4.215,0,0,14.12,91.31,6,P-GPS,
0.0461478125482291,36.8669257669988,6025.8122968286,38.385828,0,3.934219286,9100,2018-04-12 12:35:07,11,0,16.853,6025.8122968286,38.385828,0.223694,3.934219286,0,0,-5.816044,166.1, 3, 2,0,0,1024,1024,1450,1024,166.5,0,100,4.221,4.222,4.216,4.214,0,0,13.672,91.31,6,P-GPS,
0.0461478849569914,36.8669256988209,6026.7965488286,39.37008,0,3.9695867412,9200,2018-04-12 12:35:07,11,0,16.853,6026.7965488286,39.37008,0.223694,3.9695867412,0,0,-5.816044,166.1, 2.7, 2,0,0,1024,1024,1450,1024,166.5,0,100,4.221,4.222,4.216,4.214,0,0,13.672,91.31,6,P-GPS,
0.0461479588297249,36.8669256330045,6027.4527168286,40.026248,0,4.004593304,9300,2018-04-12 12:35:07,12,0,16.853,6027.4527168286,40.026248,0.223694,4.004593304,0,0,-5.816044,166.1, 2.5, 1.9,0,0,1024,1024,1449,1024,166.5,0,100,4.221,4.222,4.216,4.214,0,0,13.672,91.31,6,P-GPS,
0.0461480287274266,36.8669255908649,6028.4369688286,41.0105,0,4.031660234,9400,2018-04-12 12:35:08,12,0,16.853,6028.4369688286,41.0105,0.223694,4.031660234,0,0,-5.816044,166.1, 2.2, 1.9,0,0,1024,1024,1455,1024,166.5,0,100,4.221,4.222,4.216,4.214,0,0,13.672,91.31,6,P-GPS,
0.0461481073845285,36.8669255443445,6029.4212208286,41.994752,0,4.0618767704,9500,2018-04-12 12:35:08,12,0,16.853,6029.4212208286,41.994752,0.223694,4.0618767704,0,0,-5.816044,166.1, 2.1, 1.9,0,0,1024,1024,1459,1024,166.5,0,100,4.221,4.222,4.216,4.214,0,0,13.672,91.31,6,P-GPS,
0.0461481880153046,36.8669254905506,6030.0773888286,42.65092,0,4.0947507872,9600,2018-04-12 12:35:08,12,0,16.853,6030.0773888286,42.65092,0.223694,4.0947507872,0,0,-5.816044,166, 2.2, 1.8,0,0,1024,1024,1461,1024,166.5,0,100,4.221,4.222,4.216,4.214,0,0,13.672,91.31,6,P-GPS,
0.046148277009769,36.8669254300122,6031.0616408286,43.635172,0,4.1314305784,9700,2018-04-12 12:35:08,12,0,16.853,6031.0616408286,43.635172,0.223694,4.1314305784,0,0,-6.039738,166, 2.4, 1.8,0,0,1024,1024,1467,1024,166.4,0,100,4.221,4.222,4.216,4.214,0,0,13.672,91.31,6,P-GPS,
0.0461483604251843,36.8669253646563,6032.0458928286,44.619424,0,4.1684384536,9800,2018-04-12 12:35:08,12,0,16.853,6032.0458928286,44.619424,0.223694,4.1684384536,0,0,-6.039738,166.1, 2.4, 1.6,0,0,1024,1024,1474,1024,166.4,0,100,4.221,4.222,4.216,4.214,0,0,13.672,91.31,6,P-GPS,
0.0461484372470299,36.866925292408,6033.0301448286,45.603676,0,4.2061024968,9900,2018-04-12 12:35:08,12,0,16.853,6033.0301448286,45.603676,0.223694,4.2061024968,0,0,-6.263432,166.1, 2.4, 0.7,0,0,1024,1024,1478,1024,166.4,0,100,4.221,4.222,4.216,4.214,0,0,13.672,91.31,6,P-GPS,
0.0461485032804339,36.8669252345739,6034.0143968286,46.587928,0,4.2372376684,10000,2018-04-12 12:35:08,12,0,16.853,6034.0143968286,46.587928,0.223694,4.2372376684,0,0,-6.263432,166.1, 2.4, 0.7,0,0,1024,1024,1478,1024,166.4,0,100,4.221,4.222,4.216,4.214,0,0,13.672,91.31,6,P-GPS,
0.0461485900390447,36.8669252069982,6034.6705648286,47.244096,0,4.2638124724,10100,2018-04-12 12:35:08,12,0,16.772,6034.6705648286,47.244096,0.223694,4.2638124724,0,0,-6.263432,166.1, 2.6, 1.9,0,0,1024,1024,1480,1024,166.4,0,100,4.215,4.217,4.213,4.21,0,0,13.914,91.31,6,P-GPS,
0.0461486859413686,36.8669251797951,6035.6548168286,48.228348,0,4.2922901636,10200,2018-04-12 12:35:08,12,0,16.772,6035.6548168286,48.228348,0.223694,4.2922901636,0,0,-6.263432,166, 2.5, 1.6,0,0,1024,1024,1481,1024,166.4,0,100,4.215,4.217,4.213,4.21,0,0,13.914,91.31,6,P-GPS,
0.0461487918341964,36.8669251315425,6036.6390688286,49.2126,0,4.329232422,10300,2018-04-12 12:35:08,13,0,16.772,6036.6390688286,49.2126,0.223694,4.329232422,0,0,-6.263432,166.1, 2.4, 1.4,0,0,1024,1024,1481,1024,166.4,0,100,4.215,4.217,4.213,4.21,0,0,13.914,91.31,6,P-GPS,
0.0461488944652509,36.8669250759073,6037.6233208286,50.196852,0,4.3677494836,10400,2018-04-12 12:35:09,13,0,16.772,6037.6233208286,50.196852,0.223694,4.3677494836,0,0,-6.263432,166, 3, 1.6,0,0,1024,1024,1481,1024,166.4,0,100,4.215,4.217,4.213,4.21,0,0,13.914,91.31,6,P-GPS,
0.0461490191649784,36.8669250393324,6038.6075728286,51.181104,0,4.4055775688,10500,2018-04-12 12:35:09,13,0,16.772,6038.6075728286,51.181104,0.223694,4.4055775688,0,0,-6.71082,166, 2.7, 2.7,0,0,1024,1024,1483,1024,166.4,0,100,4.215,4.217,4.213,4.21,0,0,13.914,91.31,6,P-GPS,
0.0461491428062173,36.8669250157928,6039.5918248286,52.165356,0,4.4395670712,10600,2018-04-12 12:35:09,13,0,16.772,6039.5918248286,52.165356,0.223694,4.4395670712,0,0,-6.71082,166, 2.1, 3.3,0,0,1024,1024,1483,1024,166.4,0,100,4.215,4.217,4.213,4.21,0,0,13.914,91.31,6,P-GPS,
0.0461492431590786,36.8669249711245,6040.5760768286,53.149608,0,4.4747048676,10700,2018-04-12 12:35:09,13,0,16.772,6040.5760768286,53.149608,0.223694,4.4747048676,0,0,-6.71082,166, 2.1, 3,0,0,1024,1024,1488,1024,166.4,0,100,4.215,4.217,4.213,4.21,0,0,13.914,91.31,6,P-GPS,
0.0461493050220376,36.8669249025804,6041.5603288286,54.13386,0,4.5082678608,10800,2018-04-12 12:35:09,13,0,16.772,6041.5603288286,54.13386,0.223694,4.5082678608,0,0,-6.487126,166.1, 2.5, 2.2,0,0,1024,1024,1491,1024,166.4,0,100,4.215,4.217,4.213,4.21,0,0,13.914,91.31,6,P-GPS,
0.0461493814497997,36.8669248246774,6042.8726648286,55.446196,0,4.5478019828,10900,2018-04-12 12:35:09,13,0,16.772,6042.8726648286,55.446196,0.223694,4.5478019828,0,0,-6.71082,166.1, 2.4, 2.2,0,0,1024,1024,1492,1024,166.4,0,100,4.215,4.217,4.213,4.21,0,0,13.914,91.31,6,P-GPS,
0.0461494787314156,36.8669247299108,6043.8569168286,56.430448,0,4.5968505408,11000,2018-04-12 12:35:09,13,0,16.772,6043.8569168286,56.430448,0.223694,4.5968505408,0,0,-6.71082,166.1, 2.3, 1.5,0,0,1024,1024,1495,1024,166.4,0,100,4.215,4.217,4.213,4.21,0,0,13.914,91.31,6,P-GPS,
0.0461495625148593,36.8669246117823,6044.8411688286,57.4147,0,4.6496392564,11100,2018-04-12 12:35:09,13,0,16.772,6044.8411688286,57.4147,0.223694,4.6496392564,0,0,-6.71082,166.1, 2.4, 0.7,0,0,1024,1024,1498,1024,166.4,0,100,4.215,4.217,4.213,4.21,0,0,13.914,91.31,6,P-GPS,
0.0461496279375968,36.8669245058198,6045.8254208286,58.398952,0,4.6948492316,11200,2018-04-12 12:35:09,13,0,16.772,6045.8254208286,58.398952,0.223694,4.6948492316,0,0,-6.71082,166.1, 2.3, 1.3,0,0,1024,1024,1500,1024,166.4,0,100,4.215,4.217,4.213,4.21,0,0,13.914,91.31,6,P-GPS,
0.0461496991201408,36.8669244378088,6046.8096728286,59.383204,0,4.7303479204,11300,2018-04-12 12:35:09,13,0,16.772,6046.8096728286,59.383204,0.223694,4.7303479204,0,0,-6.934514,166.2, 2.4, 2.1,0,0,1024,1024,1502,1024,166.4,0,100,4.215,4.217,4.213,4.21,0,0,13.914,91.31,6,P-GPS,
0.0461497680277486,36.8669244006088,6048.1220088286,60.69554,0,4.7564305984,11400,2018-04-12 12:35:10,13,0,16.772,6048.1220088286,60.69554,0.223694,4.7564305984,0,0,-6.934514,166.2, 2.4, 2.2,0,0,1024,1024,1501,1024,166.4,0,100,4.215,4.217,4.213,4.21,0,0,13.914,91.31,6,P-GPS,
0.0461498232922525,36.8669243738339,6049.1062608286,61.679792,0,4.7765093392,11500,2018-04-12 12:35:10,13,0,16.772,6049.1062608286,61.679792,0.223694,4.7765093392,0,0,-6.934514,166.3, 2.8, 2.3,0,0,1024,1024,1509,1024,166.4,0,100,4.215,4.217,4.213,4.21,0,0,13.914,91.31,6,P-GPS,
0.0461498660682194,36.8669243536152,6050.0905128286,62.664044,0,4.7919292872,11600,2018-04-12 12:35:10,13,0,16.772,6050.0905128286,62.664044,0.223694,4.7919292872,0,0,-7.158208,166.4, 3.1, 2.8,0,0,1024,1024,1514,1024,166.4,0,100,4.215,4.217,4.213,4.21,0,0,13.914,91.31,6,P-GPS,
0.04614993092263,36.8669243267182,6051.4028488286,63.97638,0,4.8142061908,11700,2018-04-12 12:35:10,13,0,16.772,6051.4028488286,63.97638,0.223694,4.8142061908,0,0,-7.158208,166.3, 3.1, 2.3,0,0,1024,1024,1517,1024,166.4,0,100,4.215,4.217,4.213,4.21,0,0,13.914,91.31,6,P-GPS,
0.0461500140481823,36.8669242870537,6052.3871008286,64.960632,0,4.844324302,11800,2018-04-12 12:35:10,13,0,16.772,6052.3871008286,64.960632,0.223694,4.844324302,0,0,-7.158208,166.2, 3.1, 2.4,0,0,1024,1024,1522,1024,166.4,0,100,4.215,4.217,4.213,4.21,0,0,13.914,91.31,6,P-GPS,
0.0461501051156559,36.8669242451196,6053.3713528286,65.944884,0,4.87696866,11900,2018-04-12 12:35:10,13,0,16.772,6053.3713528286,65.944884,0.223694,4.87696866,0,0,-6.934514,166.2, 2.8, 2.7,0,0,1024,1024,1525,1024,166.4,0,100,4.215,4.217,4.213,4.21,0,0,13.914,91.31,6,P-GPS,
0.0461501764740719,36.8669241854398,6054.3556048286,66.929136,0,4.9102035692,12000,2018-04-12 12:35:10,13,0,16.772,6054.3556048286,66.929136,0.223694,4.9102035692,0,0,-6.934514,166.2, 2.4, 2.1,0,0,1024,1024,1527,1024,166.4,0,100,4.215,4.217,4.213,4.21,0,0,13.914,91.31,6,P-GPS,
0.0461502260308796,36.8669241096694,6055.6679408286,68.241472,0,4.943077586,12100,2018-04-12 12:35:10,13,0,16.772,6055.6679408286,68.241472,0.223694,4.943077586,0,0,-7.381902,166.2, 2.7, 2.2,0,0,1024,1024,1542,1024,166.4,0,100,4.211,4.213,4.208,4.204,0,0,14.01,91.31,6,P-GPS,
0.0461502510926327,36.8669240289337,6056.6521928286,69.225724,0,4.9718505528,12200,2018-04-12 12:35:10,13,0,16.772,6056.6521928286,69.225724,0.223694,4.9718505528,0,0,-7.381902,166.3, 3.2, 2.8,0,0,1024,1024,1547,1024,166.4,0,100,4.211,4.213,4.208,4.204,0,0,14.01,91.31,6,P-GPS,
0.046150271772243,36.8669239365116,6057.9645288286,70.53806,0,5.0029857244,12300,2018-04-12 12:35:11,13,0,16.772,6057.9645288286,70.53806,0.223694,5.0029857244,0,0,-7.381902,166.2, 3.7, 2.2,0,0,1024,1024,1549,1024,166.4,0,100,4.211,4.213,4.208,4.204,0,0,14.01,91.31,6,P-GPS,
0.0461503667202987,36.8669237822815,6060.2611168286,72.834648,0,5.0686353328,12500,2018-04-12 12:35:11,13,0,16.772,6060.2611168286,72.834648,0.223694,5.0686353328,0,0,-7.82929,166.3, 3.4, 2.4,0,0,1024,1024,1552,1024,166.4,0,100,4.211,4.213,4.208,4.204,0,0,14.01,91.31,6,P-GPS,
0.0461504512007164,36.8669237159021,6061.2453688286,73.8189,0,5.1067258852,12600,2018-04-12 12:35:11,13,0,16.772,6061.2453688286,73.8189,0.223694,5.1067258852,0,0,-7.605596,166.3, 2.9, 2.9,0,0,1024,1024,1554,1024,166.4,0,100,4.211,4.213,4.208,4.204,0,0,14.01,91.31,6,P-GPS,
0.0461505366728564,36.8669236480795,6062.5577048286,75.131236,0,5.1454726056,12700,2018-04-12 12:35:11,13,0,16.772,6062.5577048286,75.131236,0.223694,5.1454726056,0,0,-7.82929,166.2, 2.8, 2.9,0,0,1024,1024,1557,1024,166.4,0,100,4.211,4.213,4.208,4.204,0,0,14.01,91.31,6,P-GPS,
0.0461506128905493,36.8669235881192,6063.8700408286,76.443572,0,5.1798886172,12800,2018-04-12 12:35:11,13,0,16.772,6063.8700408286,76.443572,0.223694,5.1798886172,0,0,-8.052984,166.3, 3, 2.5,0,0,1024,1024,1559,1024,166.4,0,100,4.211,4.213,4.208,4.204,0,0,14.01,91.31,6,P-GPS,
0.0461507040150184,36.8669235355009,6064.8542928286,77.427824,0,5.2155841564,12900,2018-04-12 12:35:11,13,0,16.772,6064.8542928286,77.427824,0.223694,5.2155841564,0,0,-7.82929,166.3, 2.8, 3,0,0,1024,1024,1562,1024,166.4,0,100,4.211,4.213,4.208,4.204,0,0,14.01,91.31,6,P-GPS,
0.0461507975023599,36.866923487441,6066.1666288286,78.74016,0,5.2505907192,13000,2018-04-12 12:35:11,13,0,16.772,6066.1666288286,78.74016,0.223694,5.2505907192,0,0,-7.82929,166.2, 2.4, 3.4,0,0,1024,1024,1571,1024,166.4,0,100,4.211,4.213,4.208,4.204,0,0,14.01,91.31,6,P-GPS,
0.0461508854106522,36.8669234303348,6067.1508808286,79.724412,0,5.2869424264,13100,2018-04-12 12:35:11,12,0,16.637,6067.1508808286,79.724412,0.223694,5.2869424264,0,0,-7.82929,166.2, 2.6, 2.3,0,0,1024,1024,1574,1024,166.4,0,100,4.207,4.209,4.203,4.199,0,0,14.508,91.31,6,P-GPS,
0.046150965321656,36.8669233875336,6068.4632168286,81.036748,0,5.3173886216,13200,2018-04-12 12:35:11,12,0,16.637,6068.4632168286,81.036748,0.223694,5.3173886216,0,0,-7.82929,166.2, 3, 2.2,0,0,1024,1024,1586,1024,166.4,0,100,4.207,4.209,4.203,4.199,0,0,14.508,91.31,6,P-GPS,
0.0461510551971086,36.8669233703574,6069.7755528286,82.349084,0,5.3429463652,13300,2018-04-12 12:35:11,13,0,16.637,6069.7755528286,82.349084,0.223694,5.3429463652,0,0,-8.276678,166.2, 2.6, 3.2,0,0,1024,1024,1599,1023,166.4,0,100,4.207,4.209,4.203,4.199,0,0,14.508,91.31,6,P-GPS,
0.0461511320319817,36.8669233413793,6071.0878888286,83.66142,0,5.3688978096,13400,2018-04-12 12:35:12,13,0,16.637,6071.0878888286,83.66142,0.223694,5.3688978096,0,0,-8.500372,166.2, 2.7, 3.4,0,0,1024,1024,1615,1022,166.4,0,100,4.207,4.209,4.203,4.199,0,0,14.508,91.31,6,P-GPS,
0.0461512142537476,36.8669232974368,6072.4002248286,84.973756,0,5.4003282568,13500,2018-04-12 12:35:12,13,0,16.637,6072.4002248286,84.973756,0.223694,5.4003282568,0,0,-8.500372,166.1, 2.7, 3.2,0,0,1024,1024,1635,1023,166.4,0,100,4.207,4.209,4.203,4.199,0,0,14.508,91.31,6,P-GPS,
0.0461513109572659,36.8669232274646,6073.7125608286,86.286092,0,5.4424870508,13600,2018-04-12 12:35:12,13,0,16.637,6073.7125608286,86.286092,0.223694,5.4424870508,0,0,-8.724066,166.1, 2.6, 2.9,0,0,1024,1024,1654,1022,166.4,0,100,4.207,4.209,4.203,4.199,0,0,14.508,91.31,6,P-GPS,
0.0461514466571326,36.8669231220887,6075.0248968286,87.598428,0,5.5037075252,13700,2018-04-12 12:35:12,13,0,16.637,6075.0248968286,87.598428,0.223694,5.5037075252,0,0,-9.171454,166.1, 2.2, 2.5,0,0,1024,1024,1666,1022,166.4,0,100,4.207,4.209,4.203,4.199,0,0,14.508,91.31,6,P-GPS,
0.0461516024226862,36.8669229892999,6076.3372328286,88.910764,0,5.5772967664,13800,2018-04-12 12:35:12,13,0,16.637,6076.3372328286,88.910764,0.223694,5.5772967664,0,0,-9.618842,166.2, 1.6, 1.7,0,0,1024,1024,1670,1022,166.4,0,100,4.207,4.209,4.203,4.199,0,0,14.508,91.31,6,P-GPS,
0.0461517654283019,36.8669228568215,6077.9776528286,90.551184,0,5.652559236,13900,2018-04-12 12:35:12,13,0,16.637,6077.9776528286,90.551184,0.223694,5.652559236,0,0,-10.06623,166.2, 1.4, 1.5,0,0,1024,1024,1674,1019,166.4,0,100,4.207,4.209,4.203,4.199,0,0,14.508,91.31,6,P-GPS,
0.0461519044485659,36.8669227528138,6079.2899888286,91.86352,0,5.7142718364,14000,2018-04-12 12:35:12,13,0,16.637,6079.2899888286,91.86352,0.223694,5.7142718364,0,0,-10.289924,166.2, 1, 2.6,0,0,1024,1024,1684,1018,166.4,0,100,4.207,4.209,4.203,4.199,0,0,14.508,91.31,6,P-GPS,
0.0461520423500889,36.8669226319425,6080.9304088286,93.50394,0,5.7804463792,14100,2018-04-12 12:35:12,13,0,16.637,6080.9304088286,93.50394,0.223694,5.7804463792,0,0,-10.513618,166.2, 1, 2.6,0,0,1024,1024,1684,1007,166.4,0,100,4.189,4.189,4.187,4.18,0,0,16.132,91.31,6,P-GPS,
0.0461521553136205,36.866922494653,6082.5708288286,95.14436,0,5.845308586,14200,2018-04-12 12:35:12,13,0,16.637,6082.5708288286,95.14436,0.223694,5.845308586,0,0,-10.737312,166.1, 1.1, 2,0,0,1024,1024,1684,1007,166.4,0,100,4.189,4.189,4.187,4.18,0,0,16.132,91.31,6,P-GPS,
0.0461522665477446,36.8669223379007,6084.2112488286,96.78478,0,5.9151576696,14300,2018-04-12 12:35:12,13,0,16.637,6084.2112488286,96.78478,0.223694,5.9151576696,0,0,-10.737312,166.1, 1.4, 1.5,0,0,1024,1024,1684,1006,166.4,0,100,4.189,4.189,4.187,4.18,0,0,16.132,91.31,6,P-GPS,
0.0461523667426468,36.866922195314,6085.8516688286,98.4252,0,5.97851069,14400,2018-04-12 12:35:13,13,0,16.637,6085.8516688286,98.4252,0.223694,5.97851069,0,0,-10.737312,166.1, 1.7, 1.5,0,0,1024,1024,1684,1015,166.4,0,100,4.189,4.189,4.187,4.18,0,0,16.132,91.31,6,P-GPS,
0.0461524779197754,36.8669220786222,6087.4920888286,100.06562,0,6.0372049176,14500,2018-04-12 12:35:13,13,0,16.637,6087.4920888286,100.06562,0.223694,6.0372049176,0,0,-10.961006,166.2, 1.8, 1.4,0,0,1024,1024,1684,1020,166.4,0,100,4.189,4.189,4.187,4.18,0,0,16.132,91.31,6,P-GPS,
0.0461525826808346,36.8669220083331,6089.1325088286,101.70604,0,6.0814634492,14600,2018-04-12 12:35:13,13,0,16.637,6089.1325088286,101.70604,0.223694,6.0814634492,0,0,-10.961006,166.2, 1.7, 1.6,0,0,1024,1024,1684,1019,166.4,0,100,4.189,4.189,4.187,4.18,0,0,16.132,91.31,6,P-GPS,
0.0461527190076522,36.8669219314064,6090.4448448286,103.018376,0,6.1351051832,14700,2018-04-12 12:35:13,13,0,16.637,6090.4448448286,103.018376,0.223694,6.1351051832,0,0,-10.737312,166.2, 1.6, 1.8,0,0,1024,1024,1684,1020,166.4,0,100,4.189,4.189,4.187,4.18,0,0,16.132,91.31,6,P-GPS,
0.0461528608027848,36.8669218380188,6092.4133488286,104.98688,0,6.1946196208,14800,2018-04-12 12:35:13,13,0,16.637,6092.4133488286,104.98688,0.223694,6.1946196208,0,0,-10.961006,166.2, 1.6, 1.8,0,0,1024,1024,1684,1021,166.4,0,100,4.189,4.189,4.187,4.18,0,0,16.132,91.31,6,P-GPS,
0.0461530074050841,36.8669217381092,6094.0537688286,106.6273,0,6.2571524312,14900,2018-04-12 12:35:13,13,0,16.637,6094.0537688286,106.6273,0.223694,6.2571524312,0,0,-10.961006,166.2, 1.6, 1.6,0,0,1024,1024,1684,1020,166.4,0,100,4.189,4.189,4.187,4.18,0,0,16.132,91.31,6,P-GPS,
0.0461531268025979,36.8669216567461,6095.6941888286,108.26772,0,6.3081038764,15000,2018-04-12 12:35:13,13,0,16.637,6095.6941888286,108.26772,0.223694,6.3081038764,0,0,-10.961006,166.2, 1.6, 1.9,0,0,1024,1024,1684,1020,166.4,0,100,4.189,4.189,4.187,4.18,0,0,16.132,91.31,6,P-GPS,
0.0461532640706562,36.8669215912531,6097.3346088286,109.90814,0,6.3590225132,15100,2018-04-12 12:35:13,13,0,16.637,6097.3346088286,109.90814,0.223694,6.3590225132,0,0,-11.1847,166.2, 1.7, 2.3,0,0,1024,1024,1684,1021,166.4,0,100,4.189,4.189,4.187,4.18,0,0,16.132,91.31,6,P-GPS,
0.0461533959225098,36.8669215392707,6098.9750288286,111.54856,0,6.40501989,15200,2018-04-12 12:35:13,13,0,16.637,6098.9750288286,111.54856,0.223694,6.40501989,0,0,-11.1847,166.2, 1.8, 2.3,0,0,1024,1024,1684,1021,166.4,0,100,4.189,4.189,4.187,4.18,0,0,16.132,91.31,6,P-GPS,
0.0461535515170768,36.8669214707587,6100.6154488286,113.18898,0,6.4613519128,15300,2018-04-12 12:35:14,13,0,16.637,6100.6154488286,113.18898,0.223694,6.4613519128,0,0,-11.1847,166.1, 1.5, 2.4,0,0,1024,1024,1684,1020,166.4,0,100,4.189,4.189,4.187,4.18,0,0,16.132,91.31,6,P-GPS,
0.0461536934066591,36.8669213882694,6102.2558688286,114.8294,0,6.5182416784,15400,2018-04-12 12:35:14,13,0,16.637,6102.2558688286,114.8294,0.223694,6.5182416784,0,0,-11.408394,166.1, 1.3, 2.4,0,0,1024,1024,1684,1021,166.4,0,100,4.189,4.189,4.187,4.18,0,0,16.132,91.31,6,P-GPS,
0.0461538207379521,36.8669213039944,6103.8962888286,116.46982,0,6.5721458796,15500,2018-04-12 12:35:14,13,0,16.637,6103.8962888286,116.46982,0.223694,6.5721458796,0,0,-11.1847,166.1, 1.9, 2.2,0,0,1024,1024,1684,1022,166.4,0,100,4.189,4.189,4.187,4.18,0,0,16.132,91.31,6,P-GPS,
0.0461539195845027,36.8669212321379,6105.8647928286,118.438324,0,6.6157482432,15600,2018-04-12 12:35:14,13,0,16.637,6105.8647928286,118.438324,0.223694,6.6157482432,0,0,-11.408394,166.1, 2.1, 2.1,0,0,1024,1024,1684,1022,166.4,0,100,4.189,4.189,4.187,4.18,0,0,16.132,91.31,6,P-GPS,
0.0461540453394619,36.8669211454177,6107.5052128286,120.078744,0,6.6699805284,15700,2018-04-12 12:35:14,13,0,16.637,6107.5052128286,120.078744,0.223694,6.6699805284,0,0,-11.1847,166.1, 1.9, 2,0,0,1024,1024,1684,1022,166.4,0,100,4.189,4.189,4.187,4.18,0,0,16.132,91.31,6,P-GPS,
0.0461541775984265,36.8669210520943,6109.1456328286,121.719164,0,6.7275920788,15800,2018-04-12 12:35:14,13,0,16.637,6109.1456328286,121.719164,0.223694,6.7275920788,0,0,-10.961006,166.1, 1.8, 2,0,0,1024,1024,1684,1023,166.4,0,100,4.189,4.189,4.187,4.18,0,0,16.132,91.31,6,P-GPS,
0.0461543195010364,36.8669209455215,6110.7860528286,123.359584,0,6.791174758,15900,2018-04-12 12:35:14,13,0,16.637,6110.7860528286,123.359584,0.223694,6.791174758,0,0,-11.1847,166.1, 1.7, 2.3,0,0,1024,1024,1684,1024,166.4,0,100,4.189,4.189,4.187,4.18,0,0,16.132,91.31,6,P-GPS,
0.0461544443798927,36.8669208340198,6112.4264728286,125.000004,0,6.8519359148,16000,2018-04-12 12:35:14,13,0,16.637,6112.4264728286,125.000004,0.223694,6.8519359148,0,0,-10.961006,166.1, 1.5, 1.9,0,0,1024,1024,1684,1024,166.4,0,100,4.189,4.189,4.187,4.18,0,0,16.132,91.31,6,P-GPS,
0.046154584149241,36.8669207087935,6114.0668928286,126.640424,0,6.9200461532,16100,2018-04-12 12:35:14,13,0,16.664,6114.0668928286,126.640424,0.223694,6.9200461532,0,0,-11.1847,166.1, 1.3, 1.6,0,0,1024,1024,1684,1024,166.4,0,100,4.191,4.192,4.188,4.183,0,0,16.054,91.31,6,P-GPS,
0.0461547194859647,36.8669205972918,6115.7073128286,128.280844,0,6.9833991736,16200,2018-04-12 12:35:14,13,0,16.664,6115.7073128286,128.280844,0.223694,6.9833991736,0,0,-11.1847,166.1, 1, 1.6,0,0,1024,1024,1684,1024,166.3,0,100,4.191,4.192,4.188,4.183,0,0,16.054,91.31,6,P-GPS,
0.046154861610043,36.8669204863982,6117.3477328286,129.921264,0,7.0482613804,16300,2018-04-12 12:35:14,13,0,16.664,6117.3477328286,129.921264,0.223694,7.0482613804,0,0,-10.961006,166.1, 1.1, 1.2,0,0,1024,1024,1684,1024,166.3,0,100,4.191,4.192,4.188,4.183,0,0,16.054,91.31,6,P-GPS,
0.0461549872770662,36.8669203999564,6118.9881528286,131.561684,0,7.102526474,16400,2018-04-12 12:35:15,13,0,16.664,6118.9881528286,131.561684,0.223694,7.102526474,0,0,-11.1847,166.1, 1.1, 1.5,0,0,1024,1024,1684,1024,166.3,0,100,4.191,4.192,4.188,4.183,0,0,16.054,91.31,6,P-GPS,
0.0461551277075627,36.8669203215352,6120.6285728286,133.202104,0,7.158300754,16500,2018-04-12 12:35:15,13,0,16.664,6120.6285728286,133.202104,0.223694,7.158300754,0,0,-11.1847,166.2, 1.2, 2.3,0,0,1024,1024,1684,1024,166.3,0,100,4.191,4.192,4.188,4.183,0,0,16.054,91.31,6,P-GPS,
0.0461552569343645,36.866920240973,6122.5970768286,135.170608,0,7.211942488,16600,2018-04-12 12:35:15,13,0,16.664,6122.5970768286,135.170608,0.223694,7.211942488,0,0,-11.1847,166.3, 1.2, 2.9,0,0,1024,1024,1684,1024,166.3,0,100,4.191,4.192,4.188,4.183,0,0,16.054,91.31,6,P-GPS,
0.0461553906035616,36.8669201341775,6124.2374968286,136.811028,0,7.2736878968,16700,2018-04-12 12:35:15,13,0,16.664,6124.2374968286,136.811028,0.223694,7.2736878968,0,0,-11.1847,166.3, 1, 2.1,0,0,1024,1024,1684,1024,166.3,0,100,4.191,4.192,4.188,4.183,0,0,16.054,91.31,6,P-GPS,
0.0461554995692632,36.8669200130664,6125.8779168286,138.451448,0,7.3331039092,16800,2018-04-12 12:35:15,13,0,16.664,6125.8779168286,138.451448,0.223694,7.3331039092,0,0,-11.1847,166.3, 0.9, 1,0,0,1024,1024,1684,1024,166.3,0,100,4.191,4.192,4.188,4.183,0,0,16.054,91.31,6,P-GPS,
0.0461556324470364,36.8669198741454,6127.5183368286,140.091868,0,7.4032482684,16900,2018-04-12 12:35:15,13,0,16.664,6127.5183368286,140.091868,0.223694,7.4032482684,0,0,-11.1847,166.3, 0.4, 0.3,0,0,1024,1024,1684,1024,166.4,0,100,4.191,4.192,4.188,4.183,0,0,16.054,91.31,6,P-GPS,
0.0461557669304555,36.8669197437589,6129.1587568286,141.732288,0,7.4714897404,17000,2018-04-12 12:35:15,13,0,16.664,6129.1587568286,141.732288,0.223694,7.4714897404,0,0,-11.408394,166.2, 0, 0.9,0,0,1024,1024,1684,1024,166.3,0,100,4.191,4.192,4.188,4.183,0,0,16.054,91.31,6,P-GPS,
0.0461559034754846,36.8669196322787,6130.7991768286,143.372708,0,7.5352364616,17100,2018-04-12 12:35:15,13,0,16.745,6130.7991768286,143.372708,0.223694,7.5352364616,0,0,-11.1847,166.2, 0.3, 0.9,0,0,1024,1024,1684,1024,166.3,0,100,4.195,4.196,4.19,4.187,0,0,14.594,93.11,6,P-GPS,
0.0461560207788195,36.8669195435372,6132.4395968286,145.013128,0,7.5881236024,17200,2018-04-12 12:35:15,13,0,16.745,6132.4395968286,145.013128,0.223694,7.5881236024,0,0,-11.1847,166.2, 0.4, 0.5,0,0,1024,1024,1684,1024,166.3,0,100,4.195,4.196,4.19,4.187,0,0,14.594,93.11,6,P-GPS,
0.0461561484813977,36.8669194666363,6134.4081008286,146.981632,0,7.6404530004,17300,2018-04-12 12:35:16,13,0,16.745,6134.4081008286,146.981632,0.223694,7.6404530004,0,0,-11.1847,166.1, 0.2, 0.7,0,0,1024,1024,1684,1024,166.3,0,100,4.195,4.196,4.19,4.187,0,0,14.594,93.11,6,P-GPS,
0.0461562522197941,36.8669194028562,6136.0485208286,148.622052,0,7.6833663876,17400,2018-04-12 12:35:16,13,0,16.745,6136.0485208286,148.622052,0.223694,7.6833663876,0,0,-11.1847,166.1, -0.2, 0.6,0,0,1024,1024,1684,1024,166.3,0,100,4.195,4.196,4.19,4.187,0,0,14.594,93.11,6,P-GPS,
0.0461563587004902,36.8669193448144,6137.6889408286,150.262472,0,7.7254595648,17500,2018-04-12 12:35:16,13,0,16.745,6137.6889408286,150.262472,0.223694,7.7254595648,0,0,-11.1847,166.1, -0.6, 0.7,0,0,1024,1024,1684,1024,166.3,0,100,4.195,4.196,4.19,4.187,0,0,14.594,93.11,6,P-GPS,
0.0461564382434657,36.8669193035804,6139.3293608286,151.902892,0,7.7563322692,17600,2018-04-12 12:35:16,13,0,16.745,6139.3293608286,151.902892,0.223694,7.7563322692,0,0,-10.961006,166.1, -0.4, 1.1,0,0,1024,1024,1684,1024,166.3,0,100,4.195,4.196,4.19,4.187,0,0,14.594,93.11,6,P-GPS,
0.0461564932229919,36.8669192749278,6140.9697808286,153.543312,0,7.777723346,17700,2018-04-12 12:35:16,13,0,16.745,6140.9697808286,153.543312,0.223694,7.777723346,0,0,-11.1847,166.1, -0.3, 1.3,0,0,1024,1024,1684,1024,166.3,0,100,4.195,4.196,4.19,4.187,0,0,14.594,93.11,6,P-GPS,
0.046156511103307,36.8669192601197,6142.6102008286,155.183732,0,7.7861551048,17800,2018-04-12 12:35:16,13,0,16.745,6142.6102008286,155.183732,0.223694,7.7861551048,0,0,-11.1847,166.2, -0.6, 1.4,0,0,1024,1024,1684,1024,166.3,0,100,4.195,4.196,4.19,4.187,0,0,14.594,93.11,6,P-GPS,
0.0461565194963073,36.8669192590106,6144.2506208286,156.824152,0,7.788550118,17900,2018-04-12 12:35:16,13,0,16.745,6144.2506208286,156.824152,0.223694,7.788550118,0,0,-10.961006,166.2, -0.8, 1.3,0,0,1024,1024,1684,1024,166.3,0,100,4.195,4.196,4.19,4.187,0,0,14.594,93.11,6,P-GPS,
0.0461565013196154,36.8669192789145,6145.8910408286,158.464572,0.223694,7.778707598,18000,2018-04-12 12:35:16,13,0,16.745,6145.8910408286,158.464572,0.223694,7.788550118,-0.223694,0,-11.1847,166.2, 0.2, 1.2,0,0,1024,1024,1684,1024,166.3,0,100,4.195,4.196,4.19,4.187,0,0,14.594,93.11,6,P-GPS,
0.0461564298537222,36.8669192986215,6147.5314608286,160.104992,0.223694,7.7555448676,18100,2018-04-12 12:35:16,13,0,16.718,6147.5314608286,160.104992,0.223694,7.788550118,-0.223694,0,-11.408394,166.4, 2.2, 1.1,0,0,1024,1024,1684,1024,166.3,0,100,4.196,4.196,4.19,4.188,0,0,13.936,93.11,6,P-GPS,
0.046156351988044,36.8669193013194,6149.1718808286,161.745412,0.223694,7.7353020848,18200,2018-04-12 12:35:16,13,0,16.718,6149.1718808286,161.745412,0.223694,7.788550118,0,0,-11.1847,166.4, 2.9, 1.5,0,0,1024,1024,1684,1024,166.3,0,100,4.196,4.196,4.19,4.188,0,0,13.936,93.11,6,P-GPS,
0.0461563480537233,36.8669192908835,6150.8123008286,163.385832,0,7.7370737384,18300,2018-04-12 12:35:16,13,0,16.718,6150.8123008286,163.385832,0.223694,7.788550118,0,0,-11.408394,166.2, 1.3, 1.6,0,0,1024,1024,1684,1024,166.3,0,100,4.196,4.196,4.19,4.188,0,0,13.936,93.11,6,P-GPS,
0.0461564031732957,36.8669192773044,6152.7808048286,165.354336,0,7.7544949988,18400,2018-04-12 12:35:17,13,0,16.718,6152.7808048286,165.354336,0.223694,7.788550118,0,0,-11.408394,166.2, -0.5, 1.6,0,0,1024,1024,1684,1024,166.3,0,100,4.196,4.196,4.19,4.188,0,0,13.936,93.11,6,P-GPS,
0.0461564664774277,36.866919256681,6154.4212248286,166.994756,0,7.7758532672,18500,2018-04-12 12:35:17,13,0,16.718,6154.4212248286,166.994756,0.223694,7.788550118,0,0,-11.408394,166.2, -0.9, 1.3,0,0,1024,1024,1684,1024,166.3,0,100,4.196,4.196,4.19,4.188,0,0,13.936,93.11,6,P-GPS,
0.0461565084684846,36.8669192454615,6156.0616448286,168.635176,0,7.789370328,18600,2018-04-12 12:35:17,13,0,16.718,6156.0616448286,168.635176,0.223694,7.789370328,0,0,-11.1847,166.3, -0.9, 1,0,0,1024,1024,1684,1024,166.3,0,100,4.196,4.196,4.19,4.188,0,0,13.936,93.11,6,P-GPS,
0.0461565271141683,36.8669192534479,6157.7020648286,170.275596,0,7.7919293832,18700,2018-04-12 12:35:17,13,0,16.718,6157.7020648286,170.275596,0.223694,7.7919293832,0,0,-11.1847,166.3, -0.4, 1.5,0,0,1024,1024,1684,1024,166.3,0,100,4.196,4.196,4.19,4.188,0,0,13.936,93.11,6,P-GPS,
0.0461564877774752,36.8669192824046,6159.3424848286,171.916016,0,7.7743768892,18800,2018-04-12 12:35:17,13,0,16.718,6159.3424848286,171.916016,0.223694,7.7919293832,0,0,-10.961006,166.4, 0.1, 1.9,0,0,1024,1024,1684,1024,166.3,0,100,4.196,4.196,4.19,4.188,0,0,13.936,93.11,6,P-GPS,
0.0461564405330579,36.8669193153866,6160.9829048286,173.556436,0,7.7538060224,18900,2018-04-12 12:35:17,12,0,16.718,6160.9829048286,173.556436,0.223694,7.7919293832,0,0,-10.961006,166.4, 0.3, 1.3,0,0,1024,1024,1684,1024,166.3,0,100,4.196,4.196,4.19,4.188,0,0,13.936,93.11,6,P-GPS,
0.0461563853157789,36.8669193621704,6162.6233248286,175.196856,0.223694,7.727526494,19000,2018-04-12 12:35:17,12,0,16.718,6162.6233248286,175.196856,0.223694,7.7919293832,-0.223694,0,-10.961006,166.3, 0.4, 1,0,0,1024,1024,1684,1024,166.3,0,100,4.196,4.196,4.19,4.188,0,0,13.936,93.11,6,P-GPS,
0.0461563305902899,36.8669193978031,6164.2637448286,176.837276,0,7.7043637636,19100,2018-04-12 12:35:17,12,0,16.718,6164.2637448286,176.837276,0.223694,7.7919293832,0,0,-10.737312,166.3, 0.8, 0.9,0,0,1024,1024,1684,1024,166.3,0,100,4.196,4.196,4.19,4.188,0,0,13.936,93.11,6,P-GPS,
0.0461562738357597,36.866919415202,6165.9041648286,178.477696,0,7.6854989336,19200,2018-04-12 12:35:17,12,0,16.718,6165.9041648286,178.477696,0.223694,7.7919293832,0,0,-10.737312,166.3, 0.9, 1.4,0,0,1024,1024,1684,1024,166.3,0,100,4.196,4.196,4.19,4.188,0,0,13.936,93.11,6,P-GPS,
0.0461562343427359,36.8669194393797,6167.5445848286,180.118116,0,7.6691931588,19300,2018-04-12 12:35:18,13,0,16.718,6167.5445848286,180.118116,0.223694,7.7919293832,0,0,-10.961006,166.2, 0.4, 2.2,0,0,1024,1024,1684,1024,166.3,0,100,4.196,4.196,4.19,4.188,0,0,13.936,93.11,6,P-GPS,
0.0461561895084158,36.8669194810076,6169.1850048286,181.758536,0,7.6469162552,19400,2018-04-12 12:35:18,13,0,16.718,6169.1850048286,181.758536,0.223694,7.7919293832,0,0,-10.961006,166.2, 0.2, 2.5,0,0,1024,1024,1684,1024,166.3,0,100,4.196,4.196,4.19,4.188,0,0,13.936,93.11,6,P-GPS,
0.0461561243608853,36.8669195089408,6170.8254248286,183.398956,0.223694,7.623195782,19500,2018-04-12 12:35:18,13,0,16.718,6170.8254248286,183.398956,0.223694,7.7919293832,-0.223694,0,-11.1847,166.2, 0.4, 2.4,0,0,1024,1024,1684,1024,166.3,0,100,4.196,4.196,4.19,4.188,0,0,13.936,93.11,6,P-GPS,
0.04615603358816,36.8669195275002,6172.4658448286,185.039376,0.223694,7.5955711092,19600,2018-04-12 12:35:18,13,0,16.718,6172.4658448286,185.039376,0.223694,7.7919293832,-0.223694,0,-10.961006,166.3, 0.6, 2.1,0,0,1024,1024,1684,1024,166.3,0,100,4.196,4.196,4.19,4.188,0,0,13.936,93.11,6,P-GPS,
0.0461559413433213,36.8669195189999,6174.1062648286,186.679796,0.223694,7.5748690088,19700,2018-04-12 12:35:18,13,0,16.718,6174.1062648286,186.679796,0.223694,7.7919293832,-0.223694,0,-10.961006,166.3, 0.9, 2,0,0,1024,1024,1684,1024,166.3,0,100,4.196,4.196,4.19,4.188,0,0,13.936,93.11,6,P-GPS,
0.0461558473071943,36.8669194861163,6175.7466848286,188.320216,0.223694,7.5603348876,19800,2018-04-12 12:35:18,13,0,16.718,6175.7466848286,188.320216,0.223694,7.7919293832,-0.223694,0,-10.961006,166.2, 1.4, 1.5,0,0,1024,1024,1684,1024,166.3,0,100,4.196,4.196,4.19,4.188,0,0,13.936,93.11,6,P-GPS,
0.0461557625857669,36.8669194289609,6177.3871048286,189.960636,0.223694,7.554790268,19900,2018-04-12 12:35:18,13,0,16.718,6177.3871048286,189.960636,0.223694,7.7919293832,-0.223694,0,-10.961006,166.1, 1.3, 0.7,0,0,1024,1024,1684,1024,166.3,0,100,4.196,4.196,4.19,4.188,0,0,13.936,93.11,6,P-GPS,
0.0461556801376473,36.8669193838729,6178.6994408286,191.272972,0.223694,7.5467194016,20000,2018-04-12 12:35:18,13,0,16.718,6178.6994408286,191.272972,0.223694,7.7919293832,-0.223694,0,-10.961006,166.1, 1.4, 0.8,0,0,1024,1024,1684,1024,166.3,0,100,4.196,4.196,4.19,4.188,0,0,13.936,93.11,6,P-GPS,
0.046155604284726,36.8669193420737,6180.3398608286,192.913392,0.223694,7.5395015536,20100,2018-04-12 12:35:18,13,0,16.718,6180.3398608286,192.913392,0.223694,7.7919293832,-0.223694,0,-11.1847,166.2, 1.2, 0,0,0,1024,1024,1684,1024,166.3,0,100,4.194,4.194,4.189,4.186,0,0,14.166,93.11,6,P-GPS,
0.0461554405381683,36.8669193554644,6183.9487848286,196.522316,0,7.496063232,20300,2018-04-12 12:35:18,13,0,16.718,6183.9487848286,196.522316,0.223694,7.7919293832,0,0,-11.1847,166.2, 1.4, 0.3,0,0,1024,1024,1684,1024,166.4,0,100,4.194,4.194,4.189,4.186,0,0,14.166,93.11,6,P-GPS,
0.046155348833973,36.8669194080163,6185.5892048286,198.162736,0,7.4595146744,20400,2018-04-12 12:35:19,13,0,16.718,6185.5892048286,198.162736,0.223694,7.7919293832,0,0,-11.1847,166.1, 1.7, 0.7,0,0,1024,1024,1684,1024,166.4,0,100,4.194,4.194,4.189,4.186,0,0,14.166,93.11,6,P-GPS,
0.046155269365906,36.8669194583415,6187.2296248286,199.803156,0,7.4265422324,20500,2018-04-12 12:35:19,13,0,16.718,6187.2296248286,199.803156,0.223694,7.7919293832,0,0,-11.408394,166.1, 1.4, 1.5,0,0,1024,1024,1684,1024,166.3,0,100,4.194,4.194,4.189,4.186,0,0,14.166,93.11,6,P-GPS,
0.0461551956006498,36.8669194844163,6188.8700448286,201.443576,0.223694,7.4016078484,20600,2018-04-12 12:35:19,13,0,16.718,6188.8700448286,201.443576,0.223694,7.7919293832,-0.223694,0,-11.1847,166, 1.6, 1.9,0,0,1024,1024,1684,1024,166.3,0,100,4.194,4.194,4.189,4.186,0,0,14.166,93.11,6,P-GPS,
0.0461551274763237,36.8669195001921,6190.5104648286,203.083996,0.223694,7.3808729396,20700,2018-04-12 12:35:19,13,0,16.718,6190.5104648286,203.083996,0.223694,7.7919293832,-0.223694,0,-11.1847,166.2, 1.9, 1.4,0,0,1024,1024,1684,1024,166.3,0,100,4.194,4.194,4.189,4.186,0,0,14.166,93.11,6,P-GPS,
0.0461550691780286,36.8669195214193,6192.1508848286,204.724416,0,7.361056666,20800,2018-04-12 12:35:19,13,0,16.718,6192.1508848286,204.724416,0.223694,7.7919293832,0,0,-11.1847,166.2, 1.6, 1.3,0,0,1024,1024,1684,1024,166.3,0,100,4.194,4.194,4.189,4.186,0,0,14.166,93.11,6,P-GPS,
0.0461550140845113,36.8669195449761,6193.7913048286,206.364836,0.223694,7.341371626,20900,2018-04-12 12:35:19,13,0,16.718,6193.7913048286,206.364836,0.223694,7.7919293832,-0.223694,0,-11.1847,166.2, 1.7, 1.4,0,0,1024,1024,1684,1024,166.3,0,100,4.194,4.194,4.189,4.186,0,0,14.166,93.11,6,P-GPS,
0.0461549433221058,36.8669195668028,6195.4317248286,208.005256,0.223694,7.318405746,21000,2018-04-12 12:35:19,13,0,16.718,6195.4317248286,208.005256,0.223694,7.7919293832,-0.223694,0,-10.961006,166, 1.8, 0.9,0,0,1024,1024,1684,1024,166.3,0,100,4.194,4.194,4.189,4.186,0,0,14.166,93.11,6,P-GPS,
0.0461548856295919,36.866919561587,6197.0721448286,209.645676,0,7.3060697876,21100,2018-04-12 12:35:19,13,0,16.745,6197.0721448286,209.645676,0.223694,7.7919293832,0,0,-10.961006,166, 2, 0.2,0,0,1024,1024,1684,1024,166.3,0,99,4.198,4.198,4.193,4.191,0,0,13.124,93.11,6,P-GPS,
0.0461548424562847,36.8669195512967,6198.7125648286,211.286096,0,7.2986222808,21200,2018-04-12 12:35:19,13,0,16.745,6198.7125648286,211.286096,0.223694,7.7919293832,0,0,-11.1847,165.9, 1.7, 0.2,0,0,1024,1024,1684,1024,166.3,0,99,4.198,4.198,4.193,4.191,0,0,13.124,93.11,6,P-GPS,
0.0461548153296646,36.8669195593773,6200.3529848286,212.926516,0,7.2899280548,21300,2018-04-12 12:35:20,13,0,16.745,6200.3529848286,212.926516,0.223694,7.7919293832,0,0,-11.1847,165.9, 1.4, 0.9,0,0,1024,1024,1684,1024,166.3,0,99,4.198,4.198,4.193,4.191,0,0,13.124,93.11,6,P-GPS,
0.0461547802855497,36.866919600864,6202.3214888286,214.89502,0,7.2701117812,21400,2018-04-12 12:35:20,13,0,16.745,6202.3214888286,214.89502,0.223694,7.7919293832,0,0.223694,-11.408394,165.8, 1.5, 1.5,0,0,1024,1024,1684,1022,166.3,0,99,4.198,4.198,4.193,4.191,0,0,13.124,93.11,6,P-GPS,
0.0461547395093121,36.866919649215,6203.9619088286,216.53544,0.223694,7.247047476,21500,2018-04-12 12:35:20,13,0,16.745,6203.9619088286,216.53544,0.223694,7.7919293832,0,0.223694,-11.1847,165.8, 2.2, 1.6,0,0,1024,1024,1684,1021,166.3,0,99,4.198,4.198,4.193,4.191,0,0,13.124,93.11,6,P-GPS,
0.0461546865685977,36.8669197196326,6205.6023288286,218.17586,0.223694,7.2149608608,21600,2018-04-12 12:35:20,13,0,16.745,6205.6023288286,218.17586,0.223694,7.7919293832,0,0.223694,-11.1847,165.9, 2.8, 1.6,0,0,1024,1024,1684,1021,166.3,0,99,4.198,4.198,4.193,4.191,0,0,13.124,93.11,6,P-GPS,
0.0461546554685743,36.8669198116286,6207.2427488286,219.81628,0.223694,7.1821196524,21700,2018-04-12 12:35:20,13,0,16.745,6207.2427488286,219.81628,0.223694,7.7919293832,0,0.223694,-11.1847,166, 2.6, 2.3,0,0,1024,1024,1684,1021,166.3,0,99,4.198,4.198,4.193,4.191,0,0,13.124,93.11,6,P-GPS,
0.0461546360510081,36.866919916754,6208.8831688286,221.4567,0.223694,7.1484910424,21800,2018-04-12 12:35:20,13,0,16.745,6208.8831688286,221.4567,0.223694,7.7919293832,0,0.223694,-11.1847,165.9, 2, 3.4,0,0,1024,1024,1684,1024,166.3,0,99,4.198,4.198,4.193,4.191,0,0,13.124,93.11,6,P-GPS,
0.0461546170112408,36.8669199926785,6210.5235888286,223.09712,0,7.123031724,21900,2018-04-12 12:35:20,13,0,16.745,6210.5235888286,223.09712,0.223694,7.7919293832,0,0,-11.1847,165.7, 1.5, 4.1,0,0,1024,1024,1684,1024,166.3,0,99,4.198,4.198,4.193,4.191,0,0,13.124,93.11,6,P-GPS,
