latitude,longitude,altitude(feet),ascent(feet),speed(mph),distance(feet),time(millisecond),datetime(utc),satellites,voltage(v),max_altitude(feet),max_ascent(feet),max_speed(mph),max_distance(feet),compass_heading(degrees), pitch(degrees), roll(degrees),isPhoto,isVideo,rc_elevator,rc_aileron,rc_throttle,rc_rudder,gimbal_heading(degrees),gimbal_pitch(degrees),battery_percent,voltageCell1,voltageCell2,voltageCell3,voltageCell4,voltageCell5,voltageCell6,battery_temperature(f),flycStateRaw,flycState,message
0.363247887580296,36.8963320487131,5717.9918893406,0,0,0,0,2017-11-16 07:32:50,15,0,5717.9918893406,0,0,0,215.9, 3, -1.7,0,0,1024,1024,1024,1024,0,0,99,4.296,4.298,4.296,4.29,0,0,89.51,41,Motors_Started,
0.363247894348719,36.8963320500728,5717.9918893406,0,0,0.00251878616984,100,2017-11-16 07:32:50,15,0,5717.9918893406,0,0,0.00251878616984,215.9, 3, -1.7,0,0,1024,1024,1024,1024,220.5,0,99,4.296,4.298,4.296,4.29,0,0,89.51,41,Motors_Started,
0.363247893790367,36.8963320479926,5717.9918893406,0,0,0.0022809383932,200,2017-11-16 07:32:50,15,0,5717.9918893406,0,0,0.00251878616984,215.8, 3, -1.7,0,0,1024,1024,1024,1024,220.5,0,99,4.296,4.298,4.296,4.29,0,0,89.51,41,Motors_Started,
0.363247899618771,36.8963320486103,5717.9918893406,0,0,0.004392388592,300,2017-11-16 07:32:50,15,0,5717.9918893406,0,0,0.004392388592,215.9, 3, -1.7,0,0,1024,1024,1024,1024,220.5,0,99,4.296,4.298,4.296,4.29,0,0,89.51,41,Motors_Started,
0.36324789976411,36.8963320466158,5717.9918893406,0,0,0.0045106300656,400,2017-11-16 07:32:50,15,0,5717.9918893406,0,0,0.0045106300656,215.8, 3, -1.7,0,0,1024,1024,1024,1024,220.5,0,99,4.296,4.298,4.296,4.29,0,0,89.51,41,Motors_Started,
0.363247905771847,36.8963320480825,5717.9918893406,0,0,0.0066411747532,500,2017-11-16 07:32:50,15,0,5717.9918893406,0,0,0.0066411747532,215.8, 3, -1.7,0,0,1024,1024,1024,1024,220.5,0,99,4.296,4.298,4.296,4.29,0,0,89.51,41,Motors_Started,
0.363247906066799,36.8963320462111,5717.9918893406,0,0,0.006806266622,600,2017-11-16 07:32:50,15,0,5717.9918893406,0,0,0.006806266622,215.9, 3, -1.7,0,0,1024,1024,1024,1024,220.5,0,99,4.296,4.298,4.296,4.29,0,0,89.51,41,Motors_Started,
0.363247911107037,36.8963320471115,5717.9918893406,0,0,0.0086035763908,700,2017-11-16 07:32:50,15,17.179,5717.9918893406,0,0,0.0086035763908,215.8, 3, -1.7,0,0,1024,1024,1024,1024,220.5,0,99,4.296,4.298,4.296,4.29,0,0,89.51,41,Motors_Started,Setting new Return-To-Home altitude to 30m (98 ft). Setting new Maximum Flight Altitude to 120m (394 ft)
0.363247911425601,36.8963320448943,5717.9918893406,0,0,0.0088107942452,800,2017-11-16 07:32:50,15,17.179,5717.9918893406,0,0,0.0088107942452,215.8, 3, -1.7,0,0,1024,1024,1024,1024,220.5,0,99,4.296,4.298,4.296,4.29,0,0,89.51,41,Motors_Started,
0.363247940133237,36.8963320693062,5717.9918893406,0,0,0.0205933733624,900,2017-11-16 07:32:51,15,17.179,5717.9918893406,0,0,0.0205933733624,215.8, 3, -1.7,0,0,1024,1024,1024,1024,220.4,0,99,4.296,4.298,4.296,4.29,0,0,89.51,41,Motors_Started,
0.36324797068651,36.8963320963688,5717.9918893406,0,0,0.03495242894,1000,2017-11-16 07:32:51,15,17.179,5717.9918893406,0,0,0.03495242894,215.8, 3, -1.7,0,0,1024,1024,1024,1024,220.4,0,99,4.296,4.298,4.296,4.29,0,0,89.51,41,Motors_Started,
0.36324800636755,36.8963321266594,5717.9918893406,0,0,0.051836615832,1100,2017-11-16 07:32:51,15,17.179,5717.9918893406,0,0,0.051836615832,215.8, 3, -1.7,0,0,449,402,510,1588,220.4,0,99,4.296,4.298,4.296,4.29,0,0,89.51,41,Motors_Started,
0.363248025567719,36.8963321425974,5717.9918893406,0,0,0.060892062316,1200,2017-11-16 07:32:51,15,17.179,5717.9918893406,0,0,0.060892062316,215.8, 3, -1.7,0,0,747,607,640,1505,220.2,0,99,4.296,4.298,4.296,4.29,0,0,89.51,41,Motors_Started,
0.363248045061618,36.896332159635,5717.9918893406,0,0,0.070278217472,1300,2017-11-16 07:32:51,15,17.179,5717.9918893406,0,0,0.070278217472,215.8, 3, -1.7,0,0,1024,970,974,1126,220.2,0,99,4.296,4.298,4.296,4.29,0,0,89.51,41,Motors_Started,
0.363248054854266,36.8963321670671,5717.9918893406,0,0,0.074760829164,1400,2017-11-16 07:32:51,15,17.179,5717.9918893406,0,0,0.074760829164,215.8, 3, -1.7,0,0,1032,1024,1024,1024,219.4,0,99,4.296,4.298,4.296,4.29,0,0,89.51,41,Motors_Started,
0.363248063802973,36.8963321731107,5717.9918893406,0,0,0.078699805668,1500,2017-11-16 07:32:51,15,17.179,5717.9918893406,0,0,0.078699805668,215.8, 3.1, -1.7,0,0,1024,1024,1024,1024,218,0,99,4.296,4.298,4.296,4.29,0,0,89.51,10,Assisted_Takeoff,
0.363248066574178,36.8963321755709,5717.9918893406,0,0,0.080043637732,1600,2017-11-16 07:32:51,15,17.179,5717.9918893406,0,0,0.080043637732,215.8, 3, -1.7,0,0,1024,1024,1024,1024,217.4,0,99,4.296,4.298,4.296,4.29,0,0,89.51,10,Assisted_Takeoff,
0.363248068928908,36.8963321770173,5717.9918893406,0,0,0.081049543276,1700,2017-11-16 07:32:51,15,17.125,5717.9918893406,0,0,0.081049543276,215.8, 3, -1.7,0,0,1024,1024,1024,1024,217.1,0,99,4.296,4.298,4.296,4.29,0,0,89.51,10,Assisted_Takeoff,
0.363248068510601,36.8963321760763,5717.9918893406,0,0,0.080727036704,1800,2017-11-16 07:32:51,15,17.125,5717.9918893406,0,0,0.081049543276,215.8, 3, -1.7,0,0,1024,1024,1024,1024,216.9,0,99,4.296,4.298,4.296,4.29,0,0,89.51,10,Assisted_Takeoff,
0.36324806699167,36.8963321745978,5717.9918893406,0,0,0.079963585236,1900,2017-11-16 07:32:52,15,17.125,5717.9918893406,0,0,0.081049543276,215.8, 3, -1.7,0,0,1024,1024,1024,1024,216.7,0,99,4.296,4.298,4.296,4.29,0,0,89.51,10,Assisted_Takeoff,
0.363248064645286,36.896332171296,5717.9918893406,0,0,0.078572180992,2000,2017-11-16 07:32:52,15,17.125,5717.9918893406,0,0,0.081049543276,215.8, 3, -1.7,0,0,1024,1024,1024,1024,216.6,0,99,4.296,4.298,4.296,4.29,0,0,89.51,10,Assisted_Takeoff,
0.363248062382767,36.8963321684182,5717.9918893406,0,0,0.077296918484,2100,2017-11-16 07:32:52,15,17.125,5717.9918893406,0,0,0.081049543276,215.8, 3, -1.7,0,0,1024,1024,1024,1024,216.6,0,99,4.296,4.298,4.296,4.29,0,0,89.51,10,Assisted_Takeoff,
0.363248059022472,36.8963321644163,5717.9918893406,0,0,0.075462272756,2200,2017-11-16 07:32:52,15,17.125,5717.9918893406,0,0,0.081049543276,215.8, 3, -1.7,0,0,1024,1024,1024,1024,216.5,0,99,4.296,4.298,4.296,4.29,0,0,89.51,10,Assisted_Takeoff,
0.363248055906445,36.8963321866078,5717.9918893406,0,0,0.07938976632,2300,2017-11-16 07:32:52,15,17.125,5717.9918893406,0,0,0.081049543276,215.8, 3, -1.7,0,0,1024,1024,1024,1024,216.4,0,99,4.296,4.298,4.296,4.29,0,0,89.51,10,Assisted_Takeoff,
0.363248051675137,36.8963322111813,5717.9918893406,0,0,0.084249346528,2400,2017-11-16 07:32:52,15,17.125,5717.9918893406,0,0,0.084249346528,215.8, 3, -1.7,0,0,1024,1024,1024,1024,216.4,0,99,4.296,4.298,4.296,4.29,0,0,89.51,10,Assisted_Takeoff,
0.363248073968128,36.8963322375567,5717.9918893406,0,0,0.09680610546,2500,2017-11-16 07:32:52,15,17.125,5717.9918893406,0,0,0.09680610546,215.7, 3, -1.7,0,0,1024,1024,1057,1024,216.4,0,99,4.296,4.298,4.296,4.29,0,0,89.51,10,Assisted_Takeoff,
0.363248099967661,36.8963322516533,5717.9918893406,0,0,0.107175856448,2600,2017-11-16 07:32:52,15,17.125,5717.9918893406,0,0,0.107175856448,215.7, 3, -1.7,0,0,1024,1024,1106,1024,216.3,0,99,4.296,4.298,4.296,4.29,0,0,89.51,10,Assisted_Takeoff,
0.36324812897778,36.8963322663195,5717.9918893406,0,0,0.118575135028,2700,2017-11-16 07:32:52,15,17.015,5717.9918893406,0,0,0.118575135028,215.7, 3, -1.7,0,0,1024,1024,1180,1024,216.3,0,99,4.281,4.278,4.275,4.269,0,0,89.51,10,Assisted_Takeoff,
0.363248145434835,36.8963322731831,5717.9918893406,0,0,0.124730318952,2800,2017-11-16 07:32:52,15,17.015,5717.9918893406,0,0,0.124730318952,215.7, 3, -1.7,0,0,1024,1024,1193,1024,216.3,0,99,4.281,4.278,4.275,4.269,0,0,89.51,10,Assisted_Takeoff,
0.363248159795676,36.8963323026407,5717.9918893406,0,0,0.135818901984,2900,2017-11-16 07:32:53,15,17.015,5717.9918893406,0,0,0.135818901984,215.7, 3, -1.7,0,0,1024,1024,1201,1024,216.3,0,99,4.281,4.278,4.275,4.269,0,0,89.51,10,Assisted_Takeoff,
0.363248168574617,36.8963323347695,5717.9918893406,0,0,0.146296264524,3000,2017-11-16 07:32:53,15,17.015,5717.9918893406,0,0,0.146296264524,215.7, 3, -1.7,0,0,1024,1024,1250,1024,216.3,0,99,4.281,4.278,4.275,4.269,0,0,89.51,10,Assisted_Takeoff,
0.36324817535668,36.896332366939,5717.9918893406,0,0,0.156536422332,3100,2017-11-16 07:32:53,15,17.015,5717.9918893406,0,0,0.156536422332,215.7, 3, -1.7,0,0,1024,1024,1302,1024,216.3,0,99,4.281,4.278,4.275,4.269,0,0,89.51,10,Assisted_Takeoff,
0.363248179085409,36.8963323847409,5717.9918893406,0,0,0.162300858212,3200,2017-11-16 07:32:53,15,17.015,5717.9918893406,0,0,0.162300858212,215.7, 3.1, -1.6,0,0,1024,1024,1405,1024,216.2,0,99,4.281,4.278,4.275,4.269,0,0,89.51,10,Assisted_Takeoff,
0.36324820888797,36.8963324331525,5717.9918893406,0,0,0.182798890364,3300,2017-11-16 07:32:53,15,17.015,5717.9918893406,0,0,0.182798890364,215.8, 2.6, -1.1,0,0,1024,1024,1540,1024,216.2,0,99,4.281,4.278,4.275,4.269,0,0,89.51,10,Assisted_Takeoff,
0.363248253894905,36.8963325174924,5717.9918893406,0,0,0.217056765476,3400,2017-11-16 07:32:53,15,17.015,5717.9918893406,0,0,0.217056765476,216, 1.4, 0,0,0,1024,1024,1684,1024,216.2,0,99,4.281,4.278,4.275,4.269,0,0,89.51,10,Assisted_Takeoff,
0.363248306603566,36.8963326154044,5717.9918893406,0,0,0.257136491168,3500,2017-11-16 07:32:53,15,17.015,5717.9918893406,0,0,0.257136491168,216.1, 0.5, 0.5,0,0,1023,1024,1684,1024,216.2,0,99,4.281,4.278,4.275,4.269,0,0,89.51,6,GPS_Atti,Obstacle Avoided. Revise Flight Route
0.363248353129432,36.8963326940283,5717.9918893406,0,0,0.290313657584,3600,2017-11-16 07:32:53,15,17.015,5717.9918893406,0,0,0.290313657584,216.1, 0.2, 0.5,0,0,1024,1024,1684,1024,216.2,0,99,4.281,4.278,4.275,4.269,0,0,89.51,6,GPS_Atti,
0.363248377839849,36.8963327796658,5718.3199733406,0.328084,0,0.321114183504,3700,2017-11-16 07:32:53,15,17.152,5718.3199733406,0.328084,0,0.321114183504,216.2, 0.1, 0.2,0,0,1024,1024,1684,1024,216.2,0,99,4.279,4.281,4.28,4.277,0,0,89.51,6,GPS_Atti,Home Point Recorded. RTH Altitude:  30m.
0.363248385931994,36.8963328571175,5718.6480573406,0.656168,0,0.34647966988,3800,2017-11-16 07:32:53,15,17.152,5718.6480573406,0.656168,0,0.34647966988,216.2, 0, 0.2,0,0,1024,1024,1684,1024,216.2,0,99,4.279,4.281,4.28,4.277,0,0,89.51,6,GPS_Atti,
0.363248360125228,36.8963329101123,5718.9761413406,0.984252,0,0.35845801672,3900,2017-11-16 07:32:54,15,17.152,5718.9761413406,0.984252,0,0.35845801672,216.3, -0.1, 0.4,0,0,1024,1024,1684,1024,216.2,0,99,4.279,4.281,4.28,4.277,0,0,89.51,6,GPS_Atti,
0.363248316911617,36.8963329333508,5719.6323093406,1.64042,0,0.35875657316,4000,2017-11-16 07:32:54,15,17.152,5719.6323093406,1.64042,0,0.35875657316,216.3, 0, 0.7,0,0,1024,1024,1684,1024,216.2,0,99,4.279,4.281,4.28,4.277,0,0,89.51,6,GPS_Atti,
0.363248255553475,36.8963329242689,5720.6165613406,2.624672,0,0.3465059166,4100,2017-11-16 07:32:54,15,17.152,5720.6165613406,2.624672,0,0.35875657316,216.3, 0.2, 0.6,0,0,1024,1024,1684,1024,216.2,0,99,4.279,4.281,4.28,4.277,0,0,89.51,6,GPS_Atti,
0.363248194240116,36.8963328853921,5721.6008133406,3.608924,0,0.325114183632,4200,2017-11-16 07:32:54,15,17.152,5721.6008133406,3.608924,0,0.35875657316,216.3, 0.4, 0.4,0,0,1024,1024,1684,1024,216.2,0,99,4.279,4.281,4.28,4.277,0,0,89.51,6,GPS_Atti,
0.363248114248911,36.896332791466,5722.5850653406,4.593176,0,0.283325796468,4300,2017-11-16 07:32:54,15,17.152,5722.5850653406,4.593176,0,0.35875657316,216.3, 0.9, -0.1,0,0,1024,1024,1684,1024,216.2,0,99,4.279,4.281,4.28,4.277,0,0,89.51,6,GPS_Atti,
0.363248031340756,36.8963326886036,5723.8974013406,5.905512,0,0.239278550964,4400,2017-11-16 07:32:54,15,17.152,5723.8974013406,5.905512,0,0.35875657316,216.2, 1.1, -0.5,0,0,1024,1024,1684,1024,216.2,0,99,4.279,4.281,4.28,4.277,0,0,89.51,6,GPS_Atti,
0.363247940116138,36.8963325952385,5725.5378213406,7.545932,0,0.200314638956,4500,2017-11-16 07:32:54,15,17.152,5725.5378213406,7.545932,0,0.35875657316,216.2, 1.3, -0.3,0,0,1024,1024,1684,1024,216.2,0,99,4.279,4.281,4.28,4.277,0,0,89.51,6,GPS_Atti,
0.363247849107085,36.896332524249,5727.1782413406,9.186352,0,0.174062341528,4600,2017-11-16 07:32:54,15,17.152,5727.1782413406,9.186352,0,0.35875657316,216.2, 1.4, 0,0,0,1024,1024,1684,1024,216.2,0,99,4.279,4.281,4.28,4.277,0,0,89.51,6,GPS_Atti,
0.363247750352134,36.8963324599433,5728.8186613406,10.826772,0,0.15816765598,4700,2017-11-16 07:32:54,15,16.497,5728.8186613406,10.826772,0,0.35875657316,216.1, 1.5, 0,0,0,1023,1024,1684,1024,216.2,0,99,4.159,4.158,4.163,4.152,0,0,89.51,6,GPS_Atti,
0.363247659715995,36.8963324006961,5730.4590813406,12.467192,0,0.152979991772,4800,2017-11-16 07:32:54,15,16.497,5730.4590813406,12.467192,0,0.35875657316,216.1, 0.9, 0,0,0,1023,1024,1684,1024,216.2,0,99,4.159,4.158,4.163,4.152,0,0,89.51,6,GPS_Atti,
0.3632475538079,36.8963323403741,5732.0995013406,14.107612,0,0.161717852944,4900,2017-11-16 07:32:55,15,16.497,5732.0995013406,14.107612,0,0.35875657316,216.1, 0.4, 0,0,0,1023,1024,1684,1024,216.2,0,99,4.159,4.158,4.163,4.152,0,0,89.51,6,GPS_Atti,
0.363247416646912,36.8963322404527,5733.7399213406,15.748032,0,0.185514769716,5000,2017-11-16 07:32:55,15,16.497,5733.7399213406,15.748032,0,0.35875657316,216, 1, -0.2,0,0,1021,1024,1684,1024,216.2,0,99,4.159,4.158,4.163,4.152,0,0,89.51,6,GPS_Atti,
0.363247266043119,36.8963321125403,5735.3803413406,17.388452,0.223694,0.227959981048,5100,2017-11-16 07:32:55,15,16.497,5735.3803413406,17.388452,0.223694,0.35875657316,216, 2, -0.7,0,0,1024,1024,1684,1024,216.2,0,99,4.159,4.158,4.163,4.152,0,0,89.51,6,GPS_Atti,
0.363247109313119,36.8963319564604,5737.0207613406,19.028872,0.223694,0.285938001276,5200,2017-11-16 07:32:55,15,16.497,5737.0207613406,19.028872,0.223694,0.35875657316,216, 3.2, -0.9,0,0,1024,1024,1684,1024,216.2,0,99,4.159,4.158,4.163,4.152,0,0,89.51,6,GPS_Atti,
0.363246942404937,36.8963317710031,5738.6611813406,20.669292,0.223694,0.35942258368,5300,2017-11-16 07:32:55,15,16.497,5738.6611813406,20.669292,0.223694,0.35942258368,216, 3.4, -0.8,0,0,1024,1024,1684,1024,216.2,0,99,4.159,4.158,4.163,4.152,0,0,89.51,6,GPS_Atti,
0.363246775498181,36.8963315677835,5740.3016013406,22.309712,0.223694,0.44205710076,5400,2017-11-16 07:32:55,15,16.497,5740.3016013406,22.309712,0.223694,0.44205710076,216, 3, -1,0,0,1024,1024,1684,1024,216.2,0,99,4.159,4.158,4.163,4.152,0,0,89.51,6,GPS_Atti,
0.363246615304277,36.8963313664375,5741.6139373406,23.622048,0.223694,0.52671917696,5500,2017-11-16 07:32:55,15,16.497,5741.6139373406,23.622048,0.223694,0.52671917696,216, 3.4, -1.4,0,0,1024,1024,1684,1024,216.2,0,99,4.159,4.158,4.163,4.152,0,0,89.51,6,GPS_Atti,
0.363246454337677,36.8963311666138,5743.2543573406,25.262468,0.447388,0.61401576768,5600,2017-11-16 07:32:55,15,16.497,5743.2543573406,25.262468,0.447388,0.61401576768,215.9, 4, -2.1,0,0,1024,1024,1684,1024,216.2,0,99,4.159,4.158,4.163,4.152,0,0,89.51,6,GPS_Atti,
0.363246324469472,36.8963309676017,5744.8947773406,26.902888,0.447388,0.69341209568,5700,2017-11-16 07:32:55,15,16.606,5744.8947773406,26.902888,0.447388,0.69341209568,215.9, 4.5, -2.5,0,0,1024,1024,1684,1024,216.2,0,99,4.159,4.158,4.163,4.152,0,0,89.51,6,GPS_Atti,
0.363246203194769,36.8963307865928,5746.5351973406,28.543308,0.223694,0.76792325292,5800,2017-11-16 07:32:56,15,16.606,5746.5351973406,28.543308,0.447388,0.76792325292,215.9, 4.7, -2.4,0,0,1024,1024,1684,1024,216.2,0,99,4.159,4.158,4.163,4.152,0,0,89.51,6,GPS_Atti,
0.36324612501246,36.8963306513072,5747.8475333406,29.855644,0.223694,0.8206529134,5900,2017-11-16 07:32:56,15,16.606,5747.8475333406,29.855644,0.447388,0.8206529134,215.9, 4.5, -2.2,0,0,1024,1024,1684,1024,216.2,0,99,4.159,4.158,4.163,4.152,0,0,89.51,6,GPS_Atti,
0.363246049129209,36.8963305363888,5749.4879533406,31.496064,0.223694,0.8685367732,6000,2017-11-16 07:32:56,15,16.606,5749.4879533406,31.496064,0.447388,0.8685367732,216, 4.5, -2.2,0,0,1024,1024,1684,1024,216.2,0,99,4.159,4.158,4.163,4.152,0,0,89.51,6,GPS_Atti,
0.363245986353813,36.8963304422903,5751.1283733406,33.136484,0.223694,0.90811354612,6100,2017-11-16 07:32:56,15,16.606,5751.1283733406,33.136484,0.447388,0.90811354612,215.9, 4.4, -2.8,0,0,1024,1024,1684,1024,216.2,0,99,4.159,4.158,4.163,4.152,0,0,89.51,6,GPS_Atti,
0.363245817149932,36.8963303134305,5754.0811293406,36.08924,0,0.98561682944,6300,2017-11-16 07:32:56,15,16.606,5754.0811293406,36.08924,0.447388,0.98561682944,216, 4.5, -3.3,0,0,1024,1024,1684,1024,216.2,0,99,4.159,4.158,4.163,4.152,0,0,89.51,6,GPS_Atti,
0.363245709539605,36.8963303049973,5755.7215493406,37.72966,0,1.01794294596,6400,2017-11-16 07:32:56,15,16.606,5755.7215493406,37.72966,0.447388,1.01794294596,216, 4.6, -2.6,0,0,1024,1024,1684,1024,216.2,0,99,4.159,4.158,4.163,4.152,0,0,89.51,6,GPS_Atti,
0.363245600770131,36.8963303243024,5757.3619693406,39.37008,0,1.04496066336,6500,2017-11-16 07:32:56,15,16.606,5757.3619693406,39.37008,0.447388,1.04496066336,216, 4.3, -1.8,0,0,1024,1024,1684,1024,216.2,0,99,4.159,4.158,4.163,4.152,0,0,89.51,6,GPS_Atti,
0.363245484952191,36.8963303457488,5758.6743053406,40.682416,0,1.07445541496,6600,2017-11-16 07:32:56,15,16.606,5758.6743053406,40.682416,0.447388,1.07445541496,216, 4.1, -1.5,0,0,1024,1024,1684,1024,216.2,0,99,4.159,4.158,4.163,4.152,0,0,89.51,6,GPS_Atti,
0.363245353950487,36.8963303825657,5760.3147253406,42.322836,0,1.10635502228,6700,2017-11-16 07:32:56,15,16.606,5760.3147253406,42.322836,0.447388,1.10635502228,216, 4.1, -1.9,0,0,1023,1024,1684,1024,216.2,0,99,4.173,4.174,4.179,4.171,0,0,89.51,6,GPS_Atti,
0.363245200724034,36.8963304281701,5761.9551453406,43.963256,0,1.14479334372,6800,2017-11-16 07:32:56,15,16.606,5761.9551453406,43.963256,0.447388,1.14479334372,216, 4.8, -2,0,0,1023,1024,1684,1024,216.2,0,99,4.173,4.174,4.179,4.171,0,0,89.51,6,GPS_Atti,
0.363244864205789,36.8963306012641,5765.2359853406,47.244096,0,1.22296919924,7000,2017-11-16 07:32:57,15,16.606,5765.2359853406,47.244096,0.447388,1.22296919924,216, 5.1, -0.5,0,0,1023,1024,1684,1024,216.2,0,99,4.173,4.174,4.179,4.171,0,0,89.51,6,GPS_Atti,
0.363244721279499,36.8963306894271,5766.8764053406,48.884516,0,1.25717195624,7100,2017-11-16 07:32:57,15,16.606,5766.8764053406,48.884516,0.447388,1.25717195624,216.1, 5, -0.7,0,0,1023,1024,1684,1024,216.2,0,99,4.173,4.174,4.179,4.171,0,0,89.51,6,GPS_Atti,
0.363244599860011,36.8963307561717,5768.5168253406,50.524936,0,1.28889111736,7200,2017-11-16 07:32:57,15,16.606,5768.5168253406,50.524936,0.447388,1.28889111736,216.1, 5.1, -1.5,0,0,1024,1024,1684,1024,216.2,0,99,4.173,4.174,4.179,4.171,0,0,89.51,6,GPS_Atti,
0.363244477612739,36.896330828796,5770.1572453406,52.165356,0,1.32133862496,7300,2017-11-16 07:32:57,15,16.606,5770.1572453406,52.165356,0.447388,1.32133862496,216.1, 4.2, -1.5,0,0,1024,1024,1684,1024,216.2,0,99,4.173,4.174,4.179,4.171,0,0,89.51,6,GPS_Atti,
0.363244342024294,36.8963309112495,5771.7976653406,53.805776,0,1.3585302272,7400,2017-11-16 07:32:57,15,16.606,5771.7976653406,53.805776,0.447388,1.3585302272,216, 4.3, -1.2,0,0,1024,1024,1684,1024,216.2,0,99,4.173,4.174,4.179,4.171,0,0,89.51,6,GPS_Atti,
0.363244176822212,36.8963310201908,5773.4380853406,55.446196,0,1.40490818144,7500,2017-11-16 07:32:57,15,16.606,5773.4380853406,55.446196,0.447388,1.40490818144,216, 4.7, -0.9,0,0,1023,1024,1684,1024,216.2,0,99,4.173,4.174,4.179,4.171,0,0,89.51,6,GPS_Atti,
0.36324401189315,36.8963311457264,5775.0785053406,57.086616,0,1.45191277612,7600,2017-11-16 07:32:57,15,16.606,5775.0785053406,57.086616,0.447388,1.45191277612,216, 5, -0.5,0,0,1024,1024,1684,1024,216.2,0,99,4.173,4.174,4.179,4.171,0,0,89.51,6,GPS_Atti,
0.363243847186319,36.8963312861894,5776.7189253406,58.727036,0.223694,1.50015752832,7700,2017-11-16 07:32:57,15,16.578,5776.7189253406,58.727036,0.447388,1.50015752832,216.1, 5, -0.2,0,0,1024,1024,1684,1024,216.2,0,99,4.166,4.168,4.175,4.166,0,0,89.51,6,GPS_Atti,
0.363243704058203,36.8963314247896,5778.3593453406,60.367456,0.223694,1.54323495752,7800,2017-11-16 07:32:57,15,16.578,5778.3593453406,60.367456,0.447388,1.54323495752,216, 4.5, -0.7,0,0,1024,1024,1684,1005,216.2,0,99,4.166,4.168,4.175,4.166,0,0,89.51,6,GPS_Atti,
0.363243580283229,36.8963315666016,5780.3278493406,62.33596,0.223694,1.58132879076,7900,2017-11-16 07:32:58,15,16.578,5780.3278493406,62.33596,0.447388,1.58132879076,216, 4.3, -0.1,0,0,1024,1024,1684,982,216.2,0,99,4.166,4.168,4.175,4.166,0,0,89.51,6,GPS_Atti,
0.36324346404856,36.8963317143265,5781.9682693406,63.97638,0.223694,1.61852695468,8000,2017-11-16 07:32:58,15,16.578,5781.9682693406,63.97638,0.447388,1.61852695468,216.1, 4.2, 1.2,0,0,1024,1024,1684,966,216.1,0,99,4.166,4.168,4.175,4.166,0,0,89.51,6,GPS_Atti,
0.363243357003201,36.8963318705842,5783.6086893406,65.6168,0.223694,1.65425530228,8100,2017-11-16 07:32:58,15,16.578,5783.6086893406,65.6168,0.447388,1.65425530228,215.9, 4.3, 1.4,0,0,1024,1024,1684,986,216,0,99,4.166,4.168,4.175,4.166,0,0,89.51,6,GPS_Atti,
0.363243265627544,36.8963320085249,5785.5771933406,67.585304,0,1.68638128756,8200,2017-11-16 07:32:58,15,16.578,5785.5771933406,67.585304,0.447388,1.68638128756,215.4, 4.5, 1.2,0,0,1024,1024,1684,974,215.9,0,99,4.166,4.168,4.175,4.166,0,0,89.51,6,GPS_Atti,
0.363243161168969,36.8963321657107,5789.1861173406,71.194228,0,1.72495740428,8400,2017-11-16 07:32:58,15,16.578,5789.1861173406,71.194228,0.447388,1.72495740428,214.8, 4.5, 0,0,0,1024,1024,1684,970,215.8,0,99,4.166,4.168,4.175,4.166,0,0,89.51,6,GPS_Atti,
0.363243136995837,36.8963322524541,5790.8265373406,72.834648,0,1.7348425752,8500,2017-11-16 07:32:58,15,16.578,5790.8265373406,72.834648,0.447388,1.7348425752,214.5, 4.2, 0,0,0,1024,1024,1684,980,215.7,0,99,4.166,4.168,4.175,4.166,0,0,89.51,6,GPS_Atti,
0.363243113609956,36.8963323472977,5792.7950413406,74.803152,0,1.74518378288,8600,2017-11-16 07:32:58,15,16.578,5792.7950413406,74.803152,0.447388,1.74518378288,214, 4.2, 0.1,0,0,1024,1024,1684,984,215.5,0,99,4.166,4.168,4.175,4.166,0,0,89.51,6,GPS_Atti,
0.363243090218173,36.8963324523345,5794.4354613406,76.443572,0,1.75649940004,8700,2017-11-16 07:32:58,15,16.578,5794.4354613406,76.443572,0.447388,1.75649940004,213.6, 4.3, 0.7,0,0,1024,1024,1684,982,215.4,0,99,4.166,4.168,4.175,4.166,0,0,89.51,6,GPS_Atti,
0.363243068323743,36.8963325358211,5796.4039653406,78.412076,0,1.76726055524,8800,2017-11-16 07:32:59,15,16.578,5796.4039653406,78.412076,0.447388,1.76726055524,213.2, 4.3, 1.5,0,0,1023,1024,1684,985,215.3,0,99,4.166,4.168,4.175,4.166,0,0,89.51,6,GPS_Atti,
0.363243072702324,36.8963326091403,5798.0443853406,80.052496,0,1.76856304872,8900,2017-11-16 07:32:59,15,16.578,5798.0443853406,80.052496,0.447388,1.76856304872,213, 4.3, 0.5,0,0,1023,1024,1684,994,215.1,0,99,4.166,4.168,4.175,4.166,0,0,89.51,6,GPS_Atti,
0.363243094917862,36.8963326407627,5800.0128893406,82.021,0,1.76188982016,9000,2017-11-16 07:32:59,15,16.578,5800.0128893406,82.021,0.447388,1.76856304872,212.7, 4.2, -0.5,0,0,1023,1024,1684,1001,215,0,99,4.166,4.168,4.175,4.166,0,0,89.51,6,GPS_Atti,
0.363243154277292,36.8963326582927,5801.9813933406,83.989504,0,1.74120412396,9100,2017-11-16 07:32:59,15,16.578,5801.9813933406,83.989504,0.447388,1.76856304872,212.5, 4.3, -1.2,0,0,1023,1024,1684,996,214.9,0,99,4.166,4.168,4.175,4.166,0,0,89.51,6,GPS_Atti,
0.363243223052487,36.8963326398023,5803.6218133406,85.629924,0,1.71545937248,9200,2017-11-16 07:32:59,15,16.578,5803.6218133406,85.629924,0.447388,1.76856304872,212.4, 4.5, -2.1,0,0,1024,1024,1684,1008,214.8,0,99,4.166,4.168,4.175,4.166,0,0,89.51,6,GPS_Atti,
0.363243300714609,36.8963326370091,5805.5903173406,87.598428,0,1.68722446344,9300,2017-11-16 07:32:59,15,16.578,5805.5903173406,87.598428,0.447388,1.76856304872,212.4, 4.7, -2.1,0,0,1024,1024,1684,1024,214.7,0,99,4.166,4.168,4.175,4.166,0,0,89.51,6,GPS_Atti,
0.363243357270877,36.8963326391321,5807.2307373406,89.238848,0,1.66685700872,9400,2017-11-16 07:32:59,15,16.578,5807.2307373406,89.238848,0.447388,1.76856304872,212.3, 4.6, -1.5,0,0,1024,1024,1684,1024,214.6,0,99,4.166,4.168,4.175,4.166,0,0,89.51,6,GPS_Atti,
0.363243446199796,36.8963326836424,5809.1992413406,91.207352,0,1.6369095012,9500,2017-11-16 07:32:59,15,16.578,5809.1992413406,91.207352,0.447388,1.76856304872,212.3, 4.3, -1.3,0,0,1024,1024,1684,1024,214.6,0,99,4.166,4.168,4.175,4.166,0,0,89.51,6,GPS_Atti,
0.363243529685336,36.8963327230599,5811.1677453406,93.175856,0,1.60889768928,9600,2017-11-16 07:32:59,15,16.606,5811.1677453406,93.175856,0.447388,1.76856304872,212.3, 4.2, -1.2,0,0,1024,1024,1684,1024,214.5,0,99,4.168,4.167,4.174,4.167,0,0,89.51,6,GPS_Atti,
0.363243682252728,36.8963327785888,5815.1047533406,97.112864,0,1.55724742516,9800,2017-11-16 07:32:59,15,16.606,5815.1047533406,97.112864,0.447388,1.76856304872,212.3, 4.8, -1.2,0,0,1024,1024,1684,1024,214.4,0,99,4.168,4.167,4.174,4.167,0,0,89.51,6,GPS_Atti,
0.363243799205845,36.8963328276224,5816.7451733406,98.753284,0,1.5184711772,9900,2017-11-16 07:33:00,15,16.606,5816.7451733406,98.753284,0.447388,1.76856304872,212.3, 4.4, -1.4,0,0,1024,1024,1684,1024,214.4,0,99,4.168,4.167,4.174,4.167,0,0,89.51,6,GPS_Atti,
0.363243915170345,36.8963328673846,5818.7136773406,100.721788,0,1.4797900736,10000,2017-11-16 07:33:00,15,16.606,5818.7136773406,100.721788,0.447388,1.76856304872,212.3, 4, -1.7,0,0,1024,1024,1684,1024,214.3,0,99,4.168,4.167,4.174,4.167,0,0,89.51,6,GPS_Atti,
0.36324404521773,36.8963329126582,5820.3540973406,102.362208,0,1.43688324808,10100,2017-11-16 07:33:00,15,16.606,5820.3540973406,102.362208,0.447388,1.76856304872,212.3, 3.7, -1.6,0,0,1024,1024,1684,1024,214.2,0,99,4.168,4.167,4.174,4.167,0,0,89.51,6,GPS_Atti,
0.363244152969681,36.8963329402112,5822.3226013406,104.330712,0,1.4008530632,10200,2017-11-16 07:33:00,15,16.606,5822.3226013406,104.330712,0.447388,1.76856304872,212.3, 3.6, -1.4,0,0,1024,1024,1684,1024,214.1,0,99,4.168,4.167,4.174,4.167,0,0,89.51,6,GPS_Atti,
0.363244336013045,36.8963329611115,5825.9315253406,107.939636,0,1.3378609352,10400,2017-11-16 07:33:00,15,16.606,5825.9315253406,107.939636,0.447388,1.76856304872,212.3, 4.6, -1.8,0,0,1024,1024,1684,1024,214.1,0,99,4.168,4.167,4.174,4.167,0,0,89.51,6,GPS_Atti,
0.36324445833728,36.8963330032301,5827.9000293406,109.90814,0,1.298720514,10500,2017-11-16 07:33:00,15,16.606,5827.9000293406,109.90814,0.447388,1.76856304872,212.3, 3.9, -1.3,0,0,1024,1024,1684,1024,214,0,99,4.168,4.167,4.174,4.167,0,0,89.51,6,GPS_Atti,
0.363244571913438,36.896333038379,5829.5404493406,111.54856,0,1.26245410864,10600,2017-11-16 07:33:00,15,16.606,5829.5404493406,111.54856,0.447388,1.76856304872,212.3, 3.4, -1,0,0,1024,1024,1684,1024,214,0,99,4.168,4.167,4.174,4.167,0,0,89.51,6,GPS_Atti,
0.363244691914368,36.8963330474642,5831.5089533406,113.517064,0,1.22155187636,10700,2017-11-16 07:33:00,15,16.606,5831.5089533406,113.517064,0.447388,1.76856304872,212.3, 3.3, -1.8,0,0,1024,1024,1684,1024,213.9,0,99,4.168,4.167,4.174,4.167,0,0,89.51,6,GPS_Atti,
0.363244772466901,36.8963330285166,5833.4774573406,115.485568,0,1.19144032684,10800,2017-11-16 07:33:00,15,16.606,5833.4774573406,115.485568,0.447388,1.76856304872,212.3, 3.8, -2,0,0,1024,1024,1684,1024,213.9,0,99,4.168,4.167,4.174,4.167,0,0,89.51,6,GPS_Atti,
0.363244848137653,36.8963330267394,5835.1178773406,117.125988,0,1.16493442048,10900,2017-11-16 07:33:01,15,16.606,5835.1178773406,117.125988,0.447388,1.76856304872,212.3, 4.4, -2.1,0,0,1024,1024,1684,1024,213.9,0,99,4.168,4.167,4.174,4.167,0,0,89.51,6,GPS_Atti,
0.363244900570852,36.8963330274814,5837.0863813406,119.094492,0,1.14682090284,11000,2017-11-16 07:33:01,15,16.606,5837.0863813406,119.094492,0.447388,1.76856304872,212.4, 4.4, -2,0,0,1024,1024,1684,1024,213.9,0,99,4.168,4.167,4.174,4.167,0,0,89.51,6,GPS_Atti,
0.363244977690283,36.8963330212858,5838.7268013406,120.734912,0,1.11939964212,11100,2017-11-16 07:33:01,15,16.606,5838.7268013406,120.734912,0.447388,1.76856304872,212.3, 4.6, -2,0,0,1024,1024,1684,1024,213.8,0,99,4.168,4.167,4.174,4.167,0,0,89.51,6,GPS_Atti,
0.363245035260842,36.8963329988866,5840.6953053406,122.703416,0,1.09688651804,11200,2017-11-16 07:33:01,15,16.606,5840.6953053406,122.703416,0.447388,1.76856304872,212.3, 4.4, -2,0,0,1024,1024,1684,1024,213.8,0,99,4.168,4.167,4.174,4.167,0,0,89.51,6,GPS_Atti,
0.363245098210278,36.8963329895885,5842.3357253406,124.343836,0,1.0740321866,11300,2017-11-16 07:33:01,15,16.606,5842.3357253406,124.343836,0.447388,1.76856304872,212.3, 4.3, -2.2,0,0,1023,1024,1684,1024,213.8,0,99,4.168,4.167,4.174,4.167,0,0,89.51,6,GPS_Atti,
0.363245125346822,36.8963329805729,5844.3042293406,126.31234,0,1.06360239624,11400,2017-11-16 07:33:01,15,16.606,5844.3042293406,126.31234,0.447388,1.76856304872,212.3, 4.7, -1.8,0,0,1023,1024,1684,1024,213.7,0,99,4.168,4.167,4.174,4.167,0,0,89.51,6,GPS_Atti,
0.363245183778191,36.8963330043949,5845.9446493406,127.95276,0,1.04628612272,11500,2017-11-16 07:33:01,15,16.606,5845.9446493406,127.95276,0.447388,1.76856304872,212.3, 5.1, -1.5,0,0,1023,1024,1684,1024,213.7,0,99,4.168,4.167,4.174,4.167,0,0,89.51,6,GPS_Atti,
0.363245240399291,36.8963330208779,5847.9131533406,129.921264,0,1.02889110904,11600,2017-11-16 07:33:01,15,16.606,5847.9131533406,129.921264,0.447388,1.76856304872,212.3, 5.2, -1.8,0,0,1024,1024,1684,1024,213.7,0,99,4.168,4.167,4.174,4.167,0,0,89.51,6,GPS_Atti,
0.363245327517788,36.8963330373159,5849.5535733406,131.561684,0,1.00125987456,11700,2017-11-16 07:33:01,15,16.606,5849.5535733406,131.561684,0.447388,1.76856304872,212.3, 5, -2.2,0,0,1024,1024,1684,1024,213.7,0,99,4.166,4.164,4.171,4.164,0,0,89.51,6,GPS_Atti,
0.363245391196818,36.8963330342079,5851.5220773406,133.530188,0,0.97920278724,11800,2017-11-16 07:33:02,15,16.606,5851.5220773406,133.530188,0.447388,1.76856304872,212.3, 5, -2.4,0,0,1024,1024,1684,1024,213.7,0,99,4.166,4.164,4.171,4.164,0,0,89.51,6,GPS_Atti,
0.363245494066796,36.8963330437256,5853.1624973406,135.170608,0,0.94572181504,11900,2017-11-16 07:33:02,15,16.606,5853.1624973406,135.170608,0.447388,1.76856304872,212.3, 5, -2.7,0,0,1024,1024,1684,1024,213.6,0,99,4.166,4.164,4.171,4.164,0,0,89.51,6,GPS_Atti,
0.363245575757027,36.8963330483517,5855.1310013406,137.139112,0,0.91894031812,12000,2017-11-16 07:33:02,15,16.606,5855.1310013406,137.139112,0.447388,1.76856304872,212.2, 4.9, -2.9,0,0,1024,1024,1684,1024,213.6,0,99,4.166,4.164,4.171,4.164,0,0,89.51,6,GPS_Atti,
0.363245660873759,36.8963330827448,5856.7714213406,138.779532,0,0.89573165596,12100,2017-11-16 07:33:02,15,16.606,5856.7714213406,138.779532,0.447388,1.76856304872,212.3, 5, -2.5,0,0,1024,1024,1684,1024,213.6,0,99,4.166,4.164,4.171,4.164,0,0,89.51,6,GPS_Atti,
0.363245707907802,36.8963331220755,5858.4118413406,140.419952,0,0.88644359792,12200,2017-11-16 07:33:02,15,16.606,5858.4118413406,140.419952,0.447388,1.76856304872,212.3, 5, -1.8,0,0,1024,1024,1684,1024,213.6,0,99,4.166,4.164,4.171,4.164,0,0,89.51,6,GPS_Atti,
0.363245770001898,36.8963331701145,5860.0522613406,142.060372,0,0.87424215396,12300,2017-11-16 07:33:02,15,16.606,5860.0522613406,142.060372,0.447388,1.76856304872,212.3, 4.8, -1.5,0,0,1023,1024,1684,1024,213.6,0,99,4.166,4.164,4.171,4.164,0,0,89.51,6,GPS_Atti,
0.363245816416216,36.8963331947726,5861.6926813406,143.700792,0,0.8636319174,12400,2017-11-16 07:33:02,15,16.606,5861.6926813406,143.700792,0.447388,1.76856304872,212.3, 4.8, -2.1,0,0,1024,1024,1684,1024,213.6,0,99,4.166,4.164,4.171,4.164,0,0,89.51,6,GPS_Atti,
0.363245877742603,36.8963332269935,5863.6611853406,145.669296,0,0.85000658888,12500,2017-11-16 07:33:02,15,16.606,5863.6611853406,145.669296,0.447388,1.76856304872,212.3, 4.9, -2.4,0,0,1024,1024,1684,1024,213.5,0,99,4.166,4.164,4.171,4.164,0,0,89.51,6,GPS_Atti,
0.363245913651625,36.8963332621949,5865.3016053406,147.309716,0,0.84538716616,12600,2017-11-16 07:33:02,15,16.606,5865.3016053406,147.309716,0.447388,1.76856304872,212.3, 4.7, -2.1,0,0,1024,1024,1684,1024,213.5,0,99,4.166,4.164,4.171,4.164,0,0,89.51,6,GPS_Atti,
0.363245956785646,36.8963333190578,5866.9420253406,148.950136,0,0.8432414968,12700,2017-11-16 07:33:02,15,16.524,5866.9420253406,148.950136,0.447388,1.76856304872,212.3, 4.6, -1.7,0,0,1024,1024,1684,1024,213.5,0,99,4.158,4.157,4.164,4.158,0,0,89.51,6,GPS_Atti,
0.363245967579176,36.8963333540397,5868.5824453406,150.590556,0,0.8470636754,12800,2017-11-16 07:33:02,15,16.524,5868.5824453406,150.590556,0.447388,1.76856304872,212.3, 5.1, -1.7,0,0,1024,1024,1684,1024,213.5,0,99,4.158,4.157,4.164,4.158,0,0,89.51,6,GPS_Atti,
0.363245994830271,36.8963333656268,5870.5509493406,152.55906,0,0.84126971196,12900,2017-11-16 07:33:03,15,16.524,5870.5509493406,152.55906,0.447388,1.76856304872,212.3, 5.6, -1.8,0,0,1024,1024,1684,1024,213.5,0,99,4.158,4.157,4.164,4.158,0,0,89.51,6,GPS_Atti,
0.363246012623668,36.8963333526383,5872.1913693406,154.19948,0,0.83323165396,13000,2017-11-16 07:33:03,15,16.524,5872.1913693406,154.19948,0.447388,1.76856304872,212.3, 5.8, -2,0,0,1024,1024,1684,1024,213.4,0,99,4.158,4.157,4.164,4.158,0,0,89.51,6,GPS_Atti,
0.363246045958832,36.8963333590565,5874.1598733406,156.167984,0,0.82463257232,13100,2017-11-16 07:33:03,15,16.524,5874.1598733406,156.167984,0.447388,1.76856304872,212.3, 5.9, -2.2,0,0,1024,1024,1684,1024,213.4,0,99,4.158,4.157,4.164,4.158,0,0,89.51,6,GPS_Atti,
0.363246065858622,36.8963333624943,5875.8002933406,157.808404,0,0.81946196848,13200,2017-11-16 07:33:03,15,16.524,5875.8002933406,157.808404,0.447388,1.76856304872,212.3, 5.7, -2.5,0,0,1024,1024,1684,1024,213.4,0,99,4.158,4.157,4.164,4.158,0,0,89.51,6,GPS_Atti,
0.363246090881699,36.8963333717282,5877.4407133406,159.448824,0,0.81406498668,13300,2017-11-16 07:33:03,15,16.524,5877.4407133406,159.448824,0.447388,1.76856304872,212.3, 5.7, -2.6,0,0,1024,1024,1684,1024,213.4,0,99,4.158,4.157,4.164,4.158,0,0,89.51,6,GPS_Atti,
0.36324609972761,36.8963333761658,5879.4092173406,161.417328,0,0.8124344092,13400,2017-11-16 07:33:03,15,16.524,5879.4092173406,161.417328,0.447388,1.76856304872,212.3, 5.5, -2.2,0,0,1024,1024,1684,1024,213.4,0,99,4.158,4.157,4.164,4.158,0,0,89.51,6,GPS_Atti,
0.363246131786584,36.8963333888846,5881.0496373406,163.057748,0,0.80587929088,13500,2017-11-16 07:33:03,15,16.524,5881.0496373406,163.057748,0.447388,1.76856304872,212.3, 5.5, -2.1,0,0,1024,1024,1684,1024,213.4,0,99,4.158,4.157,4.164,4.158,0,0,89.51,6,GPS_Atti,
0.363246158072113,36.8963333839523,5882.6900573406,164.698168,0,0.79717522236,13600,2017-11-16 07:33:03,15,16.524,5882.6900573406,164.698168,0.447388,1.76856304872,212.3, 5.5, -2.1,0,0,1024,1024,1684,1024,213.4,0,99,4.158,4.157,4.164,4.158,0,0,89.51,6,GPS_Atti,
0.363246189655886,36.8963334036504,5884.6585613406,166.666672,0,0.79254923796,13700,2017-11-16 07:33:03,15,16.578,5884.6585613406,166.666672,0.447388,1.76856304872,212.3, 5.8, -2.4,0,0,1024,1024,1684,1024,213.4,0,99,4.158,4.157,4.164,4.158,0,0,89.51,6,GPS_Atti,
0.363246206619896,36.8963334236396,5886.2989813406,168.307092,0,0.79231629832,13800,2017-11-16 07:33:03,15,16.578,5886.2989813406,168.307092,0.447388,1.76856304872,212.3, 5.8, -2.7,0,0,1024,1024,1684,1024,213.3,0,99,4.158,4.157,4.164,4.158,0,0,89.51,6,GPS_Atti,
0.363246247607322,36.8963334691487,5887.9394013406,169.947512,0,0.7915682668,13900,2017-11-16 07:33:04,15,16.578,5887.9394013406,169.947512,0.447388,1.76856304872,212.3, 5.4, -2.5,0,0,1024,1024,1684,1024,213.3,0,99,4.158,4.157,4.164,4.158,0,0,89.51,6,GPS_Atti,
0.363246278837519,36.8963335066337,5889.5798213406,171.587932,0,0.7921096054,14000,2017-11-16 07:33:04,15,16.578,5889.5798213406,171.587932,0.447388,1.76856304872,212.3, 5, -2.1,0,0,1024,1024,1684,1024,213.3,0,99,4.158,4.157,4.164,4.158,0,0,89.51,6,GPS_Atti,
0.363246302109409,36.8963335680317,5891.2202413406,173.228352,0,0.80117128548,14100,2017-11-16 07:33:04,15,16.578,5891.2202413406,173.228352,0.447388,1.76856304872,212.3, 5.1, -2,0,0,1024,1024,1684,1024,213.3,0,99,4.158,4.157,4.164,4.158,0,0,89.51,6,GPS_Atti,
0.363246297436793,36.8963336174711,5892.8606613406,174.868772,0,0.81496721768,14200,2017-11-16 07:33:04,15,16.578,5892.8606613406,174.868772,0.447388,1.76856304872,212.3, 5.4, -1.9,0,0,1024,1024,1684,1024,213.3,0,99,4.158,4.157,4.164,4.158,0,0,89.51,6,GPS_Atti,
0.363246292151169,36.8963336831771,5894.8291653406,176.837276,0,0.83332351748,14300,2017-11-16 07:33:04,15,16.578,5894.8291653406,176.837276,0.447388,1.76856304872,212.3, 5.7, -1.7,0,0,1023,1024,1684,1024,213.3,0,99,4.158,4.157,4.164,4.158,0,0,89.51,6,GPS_Atti,
0.363246280060074,36.8963337291863,5896.4695853406,178.477696,0,0.84846131324,14400,2017-11-16 07:33:04,15,16.578,5896.4695853406,178.477696,0.447388,1.76856304872,212.3, 5.5, -1.6,0,0,1024,1024,1684,1024,213.3,0,99,4.158,4.157,4.164,4.158,0,0,89.51,6,GPS_Atti,
0.363246279849292,36.8963337844294,5898.1100053406,180.118116,0,0.863189004,14500,2017-11-16 07:33:04,15,16.578,5898.1100053406,180.118116,0.447388,1.76856304872,212.3, 5.7, -1.9,0,0,1024,1024,1684,1024,213.3,0,99,4.158,4.157,4.164,4.158,0,0,89.51,6,GPS_Atti,
0.363246274104345,36.896333823547,5899.7504253406,181.758536,0,0.87512141908,14600,2017-11-16 07:33:04,15,16.578,5899.7504253406,181.758536,0.447388,1.76856304872,212.3, 5.9, -1.8,0,0,1023,1024,1684,1024,213.3,0,99,4.158,4.157,4.164,4.158,0,0,89.51,6,GPS_Atti,
0.363246281082533,36.8963338624131,5901.3908453406,183.398956,0,0.88397640624,14700,2017-11-16 07:33:04,15,16.497,5901.3908453406,183.398956,0.447388,1.76856304872,212.3, 5.6, -1.6,0,0,1024,1024,1684,1024,213.2,0,99,4.157,4.156,4.159,4.149,0,0,89.51,6,GPS_Atti,
0.363246286041756,36.8963338814291,5903.0312653406,185.039376,0,0.88798887356,14800,2017-11-16 07:33:05,15,16.497,5903.0312653406,185.039376,0.447388,1.76856304872,212.3, 5.5, -1.7,0,0,1023,1024,1684,1024,213.2,0,99,4.157,4.156,4.159,4.149,0,0,89.51,6,GPS_Atti,
0.363246296376167,36.8963339117689,5904.9997693406,187.00788,0,0.89390094724,14900,2017-11-16 07:33:05,15,16.497,5904.9997693406,187.00788,0.447388,1.76856304872,212.3, 5.5, -1.7,0,0,1022,1024,1684,1024,213.2,0,99,4.157,4.156,4.159,4.149,0,0,89.51,6,GPS_Atti,
0.363246297113038,36.8963339426676,5906.6401893406,188.6483,0,0.9023294252,15000,2017-11-16 07:33:05,15,16.497,5906.6401893406,188.6483,0.447388,1.76856304872,212.3, 5.5, -1.6,0,0,1022,1024,1684,1024,213.2,0,99,4.157,4.156,4.159,4.149,0,0,89.51,6,GPS_Atti,
0.363246325864336,36.8963339943841,5908.2806093406,190.28872,0,0.91025593464,15100,2017-11-16 07:33:05,15,16.497,5908.2806093406,190.28872,0.447388,1.76856304872,212.3, 5.4, -1.3,0,0,1022,1024,1684,1024,213.2,0,99,4.157,4.156,4.159,4.149,0,0,89.51,6,GPS_Atti,
0.363246353289368,36.8963340357083,5909.9210293406,191.92914,0,0.9159121028,15200,2017-11-16 07:33:05,15,16.497,5909.9210293406,191.92914,0.447388,1.76856304872,212.3, 5.4, -1.5,0,0,1022,1024,1684,1024,213.2,0,99,4.157,4.156,4.159,4.149,0,0,89.51,6,GPS_Atti,
0.363246382184071,36.8963340905424,5911.5614493406,193.56956,0,0.92553152568,15300,2017-11-16 07:33:05,15,16.497,5911.5614493406,193.56956,0.447388,1.76856304872,212.3, 5.3, -1.3,0,0,1023,1024,1684,1024,213.2,0,99,4.157,4.156,4.159,4.149,0,0,89.51,6,GPS_Atti,
0.363246386459042,36.8963341321342,5913.2018693406,195.20998,0,0.9368766704,15400,2017-11-16 07:33:05,15,16.497,5913.2018693406,195.20998,0.447388,1.76856304872,212.3, 5.3, -0.8,0,0,1022,1024,1684,1024,213.2,0,99,4.157,4.156,4.159,4.149,0,0,89.51,6,GPS_Atti,
0.363246391054206,36.8963341670701,5914.8422893406,196.8504,0,0.94627955784,15500,2017-11-16 07:33:05,15,16.497,5914.8422893406,196.8504,0.447388,1.76856304872,212.3, 5.7, -1.5,0,0,1022,1024,1684,1024,213.2,0,99,4.157,4.156,4.159,4.149,0,0,89.51,6,GPS_Atti,
0.363246386548912,36.8963341778254,5916.4827093406,198.49082,0,0.95043310128,15600,2017-11-16 07:33:05,15,16.497,5916.4827093406,198.49082,0.447388,1.76856304872,212.3, 6.1, -1.9,0,0,1023,1024,1684,1024,213.2,0,99,4.157,4.156,4.159,4.149,0,0,89.51,6,GPS_Atti,
0.363246390756099,36.8963341966948,5918.1231293406,200.13124,0,0.95519031928,15700,2017-11-16 07:33:05,15,16.524,5918.1231293406,200.13124,0.447388,1.76856304872,212.3, 6.2, -1.9,0,0,1022,1024,1684,1024,213.2,0,99,4.152,4.154,4.159,4.15,0,0,89.51,6,GPS_Atti,
0.363246391271196,36.896334205023,5919.7635493406,201.77166,0,0.95757548996,15800,2017-11-16 07:33:06,15,16.524,5919.7635493406,201.77166,0.447388,1.76856304872,212.3, 6, -1.5,0,0,1023,1024,1684,1024,213.2,0,99,4.152,4.154,4.159,4.15,0,0,89.51,6,GPS_Atti,
0.363246399658192,36.8963342454457,5921.4039693406,203.41208,0,0.968011842,15900,2017-11-16 07:33:06,15,16.524,5921.4039693406,203.41208,0.447388,1.76856304872,212.3, 5.6, -1.4,0,0,1023,1024,1684,1024,213.2,0,99,4.152,4.154,4.159,4.15,0,0,89.51,6,GPS_Atti,
0.363246401930074,36.8963342783132,5923.0443893406,205.0525,0,0.97750331212,16000,2017-11-16 07:33:06,15,16.524,5923.0443893406,205.0525,0.447388,1.76856304872,212.3, 5.7, -1.4,0,0,1023,1024,1684,1024,213.1,0,99,4.152,4.154,4.159,4.15,0,0,89.51,6,GPS_Atti,
0.363246405125082,36.8963343051489,5925.0128933406,207.021004,0,0.9850229974,16100,2017-11-16 07:33:06,15,16.524,5925.0128933406,207.021004,0.447388,1.76856304872,212.3, 5.9, -1.5,0,0,1023,1024,1684,1024,213.1,0,99,4.152,4.154,4.159,4.15,0,0,89.51,6,GPS_Atti,
0.363246399917623,36.8963343102728,5926.6533133406,208.661424,0,0.9876312652,16200,2017-11-16 07:33:06,15,16.524,5926.6533133406,208.661424,0.447388,1.76856304872,212.3, 6.1, -1.5,0,0,1023,1024,1684,1024,213.1,0,99,4.152,4.154,4.159,4.15,0,0,89.51,6,GPS_Atti,
0.363246398769875,36.8963343413396,5928.2937333406,210.301844,0,0.99734583244,16300,2017-11-16 07:33:06,15,16.524,5928.2937333406,210.301844,0.447388,1.76856304872,212.3, 6.1, -1.2,0,0,1023,1024,1684,1024,213.1,0,99,4.152,4.154,4.159,4.15,0,0,89.51,6,GPS_Atti,
0.363246397662839,36.8963343638779,5929.9341533406,211.942264,0,1.00447181692,16400,2017-11-16 07:33:06,15,16.524,5929.9341533406,211.942264,0.447388,1.76856304872,212.3, 6.2, -1.4,0,0,1023,1024,1684,1024,213.1,0,99,4.152,4.154,4.159,4.15,0,0,89.51,6,GPS_Atti,
0.363246406716479,36.8963343895274,5931.5745733406,213.582684,0,1.01058402184,16500,2017-11-16 07:33:06,15,16.524,5931.5745733406,213.582684,0.447388,1.76856304872,212.3, 6.3, -1.4,0,0,1023,1024,1684,1024,213.1,0,99,4.152,4.154,4.159,4.15,0,0,89.51,6,GPS_Atti,
0.363246420653313,36.8963344003362,5933.2149933406,215.223104,0,1.01121722396,16600,2017-11-16 07:33:06,15,16.524,5933.2149933406,215.223104,0.447388,1.76856304872,212.3, 5.9, -1.4,0,0,1023,1024,1684,1024,213.1,0,99,4.152,4.154,4.159,4.15,0,0,89.51,6,GPS_Atti,
0.363246443726125,36.8963344094385,5935.1834973406,217.191608,0,1.00961945488,16700,2017-11-16 07:33:06,15,16.524,5935.1834973406,217.191608,0.447388,1.76856304872,212.2, 5.8, -1.9,0,0,1024,1024,1684,1024,213.1,0,99,4.148,4.15,4.157,4.149,0,0,89.51,6,GPS_Atti,
0.363246457247096,36.8963344121621,5936.8239173406,218.832028,0,1.00790357556,16800,2017-11-16 07:33:06,15,16.524,5936.8239173406,218.832028,0.447388,1.76856304872,212.3, 5.9, -1.8,0,0,1024,1024,1684,1024,213.1,0,99,4.148,4.15,4.157,4.149,0,0,89.51,6,GPS_Atti,
0.363246491449916,36.8963344485069,5938.4643373406,220.472448,0,1.01293966496,16900,2017-11-16 07:33:07,15,16.524,5938.4643373406,220.472448,0.447388,1.76856304872,212.3, 6, -1.6,0,0,1024,1024,1684,1024,213.1,0,99,4.148,4.15,4.157,4.149,0,0,89.51,6,GPS_Atti,
0.363246530055845,36.8963344915162,5939.7766733406,221.784784,0,1.01961617436,17000,2017-11-16 07:33:07,15,16.524,5939.7766733406,221.784784,0.447388,1.76856304872,212.3, 5.7, -1,0,0,1024,1024,1684,1024,213.1,0,99,4.148,4.15,4.157,4.149,0,0,89.51,6,GPS_Atti,
0.363246598328766,36.8963345569857,5941.4170933406,223.425204,0,1.0289370408,17100,2017-11-16 07:33:07,15,16.524,5941.4170933406,223.425204,0.447388,1.76856304872,212.3, 5.5, -1,0,0,1024,1024,1684,1024,213.1,0,99,4.148,4.15,4.157,4.149,0,0,89.51,6,GPS_Atti,
0.363246666486272,36.8963346014285,5943.0575133406,225.065624,0,1.03241145036,17200,2017-11-16 07:33:07,15,16.524,5943.0575133406,225.065624,0.447388,1.76856304872,212.3, 5.2, -1.2,0,0,1024,1024,1684,1024,213.1,0,99,4.148,4.15,4.157,4.149,0,0,89.51,6,GPS_Atti,
0.363246753358467,36.8963346359822,5944.6979333406,226.706044,0,1.03066932432,17300,2017-11-16 07:33:07,15,16.524,5944.6979333406,226.706044,0.447388,1.76856304872,212.3, 5, -1.4,0,0,1024,1024,1684,1024,213,0,99,4.148,4.15,4.157,4.149,0,0,89.51,6,GPS_Atti,
0.36324682262535,36.8963346438565,5946.3383533406,228.346464,0,1.0234416338,17400,2017-11-16 07:33:07,15,16.524,5946.3383533406,228.346464,0.447388,1.76856304872,212.3, 5.1, -1.5,0,0,1024,1024,1684,1024,213,0,99,4.148,4.15,4.157,4.149,0,0,89.51,6,GPS_Atti,
0.363246893259923,36.8963346740421,5947.9787733406,229.986884,0,1.0242290354,17500,2017-11-16 07:33:07,15,16.524,5947.9787733406,229.986884,0.447388,1.76856304872,212.3, 5.2, -1.4,0,0,1024,1024,1684,1024,213,0,99,4.148,4.15,4.157,4.149,0,0,89.51,6,GPS_Atti,
0.363246950823586,36.8963346991253,5949.6191933406,231.627304,0,1.02560370736,17600,2017-11-16 07:33:07,15,16.524,5949.6191933406,231.627304,0.447388,1.76856304872,212.3, 5.1, -1.3,0,0,1024,1024,1684,1024,213,0,99,4.148,4.15,4.157,4.149,0,0,89.51,6,GPS_Atti,
0.363247064687036,36.896334775395,5953.2281173406,235.236228,0,1.03912732984,17800,2017-11-16 07:33:07,15,16.524,5953.2281173406,235.236228,0.447388,1.76856304872,212.3, 4.9, -1.5,0,0,1024,1024,1684,1024,213,0,99,4.148,4.15,4.157,4.149,0,0,89.51,6,GPS_Atti,
0.363247136728992,36.896334825208,5954.8685373406,236.876648,0,1.04937011232,17900,2017-11-16 07:33:08,15,16.524,5954.8685373406,236.876648,0.447388,1.76856304872,212.3, 4.6, -1.4,0,0,1022,1024,1684,1024,213,0,99,4.148,4.15,4.157,4.149,0,0,89.51,6,GPS_Atti,
0.363247198736679,36.8963348469476,5956.5089573406,238.517068,0,1.0513943906,18000,2017-11-16 07:33:08,15,16.524,5956.5089573406,238.517068,0.447388,1.76856304872,212.3, 4.8, -1.7,0,0,1023,1024,1684,1024,213,0,99,4.148,4.15,4.157,4.149,0,0,89.51,6,GPS_Atti,
0.363247253817983,36.8963348625613,5958.1493773406,240.157488,0,1.05232943,18100,2017-11-16 07:33:08,15,16.524,5958.1493773406,240.157488,0.447388,1.76856304872,212.3, 5.2, -2,0,0,1023,1024,1684,1024,213,0,99,4.148,4.15,4.157,4.149,0,0,89.51,6,GPS_Atti,
0.36324728165725,36.8963348599704,5959.7897973406,241.797908,0,1.04921919368,18200,2017-11-16 07:33:08,15,16.524,5959.7897973406,241.797908,0.447388,1.76856304872,212.3, 5.4, -1.9,0,0,1022,1024,1684,1024,213,0,99,4.148,4.15,4.157,4.149,0,0,89.51,6,GPS_Atti,
0.363247313488242,36.8963348757789,5961.4302173406,243.438328,0,1.05248691032,18300,2017-11-16 07:33:08,15,16.524,5961.4302173406,243.438328,0.447388,1.76856304872,212.3, 5.4, -1.4,0,0,1023,1024,1684,1024,213,0,99,4.148,4.15,4.157,4.149,0,0,89.51,6,GPS_Atti,
0.363247334869915,36.8963348751944,5963.0706373406,245.078748,0,1.05075134596,18400,2017-11-16 07:33:08,15,16.524,5963.0706373406,245.078748,0.447388,1.76856304872,212.3, 5.5, -1.2,0,0,1023,1024,1684,1024,213,0,99,4.148,4.15,4.157,4.149,0,0,89.51,6,GPS_Atti,
0.363247378329014,36.8963348739525,5964.7110573406,246.719168,0,1.04737864244,18500,2017-11-16 07:33:08,15,16.524,5964.7110573406,246.719168,0.447388,1.76856304872,212.2, 5.6, -1.4,0,0,1023,1024,1684,1024,213,0,99,4.148,4.15,4.157,4.149,0,0,89.51,6,GPS_Atti,
0.363247425158585,36.8963348655547,5966.3514773406,248.359588,0,1.04146000708,18600,2017-11-16 07:33:08,15,16.524,5966.3514773406,248.359588,0.447388,1.76856304872,212.2, 5.5, -1.5,0,0,1023,1024,1684,1024,213,0,99,4.148,4.15,4.157,4.149,0,0,89.51,6,GPS_Atti,
0.363247497357482,36.8963348931612,5967.9918973406,250.000008,0,1.04749347184,18700,2017-11-16 07:33:08,15,16.524,5967.9918973406,250.000008,0.447388,1.76856304872,212.2, 5.1, -1.6,0,0,1023,1024,1684,1024,213,0,98,4.148,4.148,4.154,4.145,0,0,89.51,6,GPS_Atti,
0.363247557611131,36.8963349167659,5969.6323173406,251.640428,0,1.05329071612,18800,2017-11-16 07:33:08,15,16.524,5969.6323173406,251.640428,0.447388,1.76856304872,212.3, 4.7, -1.5,0,0,1023,1024,1684,1024,213,0,98,4.148,4.148,4.154,4.145,0,0,89.51,6,GPS_Atti,
0.363247621289602,36.8963349411178,5971.2727373406,253.280848,0,1.05973428588,18900,2017-11-16 07:33:09,15,16.524,5971.2727373406,253.280848,0.447388,1.76856304872,212.3, 4.7, -1.3,0,0,1023,1024,1684,1024,212.9,0,98,4.148,4.148,4.154,4.145,0,0,89.51,6,GPS_Atti,
0.363247657576423,36.8963349292898,5972.9131573406,254.921268,0,1.05430121484,19000,2017-11-16 07:33:09,15,16.524,5972.9131573406,254.921268,0.447388,1.76856304872,212.3, 4.8, -1.4,0,0,1023,1024,1684,1024,212.9,0,98,4.148,4.148,4.154,4.145,0,0,89.51,6,GPS_Atti,
0.363247698204472,36.8963349158002,5974.8816613406,256.889772,0,1.04831368184,19100,2017-11-16 07:33:09,15,16.524,5974.8816613406,256.889772,0.447388,1.76856304872,212.3, 5, -1.6,0,0,1023,1024,1684,1024,212.9,0,98,4.148,4.148,4.154,4.145,0,0,89.51,6,GPS_Atti,
0.363247724576105,36.8963348770358,5976.5220813406,258.530192,0,1.03360239528,19200,2017-11-16 07:33:09,15,16.524,5976.5220813406,258.530192,0.447388,1.76856304872,212.3, 5.4, -1.7,0,0,1024,1024,1684,1024,212.9,0,98,4.148,4.148,4.154,4.145,0,0,89.51,6,GPS_Atti,
0.363247769424267,36.8963348371066,5978.1625013406,260.170612,0.223694,1.01823494072,19300,2017-11-16 07:33:09,15,16.524,5978.1625013406,260.170612,0.447388,1.76856304872,212.3, 5.8, -1.7,0,0,1024,1024,1684,1024,212.9,0,98,4.148,4.148,4.154,4.145,0,0,89.51,6,GPS_Atti,
0.363247815701185,36.8963347649245,5979.8029213406,261.811032,0.223694,0.99133533356,19400,2017-11-16 07:33:09,15,16.524,5979.8029213406,261.811032,0.447388,1.76856304872,212.3, 5.8, -2.3,0,0,1023,1024,1684,1024,212.9,0,98,4.148,4.148,4.154,4.145,0,0,89.51,6,GPS_Atti,
0.363247890852247,36.8963346851239,5981.7714253406,263.779536,0.223694,0.96187339036,19500,2017-11-16 07:33:09,15,16.524,5981.7714253406,263.779536,0.447388,1.76856304872,212.3, 5.7, -3.2,0,0,1024,1024,1684,1024,212.9,0,98,4.148,4.148,4.154,4.145,0,0,89.51,6,GPS_Atti,
0.363247950806466,36.8963345906722,5983.4118453406,265.419956,0.223694,0.92770016092,19600,2017-11-16 07:33:09,15,16.524,5983.4118453406,265.419956,0.447388,1.76856304872,212.3, 5.8, -3.6,0,0,1023,1024,1684,1024,212.9,0,98,4.148,4.148,4.154,4.145,0,0,89.51,6,GPS_Atti,
0.363248016504614,36.8963345413035,5985.0522653406,267.060376,0,0.91061682704,19700,2017-11-16 07:33:09,15,16.469,5985.0522653406,267.060376,0.447388,1.76856304872,212.3, 5.7, -3.4,0,0,1024,1024,1684,1024,212.9,0,98,4.141,4.14,4.146,4.139,0,0,89.51,6,GPS_Atti,
0.363248065102675,36.8963345077251,5986.6926853406,268.700796,0,0.89948493692,19800,2017-11-16 07:33:10,15,16.469,5986.6926853406,268.700796,0.447388,1.76856304872,212.3, 5.5, -3,0,0,1023,1024,1684,1024,212.9,0,98,4.141,4.14,4.146,4.139,0,0,89.51,6,GPS_Atti,
0.363248147173199,36.8963344878537,5988.3331053406,270.341216,0,0.89492785016,19900,2017-11-16 07:33:10,15,16.469,5988.3331053406,270.341216,0.447388,1.76856304872,212.3, 5.4, -2.6,0,0,1024,1024,1602,1024,212.9,0,98,4.141,4.14,4.146,4.139,0,0,89.51,6,GPS_Atti,
0.363248225023407,36.8963344495518,5989.9735253406,271.981636,0,0.88453742988,20000,2017-11-16 07:33:10,15,16.469,5989.9735253406,271.981636,0.447388,1.76856304872,212.3, 5.2, -2.4,0,0,1023,1024,1024,1024,212.9,0,98,4.141,4.14,4.146,4.139,0,0,89.51,6,GPS_Atti,
0.363248315890582,36.8963344364294,5991.6139453406,273.622056,0,0.88504596008,20100,2017-11-16 07:33:10,15,16.469,5991.6139453406,273.622056,0.447388,1.76856304872,212.2, 5.2, -2.4,0,0,1024,1024,1024,1024,212.9,0,98,4.141,4.14,4.146,4.139,0,0,89.51,6,GPS_Atti,
0.363248453110194,36.8963343536761,5994.5667013406,276.574812,0,0.86588913532,20300,2017-11-16 07:33:10,15,16.469,5994.5667013406,276.574812,0.447388,1.76856304872,211.9, 7.6, -5.4,0,0,1024,1024,1024,1024,212.9,0,98,4.141,4.14,4.146,4.139,0,0,89.51,6,GPS_Atti,
0.3632484984017,36.8963343116957,5995.5509533406,277.559064,0,0.85518047356,20400,2017-11-16 07:33:10,15,16.469,5995.5509533406,277.559064,0.447388,1.76856304872,212, 6.7, -4.9,0,0,1024,1024,1024,1024,212.9,0,98,4.141,4.14,4.146,4.139,0,0,89.51,6,GPS_Atti,
0.36324853972021,36.8963342744537,5996.5352053406,278.543316,0,0.84618441028,20500,2017-11-16 07:33:10,15,16.469,5996.5352053406,278.543316,0.447388,1.76856304872,212, 6.4, -4.4,0,0,1024,1024,1024,1024,212.9,0,98,4.141,4.14,4.146,4.139,0,0,89.51,6,GPS_Atti,
0.363248558327218,36.896334213743,5997.1913733406,279.199484,0.223694,0.826935722,20600,2017-11-16 07:33:10,15,16.469,5997.1913733406,279.199484,0.447388,1.76856304872,212, 6.4, -4.4,0,0,1023,1024,1024,1024,212.9,0,98,4.141,4.14,4.146,4.139,0,0,89.51,6,GPS_Atti,
0.363248582493327,36.8963341489952,5997.5194573406,279.527568,0.223694,0.80712601008,20700,2017-11-16 07:33:10,15,16.469,5997.5194573406,279.527568,0.447388,1.76856304872,212.2, 6, -3.8,0,0,1023,1024,1024,1024,212.9,0,98,4.141,4.14,4.146,4.137,0,0,89.51,6,GPS_Atti,
0.363248593906277,36.8963340778386,5997.8475413406,279.855652,0.223694,0.78388125868,20800,2017-11-16 07:33:10,15,16.469,5997.8475413406,279.855652,0.447388,1.76856304872,212.2, 5.2, -3.2,0,0,1023,1024,1024,1024,212.9,0,98,4.141,4.14,4.146,4.137,0,0,89.51,6,GPS_Atti,
0.363248619329951,36.8963339897195,5997.8475413406,279.855652,0.223694,0.75681432868,20900,2017-11-16 07:33:11,15,16.469,5997.8475413406,279.855652,0.447388,1.76856304872,212.3, 5.1, -3.3,0,0,1023,1024,1024,1024,212.9,0,98,4.141,4.14,4.146,4.137,0,0,89.51,6,GPS_Atti,
0.363248627166838,36.8963338815844,5997.8475413406,279.855652,0.447388,0.72109910444,21000,2017-11-16 07:33:11,15,16.469,5997.8475413406,279.855652,0.447388,1.76856304872,212.3, 5.9, -3.9,0,0,1023,1024,1024,1024,212.9,0,98,4.141,4.14,4.146,4.137,0,0,89.51,6,GPS_Atti,
0.363248630501484,36.8963337741869,5997.8475413406,279.855652,0.50107456,0.6854002844,21100,2017-11-16 07:33:11,15,16.469,5997.8475413406,279.855652,0.50107456,1.76856304872,212.2, 6.9, -4.1,0,0,1023,1024,1024,1024,212.9,0,98,4.141,4.14,4.146,4.137,0,0,89.51,6,GPS_Atti,
0.363248619915377,36.8963336837456,5997.8475413406,279.855652,0.447388,0.65363519152,21200,2017-11-16 07:33:11,15,16.469,5997.8475413406,279.855652,0.50107456,1.76856304872,212.2, 7.7, -4.4,0,0,1024,1024,1024,1024,212.9,0,98,4.141,4.14,4.146,4.137,0,0,89.51,6,GPS_Atti,
0.363248615571095,36.8963336134338,5998.1756253406,280.183736,0.447388,0.62963912776,21300,2017-11-16 07:33:11,15,16.469,5998.1756253406,280.183736,0.50107456,1.76856304872,212.2, 8.1, -5,0,0,1024,1024,1024,1024,212.9,0,98,4.141,4.14,4.146,4.137,0,0,89.51,6,GPS_Atti,
0.363248617644512,36.8963335819313,5998.1756253406,280.183736,0.447388,0.61956366812,21400,2017-11-16 07:33:11,15,16.469,5998.1756253406,280.183736,0.50107456,1.76856304872,212.2, 7.6, -5.6,0,0,1024,1024,1024,1024,212.9,0,98,4.141,4.14,4.146,4.137,0,0,89.51,6,GPS_Atti,
0.363248660756345,36.8963336289982,5998.1756253406,280.183736,0.447388,0.64186681844,21500,2017-11-16 07:33:11,15,16.469,5998.1756253406,280.183736,0.50107456,1.76856304872,212.2, 7.3, -6.1,0,0,1024,1024,1024,1024,212.9,0,98,4.141,4.14,4.146,4.137,0,0,89.51,6,GPS_Atti,
0.363248703603964,36.8963337322974,5998.1756253406,280.183736,0.223694,0.6825951662,21600,2017-11-16 07:33:11,15,16.469,5998.1756253406,280.183736,0.50107456,1.76856304872,212.2, 7.8, -5.6,0,0,1024,1024,1024,1024,212.9,0,98,4.141,4.14,4.146,4.137,0,0,89.51,6,GPS_Atti,
0.363248750499894,36.8963339193713,5998.5037093406,280.51182,0,0.75161091644,21700,2017-11-16 07:33:11,15,16.824,5998.5037093406,280.51182,0.50107456,1.76856304872,212.2, 7.6, -5.9,0,0,1024,1024,1024,1024,212.9,0,98,4.141,4.14,4.146,4.137,0,0,89.51,6,GPS_Atti,
0.363248784005536,36.8963341370676,5998.5037093406,280.51182,0,0.829150289,21800,2017-11-16 07:33:11,15,16.824,5998.5037093406,280.51182,0.50107456,1.76856304872,212.2, 7.5, -5.5,0,0,1024,1024,1024,1024,212.9,0,98,4.141,4.14,4.146,4.137,0,0,89.51,6,GPS_Atti,
0.363248836188617,36.896334403836,5998.5037093406,280.51182,0,0.92633205064,21900,2017-11-16 07:33:12,15,16.824,5998.5037093406,280.51182,0.50107456,1.76856304872,212.2, 7.1, -4.5,0,0,1024,1024,1024,1024,212.9,0,98,4.141,4.14,4.146,4.137,0,0,89.51,6,GPS_Atti,
0.363248903860643,36.8963346543216,5998.5037093406,280.51182,0,1.02038717176,22000,2017-11-16 07:33:12,15,16.824,5998.5037093406,280.51182,0.50107456,1.76856304872,212.1, 6.5, -4.2,0,0,1024,1024,1024,1024,212.9,0,98,4.141,4.14,4.146,4.137,0,0,89.51,6,GPS_Atti,
0.363249003856875,36.8963349196458,5998.5037093406,280.51182,0,1.12383205696,22100,2017-11-16 07:33:12,15,16.824,5998.5037093406,280.51182,0.50107456,1.76856304872,212.2, 5.9, -5,0,0,1024,1024,1024,1024,212.9,0,98,4.141,4.14,4.146,4.137,0,0,89.51,6,GPS_Atti,
0.363249097774126,36.896335180513,5998.5037093406,280.51182,0,1.22495738828,22200,2017-11-16 07:33:12,15,16.824,5998.5037093406,280.51182,0.50107456,1.76856304872,212.2, 5.5, -5.1,0,0,1024,1024,1024,1024,212.9,0,98,4.141,4.14,4.146,4.137,0,0,89.51,6,GPS_Atti,
0.36324920358716,36.8963354997517,5998.5037093406,280.51182,0.223694,1.34752628984,22300,2017-11-16 07:33:12,15,16.824,5998.5037093406,280.51182,0.50107456,1.76856304872,212.2, 5.6, -5,0,0,1024,1024,1024,1024,212.9,0,98,4.141,4.14,4.146,4.137,0,0,89.51,6,GPS_Atti,
0.363249294572804,36.8963358331458,5998.5037093406,280.51182,0.223694,1.47306107076,22400,2017-11-16 07:33:12,15,16.824,5998.5037093406,280.51182,0.50107456,1.76856304872,212.3, 5.2, -4.8,0,0,1024,1024,1024,1024,212.9,0,98,4.141,4.14,4.146,4.137,0,0,89.51,6,GPS_Atti,
0.363249360490588,36.8963362151453,5998.5037093406,280.51182,0.223694,1.61228351616,22500,2017-11-16 07:33:12,15,16.824,5998.5037093406,280.51182,0.50107456,1.76856304872,212.4, 4.6, -4.2,0,0,1024,1024,1024,1024,212.9,0,98,4.141,4.14,4.146,4.137,0,0,89.51,6,GPS_Atti,
0.363249386790366,36.89633658579,5998.5037093406,280.51182,0.223694,1.74334979332,22600,2017-11-16 07:33:12,15,16.824,5998.5037093406,280.51182,0.50107456,1.76856304872,212.4, 4.2, -3.3,0,0,1024,1024,1024,1024,212.9,0,98,4.141,4.14,4.146,4.137,0,0,89.51,6,GPS_Atti,
0.363249414566735,36.8963369763243,5998.1756253406,280.183736,0.223694,1.88214572952,22700,2017-11-16 07:33:12,15,16.688,5998.5037093406,280.51182,0.50107456,1.88214572952,212.4, 4, -2.5,0,0,1024,1024,1024,1024,212.9,0,98,4.193,4.192,4.191,4.184,0,0,89.51,6,GPS_Atti,
0.363249430177407,36.8963373224244,5998.1756253406,280.183736,0.223694,2.00469822688,22800,2017-11-16 07:33:13,15,16.688,5998.5037093406,280.51182,0.50107456,2.00469822688,212.4, 4.1, -2.3,0,0,1024,1024,1024,1024,212.9,0,98,4.193,4.192,4.191,4.184,0,0,89.51,6,GPS_Atti,
0.363249446917404,36.8963376795495,5998.1756253406,280.183736,0.223694,2.13168641992,22900,2017-11-16 07:33:13,15,16.688,5998.5037093406,280.51182,0.50107456,2.13168641992,212.4, 4.8, -1.8,0,0,1060,1024,1024,1024,212.9,0,98,4.193,4.192,4.191,4.184,0,0,89.51,6,GPS_Atti,
0.36324945723034,36.8963379905424,5998.1756253406,280.183736,0.223694,2.24219823448,23000,2017-11-16 07:33:13,15,16.688,5998.5037093406,280.51182,0.50107456,2.24219823448,212.4, 5, -2,0,0,1106,1024,1024,1024,212.9,0,98,4.193,4.192,4.191,4.184,0,0,89.51,6,GPS_Atti,
0.363249500739921,36.8963383020876,5998.1756253406,280.183736,0.223694,2.35618773944,23100,2017-11-16 07:33:13,15,16.688,5998.5037093406,280.51182,0.50107456,2.35618773944,212.4, 4.7, -2.3,0,0,1232,1024,1024,1024,212.9,0,98,4.193,4.192,4.191,4.184,0,0,89.51,6,GPS_Atti,
0.36324953540298,36.8963385646529,5998.1756253406,280.183736,0.223694,2.4521326244,23200,2017-11-16 07:33:13,15,16.688,5998.5037093406,280.51182,0.50107456,2.4521326244,212.5, 4.3, -2.5,0,0,1394,1024,1024,1024,212.9,0,98,4.193,4.192,4.191,4.184,0,0,89.51,6,GPS_Atti,
0.36324959398096,36.8963388777484,5998.1756253406,280.183736,0.223694,2.5681267226,23300,2017-11-16 07:33:13,15,16.688,5998.5037093406,280.51182,0.50107456,2.5681267226,212.6, 1.4, -2.9,0,0,1562,1024,1024,1024,212.9,0,98,4.193,4.192,4.191,4.184,0,0,89.51,6,GPS_Atti,
0.363249603753659,36.8963391485423,5998.1756253406,280.183736,0,2.66491806428,23400,2017-11-16 07:33:13,15,16.688,5998.5037093406,280.51182,0.50107456,2.66491806428,212.7, -5.8, -2.6,0,0,1665,1024,1024,1024,212.9,0,98,4.193,4.192,4.191,4.184,0,0,89.51,6,GPS_Atti,
0.363249513381124,36.8963393966544,5998.1756253406,280.183736,0.447388,2.74567922172,23500,2017-11-16 07:33:13,15,16.688,5998.5037093406,280.51182,0.50107456,2.74567922172,212.9, -18.1, -2.3,0,0,1684,1024,1024,1024,212.9,0,98,4.193,4.192,4.191,4.184,0,0,89.51,6,GPS_Atti,
0.363249137770746,36.8963394176039,5998.1756253406,280.183736,1.50098674,2.72689969356,23600,2017-11-16 07:33:13,15,16.688,5998.5037093406,280.51182,1.50098674,2.74567922172,213.1, -28.2, -1.8,0,0,1684,1024,1024,1024,212.9,0,98,4.193,4.192,4.191,4.184,0,0,89.51,6,GPS_Atti,
