latitude,longitude,altitude(feet),ascent(feet),speed(mph),distance(feet),time(millisecond),datetime(utc),satellites,gpslevel,voltage(v),max_altitude(feet),max_ascent(feet),max_speed(mph),max_distance(feet), xSpeed(mph), ySpeed(mph), zSpeed(mph), compass_heading(degrees), pitch(degrees), roll(degrees),isPhoto,isVideo,rc_elevator,rc_aileron,rc_throttle,rc_rudder,gimbal_heading(degrees),gimbal_pitch(degrees),battery_percent,voltageCell1,voltageCell2,voltageCell3,voltageCell4,voltageCell5,voltageCell6,current(A),battery_temperature(f),flycStateRaw,flycState,message
0.364814663951919,36.8999821294512,5782.9835193731,200.13124,0,0,655700,,19,0,0,5782.9835193731,200.13124,0,0,0,0,0,131.4, 1.7, -0.6,0,0,1024,1024,1024,1024,131.3,-89.9,56,3.799,3.808,3.804,3.789,0,0,0,111.11,6,P-GPS,
0.364814637649291,36.8999821242437,5782.9835193731,200.13124,0,0.0097827430952,655800,2018-04-03 06:12:12,19,0,0,5782.9835193731,200.13124,0,0.0097827430952,0,0,0,131.4, 1.6, -0.5,0,0,1024,1024,1024,1024,131.3,-89.9,56,3.799,3.808,3.804,3.789,0,0,0,111.11,6,P-GPS,
0.364814610317487,36.899982125203,5782.9835193731,200.13124,0,0.0196297906544,655900,2018-04-03 06:12:12,19,0,0,5782.9835193731,200.13124,0,0.0196297906544,0,0,0,131.4, 1.7, -0.5,0,0,1024,1024,1024,1024,131.3,-89.9,56,3.799,3.808,3.804,3.789,0,0,0,111.11,6,P-GPS,
0.364814592039832,36.8999821108141,5782.9835193731,200.13124,0,0.0271038722584,656000,2018-04-03 06:12:12,19,0,0,5782.9835193731,200.13124,0,0.0271038722584,0,0,0,131.4, 2.1, -0.8,0,0,1024,1024,1024,1024,131.3,-89.9,56,3.799,3.808,3.804,3.789,0,0,0,111.11,6,P-GPS,
0.364814553751856,36.8999820513397,5782.6554353731,199.803156,0,0.049281825724,656400,2018-04-03 06:12:12,19,0,0,5782.9835193731,200.13124,0,0.049281825724,0,0,0,131.2, 1.6, -0.4,0,0,1024,1024,1024,1024,131.3,-89.9,56,3.799,3.808,3.804,3.789,0,0,0,111.11,6,P-GPS,
0.364814558689299,36.89998203421,5782.6554353731,199.803156,0,0.051791668324,656500,2018-04-03 06:12:12,19,0,0,5782.9835193731,200.13124,0,0.051791668324,0,0,0,131.2, 1.6, -0.1,0,0,1024,1024,1024,1024,131.3,-89.9,56,3.799,3.808,3.804,3.789,0,0,0,111.11,6,P-GPS,
0.364814554012407,36.8999820077617,5782.6554353731,199.803156,0,0.059833663332,656600,2018-04-03 06:12:12,19,0,15.103,5782.9835193731,200.13124,0,0.059833663332,0,0,0,131.1, 1.8, -0.4,0,0,1024,1024,1024,1024,131.3,-89.9,56,3.799,3.808,3.804,3.789,0,0,12.82,111.11,6,P-GPS,
0.364814545896243,36.8999819747356,5782.6554353731,199.803156,0,0.071003283112,656700,2018-04-03 06:12:13,19,0,15.103,5782.9835193731,200.13124,0,0.071003283112,0,0,0,131.1, 1.9, -1.1,0,0,1024,1024,1024,1024,131.3,-89.9,56,3.799,3.808,3.804,3.789,0,0,12.82,111.11,6,P-GPS,
0.364814548384505,36.8999819440392,5782.6554353731,199.803156,0,0.079710960556,656800,2018-04-03 06:12:13,19,0,15.103,5782.9835193731,200.13124,0,0.079710960556,0,0,0,130.9, 1.5, -1.3,0,0,1024,1024,1024,1024,131.3,-90,56,3.799,3.808,3.804,3.789,0,0,12.82,111.11,6,P-GPS,
0.3648145922613,36.8999819129316,5782.6554353731,199.803156,0,0.083213257256,657000,2018-04-03 06:12:13,19,0,15.103,5782.9835193731,200.13124,0,0.083213257256,0,0,0,131, 0.7, -0.3,0,0,1024,1024,1024,1024,131.3,-90,56,3.799,3.808,3.804,3.789,0,0,12.82,111.11,6,P-GPS,
0.364814607112709,36.8999818756574,5782.6554353731,199.803156,0,0.09488845448,657200,2018-04-03 06:12:13,19,0,15.103,5782.9835193731,200.13124,0,0.09488845448,0,0,0,131.1, 0.7, -0.2,0,0,1024,1024,1024,1024,131.3,-90,56,3.799,3.808,3.804,3.789,0,0,12.82,111.11,6,P-GPS,
0.364814596469199,36.8999818418091,5782.6554353731,199.803156,0,0.107793310536,657300,2018-04-03 06:12:13,19,0,15.103,5782.9835193731,200.13124,0,0.107793310536,0,0,0,131.1, 0.8, -0.4,0,0,1024,1024,1024,1024,131.3,-89.9,56,3.799,3.808,3.804,3.789,0,0,12.82,111.11,6,P-GPS,
0.364814567521979,36.8999818205682,5782.6554353731,199.803156,0,0.11805774656,657400,2018-04-03 06:12:13,19,0,15.103,5782.9835193731,200.13124,0,0.11805774656,0,0,0,131.1, 1.1, -0.6,0,0,1024,1024,1024,1024,131.3,-89.9,56,3.799,3.808,3.804,3.789,0,0,12.82,111.11,6,P-GPS,
0.364814542912933,36.8999817891866,5782.6554353731,199.803156,0,0.13176345566,657500,2018-04-03 06:12:13,19,0,15.103,5782.9835193731,200.13124,0,0.13176345566,0,0,0,131.1, 0.7, -0.8,0,0,1024,1024,1024,1024,131.3,-90,56,3.799,3.808,3.804,3.789,0,0,12.82,111.11,6,P-GPS,
0.36481452132628,36.8999817380715,5782.6554353731,199.803156,0,0.151978023236,657600,2018-04-03 06:12:13,19,0,15.182,5782.9835193731,200.13124,0,0.151978023236,0,0,0,131.2, 0.5, -1.1,0,0,1024,1024,1024,1024,131.3,-90,56,3.799,3.808,3.804,3.789,0,0,13.084,111.11,6,P-GPS,
0.364814498046044,36.8999816931232,5782.6554353731,199.803156,0,0.170310372904,657700,2018-04-03 06:12:14,19,0,15.182,5782.9835193731,200.13124,0,0.170310372904,0,0,0,131.2, 0.5, -1.2,0,0,1024,1024,1024,1024,131.3,-90,56,3.799,3.808,3.804,3.789,0,0,13.084,111.11,6,P-GPS,
0.364814484731886,36.8999816492711,5782.6554353731,199.803156,0,0.186995084724,657800,2018-04-03 06:12:14,19,0,15.182,5782.9835193731,200.13124,0,0.186995084724,0,0,0,131.2, 0.4, -1.2,0,0,1024,1024,1024,1024,131.3,-90,56,3.799,3.808,3.804,3.789,0,0,13.084,111.11,6,P-GPS,
0.364814466063404,36.899981587056,5782.6554353731,199.803156,0,0.210648300704,658000,2018-04-03 06:12:14,19,0,15.182,5782.9835193731,200.13124,0,0.210648300704,0,0,0,131.2, 0.9, -1.2,0,0,1024,1024,1024,1024,131.3,-89.9,56,3.799,3.808,3.804,3.789,0,0,13.084,111.11,6,P-GPS,
0.364814464083216,36.8999815659522,5782.6554353731,199.803156,0,0.218137802256,658100,2018-04-03 06:12:14,19,0,15.182,5782.9835193731,200.13124,0,0.218137802256,0,0,0,131.2, 1.3, -1.1,0,0,1024,1024,1024,1024,131.3,-90,56,3.799,3.808,3.804,3.789,0,0,13.084,111.11,6,P-GPS,
0.364814451654932,36.8999815210038,5782.6554353731,199.803156,0,0.235112212248,658200,2018-04-03 06:12:14,19,0,15.182,5782.9835193731,200.13124,0,0.235112212248,0,0,0,131.1, 0.8, -0.9,0,0,1024,1024,1024,1024,131.3,-90,56,3.799,3.808,3.804,3.789,0,0,13.084,111.11,6,P-GPS,
0.364814442783169,36.8999814801666,5782.6554353731,199.803156,0,0.250252960764,658300,2018-04-03 06:12:14,19,0,15.182,5782.9835193731,200.13124,0,0.250252960764,0,0,0,131.2, 0.6, -0.9,0,0,1024,1024,1024,1024,131.3,-89.9,56,3.799,3.808,3.804,3.789,0,0,13.084,111.11,6,P-GPS,
0.364814443108857,36.8999814575554,5782.6554353731,199.803156,0,0.258038394084,658400,2018-04-03 06:12:14,19,0,15.182,5782.9835193731,200.13124,0,0.258038394084,0,0,0,131.1, 0.9, -1,0,0,1024,1024,1024,1024,131.3,-89.9,56,3.799,3.808,3.804,3.789,0,0,13.084,111.11,6,P-GPS,
0.36481444570134,36.899981437959,5782.6554353731,199.803156,0,0.264553486156,658500,2018-04-03 06:12:14,19,0,15.182,5782.9835193731,200.13124,0,0.264553486156,0,0,0,131.1, 1.2, -1.1,0,0,1024,1024,1024,1024,131.3,-90,56,3.799,3.808,3.804,3.789,0,0,13.084,111.11,6,P-GPS,
0.36481445805146,36.8999813935588,5782.6554353731,199.803156,0,0.278796268764,658600,2018-04-03 06:12:14,19,0,15.103,5782.9835193731,200.13124,0,0.278796268764,0,0,0,131, 0.9, -1.8,0,0,1024,1024,1024,1024,131.3,-90,56,3.797,3.806,3.803,3.787,0,0,13.084,111.11,6,P-GPS,
0.364814485643815,36.8999813523104,5782.6554353731,199.803156,0,0.290901256028,658700,2018-04-03 06:12:14,19,0,15.103,5782.9835193731,200.13124,0,0.290901256028,0,0,0,131, 0.5, -2.1,0,0,1024,1024,1024,1024,131.3,-90,56,3.797,3.806,3.803,3.787,0,0,13.084,111.11,6,P-GPS,
0.364814533845757,36.8999813414844,5782.6554353731,199.803156,0,0.291375993576,658800,2018-04-03 06:12:15,19,0,15.103,5782.9835193731,200.13124,0,0.291375993576,0,0,0,131.1, 0.9, -1.8,0,0,1024,1024,1024,1024,131.3,-89.9,56,3.797,3.806,3.803,3.787,0,0,13.084,111.11,6,P-GPS,
0.364814597967368,36.8999813481993,5782.6554353731,199.803156,0.223694,0.2860482375,658900,2018-04-03 06:12:15,19,0,15.103,5782.9835193731,200.13124,0.223694,0.291375993576,0.223694,0,0,131.1, 1.2, -1,0,0,1024,1024,1024,1024,131.3,-89.9,56,3.797,3.806,3.803,3.787,0,0,13.084,111.11,6,P-GPS,
0.364814695152905,36.8999813699883,5782.6554353731,199.803156,0.223694,0.277317594176,659000,2018-04-03 06:12:15,19,0,15.103,5782.9835193731,200.13124,0.223694,0.291375993576,0.223694,0,0,131.2, 0.6, -0.3,0,0,1024,1024,1024,1024,131.3,-90,56,3.797,3.806,3.803,3.787,0,0,13.084,111.11,6,P-GPS,
0.364814788286875,36.8999813846513,5782.6554353731,199.803156,0.223694,0.275494759472,659100,2018-04-03 06:12:15,19,0,15.103,5782.9835193731,200.13124,0.223694,0.291375993576,0.223694,0,0,131.3, 0.3, 0,0,0,1024,1024,1024,1024,131.3,-89.9,56,3.797,3.806,3.803,3.787,0,0,13.084,111.11,6,P-GPS,
0.364814892194629,36.899981401507,5782.6554353731,199.803156,0,0.278333998408,659200,2018-04-03 06:12:15,19,0,15.103,5782.9835193731,200.13124,0.223694,0.291375993576,0,0,0,131.3, 0.9, 0.2,0,0,1024,1024,1024,1024,131.3,-89.9,56,3.797,3.806,3.803,3.787,0,0,13.084,111.11,6,P-GPS,
0.364814979401062,36.899981405344,5782.6554353731,199.803156,0,0.28816601972,659300,2018-04-03 06:12:15,19,0,15.103,5782.9835193731,200.13124,0.223694,0.291375993576,0,0,0,131.4, 1.3, 0.2,0,0,1024,1024,1024,1024,131.3,-90,56,3.797,3.806,3.803,3.787,0,0,13.084,111.11,6,P-GPS,
0.364815038259542,36.8999813836921,5782.6554353731,199.803156,0,0.30443406486,659400,2018-04-03 06:12:15,19,0,15.103,5782.9835193731,200.13124,0.223694,0.30443406486,0,0,0,131.5, 0.3, -0.1,0,0,1024,1024,1024,1024,131.3,-90,56,3.797,3.806,3.803,3.787,0,0,13.084,111.11,6,P-GPS,
0.364815086148823,36.8999813553253,5782.6554353731,199.803156,0,0.321708671712,659500,2018-04-03 06:12:15,19,0,15.103,5782.9835193731,200.13124,0.223694,0.321708671712,0,0,0,131.5, 0.2, 0,0,0,1024,1024,1024,1024,131.3,-89.9,56,3.797,3.806,3.803,3.787,0,0,13.084,111.11,6,P-GPS,
0.364815138011507,36.8999813380585,5782.6554353731,199.803156,0,0.33657481392,659600,2018-04-03 06:12:16,19,0,15.129,5782.9835193731,200.13124,0.223694,0.33657481392,0,0,0,131.6, 0.6, 0.4,0,0,1024,1024,1024,1024,131.3,-89.9,56,3.796,3.805,3.801,3.786,0,0,13.122,111.11,6,P-GPS,
0.364815173185898,36.8999812429543,5782.6554353731,199.803156,0,0.3729986996,659800,2018-04-03 06:12:16,19,0,15.129,5782.9835193731,200.13124,0.223694,0.3729986996,0,0,0,131.7, 0.8, 0,0,0,1024,1024,1024,1024,131.3,-90,56,3.796,3.805,3.801,3.786,0,0,13.122,111.11,6,P-GPS,
0.364815155273014,36.899981165528,5782.6554353731,199.803156,0,0.39473098376,659900,2018-04-03 06:12:16,19,0,15.129,5782.9835193731,200.13124,0.223694,0.39473098376,0,0,0,131.8, 0.8, -0.5,0,0,1024,1024,1024,1024,131.3,-90,56,3.796,3.805,3.801,3.786,0,0,13.122,111.11,6,P-GPS,
0.364815114066867,36.8999810727535,5782.6554353731,199.803156,0,0.41904856984,660000,2018-04-03 06:12:16,19,0,15.129,5782.9835193731,200.13124,0.223694,0.41904856984,0,0,0,131.9, 0.8, -1.1,0,0,1024,1024,1024,1024,131.3,-89.9,56,3.796,3.805,3.801,3.786,0,0,13.122,111.11,6,P-GPS,
0.364815067610616,36.8999809814864,5782.6554353731,199.803156,0,0.4439632688,660100,2018-04-03 06:12:16,19,0,15.129,5782.9835193731,200.13124,0.223694,0.4439632688,0,0,0,131.9, 0.4, -1.9,0,0,1024,1024,1024,1024,131.3,-90,56,3.796,3.805,3.801,3.786,0,0,13.122,111.11,6,P-GPS,
0.364815040383033,36.899980907075,5782.6554353731,199.803156,0,0.46664371572,660200,2018-04-03 06:12:16,19,0,15.129,5782.9835193731,200.13124,0.223694,0.46664371572,0,0,0,131.8, 0, -2.4,0,0,1024,1024,1024,1024,131.3,-90,56,3.796,3.805,3.801,3.786,0,0,13.122,111.11,6,P-GPS,
0.364815022287763,36.899980856234,5782.6554353731,199.803156,0,0.48256891308,660300,2018-04-03 06:12:16,19,0,15.129,5782.9835193731,200.13124,0.223694,0.48256891308,0,0,0,131.7, -0.1, -2.6,0,0,1024,1024,1024,1024,131.3,-90,56,3.796,3.805,3.801,3.786,0,0,13.122,111.11,6,P-GPS,
0.36481500708461,36.8999808185486,5782.6554353731,199.803156,0,0.49438649876,660400,2018-04-03 06:12:16,19,0,15.129,5782.9835193731,200.13124,0.223694,0.49438649876,0,0,0,131.6, 0, -2.2,0,0,1024,1024,1024,1024,131.3,-89.9,56,3.796,3.805,3.801,3.786,0,0,13.122,111.11,6,P-GPS,
0.364815002590105,36.8999808022411,5782.6554353731,199.803156,0,0.4997375488,660500,2018-04-03 06:12:16,19,0,15.129,5782.9835193731,200.13124,0.223694,0.4997375488,0,0,0,131.4, 0.3, -2,0,0,1024,1024,1024,1024,131.3,-89.9,56,3.796,3.805,3.801,3.786,0,0,13.122,111.11,6,P-GPS,
0.364815025153825,36.8999808004596,5782.6554353731,199.803156,0,0.502460646,660600,2018-04-03 06:12:16,19,0,15.103,5782.9835193731,200.13124,0.223694,0.502460646,0,0,0,131.2, 0.4, -2,0,0,1024,1024,1024,1024,131.3,-90,56,3.796,3.805,3.801,3.785,0,0,12.88,111.11,6,P-GPS,
0.364815065513181,36.8999808121078,5782.6554353731,199.803156,0,0.50245736516,660700,2018-04-03 06:12:16,19,0,15.103,5782.9835193731,200.13124,0.223694,0.502460646,0,0,0,131.2, -0.1, -1.5,0,0,1024,1024,1024,1024,131.3,-90,56,3.796,3.805,3.801,3.785,0,0,12.88,111.11,6,P-GPS,
0.364815120424312,36.899980841845,5782.6554353731,199.803156,0,0.49842193196,660800,2018-04-03 06:12:17,19,0,15.103,5782.9835193731,200.13124,0.223694,0.502460646,0,0,0,131.1, -0.8, -0.7,0,0,1024,1024,1024,1024,131.3,-90,56,3.796,3.805,3.801,3.785,0,0,12.88,111.11,6,P-GPS,
0.364815166294323,36.8999808811748,5782.6554353731,199.803156,0,0.49091865088,660900,2018-04-03 06:12:17,19,0,15.103,5782.9835193731,200.13124,0.223694,0.502460646,0,0,0,131, -0.9, -0.4,0,0,1024,1024,1024,1024,131.3,-89.9,56,3.796,3.805,3.801,3.785,0,0,12.88,111.11,6,P-GPS,
0.364815206106522,36.8999809521604,5782.6554353731,199.803156,0,0.4728838734,661000,2018-04-03 06:12:17,19,0,15.103,5782.9835193731,200.13124,0.223694,0.502460646,0,0,0,131, 0, -0.9,0,0,1024,1024,1024,1024,131.3,-89.9,56,3.796,3.805,3.801,3.785,0,0,12.88,111.11,6,P-GPS,
0.364815243704037,36.8999810258866,5782.6554353731,199.803156,0,0.454806445,661100,2018-04-03 06:12:17,19,0,15.103,5782.9835193731,200.13124,0.223694,0.502460646,0,0,0,131.1, 0.7, -0.2,0,0,1024,1024,1024,1024,131.3,-90,56,3.796,3.805,3.801,3.785,0,0,12.88,111.11,6,P-GPS,
0.364815299501042,36.8999810986537,5782.6554353731,199.803156,0,0.44181759944,661200,2018-04-03 06:12:17,19,0,15.103,5782.9835193731,200.13124,0.223694,0.502460646,0,0,0,131, 0.3, 0.3,0,0,1024,1024,1024,1024,131.3,-90,56,3.796,3.805,3.801,3.785,0,0,12.88,111.11,6,P-GPS,
0.364815338753056,36.8999811419576,5782.6554353731,199.803156,0,0.4363681242,661300,2018-04-03 06:12:17,19,0,15.103,5782.9835193731,200.13124,0.223694,0.502460646,0,0,0,130.9, 0, -0.4,0,0,1024,1024,1024,1024,131.3,-90,56,3.796,3.805,3.801,3.785,0,0,12.88,111.11,6,P-GPS,
0.364815378877916,36.8999811815615,5782.6554353731,199.803156,0,0.4331693052,661400,2018-04-03 06:12:17,19,0,15.103,5782.9835193731,200.13124,0.223694,0.502460646,0,0,0,131, 0.2, -0.8,0,0,1024,1024,1024,1024,131.3,-89.9,56,3.796,3.805,3.801,3.785,0,0,12.88,111.11,6,P-GPS,
0.364815419471768,36.8999812243172,5782.6554353731,199.803156,0,0.43015749408,661500,2018-04-03 06:12:17,19,0,15.103,5782.9835193731,200.13124,0.223694,0.502460646,0,0,0,131.2, 0.6, -0.7,0,0,1024,1024,1024,1024,131.3,-89.9,56,3.796,3.805,3.801,3.785,0,0,12.88,111.11,6,P-GPS,
0.36481544580045,36.8999812758434,5782.6554353731,199.803156,0,0.42232940984,661600,2018-04-03 06:12:18,19,0,15.129,5782.9835193731,200.13124,0.223694,0.502460646,0,0,0,131.3, 0.3, -0.4,0,0,1024,1024,1024,1024,131.3,-89.9,56,3.796,3.805,3.801,3.785,0,0,12.88,111.11,6,P-GPS,Setting new Return-To-Home altitude to 30m (98 ft). Setting new Maximum Flight Altitude to 150m (492 ft)
0.36481547257207,36.8999813296992,5782.6554353731,199.803156,0,0.41494095816,661700,2018-04-03 06:12:18,19,0,15.129,5782.9835193731,200.13124,0.223694,0.502460646,0,0,0,131.5, 0.2, 0,0,0,1024,1024,1024,1024,131.3,-89.9,56,3.796,3.805,3.801,3.785,0,0,12.88,111.11,6,P-GPS,
0.364815504229021,36.8999813631364,5782.6554353731,199.803156,0,0.41491471144,661800,2018-04-03 06:12:18,19,0,15.129,5782.9835193731,200.13124,0.223694,0.502460646,0,0,0,131.6, 0.3, 0,0,0,1024,1024,1024,1024,131.3,-89.9,56,3.796,3.805,3.801,3.785,0,0,12.88,111.11,6,P-GPS,
0.364815521008508,36.8999814042477,5782.6554353731,199.803156,0,0.40961615484,661900,2018-04-03 06:12:18,19,0,15.129,5782.9835193731,200.13124,0.223694,0.502460646,0,0,0,131.6, 0.3, 0,0,0,1024,1024,1024,1024,131.3,-89.9,56,3.796,3.805,3.801,3.785,0,0,12.88,111.11,6,P-GPS,
0.364815496881482,36.8999814627628,5782.6554353731,199.803156,0,0.38924870012,662000,2018-04-03 06:12:18,19,0,15.129,5782.9835193731,200.13124,0.223694,0.502460646,0,0,0,131.7, 0.8, 0,0,0,1024,1024,1024,1024,131.3,-89.9,56,3.796,3.805,3.801,3.785,0,0,12.88,111.11,6,P-GPS,
0.364815462827461,36.8999815295002,5782.6554353731,199.803156,0,0.36450788568,662100,2018-04-03 06:12:18,19,0,15.129,5782.9835193731,200.13124,0.223694,0.502460646,0,0,0,131.6, 1.2, 0,0,0,1024,1024,1024,1024,131.3,-89.9,56,3.796,3.805,3.801,3.785,0,0,12.88,111.11,6,P-GPS,
0.364815417348277,36.899981594182,5782.6554353731,199.803156,0,0.33718505016,662200,2018-04-03 06:12:18,19,0,15.129,5782.9835193731,200.13124,0.223694,0.502460646,0,0,0,131.6, 1.2, -0.1,0,0,1024,1024,1024,1024,131.3,-89.9,56,3.796,3.805,3.801,3.785,0,0,12.88,111.11,6,P-GPS,
0.364815371647625,36.89998165996,5782.6554353731,199.803156,0,0.309852700204,662300,2018-04-03 06:12:18,19,0,15.129,5782.9835193731,200.13124,0.223694,0.502460646,0,0,0,131.6, 1.4, 0,0,0,1024,1024,1024,1024,131.3,-89.9,56,3.796,3.805,3.801,3.785,0,0,12.88,111.11,6,P-GPS,
0.364815334857818,36.8999817134047,5782.6554353731,199.803156,0,0.288023631264,662400,2018-04-03 06:12:18,19,0,15.129,5782.9835193731,200.13124,0.223694,0.502460646,0,0,0,131.6, 1.8, 0,0,0,1024,1024,1024,1024,131.3,-89.9,56,3.796,3.805,3.801,3.785,0,0,12.88,111.11,6,P-GPS,
0.364815290668361,36.8999817642457,5782.6554353731,199.803156,0,0.264646333928,662500,2018-04-03 06:12:18,19,0,15.129,5782.9835193731,200.13124,0.223694,0.502460646,0,0,0,131.5, 2.1, -0.2,0,0,1024,1024,1024,1024,131.3,-89.9,56,3.796,3.805,3.801,3.785,0,0,12.88,111.11,6,P-GPS,
0.36481524075981,36.899981827146,5782.6554353731,199.803156,0,0.2375984328,662600,2018-04-03 06:12:18,19,0,15.103,5782.9835193731,200.13124,0.223694,0.502460646,0,0,0,131.5, 2.1, -0.1,0,0,1024,1024,1024,1024,131.3,-89.9,56,3.794,3.805,3.801,3.785,0,0,13.178,111.11,6,P-GPS,
0.364815190173825,36.8999818922389,5782.6554353731,199.803156,0,0.210596463432,662700,2018-04-03 06:12:19,19,0,15.103,5782.9835193731,200.13124,0.223694,0.502460646,0,0,0,131.5, 2.7, 0.6,0,0,1024,1024,1024,1024,131.3,-89.9,56,3.794,3.805,3.801,3.785,0,0,13.178,111.11,6,P-GPS,
0.364815128475339,36.899981939654,5782.9835193731,200.13124,0,0.183081698772,662800,2018-04-03 06:12:19,19,0,15.103,5782.9835193731,200.13124,0.223694,0.502460646,0,0,0,131.5, 2.8, 0.5,0,0,1024,1024,1024,1024,131.3,-89.9,56,3.794,3.805,3.801,3.785,0,0,13.178,111.11,6,P-GPS,
0.364815061865466,36.8999819539059,5782.9835193731,200.13124,0,0.158678154684,662900,2018-04-03 06:12:19,19,0,15.103,5782.9835193731,200.13124,0.223694,0.502460646,0,0,0,131.5, 2.7, 0,0,0,1024,1024,1024,1024,131.3,-89.9,56,3.794,3.805,3.801,3.785,0,0,13.178,111.11,6,P-GPS,
0.36481499399192,36.8999819462318,5782.9835193731,200.13124,0,0.137725070024,663000,2018-04-03 06:12:19,19,0,15.103,5782.9835193731,200.13124,0.223694,0.502460646,0,0,0,131.5, 2.1, -1,0,0,1024,1024,1024,1024,131.3,-90,56,3.794,3.805,3.801,3.785,0,0,13.178,111.11,6,P-GPS,
0.364814928632692,36.8999819389688,5782.9835193731,200.13124,0,0.118975725592,663100,2018-04-03 06:12:19,19,0,15.103,5782.9835193731,200.13124,0.223694,0.502460646,0,0,0,131.5, 2.5, -1,0,0,1024,1024,1024,1024,131.3,-89.9,56,3.794,3.805,3.801,3.785,0,0,13.178,111.11,6,P-GPS,
0.364814840905157,36.8999819273206,5782.9835193731,200.13124,0,0.098013126496,663200,2018-04-03 06:12:19,19,0,15.103,5782.9835193731,200.13124,0.223694,0.502460646,0,0,0,131.6, 3.4, -0.3,0,0,1024,1024,1024,1024,131.3,-90,56,3.794,3.805,3.801,3.785,0,0,13.178,111.11,6,P-GPS,
0.364814765058749,36.8999818953908,5782.9835193731,200.13124,0,0.093021984604,663300,2018-04-03 06:12:19,19,0,15.103,5782.9835193731,200.13124,0.223694,0.502460646,0,0,0,131.6, 2.8, -0.4,0,0,1024,1024,1024,1024,131.3,-90,56,3.794,3.805,3.801,3.785,0,0,13.178,111.11,6,P-GPS,
0.364814693511434,36.8999818470165,5782.9835193731,200.13124,0,0.103606958696,663400,2018-04-03 06:12:19,19,0,15.103,5782.9835193731,200.13124,0.223694,0.502460646,0,0,0,131.6, 2.3, -1.2,0,0,1024,1024,1024,1024,131.4,-89.9,56,3.794,3.805,3.801,3.785,0,0,13.178,111.11,6,P-GPS,
0.364814619267415,36.899981798094,5782.9835193731,200.13124,0,0.121987208628,663500,2018-04-03 06:12:19,19,0,15.103,5782.9835193731,200.13124,0.223694,0.502460646,0,0,0,131.7, 2.3, -2,0,0,1024,1024,1024,1024,131.4,-89.9,56,3.794,3.805,3.801,3.785,0,0,13.178,111.11,6,P-GPS,
0.364814525364821,36.8999817409493,5782.9835193731,200.13124,0,0.15049049038,663600,2018-04-03 06:12:19,19,0,15.156,5782.9835193731,200.13124,0.223694,0.502460646,0,0,0,131.8, 2.5, -2.6,0,0,1024,1024,1024,1024,131.4,-89.9,56,3.794,3.804,3.8,3.785,0,0,13.162,111.11,6,P-GPS,
0.364814458559534,36.8999817091566,5782.9835193731,200.13124,0,0.17067257764,663700,2018-04-03 06:12:19,19,0,15.156,5782.9835193731,200.13124,0.223694,0.502460646,0,0,0,131.8, 3.3, -2.5,0,0,1024,1024,1024,1024,131.4,-89.9,56,3.794,3.804,3.8,3.785,0,0,13.162,111.11,6,P-GPS,
0.364814445154183,36.8999817301233,5782.9835193731,200.13124,0,0.166128286156,663800,2018-04-03 06:12:20,19,0,15.156,5782.9835193731,200.13124,0.223694,0.502460646,0,0,0.223694,131.9, 3.5, -1.3,0,0,1024,1024,1024,1024,131.4,-89.9,56,3.794,3.804,3.8,3.785,0,0,13.162,111.11,6,P-GPS,
0.364814471482866,36.8999817442382,5782.9835193731,200.13124,0,0.157108928912,663900,2018-04-03 06:12:20,19,0,15.156,5782.9835193731,200.13124,0.223694,0.502460646,0,0,0,131.8, 1.9, -0.6,0,0,1024,1024,1024,1024,131.4,-89.9,56,3.794,3.804,3.8,3.785,0,0,13.162,111.11,6,P-GPS,
0.364814494007503,36.8999817386197,5782.9835193731,200.13124,0,0.155489178204,664000,2018-04-03 06:12:20,19,0,15.156,5782.9835193731,200.13124,0.223694,0.502460646,0,0,0,131.8, 1.7, -0.3,0,0,1024,1024,1024,1024,131.4,-89.9,56,3.794,3.804,3.8,3.785,0,0,13.162,111.11,6,P-GPS,
0.364814502514494,36.8999817413604,5782.9835193731,200.13124,0,0.153354007532,664100,2018-04-03 06:12:20,19,0,15.156,5782.9835193731,200.13124,0.223694,0.502460646,0,0,0,131.7, 2.5, -1.1,0,0,1024,1024,1024,1024,131.4,-89.9,56,3.794,3.804,3.8,3.785,0,0,13.162,111.11,6,P-GPS,
0.364814508259645,36.899981787131,5782.9835193731,200.13124,0,0.137204072632,664200,2018-04-03 06:12:20,19,0,15.156,5782.9835193731,200.13124,0.223694,0.502460646,0,0,0,131.8, 2.7, -2.1,0,0,1024,1024,1024,1024,131.4,-89.9,56,3.794,3.804,3.8,3.785,0,0,13.162,111.11,6,P-GPS,
0.364814551146346,36.8999818530462,5782.9835193731,200.13124,0,0.108919622908,664300,2018-04-03 06:12:20,19,0,15.156,5782.9835193731,200.13124,0.223694,0.502460646,0,0,0,131.9, 2.4, -0.5,0,0,1024,1024,1024,1024,131.4,-89.9,56,3.794,3.804,3.8,3.785,0,0,13.162,111.11,6,P-GPS,
0.364814591544785,36.8999819189613,5782.9835193731,200.13124,0,0.08121227294,664400,2018-04-03 06:12:20,19,0,15.156,5782.9835193731,200.13124,0.223694,0.502460646,0,0,0,131.7, 2.5, 0.1,0,0,1024,1024,1024,1024,131.4,-89.9,56,3.794,3.804,3.8,3.785,0,0,13.162,111.11,6,P-GPS,
0.364814626172018,36.8999819751467,5782.9835193731,200.13124,0,0.057959647524,664500,2018-04-03 06:12:20,19,0,15.156,5782.9835193731,200.13124,0.223694,0.502460646,0,0,0,131.5, 3, 0.6,0,0,1024,1024,1024,1024,131.4,-90,56,3.794,3.804,3.8,3.785,0,0,13.162,111.11,6,P-GPS,
0.36481466745633,36.8999820237951,5782.9835193731,200.13124,0,0.038568898872,664600,2018-04-03 06:12:20,19,0,15.129,5782.9835193731,200.13124,0.223694,0.502460646,0,0,0,131.4, 2.3, 1.7,0,0,1024,1024,1024,1024,131.4,-89.9,56,3.793,3.802,3.798,3.781,0,0,13.392,111.11,6,P-GPS,
0.364814683467191,36.8999820484619,5782.9835193731,200.13124,0,0.030394029844,664700,2018-04-03 06:12:21,19,0,15.129,5782.9835193731,200.13124,0.223694,0.502460646,0,0,0,131.4, 2.9, 1.3,0,0,1024,1024,1024,1024,131.4,-89.9,56,3.793,3.802,3.798,3.781,0,0,13.392,111.11,6,P-GPS,
0.364814669592849,36.8999820469545,5782.9835193731,200.13124,0,0.0301685377108,664800,2018-04-03 06:12:21,19,0,15.129,5782.9835193731,200.13124,0.223694,0.502460646,0,0,0,131.5, 3.1, -0.1,0,0,1024,1024,1024,1024,131.4,-90,56,3.793,3.802,3.798,3.781,0,0,13.392,111.11,6,P-GPS,
0.364814661268243,36.89998202681,5782.9835193731,200.13124,0,0.03746063112,664900,2018-04-03 06:12:21,19,0,15.129,5782.9835193731,200.13124,0.223694,0.502460646,0,0,0,131.5, 2.2, -0.1,0,0,1024,1024,1024,1024,131.4,-89.9,56,3.793,3.802,3.798,3.781,0,0,13.392,111.11,6,P-GPS,
0.364814630080283,36.8999820263988,5782.9835193731,200.13124,0,0.03957677292,665000,2018-04-03 06:12:21,19,0,15.129,5782.9835193731,200.13124,0.223694,0.502460646,0,0,0,131.5, 2.4, -1,0,0,1024,1024,1024,1024,131.4,-89.9,56,3.793,3.802,3.798,3.781,0,0,13.392,111.11,6,P-GPS,
0.364814595922042,36.8999820285914,5782.9835193731,200.13124,0,0.04438648436,665100,2018-04-03 06:12:21,19,0,15.129,5782.9835193731,200.13124,0.223694,0.502460646,0,0,0,131.6, 3.3, -0.9,0,0,1024,1024,1024,1024,131.4,-89.9,56,3.793,3.802,3.798,3.781,0,0,13.392,111.11,6,P-GPS,
0.364814591219096,36.89998204161,5782.9835193731,200.13124,0,0.041608597132,665200,2018-04-03 06:12:21,19,0,15.129,5782.9835193731,200.13124,0.223694,0.502460646,0,0,0,131.7, 3.3, -0.1,0,0,1024,1024,1024,1024,131.4,-89.9,56,3.793,3.802,3.798,3.781,0,0,13.392,111.11,6,P-GPS,
0.364814593042953,36.8999820277692,5782.9835193731,200.13124,0,0.04522801982,665300,2018-04-03 06:12:21,19,0,15.129,5782.9835193731,200.13124,0.223694,0.502460646,0,0,0,131.7, 2.8, -0.4,0,0,1024,1024,1024,1024,131.4,-89.9,56,3.793,3.802,3.798,3.781,0,0,13.392,111.11,6,P-GPS,
0.364814605054356,36.8999819787097,5782.9835193731,200.13124,0,0.059045933648,665400,2018-04-03 06:12:21,19,0,15.129,5782.9835193731,200.13124,0.223694,0.502460646,0,0,0,131.6, 2.8, -1,0,0,1024,1024,1024,1024,131.4,-89.9,56,3.793,3.802,3.798,3.781,0,0,13.392,111.11,6,P-GPS,
0.36481461663585,36.8999819344466,5782.9835193731,200.13124,0,0.07321030418,665500,2018-04-03 06:12:21,19,0,15.129,5782.9835193731,200.13124,0.223694,0.502460646,0,0,0,131.5, 2.4, -1.6,0,0,1024,1024,1024,1024,131.4,-89.9,56,3.793,3.802,3.798,3.781,0,0,13.392,111.11,6,P-GPS,
0.364814640020306,36.8999819259502,5782.9835193731,200.13124,0,0.07475722024,665600,2018-04-03 06:12:21,19,0,15.129,5782.9835193731,200.13124,0.223694,0.502460646,0,0,0,131.5, 2.2, -1.5,0,0,1024,1024,1024,1024,131.4,-89.9,56,3.793,3.802,3.798,3.781,0,0,13.392,111.11,6,P-GPS,
0.364814670270281,36.8999819422577,5782.9835193731,200.13124,0,0.06833497594,665700,2018-04-03 06:12:21,19,0,15.129,5782.9835193731,200.13124,0.223694,0.502460646,0,0,0.223694,131.4, 2.6, -0.9,0,0,1024,1024,1024,1024,131.4,-90,56,3.793,3.802,3.798,3.781,0,0,13.392,111.11,6,P-GPS,
0.364814705991829,36.8999819913172,5782.9835193731,200.13124,0,0.052679463628,665800,2018-04-03 06:12:22,19,0,15.129,5782.9835193731,200.13124,0.223694,0.502460646,0,0,0,131.3, 2.7, -0.3,0,0,1024,1024,1024,1024,131.4,-90,56,3.793,3.802,3.798,3.781,0,0,13.392,111.11,6,P-GPS,
0.364814744266776,36.8999820384582,5782.9835193731,200.13124,0,0.044280513228,665900,2018-04-03 06:12:22,19,0,15.129,5782.9835193731,200.13124,0.223694,0.502460646,0,0,0,131.2, 2.6, 0.2,0,0,1024,1024,1024,1024,131.4,-89.9,56,3.793,3.802,3.798,3.781,0,0,13.392,111.11,6,P-GPS,
0.364814799073688,36.8999820834065,5782.9835193731,200.13124,0,0.052082678832,666000,2018-04-03 06:12:22,19,0,15.129,5782.9835193731,200.13124,0.223694,0.502460646,0,0,0,131.2, 2.8, 0.8,0,0,1024,1024,1024,1024,131.4,-89.9,56,3.793,3.802,3.798,3.781,0,0,13.392,111.11,6,P-GPS,
0.364814833766059,36.8999821139659,5782.9835193731,200.13124,0,0.062213584668,666100,2018-04-03 06:12:22,19,0,15.129,5782.9835193731,200.13124,0.223694,0.502460646,0,0,0,131.2, 2.8, 0.1,0,0,1024,1024,1024,1024,131.4,-89.9,56,3.793,3.802,3.798,3.781,0,0,13.392,111.11,6,P-GPS,
0.364814868210906,36.899982154118,5782.9835193731,200.13124,0,0.075065291116,666200,2018-04-03 06:12:22,19,0,15.129,5782.9835193731,200.13124,0.223694,0.502460646,0,0,0,131.1, 3.2, -0.5,0,0,1024,1024,1024,1024,131.4,-89.9,56,3.793,3.802,3.798,3.781,0,0,13.392,111.11,6,P-GPS,
0.364814910263844,36.8999821927626,5782.9835193731,200.13124,0,0.092787732628,666300,2018-04-03 06:12:22,19,0,15.129,5782.9835193731,200.13124,0.223694,0.502460646,0,0,0,131, 3.2, -0.3,0,0,1024,1024,1024,1024,131.4,-89.9,56,3.793,3.802,3.798,3.781,0,0,13.392,111.11,6,P-GPS,
0.364814947131816,36.8999822115368,5782.9835193731,200.13124,0,0.107570869584,666400,2018-04-03 06:12:22,19,0,15.129,5782.9835193731,200.13124,0.223694,0.502460646,0,0,0,130.9, 3.1, 0.6,0,0,1024,1024,1024,1024,131.4,-89.9,56,3.793,3.802,3.798,3.781,0,0,13.392,111.11,6,P-GPS,
0.364814981811159,36.899982219485,5782.6554353731,199.803156,0,0.12053314034,666500,2018-04-03 06:12:22,19,0,15.129,5782.9835193731,200.13124,0.223694,0.502460646,0,0,0,130.9, 3, 0.7,0,0,1024,1024,1024,1024,131.4,-89.9,56,3.793,3.802,3.798,3.781,0,0,13.392,111.11,6,P-GPS,
0.364815019330509,36.8999822286665,5782.9835193731,200.13124,0,0.13461778646,666600,2018-04-03 06:12:22,18,0,15.156,5782.9835193731,200.13124,0.223694,0.502460646,0,0,0,130.9, 3.2, 0.5,0,0,1024,1024,1024,1024,131.4,-89.9,56,3.792,3.801,3.797,3.782,0,0,13.318,111.11,6,P-GPS,
0.364815057019217,36.8999822203072,5782.9835193731,200.13124,0,0.14719160576,666700,2018-04-03 06:12:23,18,0,15.156,5782.9835193731,200.13124,0.223694,0.502460646,0,0,0,130.9, 3.1, 0.5,0,0,1024,1024,1024,1024,131.4,-90,56,3.792,3.801,3.797,3.782,0,0,13.318,111.11,6,P-GPS,
0.364815105260242,36.8999821815255,5782.9835193731,200.13124,0,0.162128286028,666800,2018-04-03 06:12:23,18,0,15.156,5782.9835193731,200.13124,0.223694,0.502460646,0,0,0,130.9, 2.8, 0.2,0,0,1024,1024,1024,1024,131.4,-90,56,3.792,3.801,3.797,3.782,0,0,13.318,111.11,6,P-GPS,
0.36481514752162,36.8999821273956,5782.9835193731,200.13124,0,0.176431764176,666900,2018-04-03 06:12:23,18,0,15.156,5782.9835193731,200.13124,0.223694,0.502460646,0,0,0,130.9, 2.7, 0,0,0,1024,1024,1024,1024,131.4,-90,56,3.792,3.801,3.797,3.782,0,0,13.318,111.11,6,P-GPS,
0.364815204373857,36.8999820771028,5782.9835193731,200.13124,0,0.19809547878,667000,2018-04-03 06:12:23,18,0,15.156,5782.9835193731,200.13124,0.223694,0.502460646,0,0,0,130.8, 2.3, -0.2,0,0,1024,1024,1024,1024,131.4,-90,56,3.792,3.801,3.797,3.782,0,0,13.318,111.11,6,P-GPS,
0.364815260613799,36.8999820226988,5782.9835193731,200.13124,0,0.22114830104,667100,2018-04-03 06:12:23,18,0,15.156,5782.9835193731,200.13124,0.223694,0.502460646,0,0,0,130.8, 2.1, 0,0,0,1024,1024,1024,1024,131.4,-90,56,3.792,3.801,3.797,3.782,0,0,13.318,111.11,6,P-GPS,
0.364815321400356,36.8999819637726,5782.9835193731,200.13124,0,0.24736877432,667200,2018-04-03 06:12:23,18,0,15.156,5782.9835193731,200.13124,0.223694,0.502460646,0,0,0,130.7, 1.8, 0,0,0,1024,1024,1024,1024,131.4,-89.9,56,3.792,3.801,3.797,3.782,0,0,13.318,111.11,6,P-GPS,
0.364815369315693,36.8999819016945,5782.9835193731,200.13124,0,0.270434063772,667300,2018-04-03 06:12:23,18,0,15.156,5782.9835193731,200.13124,0.223694,0.502460646,0,0,0,130.8, 1.7, -0.2,0,0,1024,1024,1024,1024,131.4,-90,56,3.792,3.801,3.797,3.782,0,0,13.318,111.11,6,P-GPS,
0.364815417804241,36.8999818504424,5782.9835193731,200.13124,0,0.293275271852,667400,2018-04-03 06:12:23,18,0,15.156,5782.9835193731,200.13124,0.223694,0.502460646,0,0,0,130.8, 1.8, -0.1,0,0,1024,1024,1024,1024,131.4,-89.9,56,3.792,3.801,3.797,3.782,0,0,13.318,111.11,6,P-GPS,
0.364815459687821,36.8999818005607,5782.9835193731,200.13124,0,0.31414371084,667500,2018-04-03 06:12:23,18,0,15.156,5782.9835193731,200.13124,0.223694,0.502460646,0,0,0,130.8, 1.7, -0.1,0,0,1024,1024,1024,1024,131.3,-90,56,3.792,3.801,3.797,3.782,0,0,13.318,111.11,6,P-GPS,
0.364815542308555,36.8999817210789,5782.9835193731,200.13124,0,0.35340880396,667700,2018-04-03 06:12:23,18,0,15.156,5782.9835193731,200.13124,0.223694,0.502460646,0,0,0,130.9, 1.9, -0.2,0,0,1024,1024,1024,1024,131.3,-90,56,3.792,3.801,3.797,3.782,0,0,13.318,111.11,6,P-GPS,
0.364815592217107,36.8999817184751,5782.9835193731,200.13124,0,0.37038387012,667800,2018-04-03 06:12:24,19,0,15.156,5782.9835193731,200.13124,0.223694,0.502460646,0,0,0,130.8, 1.9, -0.1,0,0,1024,1024,1024,1024,131.3,-90,56,3.792,3.801,3.797,3.782,0,0,13.318,111.11,6,P-GPS,
0.364815636719225,36.8999817036751,5782.6554353731,199.803156,0,0.38742127224,667900,2018-04-03 06:12:24,19,0,15.156,5782.9835193731,200.13124,0.223694,0.502460646,0,0,0,130.8, 1.9, 0,0,0,1024,1024,1024,1024,131.3,-90,56,3.792,3.801,3.797,3.782,0,0,13.318,111.11,6,P-GPS,
0.364815653459629,36.8999816799676,5782.6554353731,199.803156,0,0.3965223224,668000,2018-04-03 06:12:24,19,0,15.156,5782.9835193731,200.13124,0.223694,0.502460646,0,0,0,130.9, 1.7, -0.2,0,0,1024,1024,1024,1024,131.3,-89.9,56,3.792,3.801,3.797,3.782,0,0,13.318,111.11,6,P-GPS,
0.3648156695226,36.8999816498193,5782.6554353731,199.803156,0,0.40647639096,668100,2018-04-03 06:12:24,19,0,15.156,5782.9835193731,200.13124,0.223694,0.502460646,0,0,0,130.9, 1.8, -0.3,0,0,1024,1024,1024,1024,131.3,-90,56,3.792,3.801,3.797,3.782,0,0,13.318,111.11,6,P-GPS,
0.364815699512025,36.8999816130932,5782.6554353731,199.803156,0,0.42218505288,668200,2018-04-03 06:12:24,19,0,15.156,5782.9835193731,200.13124,0.223694,0.502460646,0,0,0,130.9, 1.7, -0.2,0,0,1024,1024,1024,1024,131.3,-89.9,56,3.792,3.801,3.797,3.782,0,0,13.318,111.11,6,P-GPS,
0.364815731794299,36.8999815733522,5782.6554353731,199.803156,0,0.43926510592,668300,2018-04-03 06:12:24,19,0,15.156,5782.9835193731,200.13124,0.223694,0.502460646,0,0,0,130.9, 1.3, -0.3,0,0,1024,1024,1024,1024,131.3,-90,56,3.792,3.801,3.797,3.782,0,0,13.318,111.11,6,P-GPS,
0.364815740744227,36.899981532515,5782.6554353731,199.803156,0,0.4491962086,668400,2018-04-03 06:12:24,19,0,15.156,5782.9835193731,200.13124,0.223694,0.502460646,0,0,0,130.9, 1.4, -0.5,0,0,1024,1024,1024,1024,131.3,-89.9,56,3.792,3.801,3.797,3.782,0,0,13.318,111.11,6,P-GPS,
0.364815746841121,36.8999814979815,5782.6554353731,199.803156,0,0.45735565768,668500,2018-04-03 06:12:24,19,0,15.156,5782.9835193731,200.13124,0.223694,0.502460646,0,0,0,130.9, 1.8, -0.6,0,0,1024,1024,1024,1024,131.3,-90,56,3.792,3.801,3.797,3.782,0,0,13.318,111.11,6,P-GPS,
0.364815773313107,36.8999814605702,5782.6554353731,199.803156,0,0.47262796788,668600,2018-04-03 06:12:25,19,0,15.129,5782.9835193731,200.13124,0.223694,0.502460646,0,0,0,131, 1.4, -0.5,0,0,1024,1024,1024,1024,131.3,-89.9,56,3.792,3.801,3.798,3.783,0,0,13.062,111.11,6,P-GPS,
0.364815803550055,36.8999814291886,5782.6554353731,199.803156,0,0.48800198412,668700,2018-04-03 06:12:25,19,0,15.129,5782.9835193731,200.13124,0.223694,0.502460646,0,0,0,131, 1.3, -0.5,0,0,1024,1024,1024,1024,131.3,-90,56,3.792,3.801,3.798,3.783,0,0,13.062,111.11,6,P-GPS,
0.364815818753208,36.8999813905439,5782.6554353731,199.803156,0,0.50019358556,668800,2018-04-03 06:12:25,19,0,15.129,5782.9835193731,200.13124,0.223694,0.502460646,0,0,0,131, 1.5, -0.3,0,0,1024,1024,1024,1024,131.3,-90,56,3.792,3.801,3.798,3.783,0,0,13.062,111.11,6,P-GPS,
0.364815830113234,36.8999813572438,5782.6554353731,199.803156,0,0.51029529192,668900,2018-04-03 06:12:25,19,0,15.129,5782.9835193731,200.13124,0.223694,0.51029529192,0,0,0,131, 1.7, -0.3,0,0,1024,1024,1024,1024,131.3,-90,56,3.792,3.801,3.798,3.783,0,0,13.062,111.11,6,P-GPS,
0.364815822726612,36.8999813064028,5782.6554353731,199.803156,0,0.51856628956,669000,2018-04-03 06:12:25,19,0,15.129,5782.9835193731,200.13124,0.223694,0.51856628956,0,0,0,131, 1.5, -0.6,0,0,1024,1024,1024,1024,131.3,-89.9,56,3.792,3.801,3.798,3.783,0,0,13.062,111.11,6,P-GPS,
0.364815823039273,36.8999812648804,5782.6554353731,199.803156,0,0.5275754762,669100,2018-04-03 06:12:25,19,0,15.129,5782.9835193731,200.13124,0.223694,0.5275754762,0,0,0,131, 1.5, -0.6,0,0,1024,1024,1024,1024,131.3,-89.9,56,3.792,3.801,3.798,3.783,0,0,13.062,111.11,6,P-GPS,
0.364815852025576,36.8999812445988,5782.6554353731,199.803156,0,0.54047573908,669200,2018-04-03 06:12:25,19,0,15.129,5782.9835193731,200.13124,0.223694,0.54047573908,0,0,0,131, 1.6, -0.5,0,0,1024,1024,1024,1024,131.3,-89.9,56,3.792,3.801,3.798,3.783,0,0,13.062,111.11,6,P-GPS,
0.364815883005095,36.8999812266469,5782.6554353731,199.803156,0,0.55345474212,669300,2018-04-03 06:12:25,19,0,15.129,5782.9835193731,200.13124,0.223694,0.55345474212,0,0,0,131, 1.4, -0.7,0,0,1024,1024,1024,1024,131.3,-90,56,3.792,3.801,3.798,3.783,0,0,13.062,111.11,6,P-GPS,
0.364815906532854,36.8999811947171,5782.6554353731,199.803156,0,0.56730316776,669400,2018-04-03 06:12:25,19,0,15.129,5782.9835193731,200.13124,0.223694,0.56730316776,0,0,0,131, 1.3, -0.8,0,0,1024,1024,1024,1024,131.3,-89.9,56,3.792,3.801,3.798,3.783,0,0,13.062,111.11,6,P-GPS,
0.364815933421721,36.8999811716947,5782.6554353731,199.803156,0,0.58019358812,669500,2018-04-03 06:12:25,19,0,15.129,5782.9835193731,200.13124,0.223694,0.58019358812,0,0,0,131, 1.4, -0.5,0,0,1024,1024,1024,1024,131.3,-90,56,3.792,3.801,3.798,3.783,0,0,13.062,111.11,6,P-GPS,
0.364815948989645,36.8999811686799,5782.6554353731,199.803156,0,0.58539371952,669600,2018-04-03 06:12:25,19,0,15.129,5782.9835193731,200.13124,0.223694,0.58539371952,0,0,0,131, 1.1, -0.4,0,0,1024,1024,1024,1024,131.3,-89.9,56,3.792,3.801,3.798,3.783,0,0,13.062,111.11,6,P-GPS,
0.364815966720144,36.8999811692281,5782.6554353731,199.803156,0,0.590469179,669700,2018-04-03 06:12:25,19,0,15.129,5782.9835193731,200.13124,0.223694,0.590469179,0,0,0,131, 1, -0.4,0,0,1024,1024,1024,1024,131.3,-89.9,56,3.792,3.801,3.798,3.783,0,0,13.062,111.11,6,P-GPS,
0.364815997934158,36.8999811863578,5782.6554353731,199.803156,0,0.596046607,669800,2018-04-03 06:12:26,19,0,15.129,5782.9835193731,200.13124,0.223694,0.596046607,0,0,0,131, 1.4, -0.3,0,0,1024,1024,1024,1024,131.3,-89.9,56,3.792,3.801,3.798,3.783,0,0,13.062,111.11,6,P-GPS,
0.364816031727628,36.8999812032134,5782.6554353731,199.803156,0,0.60268702716,669900,2018-04-03 06:12:26,19,0,15.129,5782.9835193731,200.13124,0.223694,0.60268702716,0,0,0,131, 1.5, -0.3,0,0,1024,1024,1024,1024,131.3,-90,56,3.792,3.801,3.798,3.783,0,0,13.062,111.11,6,P-GPS,
0.364816049028217,36.8999812200691,5782.6554353731,199.803156,0,0.60452429756,670000,2018-04-03 06:12:26,19,0,15.129,5782.9835193731,200.13124,0.223694,0.60452429756,0,0,0,131.1, 1.3, -0.1,0,0,1024,1024,1024,1024,131.3,-89.9,56,3.792,3.801,3.798,3.783,0,0,13.062,111.11,6,P-GPS,
0.364816068686793,36.8999812341839,5782.6554353731,199.803156,0,0.60774936328,670100,2018-04-03 06:12:26,19,0,15.129,5782.9835193731,200.13124,0.223694,0.60774936328,0,0,0,131.1, 1.4, 0.2,0,0,1024,1024,1024,1024,131.3,-90,56,3.792,3.801,3.798,3.783,0,0,13.062,111.11,6,P-GPS,
0.364816098220253,36.8999812376099,5782.6554353731,199.803156,0,0.61620408796,670200,2018-04-03 06:12:26,19,0,15.129,5782.9835193731,200.13124,0.223694,0.61620408796,0,0,0,131.1, 1.3, 0.1,0,0,1024,1024,1024,1024,131.3,-90,56,3.792,3.801,3.798,3.783,0,0,13.062,111.11,6,P-GPS,
0.364816122477555,36.8999812365136,5782.6554353731,199.803156,0,0.62394687036,670300,2018-04-03 06:12:26,19,0,15.129,5782.9835193731,200.13124,0.223694,0.62394687036,0,0,0,131.1, 1.1, -0.2,0,0,1024,1024,1024,1024,131.3,-90,56,3.792,3.801,3.798,3.783,0,0,13.062,111.11,6,P-GPS,
0.36481612441866,36.8999812324024,5782.6554353731,199.803156,0,0.62533466568,670400,2018-04-03 06:12:26,19,0,15.129,5782.9835193731,200.13124,0.223694,0.62533466568,0,0,0,131.1, 1.3, -0.2,0,0,1024,1024,1024,1024,131.3,-90,56,3.792,3.801,3.798,3.783,0,0,13.062,111.11,6,P-GPS,
0.364816128991331,36.8999812325395,5782.6554353731,199.803156,0,0.62672902268,670500,2018-04-03 06:12:26,19,0,15.129,5782.9835193731,200.13124,0.223694,0.62672902268,0,0,0,131.2, 1.2, -0.2,0,0,1024,1024,1024,1024,131.3,-89.9,56,3.792,3.801,3.798,3.783,0,0,13.062,111.11,6,P-GPS,
0.364816155437262,36.8999812358284,5782.6554353731,199.803156,0,0.63436025652,670600,2018-04-03 06:12:26,19,0,15.103,5782.9835193731,200.13124,0.223694,0.63436025652,0,0,0,131.2, 1.4, -0.1,0,0,1024,1024,1024,1024,131.3,-89.9,56,3.791,3.801,3.798,3.782,0,0,13.044,111.11,6,P-GPS,
0.364816183589801,36.8999812407617,5782.6554353731,199.803156,0,0.64228348512,670700,2018-04-03 06:12:27,19,0,15.103,5782.9835193731,200.13124,0.223694,0.64228348512,0,0,0,131.2, 1.5, 0.1,0,0,1024,1024,1024,1024,131.3,-90,56,3.791,3.801,3.798,3.782,0,0,13.044,111.11,6,P-GPS,
0.364816199131671,36.8999812369247,5782.6554353731,199.803156,0,0.64788715984,670800,2018-04-03 06:12:27,19,0,15.103,5782.9835193731,200.13124,0.223694,0.64788715984,0,0,0,131.2, 1.2, 0,0,0,1024,1024,1024,1024,131.3,-90,56,3.791,3.801,3.798,3.782,0,0,13.044,111.11,6,P-GPS,
0.364816209201969,36.8999812314432,5782.6554353731,199.803156,0,0.65207023084,670900,2018-04-03 06:12:27,19,0,15.103,5782.9835193731,200.13124,0.223694,0.65207023084,0,0,0,131.2, 1.2, 0,0,0,1024,1024,1024,1024,131.3,-90,56,3.791,3.801,3.798,3.782,0,0,13.044,111.11,6,P-GPS,
0.364816204160306,36.8999812251394,5782.6554353731,199.803156,0,0.6516404408,671000,2018-04-03 06:12:27,19,0,15.103,5782.9835193731,200.13124,0.223694,0.65207023084,0,0,0,131.2, 1.4, -0.1,0,0,1024,1024,1024,1024,131.3,-89.9,56,3.791,3.801,3.798,3.782,0,0,13.044,111.11,6,P-GPS,
0.364816202544889,36.8999812188357,5782.6554353731,199.803156,0,0.65229988964,671100,2018-04-03 06:12:27,19,0,15.103,5782.9835193731,200.13124,0.223694,0.65229988964,0,0,0,131.2, 1.3, -0.1,0,0,1024,1024,1024,1024,131.3,-89.9,56,3.791,3.801,3.798,3.782,0,0,13.044,111.11,6,P-GPS,
0.364816192122848,36.899981212532,5782.6554353731,199.803156,0,0.6502132754,671200,2018-04-03 06:12:27,19,0,15.103,5782.9835193731,200.13124,0.223694,0.65229988964,0,0,0,131.2, 1.2, 0,0,0,1024,1024,1024,1024,131.3,-89.9,56,3.791,3.801,3.798,3.782,0,0,13.044,111.11,6,P-GPS,
0.364816184045766,36.8999812092431,5782.6554353731,199.803156,0,0.64830710736,671300,2018-04-03 06:12:27,19,0,15.103,5782.9835193731,200.13124,0.223694,0.65229988964,0,0,0,131.2, 1.6, 0,0,0,1024,1024,1024,1024,131.3,-90,56,3.791,3.801,3.798,3.782,0,0,13.044,111.11,6,P-GPS,
0.364816172412162,36.899981205406,5782.6554353731,199.803156,0,0.64541012564,671400,2018-04-03 06:12:27,19,0,15.103,5782.9835193731,200.13124,0.223694,0.65229988964,0,0,0,131.2, 1.5, 0,0,0,1024,1024,1024,1024,131.3,-89.9,56,3.791,3.801,3.798,3.782,0,0,13.044,111.11,6,P-GPS,
0.364816163774895,36.8999811967726,5782.6554353731,199.803156,0,0.64438322272,671500,2018-04-03 06:12:27,19,0,15.103,5782.9835193731,200.13124,0.223694,0.65229988964,0,0,0,131.2, 1.3, 0,0,0,1024,1024,1024,1024,131.3,-89.9,56,3.791,3.801,3.798,3.782,0,0,13.044,111.11,6,P-GPS,
0.364816152857806,36.8999811571687,5782.6554353731,199.803156,0,0.64878939084,671600,2018-04-03 06:12:27,19,0,15.103,5782.9835193731,200.13124,0.223694,0.65229988964,0,0,0,131.2, 1.3, -0.1,0,0,1024,1024,1024,1024,131.3,-89.9,55,3.79,3.8,3.796,3.78,0,0,13.29,111.11,6,P-GPS,
0.364816142683288,36.8999811196204,5782.6554353731,199.803156,0,0.65331038836,671700,2018-04-03 06:12:28,19,0,15.103,5782.9835193731,200.13124,0.223694,0.65331038836,0,0,0,131.2, 1.5, -0.1,0,0,1024,1024,1024,1024,131.3,-89.9,55,3.79,3.8,3.796,3.78,0,0,13.29,111.11,6,P-GPS,
0.36481613501006,36.8999810901573,5782.6554353731,199.803156,0,0.65714569032,671800,2018-04-03 06:12:28,19,0,15.103,5782.9835193731,200.13124,0.223694,0.65714569032,0,0,0,131.2, 1.3, -0.2,0,0,1024,1024,1024,1024,131.3,-90,55,3.79,3.8,3.796,3.78,0,0,13.29,111.11,6,P-GPS,
0.364816130958491,36.8999810675461,5782.6554353731,199.803156,0,0.66074149096,671900,2018-04-03 06:12:28,19,0,15.103,5782.9835193731,200.13124,0.223694,0.66074149096,0,0,0,131.2, 1, -0.2,0,0,1024,1024,1024,1024,131.3,-89.9,55,3.79,3.8,3.796,3.78,0,0,13.29,111.11,6,P-GPS,
0.364816128352981,36.899981027394,5782.6554353731,199.803156,0,0.66867456208,672000,2018-04-03 06:12:28,19,0,15.103,5782.9835193731,200.13124,0.223694,0.66867456208,0,0,0,131.2, 1.4, 0,0,0,1024,1024,1024,1024,131.3,-89.9,55,3.79,3.8,3.796,3.78,0,0,13.29,111.11,6,P-GPS,
0.364816124640129,36.8999809910791,5782.6554353731,199.803156,0,0.6756561896,672100,2018-04-03 06:12:28,19,0,15.103,5782.9835193731,200.13124,0.223694,0.6756561896,0,0,0,131.2, 1.4, 0,0,0,1024,1024,1024,1024,131.3,-90,55,3.79,3.8,3.796,3.78,0,0,13.29,111.11,6,P-GPS,
0.364816122034618,36.8999809646308,5782.3273513731,199.475072,0,0.68088584856,672200,2018-04-03 06:12:28,19,0,15.103,5782.9835193731,200.13124,0.223694,0.68088584856,0,0,0,131.2, 1.2, -0.2,0,0,1024,1024,1024,1024,131.3,-89.9,55,3.79,3.8,3.796,3.78,0,0,13.29,111.11,6,P-GPS,
0.364816117318644,36.8999809425677,5782.3273513731,199.475072,0,0.68460632112,672300,2018-04-03 06:12:28,19,0,15.103,5782.9835193731,200.13124,0.223694,0.68460632112,0,0,0,131.2, 1, -0.4,0,0,1024,1024,1024,1024,131.3,-89.9,55,3.79,3.8,3.796,3.78,0,0,13.29,111.11,6,P-GPS,
0.364816081935813,36.8999809084453,5782.3273513731,199.475072,0,0.68271327644,672400,2018-04-03 06:12:28,19,0,15.103,5782.9835193731,200.13124,0.223694,0.68460632112,0,0,0,131.2, 1.2, -0.3,0,0,1024,1024,1024,1024,131.3,-89.9,55,3.79,3.8,3.796,3.78,0,0,13.29,111.11,6,P-GPS,
0.36481605348364,36.8999808828193,5782.3273513731,199.475072,0,0.68108926064,672500,2018-04-03 06:12:28,19,0,15.103,5782.9835193731,200.13124,0.223694,0.68460632112,0,0,0,131.2, 1.4, -0.1,0,0,1024,1024,1024,1024,131.3,-89.9,55,3.79,3.8,3.796,3.78,0,0,13.29,111.11,6,P-GPS,
0.364816034489469,36.899980838008,5782.3273513731,199.475072,0,0.68705382776,672600,2018-04-03 06:12:29,19,0,15.129,5782.9835193731,200.13124,0.223694,0.68705382776,0,0,0,131.2, 1.4, -0.1,0,0,1024,1024,1024,1024,131.3,-89.9,55,3.79,3.8,3.796,3.78,0,0,13.338,111.11,6,P-GPS,
0.364816019664115,36.8999807974448,5782.3273513731,199.475072,0,0.69341865736,672700,2018-04-03 06:12:29,19,0,15.129,5782.9835193731,200.13124,0.223694,0.69341865736,0,0,0,131.2, 1.2, -0.3,0,0,1024,1024,1024,1024,131.3,-89.9,55,3.79,3.8,3.796,3.78,0,0,13.338,111.11,6,P-GPS,
0.364816013632358,36.8999807725039,5782.3273513731,199.475072,0,0.69827101972,672800,2018-04-03 06:12:29,19,0,15.129,5782.9835193731,200.13124,0.223694,0.69827101972,0,0,0,131.2, 1.2, -0.2,0,0,1024,1024,1024,1024,131.3,-89.9,55,3.79,3.8,3.796,3.78,0,0,13.338,111.11,6,P-GPS,
0.364816008160786,36.8999807566076,5782.3273513731,199.475072,0,0.70099739776,672900,2018-04-03 06:12:29,19,0,15.129,5782.9835193731,200.13124,0.223694,0.70099739776,0,0,0,131.2, 1.5, 0,0,0,1024,1024,1024,1024,131.3,-90,55,3.79,3.8,3.796,3.78,0,0,13.338,111.11,6,P-GPS,
0.364815971305842,36.8999807157703,5782.3273513731,199.475072,0,0.70251970752,673000,2018-04-03 06:12:29,19,0,15.129,5782.9835193731,200.13124,0.223694,0.70251970752,0,0,0,131.2, 1.4, -0.1,0,0,1024,1024,1024,1024,131.3,-90,55,3.79,3.8,3.796,3.78,0,0,13.338,111.11,6,P-GPS,
0.364815937290904,36.8999806738368,5782.3273513731,199.475072,0,0.70559713544,673100,2018-04-03 06:12:29,19,0,15.129,5782.9835193731,200.13124,0.223694,0.70559713544,0,0,0,131.3, 1.3, -0.3,0,0,1024,1024,1024,1024,131.3,-90,55,3.79,3.8,3.796,3.78,0,0,13.338,111.11,6,P-GPS,
0.364815912799106,36.8999806131291,5782.3273513731,199.475072,0,0.716699498,673200,2018-04-03 06:12:29,19,0,15.129,5782.9835193731,200.13124,0.223694,0.716699498,0,0,0,131.3, 1.4, -0.3,0,0,1024,1024,1024,1024,131.3,-89.9,55,3.79,3.8,3.796,3.78,0,0,13.338,111.11,6,P-GPS,
0.364815895407324,36.8999805643437,5782.3273513731,199.475072,0,0.72658466892,673300,2018-04-03 06:12:29,19,0,15.129,5782.9835193731,200.13124,0.223694,0.72658466892,0,0,0,131.3, 1.4, -0.3,0,0,1024,1024,1024,1024,131.3,-90,55,3.79,3.8,3.796,3.78,0,0,13.338,111.11,6,P-GPS,
0.36481589239796,36.8999805372102,5782.3273513731,199.475072,0,0.73372049592,673400,2018-04-03 06:12:29,19,0,15.129,5782.9835193731,200.13124,0.223694,0.73372049592,0,0,0,131.3, 1.3, -0.3,0,0,1024,1024,1024,1024,131.3,-89.9,55,3.79,3.8,3.796,3.78,0,0,13.338,111.11,6,P-GPS,
0.364815886600699,36.8999805158323,5782.3273513731,199.475072,0,0.7386319134,673500,2018-04-03 06:12:29,19,0,15.129,5782.9835193731,200.13124,0.223694,0.7386319134,0,0,0,131.3, 1.2, -0.4,0,0,1024,1024,1024,1024,131.3,-89.9,55,3.79,3.8,3.796,3.78,0,0,13.338,111.11,6,P-GPS,
0.364815854214205,36.8999804839026,5782.3273513731,199.475072,0,0.7409613098,673600,2018-04-03 06:12:30,19,0,15.129,5782.9835193731,200.13124,0.223694,0.7409613098,0,0,0,131.3, 1.3, -0.4,0,0,1024,1024,1024,1024,131.3,-89.9,55,3.789,3.799,3.794,3.779,0,0,13.338,111.11,6,P-GPS,
0.364815828966809,36.8999804575913,5782.3273513731,199.475072,0,0.74345802904,673700,2018-04-03 06:12:30,19,0,15.129,5782.9835193731,200.13124,0.223694,0.74345802904,0,0,0,131.3, 1.4, -0.2,0,0,1024,1024,1024,1024,131.3,-89.9,55,3.789,3.799,3.794,3.779,0,0,13.338,111.11,6,P-GPS,
0.364815816499442,36.8999804518357,5782.3273513731,199.475072,0,0.74259516812,673800,2018-04-03 06:12:30,19,0,15.129,5782.9835193731,200.13124,0.223694,0.74345802904,0,0,0,131.3, 1.4, 0,0,0,1024,1024,1024,1024,131.3,-89.9,55,3.789,3.799,3.794,3.779,0,0,13.338,111.11,6,P-GPS,
0.364815805360885,36.8999804477246,5782.6554353731,199.803156,0,0.74154201848,673900,2018-04-03 06:12:30,19,0,15.129,5782.9835193731,200.13124,0.223694,0.74345802904,0,0,0,131.3, 1.3, 0,0,0,1024,1024,1024,1024,131.3,-90,55,3.789,3.799,3.794,3.779,0,0,13.338,111.11,6,P-GPS,
0.36481580219519,36.8999804585506,5782.6554353731,199.803156,0,0.73762797636,674000,2018-04-03 06:12:30,19,0,15.129,5782.9835193731,200.13124,0.223694,0.74345802904,0,0,0,131.3, 1.3, 0,0,0,1024,1024,1024,1024,131.3,-89.9,55,3.789,3.799,3.794,3.779,0,0,13.338,111.11,6,P-GPS,
0.36481579650215,36.8999804647173,5782.6554353731,199.803156,0,0.73459976104,674100,2018-04-03 06:12:30,19,0,15.129,5782.9835193731,200.13124,0.223694,0.74345802904,0,0,0,131.3, 1.4, 0.1,0,0,1024,1024,1024,1024,131.3,-89.9,55,3.789,3.799,3.794,3.779,0,0,13.338,111.11,6,P-GPS,
0.364815792463608,36.8999804756803,5782.6554353731,199.803156,0,0.7304626218,674200,2018-04-03 06:12:30,19,0,15.129,5782.9835193731,200.13124,0.223694,0.74345802904,0,0,0,131.3, 1.6, 0,0,0,1024,1024,1024,1024,131.3,-89.9,55,3.789,3.799,3.794,3.779,0,0,13.338,111.11,6,P-GPS,
0.36481578404781,36.8999804795173,5782.6554353731,199.803156,0,0.72757876344,674300,2018-04-03 06:12:30,19,0,15.129,5782.9835193731,200.13124,0.223694,0.74345802904,0,0,0,131.3, 1.5, -0.1,0,0,1024,1024,1024,1024,131.3,-89.9,55,3.789,3.799,3.794,3.779,0,0,13.338,111.11,6,P-GPS,
0.364815750032872,36.8999804852729,5782.6554353731,199.803156,0,0.71892718836,674400,2018-04-03 06:12:30,19,0,15.129,5782.9835193731,200.13124,0.223694,0.74345802904,0,0,0,131.3, 1.5, 0,0,0,1024,1024,1024,1024,131.3,-89.9,55,3.789,3.799,3.794,3.779,0,0,13.338,111.11,6,P-GPS,
0.364815719678675,36.8999804880137,5782.6554353731,199.803156,0,0.71204398604,674500,2018-04-03 06:12:30,19,0,15.129,5782.9835193731,200.13124,0.223694,0.74345802904,0,0,0,131.3, 1.7, 0.2,0,0,1024,1024,1024,1024,131.3,-89.9,55,3.789,3.799,3.794,3.779,0,0,13.338,111.11,6,P-GPS,
0.364815700945056,36.8999804867804,5782.6554353731,199.803156,0,0.70875002268,674600,2018-04-03 06:12:30,19,0,15.077,5782.9835193731,200.13124,0.223694,0.74345802904,0,0,0,131.3, 1.4, 0,0,0,1024,1024,1024,1024,131.3,-90,55,3.788,3.797,3.794,3.778,0,0,13.416,111.11,6,P-GPS,
0.364815680504827,36.8999804828063,5782.6554353731,199.803156,0,0.70603020632,674700,2018-04-03 06:12:31,19,0,15.077,5782.9835193731,200.13124,0.223694,0.74345802904,0,0,0,131.4, 1.3, -0.3,0,0,1024,1024,1024,1024,131.3,-89.9,55,3.788,3.797,3.794,3.778,0,0,13.416,111.11,6,P-GPS,
0.364815670343336,36.8999804553987,5782.6554353731,199.803156,0,0.71264109892,674800,2018-04-03 06:12:31,19,0,15.077,5782.9835193731,200.13124,0.223694,0.74345802904,0,0,0,131.4, 1.6, -0.3,0,0,1024,1024,1024,1024,131.3,-90,55,3.788,3.797,3.794,3.778,0,0,13.416,111.11,6,P-GPS,
0.364815659387165,36.8999804363505,5782.6554353731,199.803156,0,0.71657154524,674900,2018-04-03 06:12:31,19,0,15.077,5782.9835193731,200.13124,0.223694,0.74345802904,0,0,0,131.4, 1.7, 0,0,0,1024,1024,1024,1024,131.3,-90,55,3.788,3.797,3.794,3.778,0,0,13.416,111.11,6,P-GPS,
0.364815625776081,36.8999804607432,5782.6554353731,199.803156,0,0.70270999624,675000,2018-04-03 06:12:31,19,0,15.077,5782.9835193731,200.13124,0.223694,0.74345802904,0,0,0,131.4, 1.7, -0.2,0,0,1024,1024,1024,1024,131.3,-89.9,55,3.788,3.797,3.794,3.778,0,0,13.416,111.11,6,P-GPS,
0.364815589364073,36.8999804859581,5782.6554353731,199.803156,0,0.6881397858,675100,2018-04-03 06:12:31,19,0,15.077,5782.9835193731,200.13124,0.223694,0.74345802904,0,0,0,131.4, 1.8, -0.5,0,0,1024,1024,1024,1024,131.3,-89.9,55,3.788,3.797,3.794,3.778,0,0,13.416,111.11,6,P-GPS,
0.364815573105688,36.8999805154212,5782.6554353731,199.803156,0,0.67586288252,675200,2018-04-03 06:12:31,19,0,15.077,5782.9835193731,200.13124,0.223694,0.74345802904,0,0,0,131.3, 1.9, -0.3,0,0,1024,1024,1024,1024,131.3,-89.9,55,3.788,3.797,3.794,3.778,0,0,13.416,111.11,6,P-GPS,
0.364815566839436,36.8999805444732,5782.6554353731,199.803156,0,0.66551511316,675300,2018-04-03 06:12:31,19,0,15.077,5782.9835193731,200.13124,0.223694,0.74345802904,0,0,0,131.3, 1.8, 0,0,0,1024,1024,1024,1024,131.3,-89.9,55,3.788,3.797,3.794,3.778,0,0,13.416,111.11,6,P-GPS,
0.364815544888011,36.8999805711956,5782.6554353731,199.803156,0,0.65308072956,675400,2018-04-03 06:12:31,19,0,15.077,5782.9835193731,200.13124,0.223694,0.74345802904,0,0,0,131.2, 2, 0.1,0,0,1024,1024,1024,1024,131.3,-89.9,55,3.788,3.797,3.794,3.778,0,0,13.416,111.11,6,P-GPS,
0.364815523913652,36.8999805940809,5782.6554353731,199.803156,0,0.64205054548,675500,2018-04-03 06:12:31,19,0,15.077,5782.9835193731,200.13124,0.223694,0.74345802904,0,0,0,131.2, 2.1, 0.2,0,0,1024,1024,1024,1024,131.3,-89.9,55,3.788,3.797,3.794,3.778,0,0,13.416,111.11,6,P-GPS,
0.364815514312346,36.8999806343699,5782.6554353731,199.803156,0,0.62752954764,675600,2018-04-03 06:12:31,19,0,15.103,5782.9835193731,200.13124,0.223694,0.74345802904,0,0,0,131.1, 1.9, 0.2,0,0,1024,1024,1024,1024,131.3,-90,55,3.788,3.798,3.794,3.779,0,0,13.264,111.11,6,P-GPS,
0.364815505088839,36.8999806704109,5782.9835193731,200.13124,0,0.61444555772,675700,2018-04-03 06:12:31,19,0,15.103,5782.9835193731,200.13124,0.223694,0.74345802904,0,0,0,131, 1.8, 0.3,0,0,1024,1024,1024,1024,131.3,-90,55,3.788,3.798,3.794,3.779,0,0,13.264,111.11,6,P-GPS,
0.364815498314512,36.8999806894591,5782.9835193731,200.13124,0,0.60719162048,675800,2018-04-03 06:12:32,19,0,15.103,5782.9835193731,200.13124,0.223694,0.74345802904,0,0,0,131, 1.8, 0.3,0,0,1024,1024,1024,1024,131.3,-90,55,3.788,3.798,3.794,3.779,0,0,13.264,111.11,6,P-GPS,
0.36481548268145,36.8999807064518,5782.9835193731,200.13124,0,0.59897311628,675900,2018-04-03 06:12:32,19,0,15.103,5782.9835193731,200.13124,0.223694,0.74345802904,0,0,0,131, 1.9, 0.3,0,0,1024,1024,1024,1024,131.3,-90,55,3.788,3.798,3.794,3.779,0,0,13.264,111.11,6,P-GPS,
0.36481547081335,36.8999807024777,5782.6554353731,199.803156,0,0.59808400864,676000,2018-04-03 06:12:32,19,0,15.103,5782.9835193731,200.13124,0.223694,0.74345802904,0,0,0,131, 2.1, 0.4,0,0,1024,1024,1024,1024,131.3,-89.9,55,3.788,3.798,3.794,3.779,0,0,13.264,111.11,6,P-GPS,
0.364815451480463,36.8999806986406,5782.6554353731,199.803156,0,0.59587272248,676100,2018-04-03 06:12:32,19,0,15.103,5782.9835193731,200.13124,0.223694,0.74345802904,0,0,0,131.1, 2.1, 0.4,0,0,1024,1024,1024,1024,131.3,-89.9,55,3.788,3.798,3.794,3.779,0,0,13.264,111.11,6,P-GPS,
0.36481544127989,36.8999806757553,5782.6554353731,199.803156,0,0.60143702712,676200,2018-04-03 06:12:32,19,0,15.103,5782.9835193731,200.13124,0.223694,0.74345802904,0,0,0,131.1, 2.3, 0.2,0,0,1024,1024,1024,1024,131.3,-89.9,55,3.788,3.798,3.794,3.779,0,0,13.264,111.11,6,P-GPS,
0.364815426102792,36.8999806521848,5782.6554353731,199.803156,0,0.60647311652,676300,2018-04-03 06:12:32,19,0,15.103,5782.9835193731,200.13124,0.223694,0.74345802904,0,0,0,131.2, 2.3, 0.1,0,0,1024,1024,1024,1024,131.3,-89.9,55,3.788,3.798,3.794,3.779,0,0,13.264,111.11,6,P-GPS,
0.364815431483171,36.8999806149106,5782.6554353731,199.803156,0,0.61947508544,676400,2018-04-03 06:12:32,19,0,15.103,5782.9835193731,200.13124,0.223694,0.74345802904,0,0,0,131.3, 2.1, -0.1,0,0,1024,1024,1024,1024,131.3,-89.9,55,3.788,3.798,3.794,3.779,0,0,13.264,111.11,6,P-GPS,
0.364815430571242,36.8999805784586,5782.6554353731,199.803156,0,0.63122049264,676500,2018-04-03 06:12:32,19,0,15.103,5782.9835193731,200.13124,0.223694,0.74345802904,0,0,0,131.3, 2.4, -0.2,0,0,1024,1024,1024,1024,131.3,-89.9,55,3.788,3.798,3.794,3.779,0,0,13.264,111.11,6,P-GPS,
0.36481544952633,36.8999805481732,5782.6554353731,199.803156,0,0.64418965316,676600,2018-04-03 06:12:32,19,0,15.077,5782.9835193731,200.13124,0.223694,0.74345802904,0,0,0,131.4, 2.5, -0.2,0,0,1024,1024,1024,1024,131.3,-89.9,55,3.788,3.798,3.794,3.779,0,0,13.364,111.11,6,P-GPS,
0.364815470995736,36.8999805126805,5782.6554353731,199.803156,0,0.65927495548,676700,2018-04-03 06:12:33,19,0,15.077,5782.9835193731,200.13124,0.223694,0.74345802904,0,0,0,131.4, 2.1, -0.4,0,0,1024,1024,1024,1024,131.3,-89.9,55,3.788,3.798,3.794,3.779,0,0,13.364,111.11,6,P-GPS,
0.364815503981497,36.8999804584135,5782.6554353731,199.803156,0,0.6823655074,676800,2018-04-03 06:12:33,19,0,15.077,5782.9835193731,200.13124,0.223694,0.74345802904,0,0,0,131.4, 1.9, -0.6,0,0,1024,1024,1024,1024,131.3,-89.9,55,3.788,3.798,3.794,3.779,0,0,13.364,111.11,6,P-GPS,
0.364815530609814,36.8999804101763,5782.6554353731,199.803156,0,0.70245409072,676900,2018-04-03 06:12:33,19,0,15.077,5782.9835193731,200.13124,0.223694,0.74345802904,0,0,0,131.4, 1.9, -0.8,0,0,1024,1024,1024,1024,131.3,-89.9,55,3.788,3.798,3.794,3.779,0,0,13.364,111.11,6,P-GPS,
0.364815527183568,36.8999803961984,5782.6554353731,199.803156,0,0.70645343468,677000,2018-04-03 06:12:33,19,0,15.077,5782.9835193731,200.13124,0.223694,0.74345802904,0,0,0,131.5, 1.9, -0.8,0,0,1024,1024,1024,1024,131.3,-89.9,55,3.788,3.798,3.794,3.779,0,0,13.364,111.11,6,P-GPS,
0.364815533137159,36.8999803898947,5782.6554353731,199.803156,0,0.70948165,677100,2018-04-03 06:12:33,19,0,15.077,5782.9835193731,200.13124,0.223694,0.74345802904,0,0,0,131.4, 2, -0.6,0,0,1024,1024,1024,1024,131.3,-89.9,55,3.788,3.798,3.794,3.779,0,0,13.364,111.11,6,P-GPS,
0.364815574682022,36.8999803422056,5782.6554353731,199.803156,0,0.73184385544,677200,2018-04-03 06:12:33,19,0,15.077,5782.9835193731,200.13124,0.223694,0.74345802904,0,0,0,131.4, 2, -0.5,0,0,1024,1024,1024,1024,131.3,-90,55,3.788,3.798,3.794,3.779,0,0,13.364,111.11,6,P-GPS,
0.364815621516071,36.8999803039721,5782.6554353731,199.803156,0,0.7520833574,677300,2018-04-03 06:12:33,19,0,15.077,5782.9835193731,200.13124,0.223694,0.7520833574,0,0,0,131.4, 1.9, -0.4,0,0,1024,1024,1024,1024,131.3,-89.9,55,3.788,3.798,3.794,3.779,0,0,13.364,111.11,6,P-GPS,
0.36481565372018,36.899980289309,5782.6554353731,199.803156,0,0.7623195782,677400,2018-04-03 06:12:33,19,0,15.077,5782.9835193731,200.13124,0.223694,0.7623195782,0,0,0,131.4, 1.7, -0.1,0,0,1024,1024,1024,1024,131.3,-90,55,3.788,3.798,3.794,3.779,0,0,13.364,111.11,6,P-GPS,
0.364815683748687,36.8999802847868,5782.6554353731,199.803156,0,0.7690124918,677500,2018-04-03 06:12:33,19,0,15.077,5782.9835193731,200.13124,0.223694,0.7690124918,0,0,0,131.4, 1.7, 0,0,0,1024,1024,1024,1024,131.3,-89.9,55,3.788,3.798,3.794,3.779,0,0,13.364,111.11,6,P-GPS,
0.364815719522345,36.8999802575163,5782.6554353731,199.803156,0,0.78406498572,677600,2018-04-03 06:12:33,19,0,15.051,5782.9835193731,200.13124,0.223694,0.78406498572,0,0,0,131.3, 1.9, 0,0,0,1024,1024,1024,1024,131.3,-89.9,55,3.787,3.797,3.793,3.777,0,0,13.364,111.11,6,P-GPS,
0.364815751387737,36.8999802351791,5782.6554353731,199.803156,0,0.79689635096,677700,2018-04-03 06:12:33,19,0,15.051,5782.9835193731,200.13124,0.223694,0.79689635096,0,0,0,131.3, 2, 0.1,0,0,1024,1024,1024,1024,131.3,-89.9,55,3.787,3.797,3.793,3.777,0,0,13.364,111.11,6,P-GPS,
0.364815789910208,36.8999802175013,5782.6554353731,199.803156,0,0.80953742748,677800,2018-04-03 06:12:34,19,0,15.051,5782.9835193731,200.13124,0.223694,0.80953742748,0,0,0,131.3, 1.7, 0,0,0,1024,1024,1024,1024,131.3,-89.9,55,3.787,3.797,3.793,3.777,0,0,13.364,111.11,6,P-GPS,
0.364815821749545,36.8999802074975,5782.6554353731,199.803156,0,0.8186187926,677900,2018-04-03 06:12:34,19,0,15.051,5782.9835193731,200.13124,0.223694,0.8186187926,0,0,0,131.3, 1.8, 0,0,0,1024,1024,1024,1024,131.3,-89.9,55,3.787,3.797,3.793,3.777,0,0,13.364,111.11,6,P-GPS,
0.364815828966809,36.8999802043457,5782.6554353731,199.803156,0,0.8209645932,678000,2018-04-03 06:12:34,19,0,15.051,5782.9835193731,200.13124,0.223694,0.8209645932,0,0,0,131.3, 2.2, 0.1,0,0,1024,1024,1024,1024,131.3,-89.9,55,3.787,3.797,3.793,3.777,0,0,13.364,111.11,6,P-GPS,
