latitude,longitude,altitude(feet),ascent(feet),speed(mph),distance(feet),time(millisecond),datetime(utc),satellites,gpslevel,voltage(v),max_altitude(feet),max_ascent(feet),max_speed(mph),max_distance(feet), xSpeed(mph), ySpeed(mph), zSpeed(mph), compass_heading(degrees), pitch(degrees), roll(degrees),isPhoto,isVideo,rc_elevator,rc_aileron,rc_throttle,rc_rudder,gimbal_heading(degrees),gimbal_pitch(degrees),battery_percent,voltageCell1,voltageCell2,voltageCell3,voltageCell4,voltageCell5,voltageCell6,current(A),battery_temperature(f),flycStateRaw,flycState,message
0.354549595225994,36.8880053200468,5813.5387447603,0,0,0,0,2018-04-19 05:45:11,13,4,0,5813.5387447603,0,0,0,0,0,0,82.5, -1.7, 0.8,0,0,364,364,364,1684,87,0,100,4.29,4.291,4.29,4.291,0,0,0,71.51,41,Motors_Started,
0.354549639917011,36.8880053356738,5813.5387447603,0,0,0.0172735241748,100,2018-04-19 05:45:11,13,4,17.133,5813.5387447603,0,0,0.0172735241748,0,0,0,82.5, -1.7, 0.8,0,0,364,364,364,1684,87,0,100,4.29,4.291,4.29,4.291,0,0,1.454,71.51,41,Motors_Started,Setting new Return-To-Home altitude to 30m (98 ft). Data Recorder File Index is 14. Setting new Maximum Flight Altitude to 120m (394 ft)
0.354549666240808,36.8880053657142,5813.5387447603,0,0,0.030804462928,200,2018-04-19 05:45:11,13,4,17.133,5813.5387447603,0,0,0.030804462928,0,0,0,82.5, -1.7, 0.8,0,0,364,364,364,1684,87,0,100,4.29,4.291,4.29,4.291,0,0,1.454,71.51,41,Motors_Started,
0.354549695285736,36.8880053936686,5813.5387447603,0,0,0.045323492264,300,2018-04-19 05:45:11,13,4,17.133,5813.5387447603,0,0,0.045323492264,0,0,0,82.5, -1.7, 0.8,0,0,364,364,364,1684,87,0,100,4.29,4.291,4.29,4.291,0,0,1.454,71.51,41,Motors_Started,
0.354549732914191,36.8880054309179,5813.5387447603,0,0,0.064496721224,400,2018-04-19 05:45:11,13,4,17.133,5813.5387447603,0,0,0.064496721224,0,0,0,82.4, -1.7, 0.8,0,0,364,364,364,1684,87,0,100,4.29,4.291,4.29,4.291,0,0,1.454,71.51,41,Motors_Started,
0.354549759889366,36.888005468801,5813.5387447603,0,0,0.08096128868,500,2018-04-19 05:45:11,13,4,17.133,5813.5387447603,0,0,0.08096128868,0,0,0,82.4, -1.7, 0.8,0,0,364,364,364,1684,87,0,100,4.29,4.291,4.29,4.291,0,0,1.454,71.51,41,Motors_Started,
0.354549776001191,36.8880055111211,5813.5387447603,0,0,0.095968178924,600,2018-04-19 05:45:11,13,4,17.133,5813.5387447603,0,0,0.095968178924,0,0,0,82.5, -1.7, 0.8,0,0,364,364,364,1684,87,0,100,4.29,4.291,4.29,4.291,0,0,1.454,71.51,41,Motors_Started,
0.354549795379674,36.8880055561992,5813.5387447603,0,0,0.112942588916,700,2018-04-19 05:45:11,13,4,17.133,5813.5387447603,0,0,0.112942588916,0,0,0,82.4, -1.7, 0.8,0,0,364,364,364,1684,87,0,100,4.29,4.291,4.29,4.291,0,0,1.454,71.51,41,Motors_Started,
0.354549828043004,36.8880056029018,5813.5387447603,0,0,0.133660109264,800,2018-04-19 05:45:11,13,4,17.133,5813.5387447603,0,0,0.133660109264,0,0,0,82.5, -1.7, 0.8,0,0,364,364,364,1684,87,0,100,4.29,4.291,4.29,4.291,0,0,1.454,71.51,41,Motors_Started,
0.354549851660327,36.8880056517692,5813.5387447603,0,0,0.152973430092,900,2018-04-19 05:45:11,13,4,17.133,5813.5387447603,0,0,0.152973430092,0,0,0,82.4, -1.7, 0.8,0,0,364,364,364,1684,87,0,100,4.29,4.291,4.29,4.291,0,0,1.454,71.51,41,Motors_Started,
0.354549865207353,36.8880057004573,5813.5387447603,0,0,0.170192262664,1000,2018-04-19 05:45:11,13,4,17.133,5813.5387447603,0,0,0.170192262664,0,0,0,82.4, -1.7, 0.8,0,0,364,364,364,1684,87,0,100,4.29,4.291,4.29,4.291,0,0,1.454,71.51,41,Motors_Started,
0.354549881780027,36.8880057376386,5813.5387447603,0,0,0.184777236884,1100,2018-04-19 05:45:11,13,4,17.133,5813.5387447603,0,0,0.184777236884,0,0,0,82.4, -1.8, 0.8,0,0,364,364,364,1684,87,0,100,4.29,4.291,4.289,4.29,0,0,1.564,71.51,41,Motors_Started,
0.354549913155258,36.8880057583225,5813.5387447603,0,0,0.197543969576,1200,2018-04-19 05:45:12,13,4,17.133,5813.5387447603,0,0,0.197543969576,0,0,0,82.5, -1.7, 0.8,0,0,364,364,364,1684,87,0,100,4.29,4.291,4.289,4.29,0,0,1.564,71.51,41,Motors_Started,
0.354549936655333,36.8880057638115,5813.5387447603,0,0,0.204280846432,1300,2018-04-19 05:45:12,13,4,17.133,5813.5387447603,0,0,0.204280846432,0,0,0,82.5, -1.7, 0.8,0,0,364,364,364,1684,87,0,100,4.29,4.291,4.289,4.29,0,0,1.564,71.51,41,Motors_Started,
0.354549950402657,36.888005766579,5813.5387447603,0,0,0.208167001412,1400,2018-04-19 05:45:12,13,4,17.133,5813.5387447603,0,0,0.208167001412,0,0,0,82.4, -1.7, 0.8,0,0,481,503,611,1536,87,0,100,4.29,4.291,4.289,4.29,0,0,1.564,71.51,41,Motors_Started,
0.354549968781276,36.8880057685976,5813.5387447603,0,0,0.212971463508,1500,2018-04-19 05:45:12,13,4,17.133,5813.5387447603,0,0,0.212971463508,0,0,0,82.5, -1.7, 0.8,0,0,806,847,999,1061,86.6,0,100,4.29,4.291,4.289,4.29,0,0,1.564,71.51,10,Assisted_Takeoff,
0.354550000755774,36.8880057936458,5813.5387447603,0,0,0.227480650324,1600,2018-04-19 05:45:12,13,4,17.133,5813.5387447603,0,0,0.227480650324,0,0,0,82.5, -1.7, 0.8,0,0,1024,1024,1024,1024,85,0,100,4.29,4.291,4.289,4.29,0,0,1.564,71.51,10,Assisted_Takeoff,
0.354550025610715,36.8880058226735,5813.5387447603,0,0,0.241422907988,1700,2018-04-19 05:45:12,13,4,17.133,5813.5387447603,0,0,0.241422907988,0,0,0,82.4, -1.7, 0.8,0,0,1024,1024,1024,1024,85,0,100,4.29,4.291,4.289,4.29,0,0,1.564,71.51,10,Assisted_Takeoff,
0.354550039610448,36.8880058605266,5813.5387447603,0,0,0.255286425492,1800,2018-04-19 05:45:12,13,4,17.133,5813.5387447603,0,0,0.255286425492,0,0,0,82.4, -1.8, 0.8,0,0,1024,1024,1024,1024,84.1,0,100,4.29,4.291,4.289,4.29,0,0,1.564,71.51,10,Assisted_Takeoff,
0.35455005864533,36.8880058917254,5813.5387447603,0,0,0.2684957435,1900,2018-04-19 05:45:12,13,4,17.133,5813.5387447603,0,0,0.2684957435,0,0,0,82.5, -1.7, 0.8,0,0,1024,1024,1024,1024,83.7,0,100,4.29,4.291,4.289,4.29,0,0,1.564,71.51,10,Assisted_Takeoff,
0.354550091077421,36.8880059097168,5813.5387447603,0,0,0.281091872512,2000,2018-04-19 05:45:12,13,4,17.133,5813.5387447603,0,0,0.281091872512,0,0,0,82.4, -1.8, 0.8,0,0,1024,1024,1024,1024,83.4,0,100,4.29,4.291,4.289,4.29,0,0,1.564,71.51,10,Assisted_Takeoff,
0.354550117803443,36.8880059309119,5813.5387447603,0,0,0.293296597312,2100,2018-04-19 05:45:13,13,4,17.133,5813.5387447603,0,0,0.293296597312,0,0,0,82.4, -1.8, 0.8,0,0,1024,1024,1024,1024,83.3,0,100,4.29,4.291,4.289,4.29,0,0,1.564,71.51,10,Assisted_Takeoff,
0.354550133262262,36.8880059654681,5813.5387447603,0,0,0.30656825128,2200,2018-04-19 05:45:13,13,4,17.133,5813.5387447603,0,0,0.30656825128,0,0,0,82.4, -1.8, 0.8,0,0,1024,1024,1024,1024,83.1,0,100,4.29,4.291,4.289,4.29,0,0,1.564,71.51,10,Assisted_Takeoff,
0.354550143125748,36.8880060516314,5813.5387447603,0,0,0.33347113928,2400,2018-04-19 05:45:13,13,4,17.133,5813.5387447603,0,0,0.33347113928,0,0,0,82.4, -1.8, 0.8,0,0,1024,1024,1024,1024,83,0,100,4.29,4.291,4.289,4.29,0,0,1.564,71.51,10,Assisted_Takeoff,
0.354550151860721,36.888006089857,5813.5387447603,0,0,0.34659449928,2500,2018-04-19 05:45:13,13,4,17.133,5813.5387447603,0,0,0.34659449928,0,0,0,82.3, -1.8, 0.8,0,0,1024,1024,1284,1024,83,0,100,4.29,4.291,4.289,4.29,0,0,1.564,71.51,10,Assisted_Takeoff,
0.354550178614428,36.8880061125762,5813.5387447603,0,0,0.35904200624,2600,2018-04-19 05:45:13,13,4,17.133,5813.5387447603,0,0,0.35904200624,0,0,0,82.4, -1.8, 0.8,0,0,1024,1024,1684,1024,82.9,0,100,4.29,4.291,4.289,4.29,0,0,1.564,71.51,10,Assisted_Takeoff,
0.35455020096645,36.8880061388337,5813.5387447603,0,0,0.37159450008,2700,2018-04-19 05:45:13,13,4,17.133,5813.5387447603,0,0,0.37159450008,0,0,0,82.4, -1.7, 0.8,0,0,1024,1024,1684,1048,82.9,0,100,4.29,4.291,4.289,4.29,0,0,1.564,71.51,10,Assisted_Takeoff,
0.354550213541294,36.888006175053,5813.5387447603,0,0,0.38496720392,2800,2018-04-19 05:45:13,13,4,17.133,5813.5387447603,0,0,0.38496720392,0,0,0,82.4, -1.7, 0.7,0,0,1024,1024,1684,1048,82.9,0,100,4.29,4.291,4.289,4.29,0,0,1.564,71.51,10,Assisted_Takeoff,
0.354550233418082,36.8880062037429,5813.5387447603,0,0,0.39770014396,2900,2018-04-19 05:45:13,13,4,17.133,5813.5387447603,0,0,0.39770014396,0,0,0,82.4, -1.6, 0.7,0,0,1024,1024,1684,1050,82.9,0,100,4.29,4.291,4.289,4.29,0,0,1.564,71.51,10,Assisted_Takeoff,
0.354550265374667,36.8880062220886,5813.5387447603,0,0,0.4099901706,3000,2018-04-19 05:45:13,13,4,17.133,5813.5387447603,0,0,0.4099901706,0,0,0,82.2, -0.8, 0.6,0,0,1024,1024,1684,1031,82.8,0,100,4.29,4.291,4.289,4.29,0,0,1.564,71.51,10,Assisted_Takeoff,
0.354550287526391,36.8880062548767,5813.5387447603,0,0,0.42441274324,3100,2018-04-19 05:45:14,13,4,17.107,5813.5387447603,0,0,0.42441274324,0,0,0,82, 1.1, -0.1,0,0,1024,1024,1684,1031,82.8,0,100,4.273,4.278,4.279,4.277,0,0,4.414,71.51,10,Assisted_Takeoff,Home Point Recorded. RTH Altitude:  30m.
0.354550296412809,36.8880062839381,5813.5387447603,0,0,0.43487862284,3200,2018-04-19 05:45:14,13,4,17.107,5813.5387447603,0,0,0.43487862284,0,0,-0.671082,81.9, 1.7, -0.7,0,0,1024,1024,1684,1030,82.7,0,100,4.273,4.278,4.279,4.277,0,0,4.414,71.51,6,P-GPS,Obstacle Avoided. Revise Flight Route
0.354550329730774,36.8880062710331,5813.5387447603,0,0,0.438402245,3300,2018-04-19 05:45:14,13,4,17.107,5813.5387447603,0,0,0.438402245,0,0,-1.342164,82, 0.8, -0.3,0,0,1024,1024,1684,1053,82.7,0,100,4.273,4.278,4.279,4.277,0,0,4.414,71.51,6,P-GPS,
0.354550391548136,36.8880062334594,5813.8668287603,0.328084,0,0.44211943672,3400,2018-04-19 05:45:14,13,4,17.107,5813.8668287603,0.328084,0,0.44211943672,0,0,-2.013246,82, 0, 0,0,0,1024,1024,1684,1046,82.7,0,100,4.273,4.278,4.279,4.277,0,0,4.414,71.51,6,P-GPS,
0.354550469421957,36.8880062125689,5814.1949127603,0.656168,0,0.45581038204,3500,2018-04-19 05:45:14,13,4,17.107,5814.1949127603,0.656168,0,0.45581038204,0,0,-2.908022,81.9, -0.1, 0,0,0,1024,1024,1684,1050,82.6,0,100,4.273,4.278,4.279,4.277,0,0,4.414,71.51,6,P-GPS,
0.354550555836966,36.8880062071881,5814.5229967603,0.984252,0,0.47707022524,3600,2018-04-19 05:45:14,13,4,17.107,5814.5229967603,0.984252,0,0.47707022524,0,0,-3.802798,81.8, 0, 0,0,0,1024,1024,1684,1052,82.6,0,100,4.273,4.278,4.279,4.277,0,0,4.414,71.51,6,P-GPS,
0.35455066503065,36.8880062113099,5815.1791647603,1.64042,0,0.50801838896,3700,2018-04-19 05:45:14,13,4,17.107,5815.1791647603,1.64042,0,0.50801838896,0,0,-4.697574,81.7, -0.3, 0.1,0,0,1024,1024,1684,1050,82.6,0,100,4.273,4.278,4.279,4.277,0,0,4.414,71.51,6,P-GPS,
0.354550787986314,36.888006211737,5816.1634167603,2.624672,0,0.5433399124,3800,2018-04-19 05:45:14,13,4,17.107,5816.1634167603,2.624672,0,0.5433399124,0,0,-5.816044,81.6, -0.7, 0.4,0,0,1024,1024,1684,1047,82.5,0,100,4.273,4.278,4.279,4.277,0,0,4.414,71.51,6,P-GPS,
0.354550938742773,36.8880062247887,5817.1476687603,3.608924,0,0.590961305,3900,2018-04-19 05:45:14,13,4,17.107,5817.1476687603,3.608924,0,0.590961305,0,0,-7.158208,81.5, -0.7, 0.7,0,0,1024,1024,1684,1054,82.5,0,100,4.273,4.278,4.279,4.277,0,0,4.414,71.51,6,P-GPS,
0.35455109317626,36.8880062284383,5818.1319207603,4.593176,0,0.63916340628,4000,2018-04-19 05:45:14,13,4,17.107,5818.1319207603,4.593176,0,0.63916340628,0,0,-8.276678,81.4, -0.5, 0.8,0,0,1024,1024,1684,1048,82.4,0,100,4.273,4.278,4.279,4.277,0,0,4.414,71.51,6,P-GPS,
0.354551238798236,36.8880062405179,5819.4442567603,5.905512,0,0.68729004824,4100,2018-04-19 05:45:15,13,4,16.766,5819.4442567603,5.905512,0,0.68729004824,0,0,-9.395148,81.3, -0.6, 0.8,0,0,1024,1024,1684,1053,82.4,0,100,4.252,4.255,4.251,4.25,0,0,4.846,71.51,6,P-GPS,
0.354551327738962,36.8880062330366,5821.0846767603,7.545932,0,0.7145013352,4200,2018-04-19 05:45:15,13,4,16.766,5821.0846767603,7.545932,0,0.7145013352,0,0,-10.289924,81.3, -0.9, 1.3,0,0,1024,1024,1684,1047,82.3,0,100,4.252,4.255,4.251,4.25,0,0,4.846,71.51,6,P-GPS,
0.354551388996139,36.8880062466396,5822.3970127603,8.858268,0,0.73661091596,4300,2018-04-19 05:45:15,13,4,16.766,5822.3970127603,8.858268,0,0.73661091596,0,0,-10.961006,81.3, -0.9, 1.3,0,0,1024,1024,1684,1047,82.3,0,100,4.252,4.255,4.251,4.25,0,0,4.846,71.51,6,P-GPS,
0.354551414701128,36.8880062871231,5824.3655167603,10.826772,0,0.75177495844,4400,2018-04-19 05:45:15,13,4,16.766,5824.3655167603,10.826772,0,0.75177495844,0,0,-11.408394,81.3, -0.8, 0.9,0,0,1024,1024,1684,1048,82.3,0,100,4.252,4.255,4.251,4.25,0,0,4.846,71.51,6,P-GPS,
0.35455143201963,36.8880063417396,5826.0059367603,12.467192,0,0.7668471374,4500,2018-04-19 05:45:15,13,4,16.766,5826.0059367603,12.467192,0,0.7668471374,0,0,-11.632088,81.3, -0.8, 0.8,0,0,1024,1024,1684,1046,82.2,0,100,4.252,4.255,4.251,4.25,0,0,4.846,71.51,6,P-GPS,
0.354551415621199,36.8880063939323,5827.6463567603,14.107612,0,0.77112207192,4600,2018-04-19 05:45:15,13,4,16.766,5827.6463567603,14.107612,0,0.77112207192,0,0,-11.632088,81.2, -0.4, 0.4,0,0,1024,1024,1684,1044,82.2,0,100,4.252,4.255,4.251,4.25,0,0,4.846,71.51,6,P-GPS,
0.354551407583199,36.8880064619677,5829.2867767603,15.748032,0,0.78154201976,4700,2018-04-19 05:45:15,13,4,16.766,5829.2867767603,15.748032,0,0.78154201976,0,0,-11.632088,81.1, 0.1, -0.1,0,0,1024,1024,1684,1045,82.2,0,100,4.252,4.255,4.251,4.25,0,0,4.846,71.51,6,P-GPS,
0.354551371778601,36.8880064830028,5831.2552807603,17.716536,0,0.77469818752,4800,2018-04-19 05:45:15,13,4,16.766,5831.2552807603,17.716536,0,0.78154201976,0,0,-11.632088,81, 0.4, -0.3,0,0,1024,1024,1684,1044,82.2,0,100,4.252,4.255,4.251,4.25,0,0,4.846,71.51,6,P-GPS,
0.354551359882818,36.8880065070249,5832.8957007603,19.356956,0,0.77592850252,4900,2018-04-19 05:45:15,13,4,16.766,5832.8957007603,19.356956,0,0.78154201976,0,0,-11.408394,81, 0.4, -0.4,0,0,1024,1024,1684,1044,82.2,0,100,4.252,4.255,4.251,4.25,0,0,4.846,71.51,6,P-GPS,
0.354551386985011,36.8880065046374,5834.5361207603,20.997376,0,0.78367128492,5000,2018-04-19 05:45:15,13,4,16.766,5834.5361207603,20.997376,0,0.78367128492,0,0,-11.408394,80.9, 0.5, -0.3,0,0,1024,1024,1684,1049,82.1,0,100,4.252,4.255,4.251,4.25,0,0,4.846,71.51,6,P-GPS,
0.354551421231188,36.8880064961594,5836.1765407603,22.637796,0,0.79244425108,5100,2018-04-19 05:45:15,13,4,16.24,5836.1765407603,22.637796,0,0.79244425108,0,0,-11.1847,80.9, 0.1, -0.2,0,0,1024,1024,1684,1050,82.1,0,99,4.096,4.116,4.112,4.112,0,0,22.668,71.51,6,P-GPS,
0.354551527539269,36.888006427714,5837.8169607603,24.278216,0,0.81261813624,5200,2018-04-19 05:45:16,13,4,16.24,5837.8169607603,24.278216,0,0.81261813624,0,0,-11.1847,80.8, -0.4, -0.3,0,0,1024,1024,1684,1054,82.1,0,99,4.096,4.116,4.112,4.112,0,0,22.668,71.51,6,P-GPS,
0.354551626154581,36.8880063739871,5839.4573807603,25.918636,0,0.83481301884,5300,2018-04-19 05:45:16,13,4,16.24,5839.4573807603,25.918636,0,0.83481301884,0,0,-11.1847,80.9, -0.7, -0.4,0,0,1024,1024,1684,1054,82.1,0,99,4.096,4.116,4.112,4.112,0,0,22.668,71.51,6,P-GPS,
0.354551748535404,36.8880063153922,5841.0978007603,27.559056,0,0.8655019962,5400,2018-04-19 05:45:16,13,4,16.24,5841.0978007603,27.559056,0,0.8655019962,0,0,-11.1847,80.9, -0.8, 0,0,0,1024,1024,1684,1056,82,0,99,4.096,4.116,4.112,4.112,0,0,22.668,71.51,6,P-GPS,
0.354552023382554,36.888006193538,5844.3786407603,30.839896,0,0.94148953144,5600,2018-04-19 05:45:16,13,4,16.24,5844.3786407603,30.839896,0,0.94148953144,0,0,-10.961006,81, -0.3, 0.5,0,0,1024,1024,1684,1055,82,0,99,4.096,4.116,4.112,4.112,0,0,22.668,71.51,6,P-GPS,
0.354552155021081,36.8880061415733,5846.0190607603,32.480316,0,0.9808563306,5700,2018-04-19 05:45:16,13,4,16.24,5846.0190607603,32.480316,0,0.9808563306,0,0,-10.961006,81.1, 0, 0.3,0,0,1024,1024,1684,1057,82,0,99,4.096,4.116,4.112,4.112,0,0,22.668,71.51,6,P-GPS,
0.354552321073515,36.888006158144,5847.6594807603,34.120736,0,1.0404691934,5800,2018-04-19 05:45:16,13,4,16.24,5847.6594807603,34.120736,0,1.0404691934,0,0,-10.961006,81.2, 0, 0.2,0,0,1024,1024,1684,1058,82,0,99,4.096,4.116,4.112,4.112,0,0,22.668,71.51,6,P-GPS,
0.354552657824335,36.8880061571098,5850.9403207603,37.401576,0,1.15836945964,6000,2018-04-19 05:45:16,13,4,16.24,5850.9403207603,37.401576,0,1.15836945964,0,0,-10.961006,81.4, -0.2, 0.3,0,0,1024,1024,1684,1063,82,0,99,4.096,4.116,4.112,4.112,0,0,22.668,71.51,6,P-GPS,
0.354552835906085,36.8880061723155,5852.2526567603,38.713912,0,1.22256237508,6100,2018-04-19 05:45:17,13,4,16.24,5852.2526567603,38.713912,0,1.22256237508,0,0,-10.961006,81.6, 0.6, 0.6,0,0,1024,1024,1684,1068,82,0,99,4.096,4.116,4.112,4.112,0,0,22.668,71.51,6,P-GPS,
0.354552983127193,36.8880061866529,5853.8930767603,40.354332,0,1.2758694634,6200,2018-04-19 05:45:17,13,4,16.24,5853.8930767603,40.354332,0,1.2758694634,0,0,-10.961006,81.7, 0.9, 0.6,0,0,1024,1024,1684,1066,82.1,0,99,4.096,4.116,4.112,4.112,0,0,22.668,71.51,6,P-GPS,
0.354553266772825,36.8880061645108,5857.1739167603,43.635172,0,1.37453744556,6400,2018-04-19 05:45:17,13,4,16.24,5857.1739167603,43.635172,0,1.37453744556,0,0,-10.961006,82.2, 1, 0.5,0,0,1024,1024,1684,1066,82.2,0,99,4.096,4.116,4.112,4.112,0,0,22.668,71.51,6,P-GPS,
0.354553411215808,36.8880061164389,5858.8143367603,45.275592,0,1.42225726336,6500,2018-04-19 05:45:17,13,4,16.24,5858.8143367603,45.275592,0,1.42225726336,0,0,-10.961006,82.4, 0, 0.6,0,0,1024,1024,1684,1066,82.2,0,99,4.096,4.116,4.112,4.112,0,0,22.668,71.51,6,P-GPS,
0.354553526724597,36.888006053521,5860.4547567603,46.916012,0,1.45915359,6600,2018-04-19 05:45:17,13,4,16.24,5860.4547567603,46.916012,0,1.45915359,0,0,-10.961006,82.6, -0.5, 0.9,0,0,1024,1024,1684,1087,82.4,0,99,4.096,4.116,4.112,4.112,0,0,22.668,71.51,6,P-GPS,
0.354553779651262,36.8880059574054,5863.7355967603,50.196852,0,1.544291388,6800,2018-04-19 05:45:17,13,4,16.24,5863.7355967603,50.196852,0,1.544291388,0,0,-10.961006,83.2, -0.3, 1.2,0,0,1024,1024,1684,1094,82.5,0,99,4.096,4.116,4.112,4.112,0,0,22.668,71.51,6,P-GPS,
0.354553895576933,36.8880059190947,5865.3760167603,51.837272,0,1.58413062812,6900,2018-04-19 05:45:17,13,4,16.24,5865.3760167603,51.837272,0,1.58413062812,0,0,-11.1847,83.5, 0, 1,0,0,1024,1024,1684,1094,82.8,0,99,4.096,4.116,4.112,4.112,0,0,22.668,71.51,6,P-GPS,
0.354554016983947,36.8880059072913,5867.0164367603,53.477692,0,1.62744099696,7000,2018-04-19 05:45:17,13,4,16.24,5867.0164367603,53.477692,0,1.62744099696,0,0,-10.961006,84.1, 0, 1.2,0,0,1024,1024,1684,1095,83.1,0,99,4.096,4.116,4.112,4.112,0,0,22.668,71.51,6,P-GPS,
0.354554128688691,36.8880058758816,5868.6568567603,55.118112,0,1.66641737616,7100,2018-04-19 05:45:17,13,4,16.24,5868.6568567603,55.118112,0,1.66641737616,0,0,-11.1847,84.7, -0.6, 1.7,0,0,1024,1024,1684,1094,83.4,0,99,4.096,4.116,4.112,4.112,0,0,22.668,71.51,6,P-GPS,
0.354554192943835,36.8880058261294,5870.2972767603,56.758532,0,1.68760504088,7200,2018-04-19 05:45:18,13,4,16.24,5870.2972767603,56.758532,0,1.68760504088,0,0,-10.961006,85.4, -0.5, 1.2,0,0,1024,1024,1684,1094,83.8,0,99,4.096,4.116,4.112,4.112,0,0,22.668,71.51,6,P-GPS,
0.354554277681546,36.8880056927196,5873.5781167603,60.039372,0,1.71379270576,7400,2018-04-19 05:45:18,13,4,16.24,5873.5781167603,60.039372,0,1.71379270576,0,0,-10.961006,86.6, -0.9, 0.6,0,0,1024,1024,1684,1094,83.8,0,99,4.096,4.116,4.112,4.112,0,0,22.668,71.51,6,P-GPS,
0.354554309752123,36.8880056263934,5875.2185367603,61.679792,0,1.7237205276,7500,2018-04-19 05:45:18,13,4,16.24,5875.2185367603,61.679792,0,1.7237205276,0,0,-11.1847,87.3, -1, 0.7,0,0,1024,1024,1684,1094,85.1,0,99,4.096,4.116,4.112,4.112,0,0,22.668,71.51,6,P-GPS,
0.354554324414632,36.8880055681106,5876.8589567603,63.320212,0,1.72781501592,7600,2018-04-19 05:45:18,13,4,16.24,5876.8589567603,63.320212,0,1.72781501592,0,0,-11.1847,87.9, -0.9, 0.6,0,0,1024,1024,1684,1102,85.1,0,99,4.096,4.116,4.112,4.112,0,0,22.668,71.51,6,P-GPS,
0.354554306371473,36.8880054947849,5880.4678807603,66.929136,0,1.72003942512,7800,2018-04-19 05:45:18,13,4,16.24,5880.4678807603,66.929136,0,1.72781501592,0,0,-11.1847,89.2, -1, 0.1,0,0,1024,1024,1684,1098,86.1,0,99,4.096,4.116,4.112,4.112,0,0,22.668,71.51,6,P-GPS,
0.354554295848468,36.8880054805299,5882.1083007603,68.569556,0,1.71601711528,7900,2018-04-19 05:45:18,13,4,16.24,5882.1083007603,68.569556,0,1.72781501592,0,0,-10.961006,89.8, -0.9, 0.2,0,0,1024,1024,1684,1116,86.7,0,99,4.096,4.116,4.112,4.112,0,0,22.668,71.51,6,P-GPS,
0.354554320978615,36.8880054582283,5883.7487207603,70.209976,0,1.72492459588,8000,2018-04-19 05:45:18,13,4,16.24,5883.7487207603,70.209976,0,1.72781501592,0,0,-10.961006,90.6, -0.7, 0.2,0,0,1024,1024,1684,1126,86.7,0,99,4.096,4.116,4.112,4.112,0,0,22.668,71.51,6,P-GPS,
0.35455434414486,36.888005458944,5885.3891407603,71.850396,0,1.7333826014,8100,2018-04-19 05:45:19,13,4,16.398,5885.3891407603,71.850396,0,1.7333826014,0,0,-11.1847,91.3, -0.7, 0.2,0,0,1024,1024,1684,1107,88.1,0,99,4.119,4.135,4.127,4.128,0,0,16.922,73.31,6,P-GPS,
0.354554361797193,36.8880054361761,5887.0295607603,73.490816,0,1.73959651236,8200,2018-04-19 05:45:19,13,4,16.398,5887.0295607603,73.490816,0,1.73959651236,0,0,-10.961006,92.3, -0.6, 0.4,0,0,1024,1024,1684,1100,89,0,99,4.119,4.135,4.127,4.128,0,0,16.922,73.31,6,P-GPS,
0.354554378244477,36.8880054390796,5888.6699807603,75.131236,0,1.74562341544,8300,2018-04-19 05:45:19,13,4,16.398,5888.6699807603,75.131236,0,1.74562341544,0,0,-10.961006,93.3, -0.5, 0.5,0,0,1024,1024,1684,1123,89.8,0,99,4.119,4.135,4.127,4.128,0,0,16.922,73.31,6,P-GPS,
0.354554332436347,36.8880054022703,5890.3104007603,76.771656,0,1.72862866424,8400,2018-04-19 05:45:19,13,4,16.398,5890.3104007603,76.771656,0,1.74562341544,0,0,-11.1847,94.1, -0.4, 0.4,0,0,1024,1024,1684,1110,90.6,0,99,4.119,4.135,4.127,4.128,0,0,16.922,73.31,6,P-GPS,
0.354554297760261,36.8880053957771,5891.9508207603,78.412076,0,1.71593837512,8500,2018-04-19 05:45:19,13,4,16.398,5891.9508207603,78.412076,0,1.74562341544,0,0,-10.961006,95, -0.5, 0.3,0,0,1024,1024,1684,1129,92.4,0,99,4.119,4.135,4.127,4.128,0,0,16.922,73.31,6,P-GPS,
0.354554223907069,36.8880054008261,5895.5597447603,82.021,0,1.68902892544,8700,2018-04-19 05:45:19,13,4,16.398,5895.5597447603,82.021,0,1.74562341544,0,0,-11.408394,96.8, -0.1, 0.1,0,0,1024,1024,1684,1140,93.4,0,99,4.119,4.135,4.127,4.128,0,0,16.922,73.31,6,P-GPS,
0.354554157619627,36.8880053570777,5897.2001647603,83.66142,0,1.66464244172,8800,2018-04-19 05:45:19,13,4,16.398,5897.2001647603,83.66142,0,1.74562341544,0,0,-11.1847,97.7, -0.1, 0,0,0,1024,1024,1684,1140,94.5,0,99,4.119,4.135,4.127,4.128,0,0,16.922,73.31,6,P-GPS,
0.354554108241949,36.8880053428939,5898.8405847603,85.30184,0,1.64659126004,8900,2018-04-19 05:45:19,13,4,16.398,5898.8405847603,85.30184,0,1.74562341544,0,0,-11.408394,98.7, -0.2, 0,0,0,1024,1024,1684,1131,95.7,0,99,4.119,4.135,4.127,4.128,0,0,16.922,73.31,6,P-GPS,
0.354554035362566,36.8880053096653,5900.4810047603,86.94226,0,1.61998692848,9000,2018-04-19 05:45:19,13,4,16.398,5900.4810047603,86.94226,0,1.74562341544,0,0,-11.1847,99.9, -0.3, 0,0,0,1024,1024,1684,1122,96.7,0,99,4.119,4.135,4.127,4.128,0,0,16.922,73.31,6,P-GPS,
0.354553981164693,36.888005303876,5902.4495087603,88.910764,0,1.60021658664,9100,2018-04-19 05:45:20,13,4,16.398,5902.4495087603,88.910764,0,1.74562341544,0,0,-11.1847,101, -0.2, -0.2,0,0,1024,1024,1684,1122,96.7,0,99,4.117,4.133,4.127,4.127,0,0,16.432,73.31,6,P-GPS,
0.354553874286656,36.8880052812655,5904.0899287603,90.551184,0,1.56127629668,9200,2018-04-19 05:45:20,13,4,16.398,5904.0899287603,90.551184,0,1.74562341544,0,0,-11.1847,102, -0.2, -0.1,0,0,1024,1024,1684,1128,97.8,0,99,4.117,4.133,4.127,4.127,0,0,16.432,73.31,6,P-GPS,
0.354553798016853,36.8880052795536,5905.7303487603,92.191604,0,1.53345805432,9300,2018-04-19 05:45:20,13,4,16.398,5905.7303487603,92.191604,0,1.74562341544,0,0,-11.1847,102.9, -0.2, -0.2,0,0,1024,1024,1684,1131,98.8,0,99,4.117,4.133,4.127,4.127,0,0,16.432,73.31,6,P-GPS,
0.354553716614195,36.8880052628443,5907.6988527603,94.160108,0,1.50383206912,9400,2018-04-19 05:45:20,13,4,16.398,5907.6988527603,94.160108,0,1.74562341544,0,0,-11.1847,104, -0.3, -0.2,0,0,1024,1024,1684,1120,101.1,0,99,4.117,4.133,4.127,4.127,0,0,16.432,73.31,6,P-GPS,
0.354553589269874,36.8880052691308,5910.9796927603,97.440948,0,1.45734256632,9600,2018-04-19 05:45:20,13,4,16.398,5910.9796927603,97.440948,0,1.74562341544,0,0,-11.1847,106.3, -0.1, -0.6,0,0,1024,1024,1684,1119,102.2,0,99,4.117,4.133,4.127,4.127,0,0,16.432,73.31,6,P-GPS,
0.354553546611155,36.8880052902639,5912.6201127603,99.081368,0,1.44170280204,9700,2018-04-19 05:45:20,13,4,16.398,5912.6201127603,99.081368,0,1.74562341544,0,0,-10.961006,107.3, -0.1, -0.6,0,0,1024,1024,1684,1099,103.3,0,99,4.117,4.133,4.127,4.127,0,0,16.432,73.31,6,P-GPS,
0.354553509818092,36.8880052983705,5914.2605327603,100.721788,0,1.42825791972,9800,2018-04-19 05:45:20,13,4,16.398,5914.2605327603,100.721788,0,1.74562341544,0,0,-10.961006,108.3, 0, -0.2,0,0,1024,1024,1684,1024,104.8,0,99,4.117,4.133,4.127,4.127,0,0,16.432,73.31,6,P-GPS,
0.354553454952557,36.8880053678881,5917.8694567603,104.330712,0,1.40832681672,10000,2018-04-19 05:45:20,13,4,16.398,5917.8694567603,104.330712,0,1.74562341544,0,0,-11.1847,109.1, 0, -0.1,0,0,1024,1024,1684,1024,105.3,0,99,4.117,4.133,4.127,4.127,0,0,16.432,73.31,6,P-GPS,
0.354553434020537,36.8880054192232,5919.5098767603,105.971132,0,1.4010499136,10100,2018-04-19 05:45:21,13,4,16.476,5919.5098767603,105.971132,0,1.74562341544,0,0,-10.961006,109, 0.1, -0.1,0,0,1024,1024,1684,1003,105.6,0,99,4.117,4.133,4.127,4.127,0,0,15.76,73.31,6,P-GPS,
0.35455338270501,36.8880054754317,5921.1502967603,107.611552,0,1.3830216978,10200,2018-04-19 05:45:21,13,4,16.476,5921.1502967603,107.611552,0,1.74562341544,0,0,-11.1847,109, 0.2, -0.1,0,0,1024,1024,1684,997,106.1,0,99,4.117,4.133,4.127,4.127,0,0,15.76,73.31,6,P-GPS,
0.354553292029992,36.8880055890997,5924.4311367603,110.892392,0,1.35234256296,10400,2018-04-19 05:45:21,13,4,16.476,5924.4311367603,110.892392,0,1.74562341544,0,0,-11.1847,109, 0.6, -0.1,0,0,1024,1024,1684,1004,106.3,0,99,4.117,4.133,4.127,4.127,0,0,15.76,73.31,6,P-GPS,
0.354553257168262,36.8880056353666,5926.3996407603,112.860896,0,1.34100069908,10500,2018-04-19 05:45:21,13,4,16.476,5926.3996407603,112.860896,0,1.74562341544,0,0,-11.1847,108.9, 0.4, -0.3,0,0,1024,1024,1684,986,106.3,0,99,4.117,4.133,4.127,4.127,0,0,15.76,73.31,6,P-GPS,
0.354553204896839,36.8880057077438,5928.0400607603,114.501316,0,1.32456040984,10600,2018-04-19 05:45:21,13,4,16.476,5928.0400607603,114.501316,0,1.74562341544,0,0,-10.961006,108.9, 0.2, -0.2,0,0,1024,1024,1684,968,106.5,0,99,4.117,4.133,4.127,4.127,0,0,15.76,73.31,6,P-GPS,
0.35455317825061,36.8880057736492,5929.6804807603,116.141736,0,1.31769689256,10700,2018-04-19 05:45:21,13,4,16.476,5929.6804807603,116.141736,0,1.74562341544,0,0,-10.961006,108.7, 0.2, 0,0,0,1024,1024,1684,941,106.5,0,99,4.117,4.133,4.127,4.127,0,0,15.76,73.31,6,P-GPS,
0.354553120960321,36.8880058303609,5931.3209007603,117.782156,0,1.29976710196,10800,2018-04-19 05:45:21,13,4,16.476,5931.3209007603,117.782156,0,1.74562341544,0,0,-10.961006,108.2, 0.1, -0.4,0,0,1024,1024,1684,950,106.4,0,99,4.117,4.133,4.127,4.127,0,0,15.76,73.31,6,P-GPS,
0.354553088114606,36.8880058851273,5932.9613207603,119.422576,0,1.29094820404,10900,2018-04-19 05:45:21,13,4,16.476,5932.9613207603,119.422576,0,1.74562341544,0,0,-10.961006,107.5, 0.1, -0.4,0,0,1024,1024,1684,948,106.2,0,99,4.117,4.133,4.127,4.127,0,0,15.76,73.31,6,P-GPS,
0.354553025399971,36.8880059401999,5934.6017407603,121.062996,0,1.2717848176,11000,2018-04-19 05:45:21,13,4,16.476,5934.6017407603,121.062996,0,1.74562341544,0,0,-11.1847,106.7, 0.1, -0.4,0,0,1024,1024,1684,946,106.2,0,99,4.117,4.133,4.127,4.127,0,0,15.76,73.31,6,P-GPS,
0.354552989453698,36.8880059970427,5936.2421607603,122.703416,0,1.26277235012,11100,2018-04-19 05:45:22,13,4,16.476,5936.2421607603,122.703416,0,1.74562341544,0,0,-10.961006,105.9, 0.2, -0.5,0,0,1024,1024,1684,950,105.6,0,99,4.119,4.132,4.127,4.127,0,0,15.76,73.31,6,P-GPS,
0.354552927791037,36.8880060530392,5937.8825807603,124.343836,0,1.2449475464,11200,2018-04-19 05:45:22,13,4,16.476,5937.8825807603,124.343836,0,1.74562341544,0,0,-10.961006,105.2, 0.3, -0.6,0,0,1024,1024,1684,955,105,0,99,4.119,4.132,4.127,4.127,0,0,15.76,73.31,6,P-GPS,
0.354552889133405,36.8880061549858,5941.4915047603,127.95276,0,1.23978678508,11400,2018-04-19 05:45:22,13,4,16.476,5941.4915047603,127.95276,0,1.74562341544,0,0,-10.961006,103.8, 0.4, -0.3,0,0,1024,1024,1684,957,104.7,0,99,4.119,4.132,4.127,4.127,0,0,15.76,73.31,6,P-GPS,
0.354552897008561,36.8880062014218,5943.1319247603,129.59318,0,1.2468340294,11500,2018-04-19 05:45:22,13,4,16.476,5943.1319247603,129.59318,0,1.74562341544,0,0,-11.1847,103.1, 0.3, -0.2,0,0,1024,1024,1684,963,104.4,0,99,4.119,4.132,4.127,4.127,0,0,15.76,73.31,6,P-GPS,
0.354552906354201,36.8880062412009,5944.7723447603,131.2336,0,1.25394032884,11600,2018-04-19 05:45:22,13,4,16.476,5944.7723447603,131.2336,0,1.74562341544,0,0,-10.961006,102.4, 0.3, -0.2,0,0,1024,1024,1684,959,104.1,0,99,4.119,4.132,4.127,4.127,0,0,15.76,73.31,6,P-GPS,
0.354552925784794,36.8880062807488,5946.4127647603,132.87402,0,1.26469164152,11700,2018-04-19 05:45:22,13,4,16.476,5946.4127647603,132.87402,0,1.74562341544,0,0,-11.408394,101.9, 0.2, 0,0,0,1024,1024,1684,961,103.8,0,99,4.119,4.132,4.127,4.127,0,0,15.76,73.31,6,P-GPS,
0.35455292812324,36.888006318179,5948.0531847603,134.51444,0,1.26936355768,11800,2018-04-19 05:45:22,13,4,16.476,5948.0531847603,134.51444,0,1.74562341544,0,0,-11.1847,101.3, 0.2, 0,0,0,1024,1024,1684,966,103.4,0,99,4.119,4.132,4.127,4.127,0,0,15.76,73.31,6,P-GPS,
0.354552934493713,36.8880063522508,5949.6936047603,136.15486,0,1.27520673372,11900,2018-04-19 05:45:22,13,4,16.476,5949.6936047603,136.15486,0,1.74562341544,0,0,-10.961006,100.8, 0.2, -0.2,0,0,1024,1024,1684,980,103.1,0,99,4.119,4.132,4.127,4.127,0,0,15.76,73.31,6,P-GPS,
0.354552922819398,36.8880064195485,5953.3025287603,139.763784,0,1.278625369,12100,2018-04-19 05:45:23,13,4,16.476,5953.3025287603,139.763784,0,1.74562341544,0,0,-11.1847,99.9, 0.1, -0.3,0,0,1024,1024,1684,989,103.1,0,99,4.119,4.132,4.127,4.127,0,0,15.76,73.31,6,P-GPS,
0.354552912646508,36.8880064181953,5954.9429487603,141.404204,0,1.27494754736,12200,2018-04-19 05:45:23,13,4,16.476,5954.9429487603,141.404204,0,1.74562341544,0,0,-10.961006,99.5, 0.2, -0.3,0,0,1024,1024,1684,991,102.6,0,99,4.119,4.132,4.127,4.127,0,0,15.76,73.31,6,P-GPS,
0.354552914374287,36.888006423104,5956.5833687603,143.044624,0,1.27610896472,12300,2018-04-19 05:45:23,13,4,16.476,5956.5833687603,143.044624,0,1.74562341544,0,0,-10.961006,99.3, 0, -0.4,0,0,1024,1024,1684,1024,102.6,0,99,4.119,4.132,4.127,4.127,0,0,15.76,73.31,6,P-GPS,
0.354552908261109,36.8880064491794,5958.2237887603,144.685044,0,1.27703088076,12400,2018-04-19 05:45:23,13,4,16.476,5958.2237887603,144.685044,0,1.74562341544,0,0,-10.961006,99.1, 0, -0.5,0,0,1024,1024,1684,1024,102.3,0,99,4.119,4.132,4.127,4.127,0,0,15.76,73.31,6,P-GPS,
0.354552919577166,36.8880064756671,5959.8642087603,146.325464,0,1.28407812508,12500,2018-04-19 05:45:23,13,4,16.476,5959.8642087603,146.325464,0,1.74562341544,0,0,-11.1847,99, 0, -0.4,0,0,1024,1024,1684,1012,102.1,0,99,4.119,4.132,4.127,4.127,0,0,15.76,73.31,6,P-GPS,
0.354552926753719,36.8880064904799,5961.5046287603,147.965884,0,1.28833337456,12600,2018-04-19 05:45:23,13,4,16.476,5961.5046287603,147.965884,0,1.74562341544,0,0,-11.1847,99, 0.2, -0.4,0,0,1024,1024,1684,1001,101.9,0,99,4.119,4.132,4.127,4.127,0,0,15.76,73.31,6,P-GPS,
0.354552949771774,36.8880065098866,5963.1450487603,149.606304,0,1.29860896544,12700,2018-04-19 05:45:23,13,4,16.476,5963.1450487603,149.606304,0,1.74562341544,0,0,-10.961006,99, 0.3, -0.2,0,0,1024,1024,1684,996,101.8,0,99,4.119,4.132,4.127,4.127,0,0,15.76,73.31,6,P-GPS,
0.354553004515176,36.8880065450428,5964.7854687603,151.246724,0,1.32173232576,12800,2018-04-19 05:45:23,13,4,16.476,5964.7854687603,151.246724,0,1.74562341544,0,0,-10.961006,99.1, 0, 0,0,0,1024,1024,1684,996,101.7,0,99,4.119,4.132,4.127,4.127,0,0,15.76,73.31,6,P-GPS,
0.354553059393739,36.888006579151,5966.7539727603,153.215228,0,1.34479335012,12900,2018-04-19 05:45:23,13,4,16.476,5966.7539727603,153.215228,0,1.74562341544,0,0,-10.961006,99, 0.1, 0.1,0,0,1024,1024,1684,989,101.6,0,99,4.119,4.132,4.127,4.127,0,0,15.76,73.31,6,P-GPS,
0.354553125036317,36.8880065910218,5968.0663087603,154.527564,0,1.36878613304,13000,2018-04-19 05:45:23,13,4,16.476,5968.0663087603,154.527564,0,1.74562341544,0,0,-10.961006,98.9, 0.2, 0.2,0,0,1024,1024,1684,989,101.5,0,99,4.119,4.132,4.127,4.127,0,0,15.76,73.31,6,P-GPS,
0.354553188677536,36.8880066012727,5969.7067287603,156.167984,0,1.39190621252,13100,2018-04-19 05:45:24,13,4,16.424,5969.7067287603,156.167984,0,1.74562341544,0,0,-10.961006,98.8, 0, 0.4,0,0,1024,1024,1684,986,101.5,0,99,4.111,4.126,4.121,4.121,0,0,16.008,73.31,6,P-GPS,
0.354553246006907,36.8880066291875,5971.6752327603,158.136488,0,1.41503285368,13200,2018-04-19 05:45:24,13,4,16.424,5971.6752327603,158.136488,0,1.74562341544,0,0,-11.1847,98.6, -0.1, 0.3,0,0,1024,1024,1684,982,101.5,0,99,4.111,4.126,4.121,4.121,0,0,16.008,73.31,6,P-GPS,
0.354553293414169,36.8880066567554,5973.3156527603,159.776908,0,1.434711332,13300,2018-04-19 05:45:24,13,4,16.424,5973.3156527603,159.776908,0,1.74562341544,0,0,-11.1847,98.4, 0, 0.2,0,0,1024,1024,1684,975,101.2,0,99,4.111,4.126,4.121,4.121,0,0,16.008,73.31,6,P-GPS,
0.354553336245503,36.888006668412,5974.9560727603,161.417328,0,1.45085634564,13400,2018-04-19 05:45:24,13,4,16.424,5974.9560727603,161.417328,0,1.74562341544,0,0,-10.961006,98.1, 0, 0.3,0,0,1024,1024,1684,968,101.2,0,99,4.111,4.126,4.121,4.121,0,0,16.008,73.31,6,P-GPS,
0.354553376201005,36.8880066813973,5976.5964927603,163.057748,0,1.4661745876,13500,2018-04-19 05:45:24,13,4,16.424,5976.5964927603,163.057748,0,1.74562341544,0,0,-10.961006,97.8, 0.1, 0.3,0,0,1024,1024,1684,971,100.4,0,99,4.111,4.126,4.121,4.121,0,0,16.008,73.31,6,P-GPS,
0.354553445087443,36.8880066614103,5979.8773327603,166.338588,0,1.48743114996,13700,2018-04-19 05:45:24,13,4,16.424,5979.8773327603,166.338588,0,1.74562341544,0,0,-11.1847,96.9, 0, 0.3,0,0,1024,1024,1684,979,100.4,0,99,4.111,4.126,4.121,4.121,0,0,16.008,73.31,6,P-GPS,
0.354553519279351,36.8880066717416,5981.5177527603,167.979008,0,1.51424545528,13800,2018-04-19 05:45:24,13,4,16.424,5981.5177527603,167.979008,0,1.74562341544,0,0,-10.961006,96.5, -0.3, 0.3,0,0,1024,1024,1684,979,99.7,0,99,4.111,4.126,4.121,4.121,0,0,16.008,73.31,6,P-GPS,
0.354553572825847,36.8880066780185,5983.1581727603,169.619428,0,1.53346789684,13900,2018-04-19 05:45:24,13,4,16.424,5983.1581727603,169.619428,0,1.74562341544,0,0,-10.961006,96.1, -0.3, 0.2,0,0,1024,1024,1684,980,99.1,0,99,4.111,4.126,4.121,4.121,0,0,16.008,73.31,6,P-GPS,
0.354553595747825,36.8880066853553,5986.4390127603,172.900268,0,1.54224742468,14100,2018-04-19 05:45:25,13,4,16.319,5986.4390127603,172.900268,0,1.74562341544,0,0,-11.1847,95.5, -0.4, -0.1,0,0,1024,1024,1684,987,98.8,0,99,4.105,4.119,4.114,4.114,0,0,16.456,73.31,6,P-GPS,
0.354553628375328,36.8880066895799,5988.0794327603,174.540688,0,1.55401251692,14200,2018-04-19 05:45:25,13,4,16.319,5988.0794327603,174.540688,0,1.74562341544,0,0,-11.1847,95.1, -0.6, -0.2,0,0,1024,1024,1684,989,98.8,0,99,4.105,4.119,4.114,4.114,0,0,16.456,73.31,6,P-GPS,
0.354553657544017,36.8880066959221,5989.7198527603,176.181108,0,1.56483272724,14300,2018-04-19 05:45:25,13,4,16.319,5989.7198527603,176.181108,0,1.74562341544,0,0,-10.961006,94.8, -0.6, -0.3,0,0,1024,1024,1684,999,98.1,0,99,4.105,4.119,4.114,4.114,0,0,16.456,73.31,6,P-GPS,
0.35455376441554,36.888006653489,5993.0006927603,179.461948,0,1.597030891,14500,2018-04-19 05:45:25,13,4,16.319,5993.0006927603,179.461948,0,1.74562341544,0,0,-10.961006,94.5, -0.4, -0.1,0,0,1024,1024,1684,999,98.1,0,99,4.105,4.119,4.114,4.114,0,0,16.456,73.31,6,P-GPS,
0.354553795411343,36.8880066417777,5994.6411127603,181.102368,0,1.60651579944,14600,2018-04-19 05:45:25,13,4,16.319,5994.6411127603,181.102368,0,1.74562341544,0,0,-10.961006,94.3, -0.4, 0,0,0,1024,1024,1684,1024,98.1,0,99,4.105,4.119,4.114,4.114,0,0,16.456,73.31,6,P-GPS,
0.354553825882787,36.8880066337803,5996.2815327603,182.742788,0,1.6162566134,14700,2018-04-19 05:45:25,13,4,16.319,5996.2815327603,182.742788,0,1.74562341544,0,0,-11.1847,94.2, -0.5, 0.1,0,0,1024,1024,1684,1024,97.7,0,99,4.105,4.119,4.114,4.114,0,0,16.456,73.31,6,P-GPS,
0.354553869873573,36.8880065815288,5997.9219527603,184.383208,0,1.62609585256,14800,2018-04-19 05:45:25,13,4,16.319,5997.9219527603,184.383208,0,1.74562341544,0,0,-10.961006,94.3, -0.9, 0.3,0,0,1024,1024,1684,1024,97.5,0,99,4.105,4.119,4.114,4.114,0,0,16.456,73.31,6,P-GPS,
0.354553899885796,36.8880065516506,5999.5623727603,186.023628,0,1.63356632524,14900,2018-04-19 05:45:25,13,4,16.319,5999.5623727603,186.023628,0,1.74562341544,0,0,-10.961006,94.3, -0.9, 0.2,0,0,1024,1024,1684,1024,97.2,0,99,4.105,4.119,4.114,4.114,0,0,16.456,73.31,6,P-GPS,
0.354553870495639,36.8880065364117,6002.8432127603,189.304468,0,1.62172905452,15100,2018-04-19 05:45:25,13,4,16.319,6002.8432127603,189.304468,0,1.74562341544,0,0,-11.1847,94.3, -0.8, -0.5,0,0,1024,1024,1684,1024,97.1,0,99,4.105,4.119,4.114,4.114,0,0,16.456,73.31,6,P-GPS,
0.354553846697558,36.8880065076137,6004.4836327603,190.944888,0,1.61052170508,15200,2018-04-19 05:45:26,13,4,16.319,6004.4836327603,190.944888,0,1.74562341544,0,0,-10.961006,94.3, -1, -0.3,0,0,1024,1024,1684,1024,96.9,0,99,4.105,4.119,4.114,4.114,0,0,16.456,73.31,6,P-GPS,
0.354553831829865,36.8880065108908,6006.1240527603,192.585308,0,1.60562341096,15300,2018-04-19 05:45:26,13,4,16.319,6006.1240527603,192.585308,0,1.74562341544,0,0,-10.961006,94.3, -0.9, -0.2,0,0,1024,1024,1684,1024,96.8,0,99,4.105,4.119,4.114,4.114,0,0,16.456,73.31,6,P-GPS,
0.354553817548411,36.8880065317096,6007.7644727603,194.225728,0,1.60268377832,15400,2018-04-19 05:45:26,13,4,16.319,6007.7644727603,194.225728,0,1.74562341544,0,0,-11.1847,94.3, -0.5, -0.3,0,0,1024,1024,1684,1024,96.7,0,99,4.105,4.119,4.114,4.114,0,0,16.456,73.31,6,P-GPS,
0.35455380640334,36.8880065748204,6009.4048927603,195.866148,0,1.60319558936,15500,2018-04-19 05:45:26,13,4,16.319,6009.4048927603,195.866148,0,1.74562341544,0,0,-10.961006,94.3, 0, -0.4,0,0,1024,1024,1684,1024,96.6,0,99,4.105,4.119,4.114,4.114,0,0,16.456,73.31,6,P-GPS,
0.354553801498467,36.8880065583236,6011.3733967603,197.834652,0,1.5997703924,15600,2018-04-19 05:45:26,13,4,16.319,6011.3733967603,197.834652,0,1.74562341544,0,0,-11.1847,94.3, 0.1, -0.3,0,0,1024,1024,1684,1024,96.6,0,99,4.105,4.119,4.114,4.114,0,0,16.456,73.31,6,P-GPS,
0.354553802061908,36.8880065606607,6013.0138167603,199.475072,0,1.60021002496,15700,2018-04-19 05:45:26,13,4,16.319,6013.0138167603,199.475072,0,1.74562341544,0,0,-11.1847,94.3, 0.1, -0.2,0,0,1024,1024,1684,1024,96.5,0,99,4.105,4.119,4.114,4.114,0,0,16.456,73.31,6,P-GPS,
0.35455376687449,36.8880065270825,6014.6542367603,201.115492,0,1.58445215044,15800,2018-04-19 05:45:26,13,4,16.319,6014.6542367603,201.115492,0,1.74562341544,0,0,-11.1847,94.3, -0.1, -0.3,0,0,1024,1024,1684,1024,96.4,0,99,4.105,4.119,4.114,4.114,0,0,16.456,73.31,6,P-GPS,
0.354553745193387,36.8880065245377,6016.2946567603,202.755912,0,1.57659453864,15900,2018-04-19 05:45:26,13,4,16.319,6016.2946567603,202.755912,0,1.74562341544,0,0,-10.961006,94.3, 0.1, -0.3,0,0,1024,1024,1684,1024,96.3,0,99,4.105,4.119,4.114,4.114,0,0,16.456,73.31,6,P-GPS,
0.354553774798499,36.8880065373367,6017.9350767603,204.396332,0,1.5882710482,16000,2018-04-19 05:45:26,13,4,16.319,6017.9350767603,204.396332,0,1.74562341544,0,0,-11.1847,94.3, 0.2, -0.1,0,0,1024,1024,1684,1024,96.3,0,99,4.105,4.119,4.114,4.114,0,0,16.456,73.31,6,P-GPS,
0.354553795925931,36.8880065511078,6019.5754967603,206.036752,0,1.5970801036,16100,2018-04-19 05:45:27,13,4,16.319,6019.5754967603,206.036752,0,1.74562341544,0,0,-11.1847,94.3, 0, -0.2,0,0,1024,1024,1684,1027,96.3,0,99,4.098,4.112,4.107,4.108,0,0,16.802,73.31,6,P-GPS,
0.354553775244693,36.8880065392156,6021.2159167603,207.677172,0,1.58861881724,16200,2018-04-19 05:45:27,13,4,16.319,6021.2159167603,207.677172,0,1.74562341544,0,0,-11.1847,94.3, 0.1, -0.2,0,0,1024,1024,1684,1030,96.2,0,99,4.098,4.112,4.107,4.108,0,0,16.802,73.31,6,P-GPS,
0.354553763392877,36.8880065411159,6022.8563367603,209.317592,0,1.5846621242,16300,2018-04-19 05:45:27,13,4,16.319,6022.8563367603,209.317592,0,1.74562341544,0,0,-11.1847,94.3, 0.1, -0.1,0,0,1024,1024,1684,1030,96.1,0,99,4.098,4.112,4.107,4.108,0,0,16.802,73.31,6,P-GPS,
0.354553745291094,36.8880065210176,6024.4967567603,210.958012,0,1.57627301632,16400,2018-04-19 05:45:27,13,4,16.319,6024.4967567603,210.958012,0,1.74562341544,0,0,-10.961006,94.3, 0, -0.1,0,0,1024,1024,1684,1092,96.1,0,99,4.098,4.112,4.107,4.108,0,0,16.802,73.31,6,P-GPS,
0.354553728540919,36.8880065118832,6026.1371767603,212.598432,0,1.56947511584,16500,2018-04-19 05:45:27,13,4,16.319,6026.1371767603,212.598432,0,1.74562341544,0,0,-10.961006,94.3, 0, -0.1,0,0,1024,1024,1684,1024,96.1,0,99,4.098,4.112,4.107,4.108,0,0,16.802,73.31,6,P-GPS,
0.354553705058756,36.8880064905516,6027.7775967603,214.238852,0,1.55909781892,16600,2018-04-19 05:45:27,13,4,16.319,6027.7775967603,214.238852,0,1.74562341544,0,0,-10.961006,94.7, 0, -0.3,0,0,1024,1024,1684,1024,96.2,0,99,4.098,4.112,4.107,4.108,0,0,16.802,73.31,6,P-GPS,
0.354553679990489,36.8880064773479,6029.4180167603,215.879272,0,1.5489829892,16700,2018-04-19 05:45:27,13,4,16.319,6029.4180167603,215.879272,0,1.74562341544,0,0,-11.1847,94.8, 0, -0.6,0,0,1024,1024,1684,1024,96.2,0,99,4.098,4.112,4.107,4.108,0,0,16.802,73.31,6,P-GPS,
0.354553663393388,36.8880064563942,6031.0584367603,217.519692,0,1.54108272648,16800,2018-04-19 05:45:27,13,4,16.319,6031.0584367603,217.519692,0,1.74562341544,0,0,-10.961006,94.8, 0, -0.7,0,0,1024,1024,1684,1024,96.1,0,99,4.098,4.112,4.107,4.108,0,0,16.802,73.31,6,P-GPS,
0.354553655508462,36.8880064474408,6032.6988567603,219.160112,0,1.5374344324,16900,2018-04-19 05:45:27,13,4,16.319,6032.6988567603,219.160112,0,1.74562341544,0,0,-10.961006,94.8, -0.2, -0.5,0,0,1024,1024,1684,1024,96.1,0,99,4.098,4.112,4.107,4.108,0,0,16.802,73.31,6,P-GPS,
0.354553625483212,36.8880064458317,6034.3392767603,220.800532,0,1.52672577064,17000,2018-04-19 05:45:27,12,4,16.319,6034.3392767603,220.800532,0,1.74562341544,0,0,-10.961006,94.8, -0.1, -0.4,0,0,1024,1024,1684,1024,96.1,0,99,4.098,4.112,4.107,4.108,0,0,16.802,73.31,6,P-GPS,
0.354553597252507,36.8880064581607,6035.9796967603,222.440952,0,1.51803154464,17100,2018-04-19 05:45:27,12,4,16.371,6035.9796967603,222.440952,0,1.74562341544,0,0,-10.961006,94.9, 0, -0.4,0,0,1024,1024,1684,1024,96.1,-0.7,99,4.094,4.107,4.103,4.103,0,0,16.78,73.31,6,P-GPS,
0.354553618050994,36.8880064294183,6037.6201167603,224.081372,0,1.52250989124,17200,2018-04-19 05:45:28,13,4,16.371,6037.6201167603,224.081372,0,1.74562341544,0,0,-10.961006,94.9, 0, -0.6,0,0,1024,1024,1684,1024,96,-1.8,99,4.094,4.107,4.103,4.103,0,0,16.78,73.31,6,P-GPS,
0.354553630925472,36.8880064174705,6039.5886207603,226.049876,0,1.52588915644,17300,2018-04-19 05:45:28,13,4,16.371,6039.5886207603,226.049876,0,1.74562341544,0,0,-11.1847,94.9, 0, -0.5,0,0,1024,1024,1684,1024,96,-1.8,99,4.094,4.107,4.103,4.103,0,0,16.78,73.31,6,P-GPS,
0.354553647600738,36.8880064055858,6041.2290407603,227.690296,0,1.53063325108,17400,2018-04-19 05:45:28,13,4,16.371,6041.2290407603,227.690296,0,1.74562341544,0,0,-10.961006,94.9, 0.1, -0.6,0,0,1024,1024,1684,1024,96,-3,99,4.094,4.107,4.103,4.103,0,0,16.78,73.31,6,P-GPS,
0.354553655326077,36.8880064069743,6042.8694607603,229.330716,0,1.53348758188,17500,2018-04-19 05:45:28,13,4,16.371,6042.8694607603,229.330716,0,1.74562341544,0,0,-11.1847,94.9, 0.3, -0.8,0,0,1024,1024,1684,1024,96,-4.1,99,4.094,4.107,4.103,4.103,0,0,16.78,73.31,6,P-GPS,
0.35455366979643,36.8880064001707,6044.5098807603,230.971136,0,1.53794952428,17600,2018-04-19 05:45:28,13,4,16.371,6044.5098807603,230.971136,0,1.74562341544,0,0,-11.1847,94.9, 0.5, -1,0,0,1024,1024,1684,1024,96,-5.2,99,4.094,4.107,4.103,4.103,0,0,16.78,73.31,6,P-GPS,
0.354553691682717,36.8880064001375,6046.1503007603,232.611556,0,1.54566605996,17700,2018-04-19 05:45:28,13,4,16.371,6046.1503007603,232.611556,0,1.74562341544,0,0,-11.1847,95, 0.4, -0.8,0,0,1024,1024,1684,1024,96,-6.4,99,4.094,4.107,4.103,4.103,0,0,16.78,73.31,6,P-GPS,
0.354553686738761,36.8880063850667,6047.7907207603,234.251976,0,1.54252957692,17800,2018-04-19 05:45:28,13,4,16.371,6047.7907207603,234.251976,0,1.74562341544,0,0,-10.961006,95, 0.5, -0.5,0,0,1024,1024,1684,1024,95.9,-8.6,99,4.094,4.107,4.103,4.103,0,0,16.78,73.31,6,P-GPS,
0.354553695170844,36.8880063756283,6049.4311407603,235.892396,0,1.54464243788,17900,2018-04-19 05:45:28,13,4,16.371,6049.4311407603,235.892396,0,1.74562341544,0,0,-10.961006,95, 0.4, -0.4,0,0,1024,1024,1684,1024,95.9,-8.9,99,4.094,4.107,4.103,4.103,0,0,16.78,73.31,6,P-GPS,
0.354553707693579,36.888006346431,6051.0715607603,237.532816,0,1.54645346156,18000,2018-04-19 05:45:28,13,4,16.371,6051.0715607603,237.532816,0,1.74562341544,0,0,-10.961006,94.9, 0, 0,0,0,1024,1024,1684,1024,95.9,-8.9,99,4.094,4.107,4.103,4.103,0,0,16.78,73.31,6,P-GPS,
0.354553719718009,36.8880063206114,6052.7119807603,239.173236,0,1.54846461648,18100,2018-04-19 05:45:29,13,4,16.292,6052.7119807603,239.173236,0,1.74562341544,0,0,-10.961006,94.9, -0.2, -0.1,0,0,1024,1024,1684,1024,95.9,-8.9,99,4.092,4.106,4.1,4.099,0,0,16.592,73.31,6,P-GPS,
0.354553712533314,36.8880063000014,6054.0243167603,240.485572,0,1.54415687356,18200,2018-04-19 05:45:29,13,4,16.292,6054.0243167603,240.485572,0,1.74562341544,0,0,-10.737312,94.8, -0.2, -0.1,0,0,1024,1024,1684,1024,95.9,-8.9,99,4.092,4.106,4.1,4.099,0,0,16.592,73.31,6,P-GPS,
0.354553710064593,36.8880062879935,6055.6647367603,242.125992,0,1.5422736714,18300,2018-04-19 05:45:29,13,4,16.292,6055.6647367603,242.125992,0,1.74562341544,0,0,-10.961006,94.8, -0.2, -0.2,0,0,1024,1024,1684,1024,95.9,-8.9,99,4.092,4.106,4.1,4.099,0,0,16.592,73.31,6,P-GPS,
0.354553692838913,36.8880062916057,6057.3051567603,243.766412,0,1.53646002292,18400,2018-04-19 05:45:29,13,4,16.292,6057.3051567603,243.766412,0,1.74562341544,0,0,-10.961006,94.8, -0.4, 0,0,0,1024,1024,1684,1024,95.8,-8.9,99,4.092,4.106,4.1,4.099,0,0,16.592,73.31,6,P-GPS,
0.354553676834565,36.8880063066219,6058.9455767603,245.406832,0,1.53205713564,18500,2018-04-19 05:45:29,13,4,16.292,6058.9455767603,245.406832,0,1.74562341544,0,0,-10.961006,94.7, -0.1, -0.1,0,0,1024,1024,1684,1024,95.8,-8.9,99,4.092,4.106,4.1,4.099,0,0,16.592,73.31,6,P-GPS,
0.354553603437337,36.888006333101,6060.5859967603,247.047252,0,1.50837603252,18600,2018-04-19 05:45:29,13,4,16.292,6060.5859967603,247.047252,0,1.74562341544,0,0,-10.961006,94.8, 0.1, -0.5,0,0,1024,1024,1684,1024,95.8,-8.9,99,4.092,4.106,4.1,4.099,0,0,16.592,73.31,6,P-GPS,
0.354553543696241,36.8880063543299,6062.2264167603,248.687672,0,1.48919952272,18700,2018-04-19 05:45:29,13,4,16.292,6062.2264167603,248.687672,0,1.74562341544,0,0,-11.1847,94.8, 0, -0.9,0,0,1024,1024,1684,1024,95.8,-8.9,99,4.092,4.106,4.1,4.099,0,0,16.592,73.31,6,P-GPS,
0.354553458821739,36.8880063667627,6063.8668367603,250.328092,0,1.46044296012,18800,2018-04-19 05:45:29,13,4,16.292,6063.8668367603,250.328092,0,1.74562341544,0,0,-10.961006,94.8, 0, -0.9,0,0,1024,1024,1684,1024,95.8,-8.9,99,4.092,4.106,4.1,4.099,0,0,16.592,73.31,6,P-GPS,
0.354553401002207,36.8880063794921,6065.5072567603,251.968512,0,1.44133206712,18900,2018-04-19 05:45:30,13,4,16.345,6065.5072567603,251.968512,0,1.74562341544,0,0,-10.961006,94.8, 0, -0.8,0,0,1024,1024,1684,1024,95.7,-8.9,99,4.092,4.106,4.1,4.099,0,0,16.592,73.31,6,P-GPS,
0.354553308819249,36.888006321728,6070.4285167603,256.889772,0,1.40332353572,19200,2018-04-19 05:45:30,13,4,16.345,6070.4285167603,256.889772,0,1.74562341544,0,0,-11.1847,94.8, 0, -0.8,0,0,1024,1024,1684,1024,95.7,-8.9,99,4.092,4.106,4.1,4.099,0,0,16.592,73.31,6,P-GPS,
0.35455327813285,36.8880062734356,6072.0689367603,258.530192,0,1.38799873208,19300,2018-04-19 05:45:30,13,4,16.345,6072.0689367603,258.530192,0,1.74562341544,0,0,-11.1847,94.8, -0.6, -0.9,0,0,1024,1024,1684,1024,95.7,-8.9,99,4.092,4.106,4.1,4.099,0,0,16.592,73.31,6,P-GPS,
0.354553267414432,36.888006190354,6073.7093567603,260.170612,0,1.37690621204,19400,2018-04-19 05:45:30,13,4,16.345,6073.7093567603,260.170612,0,1.74562341544,0,0,-10.961006,94.8, -0.8, -1,0,0,1024,1024,1684,1024,95.7,-8.9,99,4.092,4.106,4.1,4.099,0,0,16.592,73.31,6,P-GPS,
0.354553240922905,36.8880061216784,6076.9901967603,263.451452,0,1.36190621156,19600,2018-04-19 05:45:30,13,4,16.345,6076.9901967603,263.451452,0,1.74562341544,0,0,-10.961006,94.8, -0.3, -0.8,0,0,1024,1024,1684,1024,95.7,-8.9,99,4.092,4.106,4.1,4.099,0,0,16.592,73.31,6,P-GPS,
0.354553226934571,36.8880061144208,6078.6306167603,265.091872,0,1.35635174944,19700,2018-04-19 05:45:30,13,4,16.345,6078.6306167603,265.091872,0,1.74562341544,0,0,-10.961006,94.8, -0.1, -0.6,0,0,1024,1024,1684,1024,95.7,-8.9,99,4.092,4.106,4.1,4.099,0,0,16.592,73.31,6,P-GPS,
0.354553262418366,36.888006114074,6080.2710367603,266.732292,0,1.36897642176,19800,2018-04-19 05:45:30,13,4,16.345,6080.2710367603,266.732292,0,1.74562341544,0,0,-10.737312,94.8, -0.2, -0.5,0,0,1024,1024,1684,1024,95.7,-8.9,99,4.092,4.106,4.1,4.099,0,0,16.592,73.31,6,P-GPS,
0.354553286209933,36.888006114787,6081.9114567603,268.372712,0,1.37751644828,19900,2018-04-19 05:45:30,13,4,16.345,6081.9114567603,268.372712,0,1.74562341544,0,0,-10.737312,94.8, -0.4, -0.7,0,0,1024,1024,1684,1024,95.6,-8.9,99,4.092,4.106,4.1,4.099,0,0,16.592,73.31,6,P-GPS,
0.354553303725476,36.8880060745561,6083.5518767603,270.013132,0,1.38076119904,20000,2018-04-19 05:45:30,13,4,16.345,6083.5518767603,270.013132,0,1.74562341544,0,0,-10.961006,94.8, -0.3, -0.8,0,0,1024,1024,1684,1024,95.6,-8.9,99,4.092,4.106,4.1,4.099,0,0,16.592,73.31,6,P-GPS,
0.354553322126893,36.8880060489966,6085.1922967603,271.653552,0,1.38552169788,20100,2018-04-19 05:45:31,13,4,16.345,6085.1922967603,271.653552,0,1.74562341544,0,0,-11.1847,94.8, -0.4, -0.7,0,0,1024,1024,1684,1024,95.6,-9.1,99,4.092,4.106,4.1,4.099,0,0,16.592,73.31,6,P-GPS,
0.354553336747064,36.8880060267892,6086.8327167603,273.293972,0,1.38923232792,20200,2018-04-19 05:45:31,13,4,16.345,6086.8327167603,273.293972,0,1.74562341544,0,0,-11.1847,94.8, -0.6, -0.7,0,0,1024,1024,1684,1024,95.6,-9.6,99,4.092,4.106,4.1,4.099,0,0,16.592,73.31,6,P-GPS,
0.354553351627785,36.8880060176892,6088.4731367603,274.934392,0,1.39395673752,20300,2018-04-19 05:45:31,13,4,16.345,6088.4731367603,274.934392,0,1.74562341544,0,0,-10.961006,94.8, -0.6, -0.5,0,0,1024,1024,1684,1024,95.6,-10.3,99,4.092,4.106,4.1,4.099,0,0,16.592,73.31,6,P-GPS,
0.354553356877888,36.8880060200434,6090.1135567603,276.574812,0,1.39599742,20400,2018-04-19 05:45:31,13,4,16.345,6090.1135567603,276.574812,0,1.74562341544,0,0,-10.961006,94.8, -0.4, -0.5,0,0,1024,1024,1684,1024,95.6,-11,99,4.092,4.106,4.1,4.099,0,0,16.592,73.31,6,P-GPS,
0.354553362235469,36.8880060294004,6091.7539767603,278.215232,0,1.39854663268,20500,2018-04-19 05:45:31,13,4,16.345,6091.7539767603,278.215232,0,1.74562341544,0,0,-11.1847,94.8, -0.4, -0.5,0,0,1024,1024,1684,1024,95.6,-11.7,99,4.092,4.106,4.1,4.099,0,0,16.592,73.31,6,P-GPS,
0.354553355897565,36.8880060428482,6093.3943967603,279.855652,0,1.39719164576,20600,2018-04-19 05:45:31,13,4,16.345,6093.3943967603,279.855652,0,1.74562341544,0,0,-11.1847,94.8, -0.5, -0.5,0,0,1024,1024,1684,1024,95.6,-12.5,99,4.092,4.106,4.1,4.099,0,0,16.592,73.31,6,P-GPS,
0.354553349527092,36.8880060629123,6095.0348167603,281.496072,0,1.39631238064,20700,2018-04-19 05:45:31,13,4,16.345,6095.0348167603,281.496072,0,1.74562341544,0,0,-11.408394,94.8, -0.4, -0.7,0,0,1024,1024,1684,1024,95.6,-13.2,99,4.092,4.106,4.1,4.099,0,0,16.592,73.31,6,P-GPS,
0.354553337408212,36.8880060369214,6096.6752367603,283.136492,0,1.3901575248,20800,2018-04-19 05:45:31,13,4,16.345,6096.6752367603,283.136492,0,1.74562341544,0,0,-11.1847,94.8, -0.3, -0.7,0,0,1024,1024,1684,1024,95.6,-13.9,99,4.092,4.106,4.1,4.099,0,0,16.592,73.31,6,P-GPS,
0.354553332151595,36.8880060282956,6098.3156567603,284.776912,0,1.38768705228,20900,2018-04-19 05:45:31,13,4,16.345,6098.3156567603,284.776912,0,1.74562341544,0,0,-10.961006,94.8, -0.3, -0.7,0,0,1024,1024,1684,1024,95.6,-14,99,4.092,4.106,4.1,4.099,0,0,16.592,73.31,6,P-GPS,
0.354553330233288,36.8880060090205,6099.9560767603,286.417332,0,1.38570542492,21000,2018-04-19 05:45:31,13,4,16.345,6099.9560767603,286.417332,0,1.74562341544,0,0,-10.961006,94.8, -0.2, -0.7,0,0,1024,1024,1684,1024,95.5,-14,99,4.092,4.106,4.1,4.099,0,0,16.592,73.31,6,P-GPS,
0.354553336105457,36.8880060017233,6101.5964967603,288.057752,0,1.38733272156,21100,2018-04-19 05:45:32,13,4,16.214,6101.5964967603,288.057752,0,1.74562341544,0,0,-11.1847,94.8, -0.3, -0.5,0,0,1024,1024,1684,1024,95.5,-14,98,4.085,4.1,4.094,4.093,0,0,16.692,73.31,6,P-GPS,
0.354553382577992,36.8880059831763,6103.2369167603,289.698172,0,1.40283469056,21200,2018-04-19 05:45:32,13,4,16.214,6103.2369167603,289.698172,0,1.74562341544,0,0,-11.1847,94.8, -0.3, -0.4,0,0,1024,1024,1684,1024,95.5,-14,98,4.085,4.1,4.094,4.093,0,0,16.692,73.31,6,P-GPS,
0.3545534155149,36.888005972496,6104.8773367603,291.338592,0,1.4140092316,21300,2018-04-19 05:45:32,13,4,16.214,6104.8773367603,291.338592,0,1.74562341544,0,0,-11.1847,94.8, -0.5, -0.5,0,0,1024,1024,1684,1024,95.5,-14,98,4.085,4.1,4.094,4.093,0,0,16.692,73.31,6,P-GPS,
0.354553435245127,36.8880059153588,6106.5177567603,292.979012,0,1.4177657934,21400,2018-04-19 05:45:32,13,4,16.214,6106.5177567603,292.979012,0,1.74562341544,0,0,-11.1847,94.8, -0.6, -0.4,0,0,1024,1024,1684,1024,95.5,-14,98,4.085,4.1,4.094,4.093,0,0,16.692,73.31,6,P-GPS,
0.354553451457916,36.8880058826387,6108.4862607603,294.947516,0,1.42183731584,21500,2018-04-19 05:45:32,13,4,16.214,6108.4862607603,294.947516,0,1.74562341544,0,0,-11.1847,94.8, -0.5, -0.4,0,0,1024,1024,1684,1024,95.5,-14,98,4.085,4.1,4.094,4.093,0,0,16.692,73.31,6,P-GPS,
0.354553452562001,36.888005853299,6109.7985967603,296.259852,0,1.42073167276,21600,2018-04-19 05:45:32,13,4,16.214,6109.7985967603,296.259852,0,1.74562341544,0,0,-10.961006,94.8, -0.6, -0.4,0,0,1024,1024,1684,1024,95.5,-14,98,4.085,4.1,4.094,4.093,0,0,16.692,73.31,6,P-GPS,
0.354553450708831,36.8880058337049,6111.4390167603,297.900272,0,1.41909781444,21700,2018-04-19 05:45:32,13,4,16.214,6111.4390167603,297.900272,0,1.74562341544,0,0,-10.961006,94.8, -0.8, -0.5,0,0,1024,1024,1684,1024,95.5,-14,98,4.085,4.1,4.094,4.093,0,0,16.692,73.31,6,P-GPS,
0.354553435202788,36.8880057809571,6113.0794367603,299.540692,0,1.41106959896,21800,2018-04-19 05:45:32,13,4,16.214,6113.0794367603,299.540692,0,1.74562341544,0,0,-10.961006,94.8, -1.1, -0.6,0,0,1024,1024,1684,1024,95.5,-14,98,4.085,4.1,4.094,4.093,0,0,16.692,73.31,6,P-GPS,
0.35455342082037,36.8880057551809,6114.7198567603,301.181112,0,1.40476382448,21900,2018-04-19 05:45:32,13,4,16.214,6114.7198567603,301.181112,0,1.74562341544,0,0,-10.961006,94.9, -1, -0.7,0,0,1024,1024,1684,1024,95.5,-14,98,4.085,4.1,4.094,4.093,0,0,16.692,73.31,6,P-GPS,
0.354553446846162,36.8880056689486,6116.3602767603,302.821532,0,1.41101382468,22000,2018-04-19 05:45:32,13,4,16.214,6116.3602767603,302.821532,0,1.74562341544,0,0,-10.961006,94.9, -0.8, -0.7,0,0,1024,1024,1684,1024,95.5,-14,98,4.085,4.1,4.094,4.093,0,0,16.692,73.31,6,P-GPS,
0.354553464410559,36.8880056256713,6118.0006967603,304.461952,0,1.41606631828,22100,2018-04-19 05:45:33,13,4,16.266,6118.0006967603,304.461952,0,1.74562341544,0,0,-10.961006,94.9, -0.6, -0.8,0,0,1024,1024,1684,1024,95.5,-14,98,4.084,4.1,4.094,4.093,0,0,16.482,73.31,6,P-GPS,
0.354553484814963,36.8880056019875,6119.6411167603,306.102372,0,1.42283797204,22200,2018-04-19 05:45:33,13,4,16.266,6119.6411167603,306.102372,0,1.74562341544,0,0,-10.961006,94.9, -0.5, -0.8,0,0,1024,1024,1684,1024,95.5,-14,98,4.084,4.1,4.094,4.093,0,0,16.482,73.31,6,P-GPS,
0.354553507326572,36.8880055962331,6121.2815367603,307.742792,0,1.43087931088,22300,2018-04-19 05:45:33,13,4,16.266,6121.2815367603,307.742792,0,1.74562341544,0,0,-10.961006,94.9, -0.4, -0.6,0,0,1024,1024,1582,1024,95.5,-14,98,4.084,4.1,4.094,4.093,0,0,16.482,73.31,6,P-GPS,
0.354553530965065,36.8880055524333,6122.9219567603,309.383212,0,1.4384514896,22400,2018-04-19 05:45:33,13,4,16.266,6122.9219567603,309.383212,0,1.74562341544,0,0,-10.961006,94.9, -0.3, -0.4,0,0,1024,1024,1373,1024,95.4,-14,98,4.084,4.1,4.094,4.093,0,0,16.482,73.31,6,P-GPS,
0.354553598350078,36.8880055089248,6126.2027967603,312.664052,0,1.46216212028,22600,2018-04-19 05:45:33,13,4,16.266,6126.2027967603,312.664052,0,1.74562341544,0,0,-10.06623,94.9, -0.7, -0.4,0,0,1024,1024,1276,1024,95.4,-14,98,4.084,4.1,4.094,4.093,0,0,16.482,73.31,6,P-GPS,
0.354553633322541,36.8880055072113,6127.5151327603,313.976388,0,1.47487865612,22700,2018-04-19 05:45:33,13,4,16.266,6127.5151327603,313.976388,0,1.74562341544,0,0,-8.94776,94.9, -0.6, -0.5,0,0,1024,1024,1357,1024,95.4,-14,98,4.084,4.1,4.094,4.093,0,0,16.482,73.31,6,P-GPS,
0.354553647294591,36.8880055028101,6128.8274687603,315.288724,0,1.47989834132,22800,2018-04-19 05:45:33,13,4,16.266,6128.8274687603,315.288724,0,1.74562341544,0,0,-7.381902,95, -0.5, -0.5,0,0,1024,1024,1630,1024,95.4,-14,98,4.084,4.1,4.094,4.093,0,0,16.482,73.31,6,P-GPS,
0.354553653665064,36.8880055063238,6130.4678887603,316.929144,0,1.48227695032,23000,2018-04-19 05:45:34,13,4,16.24,6130.4678887603,316.929144,0,1.74562341544,0,0,-5.816044,94.9, 0.3, -0.5,0,0,1024,1024,1684,1024,95.4,-14,98,4.084,4.1,4.094,4.093,0,0,16.482,73.31,6,P-GPS,
0.354553657189017,36.8880054230367,6132.4363927603,318.897648,0,1.4824803624,23200,2018-04-19 05:45:34,13,4,16.24,6132.4363927603,318.897648,0,1.74562341544,0,0,-7.605596,94.7, 0.6, -1.1,0,0,1024,1024,1684,1024,95.4,-14,98,4.084,4.1,4.094,4.093,0,0,16.482,73.31,6,P-GPS,
0.354553684888849,36.8880053319642,6133.4206447603,319.8819,0,1.49211618948,23300,2018-04-19 05:45:34,13,4,16.24,6133.4206447603,319.8819,0,1.74562341544,0,0,-8.500372,94.7, -0.1, -1.1,0,0,1024,1024,1684,1024,95.4,-14,98,4.084,4.1,4.094,4.093,0,0,16.482,73.31,6,P-GPS,
0.354553687377111,36.8880052364289,6135.0610647603,321.52232,0,1.49333010028,23400,2018-04-19 05:45:34,13,4,16.24,6135.0610647603,321.52232,0,1.74562341544,0,0,-9.395148,94.8, -1, -1.1,0,0,1024,1024,1684,1024,95.4,-14,98,4.084,4.1,4.094,4.093,0,0,16.482,73.31,6,P-GPS,
0.354553716878003,36.8880051705931,6136.3734007603,322.834656,0,1.50477038936,23500,2018-04-19 05:45:34,13,4,16.24,6136.3734007603,322.834656,0,1.74562341544,0,0,-10.06623,94.8, -1.2, -1.3,0,0,1024,1024,1684,1024,95.4,-14,98,4.084,4.1,4.094,4.093,0,0,16.482,73.31,6,P-GPS,
0.354553819593736,36.8880051296743,6138.0138207603,324.475076,0,1.54282157168,23600,2018-04-19 05:45:34,13,4,16.24,6138.0138207603,324.475076,0,1.74562341544,0,0,-10.513618,94.8, -1.1, -1.3,0,0,1024,1024,1684,1024,95.4,-14,98,4.084,4.1,4.094,4.093,0,0,16.482,73.31,6,P-GPS,
0.354553932233208,36.8880051123248,6139.6542407603,326.115496,0,1.58416671736,23700,2018-04-19 05:45:34,13,4,16.24,6139.6542407603,326.115496,0,1.74562341544,0,0,-10.737312,94.9, -1.2, -0.9,0,0,1024,1024,1684,1024,95.4,-14,98,4.084,4.1,4.094,4.093,0,0,16.482,73.31,6,P-GPS,
0.354554043775108,36.8880051106584,6141.2946607603,327.755916,0,1.62484585252,23800,2018-04-19 05:45:34,12,4,16.24,6141.2946607603,327.755916,0,1.74562341544,0,0,-10.737312,94.9, -1.1, -0.3,0,0,1024,1024,1684,1024,95.4,-14,98,4.084,4.1,4.094,4.093,0,0,16.482,73.31,6,P-GPS,
0.354554255850626,36.8880051679219,6144.5755007603,331.036756,0,1.70133207544,24000,2018-04-19 05:45:34,13,4,16.24,6144.5755007603,331.036756,0,1.74562341544,0,0,-10.961006,94.9, -0.3, 0.1,0,0,1024,1024,1684,1024,95.4,-14,98,4.084,4.1,4.094,4.093,0,0,16.482,73.31,6,P-GPS,
0.354554343405546,36.8880052081271,6146.2159207603,332.677176,0,1.73285110532,24100,2018-04-19 05:45:35,13,4,16.292,6146.2159207603,332.677176,0,1.74562341544,0,0,-11.1847,94.8, -0.2, 0,0,0,1024,1024,1684,1024,95.4,-14,98,4.082,4.096,4.091,4.089,0,0,16.426,73.31,6,P-GPS,
0.354554418144612,36.8880052305417,6147.8563407603,334.317596,0,1.7599410012,24200,2018-04-19 05:45:35,13,4,16.292,6147.8563407603,334.317596,0,1.7599410012,0,0,-11.1847,94.8, -0.2, 0,0,0,1024,1024,1684,1024,95.4,-14,98,4.082,4.096,4.091,4.089,0,0,16.426,73.31,6,P-GPS,
0.354554483308427,36.8880052581422,6149.4967607603,335.958016,0,1.78355648752,24300,2018-04-19 05:45:35,13,4,16.292,6149.4967607603,335.958016,0,1.78355648752,0,0,-11.1847,94.8, 0, 0,0,0,1024,1024,1684,1024,95.4,-14,98,4.082,4.096,4.091,4.089,0,0,16.426,73.31,6,P-GPS,
0.354554511991839,36.8880052533711,6151.1371807603,337.598436,0,1.794045333,24400,2018-04-19 05:45:35,13,4,16.292,6151.1371807603,337.598436,0,1.794045333,0,0,-11.1847,94.8, 0, 0,0,0,1024,1024,1684,1024,95.4,-14,98,4.082,4.096,4.091,4.089,0,0,16.426,73.31,6,P-GPS,
