latitude,longitude,altitude(feet),ascent(feet),speed(mph),distance(feet),time(millisecond),datetime(utc),satellites,voltage(v),max_altitude(feet),max_ascent(feet),max_speed(mph),max_distance(feet),compass_heading(degrees), pitch(degrees), roll(degrees),isPhoto,isVideo,rc_elevator,rc_aileron,rc_throttle,rc_rudder,gimbal_heading(degrees),gimbal_pitch(degrees),battery_percent,voltageCell1,voltageCell2,voltageCell3,voltageCell4,voltageCell5,voltageCell6,battery_temperature(f),flycStateRaw,flycState,message
0.350064526826365,36.9146468035793,5414.1325193808,0,0,0,100,2017-11-12 05:49:25,9,0,5414.1325193808,0,0,0,318.5, 3.2, 2.5,0,0,1024,1024,1024,1024,322.9,0,100,4.289,4.292,4.287,4.289,0,0,73.31,41,Motors_Started,
0.350064492172109,36.914646774053,5414.1325193808,0,0,0.016610400794,200,2017-11-12 05:49:25,9,0,5414.1325193808,0,0,0.016610400794,318.5, 3.2, 2.5,0,0,1024,1024,1024,1024,322.9,0,100,4.289,4.292,4.287,4.289,0,0,73.31,41,Motors_Started,
0.350064450830038,36.9146467698664,5414.1325193808,0,0,0.0303329077948,300,2017-11-12 05:49:25,9,0,5414.1325193808,0,0,0.0303329077948,318.5, 3.2, 2.5,0,0,1024,1024,1024,1024,322.9,0,100,4.289,4.292,4.287,4.289,0,0,73.31,41,Motors_Started,
0.350064405545555,36.9146467641118,5414.1325193808,0,0,0.046533137972,400,2017-11-12 05:49:25,9,0,5414.1325193808,0,0,0.046533137972,318.5, 3.1, 2.5,0,0,1024,1024,1024,1024,322.9,0,100,4.289,4.292,4.287,4.289,0,0,73.31,41,Motors_Started,
0.350064353311433,36.9146467819231,5414.1325193808,0,0,0.063797902304,500,2017-11-12 05:49:25,9,0,5414.1325193808,0,0,0.063797902304,318.5, 3.2, 2.5,0,0,1004,852,916,1138,322.8,0,100,4.289,4.292,4.287,4.289,0,0,73.31,41,Motors_Started,
0.35006430128397,36.9146467902838,5414.1325193808,0,0,0.082431761168,600,2017-11-12 05:49:25,9,0,5414.1325193808,0,0,0.082431761168,318.5, 3.2, 2.5,0,0,1024,1024,1024,1024,321.2,0,100,4.289,4.292,4.287,4.289,0,0,73.31,41,Motors_Started,
0.350064266321838,36.9146467957025,5414.1325193808,0,0,0.095088257636,700,2017-11-12 05:49:25,9,0,5414.1325193808,0,0,0.095088257636,318.5, 3.2, 2.6,0,0,1024,1024,1024,1024,320.1,0,100,4.289,4.292,4.287,4.289,0,0,73.31,41,Motors_Started,
0.350064239948373,36.9146467815506,5414.1325193808,0,0,0.10497539706,800,2017-11-12 05:49:26,9,0,5414.1325193808,0,0,0.10497539706,318.5, 3.2, 2.6,0,0,1024,1024,1024,1024,319.7,0,100,4.289,4.292,4.287,4.289,0,0,73.31,41,Motors_Started,
0.350064210824619,36.9146467583457,5414.1325193808,0,0,0.11646817958,900,2017-11-12 05:49:26,9,0,5414.1325193808,0,0,0.11646817958,318.5, 3.2, 2.6,0,0,1024,1024,1024,1024,319.4,0,100,4.289,4.292,4.287,4.289,0,0,73.31,41,Motors_Started,
0.350064174155877,36.9146467286238,5414.1325193808,0,0,0.131545607884,1000,2017-11-12 05:49:26,9,17.123,5414.1325193808,0,0,0.131545607884,318.5, 3.3, 2.7,0,0,1024,1024,1024,1024,319.4,0,100,4.289,4.292,4.287,4.289,0,0,73.31,41,Motors_Started,
0.350064134658324,36.9146467103695,5414.1325193808,0,0,0.147067918092,1100,2017-11-12 05:49:26,9,17.123,5414.1325193808,0,0,0.147067918092,318.5, 3.3, 2.6,0,0,1024,1024,1024,1024,319.2,0,100,4.289,4.292,4.287,4.289,0,0,73.31,41,Motors_Started,
0.350064092044692,36.9146466939471,5414.1325193808,0,0,0.163594821508,1200,2017-11-12 05:49:26,9,17.123,5414.1325193808,0,0,0.163594821508,318.5, 3.2, 2.6,0,0,1024,1024,1024,1024,319.1,0,100,4.289,4.292,4.287,4.289,0,0,73.31,41,Motors_Started,
0.350064064874511,36.9146466736313,5414.1325193808,0,0,0.175083995104,1300,2017-11-12 05:49:26,9,17.123,5414.1325193808,0,0,0.175083995104,318.5, 3.3, 2.7,0,0,1024,1024,1024,1024,319,0,100,4.289,4.292,4.287,4.289,0,0,73.31,41,Motors_Started,
0.350064044833506,36.9146466410278,5414.1325193808,0,0,0.18558563586,1400,2017-11-12 05:49:26,9,17.123,5414.1325193808,0,0,0.18558563586,318.5, 3.3, 2.7,0,0,1024,1024,1024,1024,319,0,100,4.289,4.292,4.287,4.289,0,0,73.31,41,Motors_Started,
0.350064021206513,36.9146466227366,5414.1325193808,0,0,0.195919297608,1500,2017-11-12 05:49:26,9,17.123,5414.1325193808,0,0,0.195919297608,318.5, 3.4, 2.8,0,0,1024,1024,1024,1024,318.9,0,100,4.289,4.292,4.287,4.289,0,0,73.31,10,Assisted_Takeoff,
0.350063987903307,36.9146466060149,5414.1325193808,0,0,0.209421266544,1600,2017-11-12 05:49:26,9,17.123,5414.1325193808,0,0,0.209421266544,318.5, 3.2, 2.6,0,0,1024,1024,1024,1024,318.9,0,100,4.289,4.292,4.287,4.289,0,0,73.31,10,Assisted_Takeoff,
0.350063948845587,36.9146465819482,5414.1325193808,0,0,0.225847448172,1700,2017-11-12 05:49:26,9,17.123,5414.1325193808,0,0,0.225847448172,318.5, 3.3, 2.7,0,0,1024,1024,1024,1024,318.8,0,100,4.289,4.292,4.287,4.289,0,0,73.31,10,Assisted_Takeoff,
0.350063904949148,36.9146465488643,5414.1325193808,0,0,0.2451853753,1800,2017-11-12 05:49:27,9,17.123,5414.1325193808,0,0,0.2451853753,318.5, 3.2, 2.6,0,0,1024,1024,1024,1024,318.8,0,100,4.289,4.292,4.287,4.289,0,0,73.31,10,Assisted_Takeoff,
0.350063854840807,36.9146465046907,5414.1325193808,0,0,0.268330717248,1900,2017-11-12 05:49:27,9,17.123,5414.1325193808,0,0,0.268330717248,318.5, 3.3, 2.6,0,0,1024,1024,1024,1024,318.8,0,100,4.289,4.292,4.287,4.289,0,0,73.31,10,Assisted_Takeoff,
0.350063804199354,36.9146464602841,5414.1325193808,0,0,0.291887804616,2000,2017-11-12 05:49:27,9,17.123,5414.1325193808,0,0,0.291887804616,318.4, 3.2, 2.6,0,1,1024,1024,1024,1024,318.8,0,100,4.272,4.271,4.254,4.252,0,0,73.31,10,Assisted_Takeoff,
0.35006374868641,36.9146464260854,5414.1325193808,0,0,0.315546926108,2100,2017-11-12 05:49:27,9,17.123,5414.1325193808,0,0,0.315546926108,318.5, 3.3, 2.6,0,1,1024,1024,1024,1024,318.7,0,100,4.272,4.271,4.254,4.252,0,0,73.31,10,Assisted_Takeoff,
0.350063695000479,36.9146464044681,5414.1325193808,0,0,0.336614184,2200,2017-11-12 05:49:27,9,17.123,5414.1325193808,0,0,0.336614184,318.4, 3.2, 2.6,0,1,1024,1024,1024,1024,318.7,0,100,4.272,4.271,4.254,4.252,0,0,73.31,10,Assisted_Takeoff,
0.350063637198453,36.9146463966901,5414.1325193808,0,0,0.35691602192,2300,2017-11-12 05:49:27,9,17.123,5414.1325193808,0,0,0.35691602192,318.4, 3.2, 2.6,0,1,1024,1024,1024,1024,318.7,0,100,4.272,4.271,4.254,4.252,0,0,73.31,10,Assisted_Takeoff,
0.350063581719503,36.9146463916078,5414.1325193808,0,0,0.37615486768,2400,2017-11-12 05:49:27,9,17.123,5414.1325193808,0,0,0.37615486768,318.4, 3.2, 2.6,0,1,1024,1024,1024,1024,318.7,0,100,4.272,4.271,4.254,4.252,0,0,73.31,10,Assisted_Takeoff,
0.350063545886305,36.9146464003336,5414.1325193808,0,0,0.38695539296,2500,2017-11-12 05:49:27,9,17.123,5414.1325193808,0,0,0.38695539296,318.4, 3.2, 2.6,0,1,1024,1024,1024,1024,318.7,0,100,4.272,4.271,4.254,4.252,0,0,73.31,10,Assisted_Takeoff,
0.350063520010127,36.9146464049493,5414.1325193808,0,0,0.3950787528,2600,2017-11-12 05:49:27,9,17.123,5414.1325193808,0,0,0.3950787528,318.4, 3.2, 2.6,0,1,1024,1024,1024,1024,318.7,0,100,4.272,4.271,4.254,4.252,0,0,73.31,10,Assisted_Takeoff,
0.350063494133236,36.9146464192059,5414.1325193808,0,0,0.40202757192,2700,2017-11-12 05:49:27,9,17.123,5414.1325193808,0,0,0.40202757192,318.4, 3.2, 2.6,0,1,1024,1024,1024,1024,318.7,0,100,4.272,4.271,4.254,4.252,0,0,73.31,10,Assisted_Takeoff,
0.350063458704808,36.9146464289228,5414.1325193808,0,0,0.41298229668,2800,2017-11-12 05:49:28,9,17.123,5414.1325193808,0,0,0.41298229668,318.4, 3.2, 2.6,0,1,1024,1024,1024,1024,318.7,0,100,4.272,4.271,4.254,4.252,0,0,73.31,10,Assisted_Takeoff,
0.350063420634434,36.9146464453215,5414.1325193808,0,0,0.42423229704,2900,2017-11-12 05:49:28,9,17.123,5414.1325193808,0,0,0.42423229704,318.4, 3.2, 2.6,0,1,1024,1024,1024,1024,318.7,0,100,4.272,4.271,4.254,4.252,0,0,73.31,10,Assisted_Takeoff,
0.350063376421975,36.9146464568981,5414.1325193808,0,0,0.4383694366,3000,2017-11-12 05:49:28,9,17.096,5414.1325193808,0,0,0.4383694366,318.4, 3.2, 2.6,0,1,1024,1024,1024,1024,318.6,0,100,4.272,4.271,4.254,4.252,0,0,73.31,10,Assisted_Takeoff,
0.350063349834574,36.9146464716921,5414.1325193808,0,0,0.44617127412,3100,2017-11-12 05:49:28,9,17.096,5414.1325193808,0,0,0.44617127412,318.4, 3.2, 2.6,0,1,1024,1024,1024,1024,318.6,0,100,4.272,4.271,4.254,4.252,0,0,73.31,10,Assisted_Takeoff,
0.350063329815908,36.9146464825642,5414.1325193808,0,0,0.45215880712,3200,2017-11-12 05:49:28,9,17.096,5414.1325193808,0,0,0.45215880712,318.4, 3.2, 2.6,0,1,1024,1024,1024,1024,318.6,0,100,4.272,4.271,4.254,4.252,0,0,73.31,10,Assisted_Takeoff,
0.350063329572659,36.9146464939371,5414.1325193808,0,0,0.45118767848,3300,2017-11-12 05:49:28,9,17.096,5414.1325193808,0,0,0.45215880712,318.4, 3.2, 2.6,0,1,1024,1024,1024,1024,318.6,0,100,4.272,4.271,4.254,4.252,0,0,73.31,10,Assisted_Takeoff,
0.350063326025501,36.9146465031436,5414.1325193808,0,0,0.45161418768,3400,2017-11-12 05:49:28,9,17.096,5414.1325193808,0,0,0.45215880712,318.4, 3.2, 2.6,0,1,1024,1024,1024,1024,318.6,0,100,4.272,4.271,4.254,4.252,0,0,73.31,10,Assisted_Takeoff,
0.350063320097456,36.9146465107509,5414.1325193808,0,0,0.4530511956,3500,2017-11-12 05:49:28,9,17.096,5414.1325193808,0,0,0.4530511956,318.4, 3.2, 2.6,0,1,1024,1024,1024,1024,318.6,0,100,4.272,4.271,4.254,4.252,0,0,73.31,10,Assisted_Takeoff,
0.350063296061928,36.9146465179192,5414.1325193808,0,0,0.46098098588,3600,2017-11-12 05:49:28,9,17.096,5414.1325193808,0,0,0.46098098588,318.4, 3.2, 2.6,0,1,1024,1024,1024,1024,318.6,0,100,4.272,4.271,4.254,4.252,0,0,73.31,10,Assisted_Takeoff,
0.350063285699732,36.9146465220812,5414.1325193808,0,0,0.46432416184,3700,2017-11-12 05:49:28,9,17.096,5414.1325193808,0,0,0.46432416184,318.4, 3.2, 2.6,0,1,1024,1024,1024,1024,318.6,0,100,4.272,4.271,4.254,4.252,0,0,73.31,10,Assisted_Takeoff,
0.350063275815993,36.9146465276222,5414.1325193808,0,0,0.46740158976,3800,2017-11-12 05:49:29,9,17.096,5414.1325193808,0,0,0.46740158976,318.4, 3.2, 2.6,0,1,1024,1024,1024,1024,318.6,0,100,4.272,4.271,4.254,4.252,0,0,73.31,10,Assisted_Takeoff,
0.350063258834681,36.9146465302184,5414.1325193808,0,0,0.47325460832,3900,2017-11-12 05:49:29,9,17.096,5414.1325193808,0,0,0.47325460832,318.4, 3.2, 2.6,0,1,1024,1024,1024,1024,318.6,0,100,4.272,4.271,4.254,4.252,0,0,73.31,10,Assisted_Takeoff,
0.350063228131082,36.9146465343607,5414.1325193808,0,0,0.48390093412,4000,2017-11-12 05:49:29,9,17.096,5414.1325193808,0,0,0.48390093412,318.4, 3.2, 2.6,0,1,1024,1024,1024,1024,318.6,0,100,4.28,4.283,4.277,4.281,0,0,73.31,10,Assisted_Takeoff,
0.350063188543608,36.9146465347608,5414.1325193808,0,0,0.49802495032,4100,2017-11-12 05:49:29,9,17.096,5414.1325193808,0,0,0.49802495032,318.4, 3.2, 2.6,0,1,1024,1024,1024,1024,318.6,0,100,4.28,4.283,4.277,4.281,0,0,73.31,10,Assisted_Takeoff,
0.350063143993858,36.9146465376798,5414.1325193808,0,0,0.51376642064,4200,2017-11-12 05:49:29,9,17.096,5414.1325193808,0,0,0.51376642064,318.4, 3.2, 2.6,0,1,1024,1024,1024,1024,318.6,0,100,4.28,4.283,4.277,4.281,0,0,73.31,10,Assisted_Takeoff,
0.350063090246657,36.914646536431,5414.1325193808,0,0,0.5331200958,4300,2017-11-12 05:49:29,9,17.096,5414.1325193808,0,0,0.5331200958,318.4, 3.2, 2.6,0,1,1024,1024,1024,1024,318.6,0,100,4.28,4.283,4.277,4.281,0,0,73.31,10,Assisted_Takeoff,
0.350063036662911,36.9146465381758,5414.1325193808,0,0,0.55224083132,4400,2017-11-12 05:49:29,9,17.096,5414.1325193808,0,0,0.55224083132,318.4, 3.2, 2.6,0,1,1024,1024,1024,1024,318.6,0,100,4.28,4.283,4.277,4.281,0,0,73.31,10,Assisted_Takeoff,
0.350062975630255,36.9146465358108,5414.1325193808,0,0,0.57432416536,4500,2017-11-12 05:49:29,9,17.096,5414.1325193808,0,0,0.57432416536,318.4, 3.2, 2.6,0,1,1024,1024,1024,1024,318.6,0,100,4.28,4.283,4.277,4.281,0,0,73.31,10,Assisted_Takeoff,
0.350062917420506,36.9146465374151,5414.1325193808,0,0,0.59516734188,4600,2017-11-12 05:49:29,9,17.096,5414.1325193808,0,0,0.59516734188,318.4, 3.2, 2.6,0,1,1024,1024,1024,1024,318.6,0,100,4.28,4.283,4.277,4.281,0,0,73.31,10,Assisted_Takeoff,
0.350062853903048,36.9146465349666,5414.1325193808,0,0,0.61818243448,4700,2017-11-12 05:49:29,9,17.096,5414.1325193808,0,0,0.61818243448,318.4, 3.2, 2.6,0,1,1024,1024,1024,1024,318.6,0,100,4.28,4.283,4.277,4.281,0,0,73.31,10,Assisted_Takeoff,
0.35006279403819,36.9146465356202,5414.1325193808,0,0,0.63972114908,4800,2017-11-12 05:49:30,9,17.096,5414.1325193808,0,0,0.63972114908,318.4, 3.2, 2.6,0,1,1024,1024,1024,1024,318.6,0,100,4.28,4.283,4.277,4.281,0,0,73.31,10,Assisted_Takeoff,
0.350062750389174,36.9146465317216,5414.1325193808,0,0,0.655675874,4900,2017-11-12 05:49:30,9,17.096,5414.1325193808,0,0,0.655675874,318.3, 3.2, 2.6,0,1,1024,1024,1024,1024,318.6,0,100,4.28,4.283,4.277,4.281,0,0,73.31,10,Assisted_Takeoff,
0.350062720126985,36.9146465315361,5414.1325193808,0,0,0.66660435204,5000,2017-11-12 05:49:30,9,17.096,5414.1325193808,0,0,0.66660435204,318.3, 3.2, 2.6,0,1,1024,1024,1024,1024,318.6,0,100,4.281,4.285,4.279,4.281,0,0,73.31,10,Assisted_Takeoff,
0.350062691172233,36.9146465271854,5414.1325193808,0,0,0.67728676708,5100,2017-11-12 05:49:30,9,17.096,5414.1325193808,0,0,0.67728676708,318.3, 3.2, 2.6,0,1,1024,1024,1024,1024,318.6,0,100,4.281,4.285,4.279,4.281,0,0,73.31,10,Assisted_Takeoff,
0.35006265034592,36.9146465266016,5414.1325193808,0,0,0.69205054708,5200,2017-11-12 05:49:30,9,17.096,5414.1325193808,0,0,0.69205054708,318.3, 3.2, 2.6,0,1,1024,1024,1024,1024,318.6,0,100,4.281,4.285,4.279,4.281,0,0,73.31,10,Assisted_Takeoff,
0.350062628335261,36.9146465427463,5414.1325193808,0,0,0.69916996988,5300,2017-11-12 05:49:30,9,17.096,5414.1325193808,0,0,0.69916996988,318.3, 3.2, 2.6,0,1,1024,1024,1024,1024,318.6,0,100,4.281,4.285,4.279,4.281,0,0,73.31,10,Assisted_Takeoff,
0.350062611991179,36.9146465723167,5414.1325193808,0,0,0.70370409076,5400,2017-11-12 05:49:30,9,17.096,5414.1325193808,0,0,0.70370409076,318.3, 3.2, 2.6,0,1,1024,1024,1024,1024,318.6,0,100,4.281,4.285,4.279,4.281,0,0,73.31,10,Assisted_Takeoff,
0.350062617176145,36.9146466016029,5414.1325193808,0,0,0.70062010116,5500,2017-11-12 05:49:30,9,17.096,5414.1325193808,0,0,0.70370409076,318.3, 3.2, 2.6,0,1,1024,1024,1024,1024,318.6,0,100,4.281,4.285,4.279,4.281,0,0,73.31,10,Assisted_Takeoff,
0.350062614330235,36.9146466218788,5414.1325193808,0,0,0.70091537676,5600,2017-11-12 05:49:30,9,17.096,5414.1325193808,0,0,0.70370409076,318.3, 3.2, 2.6,0,1,1024,1024,1025,1024,318.6,0,100,4.281,4.285,4.279,4.281,0,0,73.31,10,Assisted_Takeoff,
0.350062609076875,36.9146466373966,5414.1325193808,0,0,0.7023130146,5700,2017-11-12 05:49:30,9,17.096,5414.1325193808,0,0,0.70370409076,318.3, 3.2, 2.6,0,1,1024,1024,1031,1024,318.6,0,100,4.281,4.285,4.279,4.281,0,0,73.31,10,Assisted_Takeoff,
0.350062585157272,36.914646649309,5414.1325193808,0,0,0.71064962904,5800,2017-11-12 05:49:31,9,17.096,5414.1325193808,0,0,0.71064962904,318.3, 3.2, 2.6,0,1,1024,1024,1027,1024,318.6,0,100,4.281,4.285,4.279,4.281,0,0,73.31,10,Assisted_Takeoff,
0.350062555475826,36.9146466541806,5414.1325193808,0,0,0.7213090782,5900,2017-11-12 05:49:31,9,17.096,5414.1325193808,0,0,0.7213090782,318.3, 3.2, 2.6,0,1,1024,1024,1024,1024,318.6,0,100,4.281,4.285,4.279,4.281,0,0,73.31,10,Assisted_Takeoff,
0.350062514670277,36.9146466601482,5414.1325193808,0,0,0.73599739888,6000,2017-11-12 05:49:31,9,17.096,5414.1325193808,0,0,0.73599739888,318.3, 3.2, 2.6,0,1,1024,1024,1024,1024,318.6,0,100,4.281,4.285,4.278,4.281,0,0,73.31,10,Assisted_Takeoff,
0.350062467137218,36.9146466596729,5414.1325193808,0,0,0.75330711072,6100,2017-11-12 05:49:31,9,17.096,5414.1325193808,0,0,0.75330711072,318.3, 3.2, 2.6,0,1,1024,1024,1024,1024,318.6,0,100,4.281,4.285,4.278,4.281,0,0,73.31,10,Assisted_Takeoff,
0.350062416540445,36.9146466612957,5414.1325193808,0,0,0.77168309556,6200,2017-11-12 05:49:31,9,17.096,5414.1325193808,0,0,0.77168309556,318.3, 3.2, 2.6,0,1,1024,1024,1024,1024,318.6,0,100,4.281,4.285,4.278,4.281,0,0,73.31,10,Assisted_Takeoff,
0.350062378815708,36.914646656768,5414.1325193808,0,0,0.78552824036,6300,2017-11-12 05:49:31,9,17.096,5414.1325193808,0,0,0.78552824036,318.3, 3.2, 2.6,0,1,1024,1024,1036,1024,318.6,0,100,4.281,4.285,4.278,4.281,0,0,73.31,10,Assisted_Takeoff,
0.350062351806539,36.9146466560986,5414.1325193808,0,0,0.79537732204,6400,2017-11-12 05:49:31,9,17.096,5414.1325193808,0,0,0.79537732204,318.3, 3.2, 2.6,0,1,1024,1024,1066,1024,318.6,0,100,4.281,4.285,4.278,4.281,0,0,73.31,10,Assisted_Takeoff,
0.350062322566199,36.914646650498,5414.1325193808,0,0,0.80616144312,6500,2017-11-12 05:49:31,9,17.096,5414.1325193808,0,0,0.80616144312,318.3, 3.2, 2.6,0,1,1024,1024,1102,1024,318.6,0,100,4.281,4.285,4.278,4.281,0,0,73.31,10,Assisted_Takeoff,
0.350062282566525,36.9146466491782,5414.1325193808,0,0,0.8207513386,6600,2017-11-12 05:49:31,9,17.096,5414.1325193808,0,0,0.8207513386,318.3, 3.2, 2.6,0,1,1024,1024,1137,1024,318.6,0,100,4.281,4.285,4.278,4.281,0,0,73.31,10,Assisted_Takeoff,
0.35006223912656,36.9146466443267,5414.1325193808,0,0,0.83668637848,6700,2017-11-12 05:49:31,9,17.096,5414.1325193808,0,0,0.83668637848,318.3, 3.2, 2.6,0,1,1024,1024,1192,1024,318.5,0,100,4.281,4.285,4.278,4.281,0,0,73.31,10,Assisted_Takeoff,
0.35006219113367,36.9146466433286,5414.1325193808,0,0,0.85417981736,6800,2017-11-12 05:49:32,9,17.096,5414.1325193808,0,0,0.85417981736,318.3, 3.3, 2.6,0,1,1024,1024,1251,1024,318.6,0,100,4.281,4.285,4.278,4.281,0,0,73.31,10,Assisted_Takeoff,
0.350062139830152,36.9146466393205,5414.1325193808,0,0,0.87295278384,6900,2017-11-12 05:49:32,9,17.096,5414.1325193808,0,0,0.87295278384,318.3, 3.3, 2.7,0,1,1024,1024,1310,1024,318.5,0,100,4.281,4.285,4.278,4.281,0,0,73.31,10,Assisted_Takeoff,
0.350062087035184,36.9146466401735,5414.1325193808,0,0,0.89214897868,7000,2017-11-12 05:49:32,9,17.096,5414.1325193808,0,0,0.89214897868,318.4, 3.4, 2.8,0,1,1024,1024,1384,1024,318.5,0,100,4.281,4.285,4.278,4.281,0,0,73.31,10,Assisted_Takeoff,
0.350062011976129,36.9146466411097,5414.1325193808,0,0,0.91945541,7100,2017-11-12 05:49:32,9,17.096,5414.1325193808,0,0,0.91945541,318.4, 3.4, 2.7,0,1,1024,1024,1441,1024,318.5,0,100,4.281,4.285,4.278,4.281,0,0,73.31,10,Assisted_Takeoff,
0.350061926343994,36.9146466703319,5414.1325193808,0,0,0.95002955796,7200,2017-11-12 05:49:32,9,17.096,5414.1325193808,0,0,0.95002955796,318.5, 2.9, 2.2,0,1,1024,1024,1512,1024,318.5,0,100,4.281,4.285,4.278,4.281,0,0,73.31,10,Assisted_Takeoff,
0.350061834967727,36.9146467573675,5414.1325193808,0,0.223694,0.9822670918,7300,2017-11-12 05:49:32,9,17.096,5414.1325193808,0,0.223694,0.9822670918,318.6, 2.4, 1.5,0,1,1024,1024,1568,1024,318.5,0,100,4.281,4.285,4.278,4.281,0,0,73.31,6,GPS_Atti,Obstacle Avoided. Revise Flight Route
0.350061749551768,36.9146468931799,5414.1325193808,0,0.223694,1.01381564924,7400,2017-11-12 05:49:32,9,17.096,5414.1325193808,0,0.223694,1.01381564924,318.6, 1.2, 0.4,0,1,1024,1024,1623,1024,318.5,0,100,4.281,4.285,4.278,4.281,0,0,73.31,6,GPS_Atti,
0.350061661340381,36.9146470302991,5414.1325193808,0,0.223694,1.0487369102,7500,2017-11-12 05:49:32,9,17.096,5414.1325193808,0,0.223694,1.0487369102,318.6, 0.4, 0,0,1,1024,1024,1655,1024,318.5,0,100,4.281,4.285,4.278,4.281,0,0,73.31,6,GPS_Atti,
0.350061590495333,36.9146471359634,5414.4606033808,0.328084,0.223694,1.07815948332,7600,2017-11-12 05:49:32,9,17.096,5414.4606033808,0.328084,0.223694,1.07815948332,318.8, -0.2, 0,0,1,1024,1024,1663,1024,318.5,0,100,4.281,4.285,4.278,4.281,0,0,73.31,6,GPS_Atti,
0.35006155580459,36.9146472025936,5414.7886873808,0.656168,0,1.09370738408,7700,2017-11-12 05:49:32,9,17.096,5414.7886873808,0.656168,0.223694,1.09370738408,318.8, -0.1, -0.1,0,1,1024,1024,1664,1024,318.5,0,100,4.281,4.285,4.278,4.281,0,0,73.31,6,GPS_Atti,
0.350061549001155,36.914647230657,5415.4448553808,1.312336,0,1.09757549444,7800,2017-11-12 05:49:33,9,17.096,5415.4448553808,1.312336,0.223694,1.09757549444,318.9, 0.3, -0.4,0,1,1024,1024,1657,1024,318.5,0,100,4.281,4.285,4.278,4.281,0,0,73.31,6,GPS_Atti,
0.350061587959845,36.9146472141656,5416.1010233808,1.968504,0,1.08265751496,7900,2017-11-12 05:49:33,9,17.096,5416.1010233808,1.968504,0.223694,1.09757549444,319, 0.5, -0.5,0,1,1024,1024,1639,1024,318.6,0,100,4.281,4.285,4.278,4.281,0,0,73.31,6,GPS_Atti,
0.35006164117882,36.9146471594534,5417.0852753808,2.952756,0,1.06080383972,8000,2017-11-12 05:49:33,9,16.481,5417.0852753808,2.952756,0.223694,1.09757549444,319.1, 0.5, -0.5,0,1,1024,1024,1635,1024,318.6,0,100,4.272,4.275,4.264,4.264,0,0,73.31,6,GPS_Atti,Setting new Return-To-Home altitude to 30m (98 ft). Setting new Maximum Flight Altitude to 150m (492 ft)
0.350061746378745,36.9146470339162,5418.0695273808,3.937008,0,1.01791998008,8100,2017-11-12 05:49:33,9,16.481,5418.0695273808,3.937008,0.223694,1.09757549444,319, 1, -0.3,0,1,1024,1024,1606,1024,318.6,0,100,4.272,4.275,4.264,4.264,0,0,73.31,6,GPS_Atti,Home Point Recorded. RTH Altitude:  30m.
0.350061847122026,36.9146468717967,5419.3818633808,5.249344,0.223694,0.97800528064,8200,2017-11-12 05:49:33,9,16.481,5419.3818633808,5.249344,0.223694,1.09757549444,318.9, 1.6, -0.2,0,1,1024,1024,1601,1024,318.6,0,100,4.272,4.275,4.264,4.264,0,0,73.31,6,GPS_Atti,
0.350062006292656,36.9146466655664,5420.6941993808,6.56168,0.223694,0.92099412396,8300,2017-11-12 05:49:33,9,16.481,5420.6941993808,6.56168,0.223694,1.09757549444,318.8, 1.9, 0.5,0,1,1024,1024,1602,1024,318.6,0,100,4.272,4.275,4.264,4.264,0,0,73.31,6,GPS_Atti,
0.350062152357568,36.914646465695,5422.0065353808,7.874016,0.223694,0.8750492406,8400,2017-11-12 05:49:33,9,16.481,5422.0065353808,7.874016,0.223694,1.09757549444,318.6, 2.4, 1,0,1,1024,1024,1605,1024,318.6,0,100,4.272,4.275,4.264,4.264,0,0,73.31,6,GPS_Atti,
0.350062381393128,36.9146462533101,5423.3188713808,9.186352,0,0.80809713872,8500,2017-11-12 05:49:33,9,16.481,5423.3188713808,9.186352,0.223694,1.09757549444,318.5, 2.5, 0.7,0,1,1024,1024,1595,1024,318.6,0,100,4.272,4.275,4.264,4.264,0,0,73.31,6,GPS_Atti,
0.350062603777511,36.9146460537458,5424.9592913808,10.826772,0,0.75307089024,8600,2017-11-12 05:49:33,9,16.481,5424.9592913808,10.826772,0.223694,1.09757549444,318.5, 2.4, 0.6,0,1,1024,1024,1594,1024,318.6,0,100,4.272,4.275,4.264,4.264,0,0,73.31,6,GPS_Atti,
0.350062894848644,36.9146458532966,5426.2716273808,12.139108,0.223694,0.6890092084,8700,2017-11-12 05:49:33,9,16.481,5426.2716273808,12.139108,0.223694,1.09757549444,318.4, 2.9, 0.3,0,1,1024,1024,1597,1024,318.6,0,100,4.272,4.275,4.264,4.264,0,0,73.31,6,GPS_Atti,
0.350063162709158,36.9146456837187,5427.9120473808,13.779528,0.223694,0.64392062428,8800,2017-11-12 05:49:34,9,16.481,5427.9120473808,13.779528,0.223694,1.09757549444,318.4, 3.6, -0.1,0,1,1024,1024,1612,1024,318.6,0,100,4.272,4.275,4.264,4.264,0,0,73.31,6,GPS_Atti,
0.350063450684212,36.9146455008889,5429.2243833808,15.091864,0,0.61647967852,8900,2017-11-12 05:49:34,9,16.481,5429.2243833808,15.091864,0.223694,1.09757549444,318.5, 3.8, -0.4,0,1,1024,1024,1621,1024,318.6,0,100,4.272,4.275,4.264,4.264,0,0,73.31,6,GPS_Atti,
0.350063646890951,36.9146453207999,5430.5367193808,16.4042,0,0.62907154244,9000,2017-11-12 05:49:34,9,16.186,5430.5367193808,16.4042,0.223694,1.09757549444,318.5, 3.8, 0,0,1,1024,1024,1631,1024,318.6,0,100,4.072,4.105,4.066,4.083,0,0,73.31,6,GPS_Atti,
0.350063829732542,36.9146451541804,5432.1771393808,18.04462,0,0.65331038836,9100,2017-11-12 05:49:34,9,16.186,5432.1771393808,18.04462,0.223694,1.09757549444,318.6, 3.1, 0.1,0,1,1024,1024,1627,1024,318.6,0,100,4.072,4.105,4.066,4.083,0,0,73.31,6,GPS_Atti,
0.350063965661917,36.9146450149012,5433.4894753808,19.356956,0,0.68395015312,9200,2017-11-12 05:49:34,9,16.186,5433.4894753808,19.356956,0.223694,1.09757549444,318.6, 2.5, -0.1,0,1,1024,1024,1621,1024,318.6,0,100,4.072,4.105,4.066,4.083,0,0,73.31,6,GPS_Atti,
0.350064069566008,36.9146448793892,5434.8018113808,20.669292,0,0.72157810708,9300,2017-11-12 05:49:34,9,16.186,5434.8018113808,20.669292,0.223694,1.09757549444,318.6, 2.3, -0.3,0,1,1024,1024,1626,1024,318.6,0,100,4.072,4.105,4.066,4.083,0,0,73.31,6,GPS_Atti,
0.350064120005432,36.9146447370114,5436.1141473808,21.981628,0,0.76844162564,9400,2017-11-12 05:49:34,9,16.186,5436.1141473808,21.981628,0.223694,1.09757549444,318.5, 2.5, 0.4,0,1,1024,1024,1634,1024,318.6,0,100,4.072,4.105,4.066,4.083,0,0,73.31,6,GPS_Atti,
0.350064148802225,36.9146445575179,5437.7545673808,23.622048,0.223694,0.83098427856,9500,2017-11-12 05:49:34,9,16.186,5437.7545673808,23.622048,0.223694,1.09757549444,318.5, 2.7, 1.5,0,1,1024,1024,1635,1024,318.6,0,100,4.072,4.105,4.066,4.083,0,0,73.31,6,GPS_Atti,
0.350064191991562,36.9146443624515,5439.0669033808,24.934384,0.223694,0.8989665642,9600,2017-11-12 05:49:34,9,16.186,5439.0669033808,24.934384,0.223694,1.09757549444,318.5, 2.8, 1.5,0,1,1024,1024,1637,1024,318.6,0,100,4.072,4.105,4.066,4.083,0,0,73.31,6,GPS_Atti,
0.350064249709877,36.9146441669954,5440.3792393808,26.24672,0.31540854,0.96723756376,9700,2017-11-12 05:49:34,9,16.186,5440.3792393808,26.24672,0.31540854,1.09757549444,318.5, 3.5, 1.1,0,1,1024,1024,1669,1024,318.6,0,100,4.072,4.105,4.066,4.083,0,0,73.31,6,GPS_Atti,
0.350064331840857,36.9146439926096,5442.0196593808,27.88714,0.223694,1.02802496728,9800,2017-11-12 05:49:35,9,16.186,5442.0196593808,27.88714,0.31540854,1.09757549444,318.5, 4.1, 0.6,0,1,1024,1024,1684,1024,318.6,0,100,4.072,4.105,4.066,4.083,0,0,73.31,6,GPS_Atti,
0.350064392706394,36.9146438403594,5443.3319953808,29.199476,0.223694,1.08221460156,9900,2017-11-12 05:49:35,9,16.186,5443.3319953808,29.199476,0.31540854,1.09757549444,318.5, 4.3, 0.3,0,1,1024,1024,1684,1024,318.6,0,100,4.072,4.105,4.066,4.083,0,0,73.31,6,GPS_Atti,
0.350064442285796,36.9146437265164,5444.9724153808,30.839896,0,1.12306762124,10000,2017-11-12 05:49:35,9,16.32,5444.9724153808,30.839896,0.31540854,1.12306762124,318.4, 4.3, 0.2,0,1,1024,1024,1684,1024,318.6,0,100,4.072,4.105,4.066,4.083,0,0,73.31,6,GPS_Atti,
0.350064455667688,36.9146436300008,5446.2847513808,32.152232,0,1.15814636252,10100,2017-11-12 05:49:35,9,16.32,5446.2847513808,32.152232,0.31540854,1.15814636252,318.5, 4.3, 0,0,1,1024,1024,1684,1024,318.6,0,100,4.072,4.105,4.066,4.083,0,0,73.31,6,GPS_Atti,
0.350064457222953,36.9146435491056,5447.9251713808,33.792652,0,1.18764111412,10200,2017-11-12 05:49:35,9,16.32,5447.9251713808,33.792652,0.31540854,1.18764111412,318.4, 4.4, -0.2,0,1,1024,1024,1684,1024,318.6,0,100,4.072,4.105,4.066,4.083,0,0,73.31,6,GPS_Atti,
0.35006441338636,36.9146434811626,5449.5655913808,35.433072,0,1.21286421204,10300,2017-11-12 05:49:35,9,16.32,5449.5655913808,35.433072,0.31540854,1.21286421204,318.4, 4.5, -0.4,0,1,1024,1024,1684,1024,318.6,0,100,4.072,4.105,4.066,4.083,0,0,73.31,6,GPS_Atti,
0.350064352275234,36.9146434315213,5451.2060113808,37.073492,0,1.23191604992,10400,2017-11-12 05:49:35,9,16.32,5451.2060113808,37.073492,0.31540854,1.23191604992,318.4, 4.7, -0.6,0,1,1024,1024,1684,1024,318.6,0,100,4.072,4.105,4.066,4.083,0,0,73.31,6,GPS_Atti,
0.350064231606821,36.914643405159,5452.8464313808,38.713912,0,1.24455712644,10500,2017-11-12 05:49:35,9,16.32,5452.8464313808,38.713912,0.31540854,1.24455712644,318.4, 4.5, -0.2,0,1,1024,1024,1684,1024,318.6,0,100,4.072,4.105,4.066,4.083,0,0,73.31,6,GPS_Atti,
0.350064099036722,36.9146434184609,5454.4868513808,40.354332,0,1.24485896372,10600,2017-11-12 05:49:35,9,16.32,5454.4868513808,40.354332,0.31540854,1.24485896372,318.4, 4.2, -0.2,0,1,1024,1024,1684,1024,318.6,0,100,4.072,4.105,4.066,4.083,0,0,73.31,6,GPS_Atti,
0.350063950661912,36.9146434820705,5456.1272713808,41.994752,0.223694,1.22992458004,10700,2017-11-12 05:49:35,9,16.32,5456.1272713808,41.994752,0.31540854,1.24485896372,318.4, 3.6, -1.2,0,1,1024,1024,1684,1024,318.6,0,100,4.072,4.105,4.066,4.083,0,0,73.31,6,GPS_Atti,
0.350063819769518,36.9146435569446,5457.7676913808,43.635172,0.223694,1.21227694168,10800,2017-11-12 05:49:36,9,16.32,5457.7676913808,43.635172,0.31540854,1.24485896372,318.5, 3.2, -2.2,0,1,1024,1024,1684,1024,318.6,0,100,4.072,4.105,4.066,4.083,0,0,73.31,6,GPS_Atti,
0.350063669881324,36.9146436100194,5459.4081113808,45.275592,0.223694,1.20636814884,10900,2017-11-12 05:49:36,9,16.32,5459.4081113808,45.275592,0.31540854,1.24485896372,318.5, 3.6, -2.1,0,1,1024,1024,1684,1024,318.6,0,100,4.072,4.105,4.066,4.083,0,0,73.31,6,GPS_Atti,
0.350063514197498,36.9146436288906,5461.0485313808,46.916012,0,1.21575791292,11000,2017-11-12 05:49:36,9,16.347,5461.0485313808,46.916012,0.31540854,1.24485896372,318.5, 4.4, -1.5,0,1,1024,1024,1684,1024,318.6,0,100,4.111,4.136,4.098,4.112,0,0,73.31,6,GPS_Atti,
0.350063340604859,36.9146436261477,5462.6889513808,48.556432,0,1.23741473776,11100,2017-11-12 05:49:36,9,16.347,5462.6889513808,48.556432,0.31540854,1.24485896372,318.5, 5.2, -0.6,0,1,1024,1024,1684,1024,318.6,0,100,4.111,4.136,4.098,4.112,0,0,73.31,6,GPS_Atti,
0.350063161667158,36.9146436197106,5464.3293713808,50.196852,0,1.26389111656,11200,2017-11-12 05:49:36,9,16.347,5464.3293713808,50.196852,0.31540854,1.26389111656,318.5, 5.4, -0.6,0,1,1024,1024,1684,1024,318.6,0,100,4.111,4.136,4.098,4.112,0,0,73.31,6,GPS_Atti,
0.350062964227687,36.9146436395438,5465.9697913808,51.837272,0,1.287483637,11300,2017-11-12 05:49:36,9,16.347,5465.9697913808,51.837272,0.31540854,1.287483637,318.5, 5.2, -1.1,0,1,1024,1024,1684,1024,318.6,0,100,4.111,4.136,4.098,4.112,0,0,73.31,6,GPS_Atti,
0.350062747060024,36.9146436809424,5467.9382953808,53.805776,0,1.31133206296,11400,2017-11-12 05:49:36,9,16.347,5467.9382953808,53.805776,0.31540854,1.31133206296,318.5, 5, -1.1,0,1,1024,1024,1684,1024,318.6,0,100,4.111,4.136,4.098,4.112,0,0,73.31,6,GPS_Atti,
0.350062498114701,36.9146437394232,5469.5787153808,55.446196,0,1.34075791692,11500,2017-11-12 05:49:36,9,16.347,5469.5787153808,55.446196,0.31540854,1.34075791692,318.5, 5.4, -1.2,0,1,1024,1024,1684,1024,318.6,-0.9,100,4.111,4.136,4.098,4.112,0,0,73.31,6,GPS_Atti,
0.350062213836418,36.914643821683,5471.2191353808,57.086616,0,1.37685699944,11600,2017-11-12 05:49:36,9,16.347,5471.2191353808,57.086616,0.31540854,1.37685699944,318.4, 5.5, -1.6,0,1,1024,1024,1684,1024,318.6,-2,100,4.111,4.136,4.098,4.112,0,0,73.31,6,GPS_Atti,
0.350061884736232,36.9146439168683,5472.8595553808,58.727036,0,1.42774282784,11700,2017-11-12 05:49:36,9,16.347,5472.8595553808,58.727036,0.31540854,1.42774282784,318.5, 4.9, -1.4,0,1,1024,1024,1684,1024,318.6,-2.9,100,4.111,4.136,4.098,4.112,0,0,73.31,6,GPS_Atti,
0.350061534492126,36.9146440178623,5474.4999753808,60.367456,0.223694,1.49160437844,11800,2017-11-12 05:49:37,9,16.347,5474.4999753808,60.367456,0.31540854,1.49160437844,318.5, 4.3, -1.1,0,1,1024,1024,1684,1024,318.6,-3.5,100,4.111,4.136,4.098,4.112,0,0,73.31,6,GPS_Atti,
0.350061141593982,36.9146441380406,5476.1403953808,62.007876,0.223694,1.572014486,11900,2017-11-12 05:49:37,9,16.347,5476.1403953808,62.007876,0.31540854,1.572014486,318.5, 3.3, -0.7,0,1,1024,1024,1684,1024,318.6,-3.6,100,4.111,4.136,4.098,4.112,0,0,73.31,6,GPS_Atti,
0.350060745593856,36.9146442637203,5477.7808153808,63.648296,0.223694,1.66190294032,12000,2017-11-12 05:49:37,9,16.32,5477.7808153808,63.648296,0.31540854,1.66190294032,318.5, 2.6, -0.2,0,1,1024,1024,1684,1024,318.6,-3.6,99,4.103,4.127,4.088,4.104,0,0,73.31,6,GPS_Atti,
0.350060354293013,36.9146444046724,5479.7493193808,65.6168,0.223694,1.7560039932,12100,2017-11-12 05:49:37,9,16.32,5479.7493193808,65.6168,0.31540854,1.7560039932,318.5, 2.7, -0.6,0,1,1024,1024,1684,1024,318.6,-3.6,99,4.103,4.127,4.088,4.104,0,0,73.31,6,GPS_Atti,
0.350059992190577,36.9146445378742,5481.3897393808,67.25722,0.223694,1.84947184396,12200,2017-11-12 05:49:37,9,16.32,5481.3897393808,67.25722,0.31540854,1.84947184396,318.5, 3.2, -0.8,0,1,1024,1024,1684,1024,318.6,-3.6,99,4.103,4.127,4.088,4.104,0,0,73.31,6,GPS_Atti,
0.350059608312588,36.9146446566921,5483.0301593808,68.89764,0.223694,1.95801187368,12300,2017-11-12 05:49:37,9,16.32,5483.0301593808,68.89764,0.31540854,1.95801187368,318.5, 3.4, -0.7,0,1,1024,1024,1684,1024,318.6,-3.6,99,4.103,4.127,4.088,4.104,0,0,73.31,6,GPS_Atti,
0.350059230788788,36.914644750503,5484.6705793808,70.53806,0.223694,2.07236227104,12400,2017-11-12 05:49:37,9,16.32,5484.6705793808,70.53806,0.31540854,2.07236227104,318.5, 3.1, -0.6,0,1,1024,1024,1684,1024,318.6,-3.6,99,4.103,4.127,4.088,4.104,0,0,73.31,6,GPS_Atti,
0.350058822300125,36.9146448540782,5486.3109993808,72.17848,0.223694,2.19947185516,12500,2017-11-12 05:49:37,9,16.32,5486.3109993808,72.17848,0.31540854,2.19947185516,318.5, 2.8, 0,0,1,1024,1024,1684,1024,318.6,-3.6,99,4.103,4.127,4.088,4.104,0,0,73.31,6,GPS_Atti,
0.350058431756915,36.9146449602157,5487.9514193808,73.8189,0.223694,2.32325466752,12600,2017-11-12 05:49:37,9,16.32,5487.9514193808,73.8189,0.31540854,2.32325466752,318.5, 2.5, 0.3,0,1,1024,1024,1684,1024,318.6,-3.6,99,4.103,4.127,4.088,4.104,0,0,73.31,6,GPS_Atti,
0.350058034430829,36.9146450710114,5489.5918393808,75.45932,0.223694,2.45163721756,12700,2017-11-12 05:49:37,9,16.32,5489.5918393808,75.45932,0.31540854,2.45163721756,318.5, 2.2, 0.5,0,1,1024,1024,1684,1024,318.6,-3.6,99,4.103,4.127,4.088,4.104,0,0,73.31,6,GPS_Atti,
0.35005767952123,36.9146451631942,5491.2322593808,77.09974,0.223694,2.56892068588,12800,2017-11-12 05:49:38,9,16.32,5491.2322593808,77.09974,0.31540854,2.56892068588,318.5, 2.2, 0.6,0,1,1024,1024,1684,1024,318.6,-3.6,99,4.103,4.127,4.088,4.104,0,0,73.31,6,GPS_Atti,
0.350057318386905,36.9146452765428,5492.8726793808,78.74016,0,2.68835638524,12900,2017-11-12 05:49:38,9,16.32,5492.8726793808,78.74016,0.31540854,2.68835638524,318.5, 2.4, 0.6,0,1,1024,1024,1684,1024,318.6,-3.7,99,4.103,4.127,4.088,4.104,0,0,73.31,6,GPS_Atti,
0.350056998787672,36.9146453882574,5494.5130993808,80.38058,0,2.7947179372,13000,2017-11-12 05:49:38,9,16.293,5494.5130993808,80.38058,0.31540854,2.7947179372,318.5, 2.6, 0.6,0,1,1024,1024,1684,1024,318.6,-3.8,99,4.095,4.12,4.078,4.094,0,0,73.31,6,GPS_Atti,
0.350056681205267,36.9146455058807,5496.1535193808,82.021,0,2.9013616414,13100,2017-11-12 05:49:38,9,16.293,5496.1535193808,82.021,0.31540854,2.9013616414,318.5, 3, 0.7,0,1,1024,1024,1684,1024,318.6,-4,99,4.095,4.12,4.078,4.094,0,0,73.31,6,GPS_Atti,
0.350056403426104,36.9146456090756,5498.1220233808,83.989504,0,2.9956857914,13200,2017-11-12 05:49:38,9,16.293,5498.1220233808,83.989504,0.31540854,2.9956857914,318.5, 3.1, 0.6,0,1,1024,1024,1684,1024,318.6,-4.1,99,4.095,4.12,4.078,4.094,0,0,73.31,6,GPS_Atti,
0.350056121548962,36.9146457465773,5499.7624433808,85.629924,0,3.0908137472,13300,2017-11-12 05:49:38,9,16.293,5499.7624433808,85.629924,0.31540854,3.0908137472,318.5, 2.7, 0.3,0,1,1024,1024,1684,1024,318.6,-4.3,99,4.095,4.12,4.078,4.094,0,0,73.31,6,GPS_Atti,
0.350055873646047,36.9146458824584,5501.4028633808,87.270344,0,3.17494432732,13400,2017-11-12 05:49:38,9,16.293,5501.4028633808,87.270344,0.31540854,3.17494432732,318.5, 2.5, 0.2,0,1,1024,1024,1684,1024,318.6,-4.4,99,4.095,4.12,4.078,4.094,0,0,73.31,6,GPS_Atti,
0.350055622162183,36.9146460203819,5503.0432833808,88.910764,0,3.26140430384,13500,2017-11-12 05:49:38,9,16.293,5503.0432833808,88.910764,0.31540854,3.26140430384,318.5, 2.4, 0.4,0,1,1024,1024,1684,1024,318.6,-4.6,99,4.095,4.12,4.078,4.094,0,0,73.31,6,GPS_Atti,
0.350055396620247,36.914646127875,5505.0117873808,90.879268,0,3.3402560124,13600,2017-11-12 05:49:38,9,16.293,5505.0117873808,90.879268,0.31540854,3.3402560124,318.5, 2.8, 0.2,0,1,1024,1024,1684,1024,318.6,-4.7,99,4.095,4.12,4.078,4.094,0,0,73.31,6,GPS_Atti,
0.350055191074789,36.9146462267832,5506.6522073808,92.519688,0,3.4126313428,13700,2017-11-12 05:49:38,9,16.293,5506.6522073808,92.519688,0.31540854,3.4126313428,318.5, 3, 0.2,0,1,1024,1024,1684,1024,318.6,-4.9,99,4.095,4.12,4.078,4.094,0,0,73.31,6,GPS_Atti,
0.350055016800341,36.9146463579059,5508.2926273808,94.160108,0,3.4735237332,13800,2017-11-12 05:49:39,11,16.293,5508.2926273808,94.160108,0.31540854,3.4735237332,318.5, 2.9, 0.1,0,1,1024,1024,1684,1024,318.6,-5,99,4.095,4.12,4.078,4.094,0,0,73.31,6,GPS_Atti,
0.350054794558446,36.9146465704865,5509.9330473808,95.800528,0,3.551837384,13900,2017-11-12 05:49:39,11,16.293,5509.9330473808,95.800528,0.31540854,3.551837384,318.4, 2.2, 0.1,0,1,1024,1024,1684,1024,318.6,-5.1,99,4.095,4.12,4.078,4.094,0,0,73.31,6,GPS_Atti,
0.350054588118972,36.9146466991123,5511.9015513808,97.769032,0,3.6263452604,14000,2017-11-12 05:49:39,11,16.293,5511.9015513808,97.769032,0.31540854,3.6263452604,318.5, 1.9, 0.5,0,1,1024,1024,1684,1024,318.6,-5.3,99,4.095,4.12,4.078,4.094,0,0,73.31,6,GPS_Atti,
0.350054379054447,36.9146468266323,5513.5419713808,99.409452,0,3.70242794,14100,2017-11-12 05:49:39,11,16.293,5513.5419713808,99.409452,0.31540854,3.70242794,318.4, 1.9, 0.6,0,1,1024,1024,1684,1024,318.6,-5.4,99,4.095,4.12,4.078,4.094,0,0,73.31,6,GPS_Atti,
0.350054206951529,36.9146469230451,5515.1823913808,101.049872,0,3.7654528764,14200,2017-11-12 05:49:39,11,16.293,5515.1823913808,101.049872,0.31540854,3.7654528764,318.5, 1.7, 0.6,0,1,1024,1024,1684,1024,318.6,-5.4,99,4.095,4.12,4.078,4.094,0,0,73.31,6,GPS_Atti,
0.350054060575583,36.9146470009341,5517.1508953808,103.018376,0,3.8192914608,14300,2017-11-12 05:49:39,11,16.293,5517.1508953808,103.018376,0.31540854,3.8192914608,318.5, 2, 1.2,0,1,1024,1024,1684,1024,318.6,-5.6,99,4.095,4.12,4.078,4.094,0,0,73.31,6,GPS_Atti,
0.350053905116177,36.9146471288732,5518.7913153808,104.658796,0,3.87713267,14400,2017-11-12 05:49:39,11,16.293,5518.7913153808,104.658796,0.31540854,3.87713267,318.4, 2.4, 1.2,0,1,1024,1024,1684,1024,318.6,-5.7,99,4.095,4.12,4.078,4.094,0,0,73.31,6,GPS_Atti,
0.350053775908102,36.9146472670413,5520.4317353808,106.299216,0,3.9261156112,14500,2017-11-12 05:49:39,11,16.293,5520.4317353808,106.299216,0.31540854,3.9261156112,318.5, 2.4, 0.6,0,1,1024,1024,1684,1024,318.6,-5.8,99,4.095,4.12,4.078,4.094,0,0,73.31,6,GPS_Atti,
0.350053679492004,36.9146473893148,5522.0721553808,107.939636,0,3.963418762,14600,2017-11-12 05:49:39,11,16.293,5522.0721553808,107.939636,0.31540854,3.963418762,318.4, 2, 0.1,0,1,1024,1024,1684,1024,318.6,-6,99,4.095,4.12,4.078,4.094,0,0,73.31,6,GPS_Atti,
0.350053580108067,36.9146475190362,5523.7125753808,109.580056,0,4.0024279496,14700,2017-11-12 05:49:39,11,16.293,5523.7125753808,109.580056,0.31540854,4.0024279496,318.4, 1.9, 0.1,0,1,1024,1024,1684,1024,318.6,-6.1,99,4.095,4.12,4.078,4.094,0,0,73.31,6,GPS_Atti,
0.350053509686821,36.9146476196082,5525.6810793808,111.54856,0,4.0306103652,14800,2017-11-12 05:49:40,11,16.293,5525.6810793808,111.54856,0.31540854,4.0306103652,318.4, 1.8, 0.6,0,1,1024,1031,1684,1024,318.6,-6.2,99,4.095,4.12,4.078,4.094,0,0,73.31,6,GPS_Atti,
0.350053455148603,36.9146477257572,5527.3214993808,113.18898,0,4.05347782,14900,2017-11-12 05:49:40,11,16.293,5527.3214993808,113.18898,0.31540854,4.05347782,318.4, 1.9, 0.6,0,1,1024,1107,1684,1024,318.6,-6.4,99,4.095,4.12,4.078,4.094,0,0,73.31,6,GPS_Atti,
0.350053443746238,36.9146478189469,5528.9619193808,114.8294,0,4.0605972428,15000,2017-11-12 05:49:40,11,16.32,5528.9619193808,114.8294,0.31540854,4.0605972428,318.5, 2.1, 0.2,0,1,1024,1140,1684,1024,318.6,-6.5,99,4.093,4.116,4.074,4.092,0,0,73.31,6,GPS_Atti,
0.350053443785321,36.9146479345577,5530.6023393808,116.46982,0,4.064632676,15100,2017-11-12 05:49:40,11,16.32,5530.6023393808,116.46982,0.31540854,4.064632676,318.6, 2.3, 0.2,0,1,1024,1141,1684,1024,318.6,-6.7,99,4.093,4.116,4.074,4.092,0,0,73.31,6,GPS_Atti,
0.350053451825763,36.9146480556935,5532.2427593808,118.11024,0.223694,4.066437138,15200,2017-11-12 05:49:40,11,16.32,5532.2427593808,118.11024,0.31540854,4.066437138,318.5, 2.3, 1.4,0,1,1024,1137,1684,1024,318.6,-6.8,99,4.093,4.116,4.074,4.092,0,0,73.31,6,GPS_Atti,
0.35005349230481,36.9146482026364,5533.8831793808,119.75066,0.223694,4.0581694212,15300,2017-11-12 05:49:40,11,16.32,5533.8831793808,119.75066,0.31540854,4.066437138,318.5, 2.5, 2.4,0,1,1024,1139,1684,1024,318.6,-6.9,99,4.093,4.116,4.074,4.092,0,0,73.31,6,GPS_Atti,
0.350053584902206,36.9146483615833,5535.5235993808,121.39108,0.31540854,4.0324148272,15400,2017-11-12 05:49:40,11,16.32,5535.5235993808,121.39108,0.31540854,4.066437138,318.6, 2.7, 3.1,0,1,1024,1146,1684,1024,318.6,-7.1,99,4.093,4.116,4.074,4.092,0,0,73.31,6,GPS_Atti,
0.350053718799386,36.914648604152,5537.4921033808,123.359584,0.50107456,3.9976379232,15500,2017-11-12 05:49:40,11,16.32,5537.4921033808,123.359584,0.50107456,4.066437138,318.6, 2.8, 3.4,0,1,1024,1147,1684,1024,318.6,-7.2,99,4.093,4.116,4.074,4.092,0,0,73.31,6,GPS_Atti,
0.350053881659256,36.9146488976501,5539.1325233808,125.000004,0.63305402,3.9583006516,15600,2017-11-12 05:49:40,11,16.32,5539.1325233808,125.000004,0.63305402,4.066437138,318.6, 2.8, 3.4,0,1,1024,1156,1684,1024,318.6,-7.3,99,4.093,4.116,4.074,4.092,0,0,73.31,6,GPS_Atti,
0.350054077588752,36.9146492387965,5540.7729433808,126.640424,0.80753534,3.9145670544,15700,2017-11-12 05:49:40,11,16.32,5540.7729433808,126.640424,0.80753534,4.066437138,318.6, 2.6, 2.9,0,1,1024,1179,1684,1024,318.6,-7.3,99,4.093,4.116,4.074,4.092,0,0,73.31,6,GPS_Atti,
0.350054344822111,36.9146496108325,5542.4133633808,128.280844,0.94846256,3.853510622,15800,2017-11-12 05:49:41,11,16.32,5542.4133633808,128.280844,0.94846256,4.066437138,318.5, 2.3, 2.9,0,1,1024,1183,1684,1024,318.6,-7.4,99,4.093,4.116,4.074,4.092,0,0,73.31,6,GPS_Atti,
0.35005466927655,36.9146500619089,5544.0537833808,129.921264,1.11847,3.787893822,15900,2017-11-12 05:49:41,11,16.32,5544.0537833808,129.921264,1.11847,4.066437138,318.5, 1.9, 3.1,0,1,1024,1198,1684,1024,318.6,-7.6,99,4.093,4.116,4.074,4.092,0,0,73.31,6,GPS_Atti,
0.350055006579412,36.914650566857,5545.6942033808,131.561684,1.11847,3.7349738728,16000,2017-11-12 05:49:41,11,16.267,5545.6942033808,131.561684,1.11847,4.066437138,318.5, 1.9, 3.5,0,1,1024,1218,1684,1024,318.6,-7.7,99,4.091,4.115,4.073,4.089,0,0,73.31,6,GPS_Atti,
0.350055407945261,36.9146511451359,5547.3346233808,133.202104,1.4316416,3.6848426376,16100,2017-11-12 05:49:41,11,16.267,5547.3346233808,133.202104,1.4316416,4.066437138,318.5, 1.7, 3.9,0,1,1024,1236,1684,1024,318.6,-7.8,99,4.091,4.115,4.073,4.089,0,0,73.31,6,GPS_Atti,
0.350055847403672,36.9146517539986,5549.3031273808,135.170608,1.4316416,3.6455381744,16200,2017-11-12 05:49:41,11,16.267,5549.3031273808,135.170608,1.4316416,4.066437138,318.6, 1.7, 4.4,0,1,1024,1237,1684,1024,318.6,-7.9,99,4.091,4.115,4.073,4.089,0,0,73.31,6,GPS_Atti,
0.350056363415235,36.9146524263687,5550.6154633808,136.482944,1.74705014,3.6165355488,16300,2017-11-12 05:49:41,11,16.267,5550.6154633808,136.482944,1.74705014,4.066437138,318.6, 1.8, 5.1,0,1,1024,1244,1684,1024,318.6,-8.1,99,4.091,4.115,4.073,4.089,0,0,73.31,6,GPS_Atti,
0.350056926978991,36.9146531276246,5552.2558833808,138.123364,2.06245868,3.6072179632,16400,2017-11-12 05:49:41,11,16.267,5552.2558833808,138.123364,2.06245868,4.066437138,318.6, 1.7, 5.6,0,1,1024,1244,1684,1024,318.6,-8.2,99,4.091,4.115,4.073,4.089,0,0,73.31,6,GPS_Atti,
0.350057581409108,36.9146539177132,5553.8963033808,139.763784,2.06245868,3.6274279376,16500,2017-11-12 05:49:41,11,16.267,5553.8963033808,139.763784,2.06245868,4.066437138,318.6, 2, 5.9,0,1,1024,1249,1684,1024,318.6,-8.3,99,4.091,4.115,4.073,4.089,0,0,73.31,6,GPS_Atti,
0.350058289579098,36.9146547688423,5555.5367233808,141.404204,2.37786722,3.6910434252,16600,2017-11-12 05:49:41,11,16.267,5555.5367233808,141.404204,2.37786722,4.066437138,318.5, 2, 6.2,0,1,1024,1250,1684,1024,318.6,-8.4,99,4.091,4.115,4.073,4.089,0,0,73.31,6,GPS_Atti,
0.350059085729847,36.914655720679,5557.1771433808,143.044624,2.69327576,3.811187786,16700,2017-11-12 05:49:41,11,16.267,5557.1771433808,143.044624,2.69327576,4.066437138,318.5, 2, 6.3,0,1,1024,1250,1684,1024,318.6,-8.5,99,4.091,4.115,4.073,4.089,0,0,73.31,6,GPS_Atti,
0.350059936635396,36.9146567326619,5558.8175633808,144.685044,3.0086843,3.9909450096,16800,2017-11-12 05:49:42,11,16.267,5558.8175633808,144.685044,3.0086843,4.066437138,318.5, 2, 6,0,1,1024,1251,1684,1024,318.6,-8.6,99,4.091,4.115,4.073,4.089,0,0,73.31,6,GPS_Atti,
0.350060894268758,36.9146578451296,5560.4579833808,146.325464,3.16303316,4.2408465924,16900,2017-11-12 05:49:42,11,16.267,5560.4579833808,146.325464,3.16303316,4.2408465924,318.6, 2.1, 5.8,0,1,1024,1252,1684,1024,318.6,-8.7,99,4.091,4.115,4.073,4.089,0,0,73.31,6,GPS_Atti,
0.350061914217786,36.9146590023041,5562.0984033808,147.965884,3.48067864,4.5515421404,17000,2017-11-12 05:49:42,11,16.24,5562.0984033808,147.965884,3.48067864,4.5515421404,318.6, 2.1, 5.6,0,1,1024,1255,1684,1024,318.6,-8.8,99,4.083,4.107,4.065,4.082,0,0,73.31,6,GPS_Atti,
0.350063025343597,36.9146602707045,5563.4107393808,149.27822,3.64173832,4.9438321792,17100,2017-11-12 05:49:42,11,16.24,5563.4107393808,149.27822,3.64173832,4.9438321792,318.6, 2.1, 5.2,0,1,1024,1263,1684,1024,318.6,-8.9,99,4.083,4.107,4.065,4.082,0,0,73.31,6,GPS_Atti,
0.350064169596132,36.9146615806309,5565.0511593808,150.91864,3.79608718,5.39288075,17200,2017-11-12 05:49:42,11,16.24,5565.0511593808,150.91864,3.79608718,5.39288075,318.6, 2.3, 4.9,0,1,1024,1144,1684,1024,318.6,-9,99,4.083,4.107,4.065,4.082,0,0,73.31,6,GPS_Atti,
0.350065385241382,36.9146629867715,5566.6915793808,152.55906,3.95714686,5.9126314228,17300,2017-11-12 05:49:42,11,16.24,5566.6915793808,152.55906,3.95714686,5.9126314228,318.6, 2.3, 5,0,1,1024,1144,1684,1024,318.6,-9,99,4.083,4.107,4.065,4.082,0,0,73.31,6,GPS_Atti,
0.350066619649869,36.9146644093268,5568.3319993808,154.19948,4.2725554,6.4685369524,17400,2017-11-12 05:49:42,11,16.24,5568.3319993808,154.19948,4.2725554,6.4685369524,318.4, 2.2, 4.8,0,1,1024,1024,1684,1024,318.5,-9,99,4.083,4.107,4.065,4.082,0,0,73.31,6,GPS_Atti,
0.350067908738553,36.9146659087427,5569.9724193808,155.8399,4.2725554,7.078740384,17500,2017-11-12 05:49:42,11,16.24,5569.9724193808,155.8399,4.2725554,7.078740384,318.4, 2.3, 2.6,0,1,1024,1024,1684,1024,318.6,-9,99,4.083,4.107,4.065,4.082,0,0,73.31,6,GPS_Atti,
0.350069195908117,36.9146674079381,5571.6128393808,157.48032,4.2725554,7.7079398792,17600,2017-11-12 05:49:42,11,16.24,5571.6128393808,157.48032,4.2725554,7.7079398792,318.3, 2.5, -1.1,0,1,1024,1024,1684,1024,318.5,-9,99,4.083,4.107,4.065,4.082,0,0,73.31,6,GPS_Atti,
0.350070554499809,36.9146689898857,5573.2532593808,159.12074,4.2725554,8.3879267776,17700,2017-11-12 05:49:43,11,16.24,5573.2532593808,159.12074,4.2725554,8.3879267776,318.3, 2.2, -6.9,0,1,1024,1024,1664,1151,318.6,-9,99,4.083,4.107,4.065,4.082,0,0,73.31,6,GPS_Atti,
0.350071871810447,36.9146704809359,5574.8936793808,160.76116,3.95714686,9.044619712,17800,2017-11-12 05:49:43,11,16.24,5574.8936793808,160.76116,4.2725554,9.044619712,318.3, 2.1, -12,0,1,1024,1024,1666,1174,318.9,-9,99,4.083,4.107,4.065,4.082,0,0,73.31,6,GPS_Atti,
0.350073094741762,36.9146718704723,5576.5340993808,162.40158,3.48067864,9.6649609392,17900,2017-11-12 05:49:43,11,16.24,5576.5340993808,162.40158,4.2725554,9.6649609392,319.2, 2.5, -15.3,0,1,1024,1024,1673,1174,319.7,-9,99,4.083,4.107,4.065,4.082,0,0,73.31,6,GPS_Atti,
0.350074098615605,36.9146730058656,5578.5026033808,164.370084,2.69327576,10.1776249976,18000,2017-11-12 05:49:43,11,16.24,5578.5026033808,164.370084,4.2725554,10.1776249976,320.8, 3.4, -16,0,1,1024,1024,1680,1170,320.6,-9,99,4.083,4.107,4.065,4.082,0,0,73.31,6,GPS_Atti,
0.350074965488455,36.914673965134,5580.1430233808,166.010504,2.06245868,10.6163389224,18100,2017-11-12 05:49:43,11,16.24,5580.1430233808,166.010504,4.2725554,10.6163389224,322.4, 4.3, -14.3,0,1,1024,1024,1684,1163,321.7,-9,99,4.083,4.107,4.065,4.082,0,0,73.31,6,GPS_Atti,
0.350075636785995,36.9146746705698,5581.7834433808,167.650924,1.4316416,10.9453087492,18200,2017-11-12 05:49:43,11,16.24,5581.7834433808,167.650924,4.2725554,10.9453087492,324.3, 4.8, -11,0,1,1024,1024,1684,1041,322.8,-9,99,4.083,4.107,4.065,4.082,0,0,73.31,6,GPS_Atti,
0.350076214748453,36.9146752636829,5583.4238633808,169.291344,1.11847,11.2250003592,18300,2017-11-12 05:49:43,11,16.24,5583.4238633808,169.291344,4.2725554,11.2250003592,326.1, 4.7, -7.6,0,1,1024,1024,1684,941,323.6,-9,99,4.083,4.107,4.065,4.082,0,0,73.31,6,GPS_Atti,
0.350076667480311,36.9146757111279,5585.0642833808,170.931764,0.80753534,11.4391079776,18400,2017-11-12 05:49:43,11,16.24,5585.0642833808,170.931764,4.2725554,11.4391079776,326.9, 4.3, -5,0,1,1024,1024,1684,958,323.8,-9,99,4.083,4.107,4.065,4.082,0,0,73.31,6,GPS_Atti,
0.350077149183816,36.9146761569242,5586.7047033808,172.572184,0.63305402,11.6575463048,18500,2017-11-12 05:49:43,11,16.24,5586.7047033808,172.572184,4.2725554,11.6575463048,326.6, 4, -3.4,0,1,1024,1024,1684,952,323.9,-9,99,4.083,4.107,4.065,4.082,0,0,73.31,6,GPS_Atti,
0.350077612832762,36.9146765642275,5588.3451233808,174.212604,0.63305402,11.8612864688,18600,2017-11-12 05:49:43,11,16.24,5588.3451233808,174.212604,4.2725554,11.8612864688,325.9, 3.7, -3,0,1,1024,1024,1684,940,323.9,-9,99,4.083,4.107,4.065,4.082,0,0,73.31,6,GPS_Atti,
0.350078166161748,36.9146770207599,5589.9855433808,175.853024,0.63305402,12.0956040616,18700,2017-11-12 05:49:43,11,16.24,5589.9855433808,175.853024,4.2725554,12.0956040616,325.3, 3.7, -3.2,0,1,1024,1024,1684,928,323.8,-9,99,4.083,4.107,4.065,4.082,0,0,73.31,6,GPS_Atti,
0.350078659855486,36.9146774307055,5591.6259633808,177.493444,0.50107456,12.3064636484,18800,2017-11-12 05:49:44,11,16.24,5591.6259633808,177.493444,4.2725554,12.3064636484,324.5, 3.5, -2.9,0,1,1024,1024,1684,905,323.5,-9,99,4.083,4.107,4.065,4.082,0,0,73.31,6,GPS_Atti,
0.350079245540025,36.9146779077702,5593.2663833808,179.133864,0.50107456,12.554626386,18900,2017-11-12 05:49:44,11,16.24,5593.2663833808,179.133864,4.2725554,12.554626386,323.6, 3.1, -2.6,0,1,1024,1024,1684,870,323.1,-9,99,4.083,4.107,4.065,4.082,0,0,73.31,6,GPS_Atti,
0.350079730422253,36.9146783156067,5594.5787193808,180.4462,0.50107456,12.7651578888,19000,2017-11-12 05:49:44,11,16.267,5594.5787193808,180.4462,4.2725554,12.7651578888,322.5, 2.9, -2.5,0,1,1024,1024,1684,942,322.4,-9,99,4.067,4.092,4.047,4.07,0,0,73.31,6,GPS_Atti,
0.350080299698591,36.9146787637733,5596.5472233808,182.414704,0.50107456,13.0031828308,19100,2017-11-12 05:49:44,11,16.267,5596.5472233808,182.414704,4.2725554,13.0031828308,320.8, 3.4, -3.2,0,1,1024,1024,1684,1024,321.6,-9,99,4.067,4.092,4.047,4.07,0,0,73.31,6,GPS_Atti,
0.350080785390155,36.9146791301448,5598.1876433808,184.055124,0.50107456,13.2018376928,19200,2017-11-12 05:49:44,11,16.267,5598.1876433808,184.055124,4.2725554,13.2018376928,319.6, 3.8, -4.1,0,1,1024,1024,1684,1024,321.4,-9,99,4.067,4.092,4.047,4.07,0,0,73.31,6,GPS_Atti,
0.350081326178494,36.9146795344182,5599.4999793808,185.36746,0.50107456,13.42273665,19300,2017-11-12 05:49:44,11,16.267,5599.4999793808,185.36746,4.2725554,13.42273665,319.5, 3.8, -4.5,0,1,1024,1024,1684,1024,321.4,-9,99,4.067,4.092,4.047,4.07,0,0,73.31,6,GPS_Atti,
0.350081753200478,36.9146798560358,5601.1403993808,187.00788,0.223694,13.5985240572,19400,2017-11-12 05:49:44,11,16.267,5601.1403993808,187.00788,4.2725554,13.5985240572,319.5, 3.7, -4.6,0,1,1024,1024,1684,1024,321.3,-9,99,4.067,4.092,4.047,4.07,0,0,73.31,6,GPS_Atti,
0.350082192287603,36.9146801879227,5602.7808193808,188.6483,0.223694,13.7802169764,19500,2017-11-12 05:49:44,11,16.267,5602.7808193808,188.6483,4.2725554,13.7802169764,319.5, 3.9, -4.3,0,1,1024,1024,1684,1024,321.2,-9,99,4.067,4.092,4.047,4.07,0,0,73.31,6,GPS_Atti,
0.350082513543778,36.9146804428837,5604.4212393808,190.28872,0.223694,13.9173888968,19600,2017-11-12 05:49:44,11,16.267,5604.4212393808,190.28872,4.2725554,13.9173888968,319.5, 4, -4.3,0,1,1024,1024,1684,1024,321.2,-9,99,4.067,4.092,4.047,4.07,0,0,73.31,6,GPS_Atti,
0.350082854469928,36.9146806962816,5606.0616593808,191.92914,0.223694,14.0577104236,19700,2017-11-12 05:49:44,11,16.267,5606.0616593808,191.92914,4.2725554,14.0577104236,319.5, 3.8, -4.4,0,1,1024,1024,1684,1024,321.2,-9,99,4.067,4.092,4.047,4.07,0,0,73.31,6,GPS_Atti,
0.35008309676611,36.9146808399219,5608.0301633808,193.897644,0,14.1459650196,19800,2017-11-12 05:49:45,11,16.267,5608.0301633808,193.897644,4.2725554,14.1459650196,319.5, 3.8, -4,0,1,1024,1024,1684,1024,321.1,-9,99,4.067,4.092,4.047,4.07,0,0,73.31,6,GPS_Atti,
0.350083358983048,36.9146809860119,5609.6705833808,195.538064,0,14.238681558,19900,2017-11-12 05:49:45,11,16.267,5609.6705833808,195.538064,4.2725554,14.238681558,319.6, 4, -3.5,0,1,1024,1024,1684,1024,321.1,-9,99,4.067,4.092,4.047,4.07,0,0,73.31,6,GPS_Atti,
0.350083528992601,36.9146810770721,5611.3110033808,197.178484,0,14.2977694864,20000,2017-11-12 05:49:45,11,16.267,5611.3110033808,197.178484,4.2725554,14.2977694864,319.5, 4.2, -3.2,0,1,1024,1024,1684,1024,321.1,-9,99,4.067,4.092,4.047,4.07,0,0,73.31,6,GPS_Atti,
0.35008370307815,36.9146811752841,5612.9514233808,198.818904,0,14.3599414044,20100,2017-11-12 05:49:45,11,16.267,5612.9514233808,198.818904,4.2725554,14.3599414044,319.5, 4.5, -3.1,0,1,1024,1024,1684,1024,321.1,-9,99,4.067,4.092,4.047,4.07,0,0,73.31,6,GPS_Atti,
0.350083793663604,36.9146812236031,5614.5918433808,200.459324,0.223694,14.3914702768,20200,2017-11-12 05:49:45,11,16.267,5614.5918433808,200.459324,4.2725554,14.3914702768,319.5, 4.5, -3.1,0,1,1024,1024,1684,1024,321.1,-9,99,4.067,4.092,4.047,4.07,0,0,73.31,6,GPS_Atti,
0.350083888647485,36.9146812788855,5616.2322633808,202.099744,0.223694,14.426017522,20300,2017-11-12 05:49:45,11,16.267,5616.2322633808,202.099744,4.2725554,14.426017522,319.5, 4.3, -2.9,0,1,1024,1024,1684,1024,321,-9,99,4.067,4.092,4.047,4.07,0,0,73.31,6,GPS_Atti,
0.350083935040226,36.9146812926344,5617.8726833808,203.740164,0.223694,14.4386815644,20400,2017-11-12 05:49:45,11,16.267,5617.8726833808,203.740164,4.2725554,14.4386815644,319.6, 4.3, -2.5,0,1,1024,1024,1684,1024,321,-9,99,4.067,4.092,4.047,4.07,0,0,73.31,6,GPS_Atti,
0.350083985609926,36.9146813067108,5619.5131033808,205.380584,0.223694,14.4521986252,20500,2017-11-12 05:49:45,11,16.267,5619.5131033808,205.380584,4.2725554,14.4521986252,319.5, 4.3, -2.5,0,1,1024,1024,1684,1024,321,-9,99,4.067,4.092,4.047,4.07,0,0,73.31,6,GPS_Atti,
0.350083977493761,36.9146812856732,5621.1535233808,207.021004,0.223694,14.444062142,20600,2017-11-12 05:49:45,11,16.267,5621.1535233808,207.021004,4.2725554,14.4521986252,319.6, 4.2, -2.4,0,1,1024,1024,1684,1024,320.9,-9,99,4.067,4.092,4.047,4.07,0,0,73.31,6,GPS_Atti,
0.350083970592416,36.914681272571,5622.7939433808,208.661424,0.31540854,14.4386815644,20700,2017-11-12 05:49:46,11,16.267,5622.7939433808,208.661424,4.2725554,14.4521986252,319.6, 4.4, -2.2,0,1,1024,1024,1684,1024,320.9,-9,99,4.067,4.092,4.047,4.07,0,0,73.31,6,GPS_Atti,
0.350083913645729,36.9146812436729,5624.7624473808,210.629928,0.31540854,14.4192918,20800,2017-11-12 05:49:46,11,16.267,5624.7624473808,210.629928,4.2725554,14.4521986252,319.6, 4.3, -2.1,0,1,1024,1024,1684,1024,320.9,-9,99,4.067,4.092,4.047,4.07,0,0,73.31,6,GPS_Atti,
0.350083846558722,36.91468123062,5626.4028673808,212.270348,0.31540854,14.4031500672,20900,2017-11-12 05:49:46,11,16.267,5626.4028673808,212.270348,4.2725554,14.4521986252,319.6, 4, -2,0,1,1024,1024,1684,1024,320.9,-9,99,4.067,4.092,4.047,4.07,0,0,73.31,6,GPS_Atti,
0.350083743559639,36.9146812089678,5628.0432873808,213.910768,0.31540854,14.3778875992,21000,2017-11-12 05:49:46,11,16.106,5628.0432873808,213.910768,4.2725554,14.4521986252,319.6, 3.8, -1.7,0,1,1024,1024,1684,1024,320.9,-9,99,4.065,4.088,4.044,4.066,0,0,73.31,6,GPS_Atti,
0.350083652195789,36.9146812028182,5629.6837073808,215.551188,0.31540854,14.3597117456,21100,2017-11-12 05:49:46,11,16.106,5629.6837073808,215.551188,4.2725554,14.4521986252,319.6, 3.7, -1.6,0,1,1024,1024,1684,1024,320.8,-9,99,4.065,4.088,4.044,4.066,0,0,73.31,6,GPS_Atti,
0.350083552691347,36.9146811860395,5631.3241273808,217.191608,0.31540854,14.3367458656,21200,2017-11-12 05:49:46,11,16.106,5631.3241273808,217.191608,4.2725554,14.4521986252,319.6, 3.6, -1.5,0,1,1024,1024,1684,1024,320.8,-9,99,4.065,4.088,4.044,4.066,0,0,73.31,6,GPS_Atti,
0.350083467088931,36.9146811877246,5632.9645473808,218.832028,0.31540854,14.322178936,21300,2017-11-12 05:49:46,11,16.106,5632.9645473808,218.832028,4.2725554,14.4521986252,319.6, 3.5, -1.4,0,1,1024,1024,1684,1024,320.8,-9,99,4.065,4.088,4.044,4.066,0,0,73.31,6,GPS_Atti,
0.35008335582061,36.9146811657106,5634.6049673808,220.472448,0.31540854,14.295604132,21400,2017-11-12 05:49:46,11,16.106,5634.6049673808,220.472448,4.2725554,14.4521986252,319.6, 3.3, -1.1,0,1,1024,1024,1684,1024,320.8,-9,99,4.065,4.088,4.044,4.066,0,0,73.31,6,GPS_Atti,
0.350083276893186,36.914681164503,5636.5734713808,222.440952,0.31540854,14.2813980948,21500,2017-11-12 05:49:46,11,16.106,5636.5734713808,222.440952,4.2725554,14.4521986252,319.6, 3.6, -1.1,0,1,1024,1024,1684,1024,320.8,-9,99,4.065,4.088,4.044,4.066,0,0,73.31,6,GPS_Atti,
0.350083192269465,36.9146811412213,5638.2138913808,224.081372,0.31540854,14.2591539996,21600,2017-11-12 05:49:46,11,16.106,5638.2138913808,224.081372,4.2725554,14.4521986252,319.6, 4.3, -1.4,0,1,1024,1024,1684,1024,320.8,-9,99,4.065,4.088,4.044,4.066,0,0,73.31,6,GPS_Atti,
0.35008312077426,36.9146811300912,5639.8543113808,225.721792,0.31540854,14.2431435004,21700,2017-11-12 05:49:46,11,16.106,5639.8543113808,225.721792,4.2725554,14.4521986252,319.6, 4.4, -1.5,0,1,1024,1024,1684,1024,320.7,-9,99,4.065,4.088,4.044,4.066,0,0,73.31,6,GPS_Atti,
0.350083024870308,36.9146810945125,5641.4947313808,227.362212,0.31540854,14.2150923184,21800,2017-11-12 05:49:47,11,16.106,5641.4947313808,227.362212,4.2725554,14.4521986252,319.6, 4.2, -1.3,0,1,1024,1024,1684,1052,320.7,-9,99,4.065,4.088,4.044,4.066,0,0,73.31,6,GPS_Atti,
0.350082938908006,36.9146810869667,5643.1351513808,229.002632,0.31540854,14.1978022916,21900,2017-11-12 05:49:47,11,16.106,5643.1351513808,229.002632,4.2725554,14.4521986252,319.6, 4, -1.2,0,1,1024,1024,1684,1088,320.7,-9,99,4.065,4.088,4.044,4.066,0,0,73.31,6,GPS_Atti,
0.350082839625032,36.9146810711173,5644.7755713808,230.643052,0.31540854,14.1755910048,22000,2017-11-12 05:49:47,11,16.186,5644.7755713808,230.643052,4.2725554,14.4521986252,319.7, 4, -1.2,0,1,1024,1024,1684,1088,320.7,-9,99,4.06,4.085,4.04,4.06,0,0,73.31,6,GPS_Atti,
0.350082772974448,36.9146810791727,5646.7440753808,232.611556,0.31540854,14.1667655452,22100,2017-11-12 05:49:47,11,16.186,5646.7440753808,232.611556,4.2725554,14.4521986252,319.9, 4.2, -1.1,0,1,1024,1024,1684,1088,320.9,-9,99,4.06,4.085,4.04,4.06,0,0,73.31,6,GPS_Atti,
0.350082709105246,36.914681074933,5648.3844953808,234.251976,0.31540854,14.1544623952,22200,2017-11-12 05:49:47,11,16.186,5648.3844953808,234.251976,4.2725554,14.4521986252,320.4, 4.3, -1,0,1,1024,1024,1684,1088,321.1,-9,99,4.06,4.085,4.04,4.06,0,0,73.31,6,GPS_Atti,
0.35008267264927,36.9146811194064,5650.0249153808,235.892396,0.31540854,14.16256607,22300,2017-11-12 05:49:47,11,16.186,5650.0249153808,235.892396,4.2725554,14.4521986252,321.1, 4.2, -1,0,1,1024,1024,1684,1088,321.4,-9,99,4.06,4.085,4.04,4.06,0,0,73.31,6,GPS_Atti,
0.350082624582489,36.9146811643573,5651.6653353808,237.532816,0.223694,14.1688980912,22400,2017-11-12 05:49:47,11,16.186,5651.6653353808,237.532816,4.2725554,14.4521986252,321.7, 4.1, -1.2,0,1,1024,1024,1684,1090,321.6,-9,99,4.06,4.085,4.04,4.06,0,0,73.31,6,GPS_Atti,
0.350082585322332,36.9146812314229,5653.3057553808,239.173236,0.223694,14.18389153,22500,2017-11-12 05:49:47,11,16.186,5653.3057553808,239.173236,4.2725554,14.4521986252,322.4, 4, -1.3,0,1,1024,1024,1684,1053,321.8,-9,99,4.06,4.085,4.04,4.06,0,0,73.31,6,GPS_Atti,
0.350082508267619,36.9146812513942,5654.9461753808,240.813656,0.31540854,14.1772970416,22600,2017-11-12 05:49:47,11,16.186,5654.9461753808,240.813656,4.2725554,14.4521986252,322.9, 4.2, -1.2,0,1,1024,1024,1684,1019,321.9,-9,99,4.06,4.085,4.04,4.06,0,0,73.31,6,GPS_Atti,
0.350082443960366,36.9146812750805,5656.5865953808,242.454076,0.31540854,14.1741146268,22700,2017-11-12 05:49:47,11,16.186,5656.5865953808,242.454076,4.2725554,14.4521986252,323, 4.1, -0.9,0,1,1024,1024,1684,1023,321.9,-9,99,4.06,4.085,4.04,4.06,0,0,73.31,6,GPS_Atti,
0.350082365542645,36.9146812663957,5658.2270153808,244.094496,0.31540854,14.158136936,22800,2017-11-12 05:49:48,11,16.186,5658.2270153808,244.094496,4.2725554,14.4521986252,323, 4.2, -0.5,0,1,1024,1024,1684,1024,321.9,-9,99,4.06,4.085,4.04,4.06,0,0,73.31,6,GPS_Atti,
0.350082309112175,36.9146812745302,5659.8674353808,245.734916,0.31540854,14.1513127888,22900,2017-11-12 05:49:48,11,16.186,5659.8674353808,245.734916,4.2725554,14.4521986252,323, 4, -0.4,0,1,1024,1024,1684,1012,322,-9,99,4.06,4.085,4.04,4.06,0,0,73.31,6,GPS_Atti,
0.350082245440015,36.914681271434,5661.5078553808,247.375336,0.31540854,14.1396658068,23000,2017-11-12 05:49:48,11,16.186,5661.5078553808,247.375336,4.2725554,14.4521986252,323, 4, -0.4,0,1,1024,1024,1684,1009,322,-9,99,4.06,4.085,4.04,4.06,0,0,73.31,6,GPS_Atti,
