latitude,longitude,altitude(feet),ascent(feet),speed(mph),distance(feet),time(millisecond),datetime(utc),satellites,voltage(v),max_altitude(feet),max_ascent(feet),max_speed(mph),max_distance(feet),compass_heading(degrees), pitch(degrees), roll(degrees),isPhoto,isVideo,rc_elevator,rc_aileron,rc_throttle,rc_rudder,gimbal_heading(degrees),gimbal_pitch(degrees),battery_percent,voltageCell1,voltageCell2,voltageCell3,voltageCell4,voltageCell5,voltageCell6,battery_temperature(f),flycStateRaw,flycState,message
0.371597056964936,36.9034619921775,5500.7972373772,0,0,0,100,2017-11-10 07:45:35,14,0,5500.7972373772,0,0,0,224.6, 1.6, 0,0,0,1024,1024,1024,1024,229.1,0,99,4.308,4.303,4.307,4.308,0,0,87.71,41,Motors_Started,
0.371597056986105,36.9034619607844,5500.7972373772,0,0,0.0114535108652,200,2017-11-10 07:45:35,15,0,5500.7972373772,0,0,0.0114535108652,224.6, 1.6, 0,0,0,1024,1024,1024,1024,229.1,0,99,4.308,4.303,4.307,4.308,0,0,87.71,41,Motors_Started,
0.371597058521321,36.9034619319218,5500.7972373772,0,0,0.021991142436,300,2017-11-10 07:45:35,15,0,5500.7972373772,0,0,0.021991142436,224.6, 1.6, 0,0,0,1024,1024,1024,1024,229.1,0,99,4.308,4.303,4.307,4.308,0,0,87.71,41,Motors_Started,
0.371597052928837,36.9034618957184,5500.7972373772,0,0,0.03522309824,400,2017-11-10 07:45:35,15,0,5500.7972373772,0,0,0.03522309824,224.6, 1.6, 0,0,0,1024,1024,1024,1024,229.1,0,99,4.308,4.303,4.307,4.308,0,0,87.71,41,Motors_Started,
0.37159705105572,36.9034618565789,5500.7972373772,0,0,0.049519030456,500,2017-11-10 07:45:35,15,0,5500.7972373772,0,0,0.049519030456,224.5, 1.6, 0,0,0,1024,1024,1024,1024,229.1,0,99,4.308,4.303,4.307,4.308,0,0,87.71,41,Motors_Started,
0.371597045025184,36.9034618443423,5500.7972373772,0,0,0.054112206456,600,2017-11-10 07:45:36,15,0,5500.7972373772,0,0,0.054112206456,224.6, 1.6, 0,0,0,1024,1024,1024,1024,229.1,0,99,4.308,4.303,4.307,4.308,0,0,87.71,41,Motors_Started,
0.371597041278338,36.9034618297953,5500.7972373772,0,0,0.059519686944,700,2017-11-10 07:45:36,15,0,5500.7972373772,0,0,0.059519686944,224.5, 1.6, 0,0,0,1024,1024,1024,1024,229.1,0,99,4.308,4.303,4.307,4.308,0,0,87.71,41,Motors_Started,
0.371597035427746,36.9034618065898,5500.7972373772,0,0,0.068164700344,800,2017-11-10 07:45:36,15,0,5500.7972373772,0,0,0.068164700344,224.5, 1.6, 0,0,0,1024,1024,1024,1024,229.1,0,99,4.308,4.303,4.307,4.308,0,0,87.71,41,Motors_Started,
0.371597031505639,36.903461777135,5500.7972373772,0,0,0.079004595704,900,2017-11-10 07:45:36,15,0,5500.7972373772,0,0,0.079004595704,224.6, 1.5, 0,0,0,1024,962,742,1279,229.1,0,99,4.308,4.303,4.307,4.308,0,0,87.71,41,Motors_Started,
0.371597057547512,36.9034617678068,5500.7972373772,0,0,0.08186023884,1000,2017-11-10 07:45:36,15,17.216,5500.7972373772,0,0,0.08186023884,224.5, 1.5, 0.1,0,0,1024,1024,1024,1024,228.6,0,99,4.308,4.303,4.307,4.308,0,0,87.71,41,Motors_Started,
0.371597083291379,36.9034617542753,5500.7972373772,0,0,0.087326446364,1100,2017-11-10 07:45:36,15,17.216,5500.7972373772,0,0,0.087326446364,224.6, 1.5, 0.1,0,0,1024,1024,1024,1024,226.8,0,99,4.308,4.303,4.307,4.308,0,0,87.71,41,Motors_Started,
0.371597073042563,36.903461762352,5500.7972373772,0,0,0.084054792716,1200,2017-11-10 07:45:36,15,17.216,5500.7972373772,0,0,0.087326446364,224.5, 1.5, 0,0,0,1024,1024,1024,1024,226.1,0,99,4.308,4.303,4.307,4.308,0,0,87.71,41,Motors_Started,
0.371597059722706,36.9034617611095,5500.7972373772,0,0,0.0843093859,1300,2017-11-10 07:45:36,15,17.216,5500.7972373772,0,0,0.087326446364,224.6, 1.5, 0.1,0,0,1024,1024,1024,1024,225.7,0,99,4.308,4.303,4.307,4.308,0,0,87.71,41,Motors_Started,
0.371597076970167,36.9034617434546,5500.7972373772,0,0,0.091037732572,1400,2017-11-10 07:45:36,15,17.216,5500.7972373772,0,0,0.091037732572,224.5, 1.5, 0.1,0,0,1024,1024,1024,1024,225.5,0,99,4.308,4.303,4.307,4.308,0,0,87.71,41,Motors_Started,
0.371597096423762,36.9034617187063,5500.7972373772,0,0,0.10080708984,1500,2017-11-10 07:45:36,15,17.216,5500.7972373772,0,0,0.10080708984,224.5, 1.5, 0.1,0,0,1024,1024,1024,1024,225.4,0,99,4.308,4.303,4.307,4.308,0,0,87.71,41,Motors_Started,
0.371597141961163,36.9034617994547,5500.7972373772,0,0,0.076848099572,1600,2017-11-10 07:45:37,16,17.216,5500.7972373772,0,0,0.10080708984,224.5, 1.5, 0,0,0,1024,1024,1024,1024,225.3,0,99,4.308,4.303,4.307,4.308,0,0,87.71,10,Assisted_Takeoff,
0.371597183915376,36.9034618823753,5500.7972373772,0,0,0.06123851902,1700,2017-11-10 07:45:37,16,17.216,5500.7972373772,0,0,0.10080708984,224.5, 1.5, 0.1,0,0,1024,1024,1024,1024,225.2,0,99,4.308,4.303,4.307,4.308,0,0,87.71,10,Assisted_Takeoff,
0.371597252850057,36.9034620400152,5500.7972373772,0,0,0.073568899992,1800,2017-11-10 07:45:37,16,17.216,5500.7972373772,0,0,0.10080708984,224.5, 1.5, 0.1,0,0,1024,1024,1024,1024,225.2,0,99,4.308,4.303,4.307,4.308,0,0,87.71,10,Assisted_Takeoff,
0.371597306976889,36.9034621531658,5500.7972373772,0,0,0.108491145204,1900,2017-11-10 07:45:37,16,17.216,5500.7972373772,0,0,0.108491145204,224.5, 1.5, 0.1,0,0,1024,1024,1024,1024,225.1,0,99,4.308,4.303,4.307,4.308,0,0,87.71,10,Assisted_Takeoff,
0.371597380224911,36.9034623198208,5500.7972373772,0,0,0.167926842644,2000,2017-11-10 07:45:37,16,17.108,5500.7972373772,0,0,0.167926842644,224.5, 1.5, 0,0,0,1024,1024,1024,1024,225.1,0,99,4.284,4.287,4.292,4.289,0,0,87.71,10,Assisted_Takeoff,
0.37159743995583,36.903462449485,5500.7972373772,0,0,0.217629928224,2100,2017-11-10 07:45:37,16,17.108,5500.7972373772,0,0,0.217629928224,224.5, 1.5, 0,0,0,1024,1024,1024,1024,225,0,99,4.284,4.287,4.292,4.289,0,0,87.71,10,Assisted_Takeoff,
0.371597512873074,36.9034626177503,5500.7972373772,0,0,0.282417331872,2200,2017-11-10 07:45:37,16,17.108,5500.7972373772,0,0,0.282417331872,224.5, 1.5, 0,0,0,1024,1024,1024,1024,225,0,99,4.284,4.287,4.292,4.289,0,0,87.71,10,Assisted_Takeoff,
0.371597573477042,36.9034627534292,5500.7972373772,0,0,0.33563321284,2300,2017-11-10 07:45:37,16,17.108,5500.7972373772,0,0,0.33563321284,224.5, 1.5, 0,0,0,1024,1024,1024,1024,225,0,99,4.284,4.287,4.292,4.289,0,0,87.71,10,Assisted_Takeoff,
0.371597675156881,36.9034629135612,5500.7972373772,0,0,0.40481300508,2400,2017-11-10 07:45:37,16,17.108,5500.7972373772,0,0,0.40481300508,224.5, 1.5, 0,0,0,1024,1024,1024,1024,225,0,99,4.284,4.287,4.292,4.289,0,0,87.71,10,Assisted_Takeoff,
0.371597764055471,36.9034630465205,5500.7972373772,0,0,0.46316602532,2500,2017-11-10 07:45:37,16,17.108,5500.7972373772,0,0,0.46316602532,224.5, 1.5, 0,0,0,1024,1024,1024,1024,224.9,0,99,4.284,4.287,4.292,4.289,0,0,87.71,10,Assisted_Takeoff,
0.371597855130782,36.9034631928788,5500.7972373772,0,0,0.52602691972,2600,2017-11-10 07:45:38,16,17.108,5500.7972373772,0,0,0.52602691972,224.5, 1.5, 0,0,0,1024,1024,1024,1024,224.9,0,99,4.284,4.287,4.292,4.289,0,0,87.71,10,Assisted_Takeoff,
0.371597930359093,36.9034633193318,5500.7972373772,0,0,0.57964896868,2700,2017-11-10 07:45:38,16,17.108,5500.7972373772,0,0,0.57964896868,224.5, 1.5, 0,0,0,1024,1024,1024,1024,224.9,0,99,4.284,4.287,4.292,4.289,0,0,87.71,10,Assisted_Takeoff,
0.371598003245091,36.9034634524062,5500.7972373772,0,0,0.63483925916,2800,2017-11-10 07:45:38,16,17.108,5500.7972373772,0,0,0.63483925916,224.5, 1.5, 0,0,0,1024,1024,1024,1024,224.9,0,99,4.284,4.287,4.292,4.289,0,0,87.71,10,Assisted_Takeoff,
0.371598067668677,36.9034635723388,5500.7972373772,0,0,0.68435697728,2900,2017-11-10 07:45:38,16,17.108,5500.7972373772,0,0,0.68435697728,224.5, 1.5, 0,0,0,1024,1024,1024,1024,224.9,0,99,4.284,4.287,4.292,4.289,0,0,87.71,10,Assisted_Takeoff,
0.371598095516188,36.9034636612364,5500.7972373772,0,0,0.7172080282,3000,2017-11-10 07:45:38,16,17.108,5500.7972373772,0,0,0.7172080282,224.5, 1.5, 0,0,0,1024,1024,1034,1024,224.9,0,99,4.284,4.287,4.292,4.289,0,0,87.71,10,Assisted_Takeoff,
0.371598122416251,36.903463744281,5500.7972373772,0,0,0.74815619192,3100,2017-11-10 07:45:38,16,17.108,5500.7972373772,0,0,0.74815619192,224.5, 1.5, 0,0,0,1024,1024,1037,1024,224.9,0,99,4.284,4.287,4.292,4.289,0,0,87.71,10,Assisted_Takeoff,
0.371598180919018,36.9034638292083,5500.7972373772,0,0,0.78572509076,3200,2017-11-10 07:45:38,16,17.108,5500.7972373772,0,0,0.78572509076,224.5, 1.5, 0,0,0,1024,1024,1031,1024,224.9,0,99,4.284,4.287,4.292,4.289,0,0,87.71,10,Assisted_Takeoff,
0.371598243038152,36.903463917064,5500.7972373772,0,0,0.82489832036,3300,2017-11-10 07:45:38,16,17.108,5500.7972373772,0,0,0.82489832036,224.5, 1.5, 0,0,0,1024,1024,1034,1024,224.9,0,99,4.284,4.287,4.292,4.289,0,0,87.71,10,Assisted_Takeoff,
0.371598272091323,36.903464009125,5500.7972373772,0,0,0.85909779652,3400,2017-11-10 07:45:38,16,17.108,5500.7972373772,0,0,0.85909779652,224.5, 1.5, 0,0,0,1024,1024,1151,1024,224.9,0,99,4.284,4.287,4.292,4.289,0,0,87.71,10,Assisted_Takeoff,
0.371598299086242,36.9034641015474,5500.7972373772,0,0,0.89310698396,3500,2017-11-10 07:45:38,16,17.108,5500.7972373772,0,0,0.89310698396,224.5, 1.5, 0,0,0,1024,1024,1430,1024,224.9,0,99,4.284,4.287,4.292,4.289,0,0,87.71,10,Assisted_Takeoff,
0.371598327471039,36.9034641665655,5500.7972373772,0,0,0.91880908452,3600,2017-11-10 07:45:39,16,17.108,5500.7972373772,0,0,0.91880908452,224.5, 1.5, 0.1,0,0,1024,1024,1684,1024,224.8,0,99,4.284,4.287,4.292,4.289,0,0,87.71,10,Assisted_Takeoff,
0.371598361106143,36.9034642317301,5500.7972373772,0,0,0.94552824548,3700,2017-11-10 07:45:39,16,17.108,5500.7972373772,0,0,0.94552824548,224.5, 1.4, 0.1,0,0,1024,1024,1684,1041,224.8,0,99,4.284,4.287,4.292,4.289,0,0,87.71,10,Assisted_Takeoff,
0.371598398817649,36.9034643046721,5500.7972373772,0,0,0.97544950628,3800,2017-11-10 07:45:39,16,17.108,5500.7972373772,0,0,0.97544950628,224.5, 1.4, 0.2,0,0,1024,1024,1684,1024,224.8,0,99,4.284,4.287,4.292,4.289,0,0,87.71,10,Assisted_Takeoff,
0.37159843798763,36.9034643863118,5500.7972373772,0,0,1.00838913988,3900,2017-11-10 07:45:39,16,17.108,5500.7972373772,0,0,1.00838913988,224.5, 1.4, 0.2,0,0,1024,1024,1684,1024,224.8,0,99,4.284,4.287,4.292,4.289,0,0,87.71,10,Assisted_Takeoff,
0.371598483162091,36.9034644708769,5500.7972373772,0,0,1.04334977092,4000,2017-11-10 07:45:39,16,17.189,5500.7972373772,0,0,1.04334977092,224.5, 1.2, 1.4,0,0,1024,1024,1684,1024,224.8,0,99,4.303,4.298,4.302,4.303,0,0,87.71,10,Assisted_Takeoff,
0.371598537406375,36.9034645219345,5500.7972373772,0,0,1.06939635968,4100,2017-11-10 07:45:39,16,17.189,5500.7972373772,0,0,1.06939635968,224.6, 0.9, 1.9,0,0,1024,1024,1684,1024,224.8,0,99,4.303,4.298,4.302,4.303,0,0,87.71,10,Assisted_Takeoff,
0.371598616609006,36.9034645103033,5500.7972373772,0,0.223694,1.08066932592,4200,2017-11-10 07:45:39,16,17.189,5500.7972373772,0,0.223694,1.08066932592,224.6, 0.4, 1.2,0,0,1024,1024,1684,1024,224.8,0,99,4.303,4.298,4.302,4.303,0,0,87.71,6,GPS_Atti,
0.371598693677001,36.903464454504,5500.7972373772,0,0.223694,1.0787237878,4300,2017-11-10 07:45:39,16,17.189,5500.7972373772,0,0.223694,1.08066932592,224.8, 0, 0.9,0,0,1024,1024,1684,1024,224.8,0,99,4.303,4.298,4.302,4.303,0,0,87.71,6,GPS_Atti,
0.37159875933856,36.9034643162757,5501.1253213772,0.328084,0.447388,1.05107614912,4400,2017-11-10 07:45:39,16,17.189,5501.1253213772,0.328084,0.447388,1.08066932592,224.9, 0.1, 0.5,0,0,1024,1024,1684,1024,224.8,0,99,4.303,4.298,4.302,4.303,0,0,87.71,6,GPS_Atti,
0.371598804624875,36.9034641097065,5501.4534053772,0.656168,0.671082,1.00171263048,4500,2017-11-10 07:45:39,16,17.189,5501.4534053772,0.656168,0.671082,1.08066932592,224.8, 1.1, 0,0,0,1024,1024,1684,1024,224.8,0,99,4.303,4.298,4.302,4.303,0,0,87.71,6,GPS_Atti,
0.371598823347503,36.9034637396156,5502.1095733772,1.312336,0.894776,0.90652561956,4600,2017-11-10 07:45:40,16,17.189,5502.1095733772,1.312336,0.894776,1.08066932592,224.9, 2.2, -0.9,0,0,1024,1024,1684,1024,224.8,0,99,4.303,4.298,4.302,4.303,0,0,87.71,6,GPS_Atti,
0.371598840626922,36.9034633398252,5502.7657413772,1.968504,0.894776,0.81562666652,4700,2017-11-10 07:45:40,16,17.189,5502.7657413772,1.968504,0.894776,1.08066932592,224.8, 2.8, -2.7,0,0,1024,1024,1684,1024,224.8,0,99,4.303,4.298,4.302,4.303,0,0,87.71,6,GPS_Atti,
0.371598864892875,36.9034628730818,5503.7499933772,2.952756,0.894776,0.73375330432,4800,2017-11-10 07:45:40,16,17.189,5503.7499933772,2.952756,0.894776,1.08066932592,225, 3.5, -3,0,0,1024,1024,1684,1024,224.8,0,99,4.303,4.298,4.302,4.303,0,0,87.71,6,GPS_Atti,
0.371598853372244,36.903462461621,5504.7342453772,3.937008,0.671082,0.6774278432,4900,2017-11-10 07:45:40,16,17.189,5504.7342453772,3.937008,0.894776,1.08066932592,225, 4.2, -3.3,0,0,1024,1024,1684,1024,224.8,0,99,4.303,4.298,4.302,4.303,0,0,87.71,6,GPS_Atti,
0.371598824865009,36.9034620774541,5505.7184973772,4.92126,0.70687304,0.6457677372,5000,2017-11-10 07:45:40,15,16.622,5505.7184973772,4.92126,0.894776,1.08066932592,224.8, 4.9, -3.1,0,0,1024,1024,1684,1024,224.8,0,99,4.24,4.234,4.226,4.23,0,0,87.71,6,GPS_Atti,Setting new Return-To-Home altitude to 30m (98 ft). Setting new Maximum Flight Altitude to 100m (328 ft)
0.371598764319919,36.9034617755671,5507.3589173772,6.56168,0.50107456,0.6279199676,5100,2017-11-10 07:45:40,15,16.622,5507.3589173772,6.56168,0.894776,1.08066932592,224.8, 5.4, -2.7,0,0,1024,1024,1684,1024,224.8,0,99,4.24,4.234,4.226,4.23,0,0,87.71,6,GPS_Atti,Home Point Recorded. RTH Altitude:  30m.
0.371598721609039,36.9034615525523,5508.6712533772,7.874016,0.31540854,0.6281660306,5200,2017-11-10 07:45:40,16,16.622,5508.6712533772,7.874016,0.894776,1.08066932592,224.6, 5.6, -2.2,0,0,1024,1024,1684,1024,224.8,0,99,4.24,4.234,4.226,4.23,0,0,87.71,6,GPS_Atti,
0.371598676463788,36.903461403337,5510.3116733772,9.514436,0.223694,0.62871721172,5300,2017-11-10 07:45:40,16,16.622,5510.3116733772,9.514436,0.894776,1.08066932592,224.5, 5.1, -1.8,0,0,1024,1024,1684,1024,224.8,0,99,4.24,4.234,4.226,4.23,0,0,87.71,6,GPS_Atti,
0.371598649369533,36.9034612576291,5511.9520933772,11.154856,0.223694,0.63981957428,5400,2017-11-10 07:45:40,16,16.622,5511.9520933772,11.154856,0.894776,1.08066932592,224.5, 4.1, -1.3,0,0,1024,1024,1684,1024,224.8,0,99,4.24,4.234,4.226,4.23,0,0,87.71,6,GPS_Atti,
0.371598601981711,36.9034611217136,5513.5925133772,12.795276,0.31540854,0.64700461388,5500,2017-11-10 07:45:40,16,16.622,5513.5925133772,12.795276,0.894776,1.08066932592,224.6, 3.2, -0.8,0,0,1024,1024,1684,1024,224.8,0,99,4.24,4.234,4.226,4.23,0,0,87.71,6,GPS_Atti,
0.371598486997586,36.9034609939149,5515.2329333772,14.435696,0.31540854,0.63629267128,5600,2017-11-10 07:45:41,17,16.622,5515.2329333772,14.435696,0.894776,1.08066932592,224.6, 3, -0.1,0,0,1024,1024,1684,1024,224.8,0,99,4.24,4.234,4.226,4.23,0,0,87.71,6,GPS_Atti,
0.371598357007553,36.9034608385881,5517.2014373772,16.4042,0.447388,0.63412731688,5700,2017-11-10 07:45:41,17,16.622,5517.2014373772,16.4042,0.894776,1.08066932592,224.5, 3.6, -0.5,0,0,1024,1024,1684,1024,224.8,0,99,4.24,4.234,4.226,4.23,0,0,87.71,6,GPS_Atti,
0.371598002340491,36.9034604906963,5520.4822773772,19.68504,0.223694,0.64734582124,5900,2017-11-10 07:45:41,17,16.622,5520.4822773772,19.68504,0.894776,1.08066932592,224.5, 5.4, -1.5,0,0,1024,1024,1684,1024,224.8,0,99,4.24,4.234,4.226,4.23,0,0,87.71,6,GPS_Atti,
0.3715978060163,36.9034603547968,5522.1226973772,21.32546,0.223694,0.65692915488,6000,2017-11-10 07:45:41,17,16.541,5522.1226973772,21.32546,0.894776,1.08066932592,224.4, 5.1, -1.4,0,0,1024,1024,1684,1024,224.8,0,99,4.173,4.177,4.169,4.178,0,0,87.71,6,GPS_Atti,
0.371597623677085,36.9034602287068,5523.7631173772,22.96588,0.223694,0.67579398488,6100,2017-11-10 07:45:41,17,16.541,5523.7631173772,22.96588,0.894776,1.08066932592,224.5, 4.5, -1.6,0,0,1024,1024,1684,1024,224.8,0,99,4.173,4.177,4.169,4.178,0,0,87.71,6,GPS_Atti,
0.371597378399832,36.9034601172007,5525.4035373772,24.6063,0.31540854,0.69404857864,6200,2017-11-10 07:45:41,17,16.541,5525.4035373772,24.6063,0.894776,1.08066932592,224.5, 4.6, -1.4,0,0,1024,1024,1684,1024,224.8,0,99,4.173,4.177,4.169,4.178,0,0,87.71,6,GPS_Atti,
0.371597125942363,36.9034599917884,5527.0439573772,26.24672,0.31540854,0.73025920972,6300,2017-11-10 07:45:41,17,16.541,5527.0439573772,26.24672,0.894776,1.08066932592,224.5, 5.6, -1.3,0,0,1024,1024,1684,1024,224.8,0,99,4.173,4.177,4.169,4.178,0,0,87.71,6,GPS_Atti,
0.371596872356993,36.9034599195702,5528.6843773772,27.88714,0.31540854,0.75916669096,6400,2017-11-10 07:45:41,17,16.541,5528.6843773772,27.88714,0.894776,1.08066932592,224.5, 6.1, -0.7,0,0,1024,1024,1684,1024,224.8,0,99,4.173,4.177,4.169,4.178,0,0,87.71,6,GPS_Atti,
0.371596642456526,36.9034598489476,5530.3247973772,29.52756,0.31540854,0.79643047168,6500,2017-11-10 07:45:41,17,16.541,5530.3247973772,29.52756,0.894776,1.08066932592,224.5, 6.3, -0.7,0,0,1024,1024,1684,1024,224.8,0,99,4.173,4.177,4.169,4.178,0,0,87.71,6,GPS_Atti,
0.371596429248425,36.903459770204,5531.9652173772,31.16798,0.223694,0.84239832092,6600,2017-11-10 07:45:42,17,16.541,5531.9652173772,31.16798,0.894776,1.08066932592,224.4, 6.3, -1.5,0,0,1024,1024,1684,1024,224.8,0,99,4.173,4.177,4.169,4.178,0,0,87.71,6,GPS_Atti,
0.371596222493033,36.9034597008983,5533.6056373772,32.8084,0.31540854,0.88967194448,6700,2017-11-10 07:45:42,17,16.541,5533.6056373772,32.8084,0.894776,1.08066932592,224.4, 6, -1.5,0,0,1024,1024,1684,1024,224.8,0,99,4.173,4.177,4.169,4.178,0,0,87.71,6,GPS_Atti,
0.371596007902382,36.9034596678254,5535.2460573772,34.44882,0.223694,0.9303970114,6800,2017-11-10 07:45:42,17,16.541,5535.2460573772,34.44882,0.894776,1.08066932592,224.5, 5.7, -0.5,0,0,1024,1024,1684,1024,224.8,0,99,4.173,4.177,4.169,4.178,0,0,87.71,6,GPS_Atti,
0.371595778108986,36.9034596146678,5536.8864773772,36.08924,0.31540854,0.98494425724,6900,2017-11-10 07:45:42,17,16.541,5536.8864773772,36.08924,0.894776,1.08066932592,224.5, 6.8, -0.5,0,0,1024,1024,1684,1024,224.8,0,99,4.173,4.177,4.169,4.178,0,0,87.71,6,GPS_Atti,
0.371595561334592,36.9034595599557,5538.5268973772,37.72966,0.31540854,1.04172903596,7000,2017-11-10 07:45:42,17,16.541,5538.5268973772,37.72966,0.894776,1.08066932592,224.5, 7.2, -1.9,0,0,1024,1024,1684,1024,224.8,0,99,4.173,4.177,4.169,4.178,0,0,87.71,6,GPS_Atti,
0.371595344776781,36.9034595329762,5540.1673173772,39.37008,0.223694,1.09327103236,7100,2017-11-10 07:45:42,17,16.541,5540.1673173772,39.37008,0.894776,1.09327103236,224.5, 7.2, -1.7,0,0,1024,1024,1684,1024,224.8,0,99,4.173,4.177,4.169,4.178,0,0,87.71,6,GPS_Atti,
0.371595141507074,36.9034595607377,5541.8077373772,41.0105,0.223694,1.12930449808,7200,2017-11-10 07:45:42,17,16.541,5541.8077373772,41.0105,0.894776,1.12930449808,224.5, 6.1, -1,0,0,1024,1024,1684,1024,224.8,0,99,4.173,4.177,4.169,4.178,0,0,87.71,6,GPS_Atti,
0.371594896663598,36.9034596021844,5543.4481573772,42.65092,0.447388,1.17540030008,7300,2017-11-10 07:45:42,17,16.541,5543.4481573772,42.65092,0.894776,1.17540030008,224.5, 6.8, -0.4,0,0,1024,1024,1684,1024,224.8,0,99,4.173,4.177,4.169,4.178,0,0,87.71,6,GPS_Atti,
0.371594608651293,36.9034596747148,5545.0885773772,44.29134,0.447388,1.22996066928,7400,2017-11-10 07:45:42,17,16.541,5545.0885773772,44.29134,0.894776,1.22996066928,224.6, 8.2, 0.5,0,0,1024,1024,1684,1024,224.8,0,99,4.173,4.177,4.169,4.178,0,0,87.71,6,GPS_Atti,
0.371594324055871,36.9034597710642,5546.7289973772,45.93176,0.447388,1.28486880752,7500,2017-11-10 07:45:42,17,16.541,5546.7289973772,45.93176,0.894776,1.28486880752,224.7, 7.9, 1.1,0,0,1024,1024,1684,1024,224.8,0,99,4.173,4.177,4.169,4.178,0,0,87.71,6,GPS_Atti,
0.371594066509718,36.9034598994951,5548.3694173772,47.57218,0.223694,1.33167327096,7600,2017-11-10 07:45:43,17,16.541,5548.3694173772,47.57218,0.894776,1.33167327096,224.7, 8, 3.2,0,0,1024,1024,1684,1024,224.8,0,99,4.173,4.177,4.169,4.178,0,0,87.71,6,GPS_Atti,
0.371593864907944,36.9034599853412,5550.0098373772,49.2126,0,1.37565293116,7700,2017-11-10 07:45:43,17,16.541,5550.0098373772,49.2126,0.894776,1.37565293116,224.7, 8.3, 4.1,0,0,1024,1024,1684,1024,224.8,0,99,4.173,4.177,4.169,4.178,0,0,87.71,6,GPS_Atti,
0.371593754902073,36.9034599717674,5551.6502573772,50.85302,0.223694,1.41237209244,7800,2017-11-10 07:45:43,17,16.541,5551.6502573772,50.85302,0.894776,1.41237209244,224.6, 8.5, 1.1,0,0,1024,1024,1684,1024,224.8,0,99,4.173,4.177,4.169,4.178,0,0,87.71,6,GPS_Atti,
0.371593699633498,36.9034599221819,5553.2906773772,52.49344,0.223694,1.43902235576,7900,2017-11-10 07:45:43,17,16.541,5553.2906773772,52.49344,0.894776,1.43902235576,224.4, 8.7, -1.2,0,0,1024,1024,1684,1024,224.8,0,99,4.173,4.177,4.169,4.178,0,0,87.71,6,GPS_Atti,
0.371593683238324,36.9034598727902,5554.9310973772,54.13386,0,1.45362209376,8000,2017-11-10 07:45:43,17,16.676,5554.9310973772,54.13386,0.894776,1.45362209376,224.4, 7.8, -2.4,0,0,1024,1024,1684,1024,224.8,0,99,4.173,4.177,4.169,4.178,0,0,87.71,6,GPS_Atti,
0.37159366883433,36.9034598616751,5556.5715173772,55.77428,0,1.46022970552,8100,2017-11-10 07:45:43,17,16.676,5556.5715173772,55.77428,0.894776,1.46022970552,224.5, 6.7, -2.6,0,0,1024,1024,1684,1024,224.8,0,99,4.173,4.177,4.169,4.178,0,0,87.71,6,GPS_Atti,
0.371593630724262,36.9034598903788,5558.2119373772,57.4147,0,1.4665190758,8200,2017-11-10 07:45:43,17,16.676,5558.2119373772,57.4147,0.894776,1.4665190758,224.5, 6.5, -1.9,0,0,1024,1024,1684,1024,224.8,0,99,4.173,4.177,4.169,4.178,0,0,87.71,6,GPS_Atti,
0.371593556864149,36.9034599338414,5560.1804413772,59.383204,0,1.48145345948,8300,2017-11-10 07:45:43,17,16.676,5560.1804413772,59.383204,0.894776,1.48145345948,224.5, 7.5, -1.3,0,0,1024,1024,1684,1024,224.8,0,99,4.173,4.177,4.169,4.178,0,0,87.71,6,GPS_Atti,
0.371593436535572,36.903459989182,5561.8208613772,61.023624,0,1.50958338164,8400,2017-11-10 07:45:43,17,16.676,5561.8208613772,61.023624,0.894776,1.50958338164,224.5, 9.2, -1.4,0,0,1024,1024,1684,1024,224.8,0,99,4.173,4.177,4.169,4.178,0,0,87.71,6,GPS_Atti,
0.371593343278656,36.9034600840186,5563.4612813772,62.664044,0.223694,1.52332353956,8500,2017-11-10 07:45:43,17,16.676,5563.4612813772,62.664044,0.894776,1.52332353956,224.7, 9, -2.2,0,0,1024,1024,1684,1024,224.8,0,99,4.173,4.177,4.169,4.178,0,0,87.71,6,GPS_Atti,
0.371593242667686,36.9034602883871,5565.1017013772,64.304464,0.50107456,1.5241634346,8600,2017-11-10 07:45:44,17,16.676,5565.1017013772,64.304464,0.894776,1.5241634346,224.7, 7, 0.4,0,0,1024,1024,1684,1024,224.8,0,99,4.173,4.177,4.169,4.178,0,0,87.71,6,GPS_Atti,
0.371593125769427,36.9034605391967,5566.7421213772,65.944884,0.50107456,1.52912078384,8700,2017-11-10 07:45:44,17,16.676,5566.7421213772,65.944884,0.894776,1.52912078384,224.7, 5.4, 3.5,0,0,1024,1024,1684,1024,224.8,0,99,4.173,4.177,4.169,4.178,0,0,87.71,6,GPS_Atti,
0.371592999135922,36.9034607546562,5568.3825413772,67.585304,0.31540854,1.54781172932,8800,2017-11-10 07:45:44,17,16.676,5568.3825413772,67.585304,0.894776,1.54781172932,224.6, 5.4, 4,0,0,1024,1024,1684,1024,224.8,0,99,4.173,4.177,4.169,4.178,0,0,87.71,6,GPS_Atti,
0.371592891827569,36.9034608880777,5570.3510453772,69.553808,0,1.5721293154,8900,2017-11-10 07:45:44,17,16.676,5570.3510453772,69.553808,0.894776,1.5721293154,224.7, 6.8, 3.5,0,0,1024,1024,1684,1024,224.8,0,99,4.173,4.177,4.169,4.178,0,0,87.71,6,GPS_Atti,
0.371592805950354,36.9034609601151,5571.9914653772,71.194228,0,1.59603351564,9000,2017-11-10 07:45:44,17,16.568,5571.9914653772,71.194228,0.894776,1.59603351564,224.6, 7.5, 2.9,0,0,1024,1024,1684,1024,224.8,0,99,4.177,4.176,4.166,4.175,0,0,87.71,6,GPS_Atti,
0.371592745871355,36.9034609921345,5573.6318853772,72.834648,0,1.61466212516,9100,2017-11-10 07:45:44,17,16.568,5573.6318853772,72.834648,0.894776,1.61466212516,224.5, 8.1, 2,0,0,1024,1024,1684,1024,224.8,0,99,4.177,4.176,4.166,4.175,0,0,87.71,6,GPS_Atti,
0.371592736647848,36.9034609976176,5575.2723053772,74.475068,0,1.61749020924,9200,2017-11-10 07:45:44,17,16.568,5575.2723053772,74.475068,0.894776,1.61749020924,224.5, 8.4, 1.4,0,0,1024,1024,1684,1024,224.8,0,99,4.177,4.176,4.166,4.175,0,0,87.71,6,GPS_Atti,
0.371592746722217,36.9034609995067,5576.9127253772,76.115488,0,1.61375333248,9300,2017-11-10 07:45:44,17,16.568,5576.9127253772,76.115488,0.894776,1.61749020924,224.5, 8.1, 0.8,0,0,1024,1024,1684,1024,224.8,0,99,4.177,4.176,4.166,4.175,0,0,87.71,6,GPS_Atti,
0.371592795941937,36.9034610323708,5578.5531453772,77.755908,0,1.59358272816,9400,2017-11-10 07:45:44,17,16.568,5578.5531453772,77.755908,0.894776,1.61749020924,224.5, 8.1, 0.7,0,0,1024,1024,1684,1024,224.8,0,99,4.177,4.176,4.166,4.175,0,0,87.71,6,GPS_Atti,
0.371592838286773,36.9034610591651,5580.5216493772,79.724412,0,1.57637472236,9500,2017-11-10 07:45:44,17,16.568,5580.5216493772,79.724412,0.894776,1.61749020924,224.5, 7.9, 1.2,0,0,1024,1024,1684,1024,224.8,0,99,4.177,4.176,4.166,4.175,0,0,87.71,6,GPS_Atti,
0.371592907122322,36.9034610748946,5582.1620693772,81.364832,0,1.55061356668,9600,2017-11-10 07:45:45,17,16.568,5582.1620693772,81.364832,0.894776,1.61749020924,224.5, 8.5, 0.8,0,0,1024,1024,1684,1024,224.8,0,99,4.177,4.176,4.166,4.175,0,0,87.71,6,GPS_Atti,
0.371592959623357,36.903461057556,5583.8024893772,83.005252,0,1.53331041652,9700,2017-11-10 07:45:45,17,16.568,5583.8024893772,83.005252,0.894776,1.61749020924,224.6, 9, 0.2,0,0,1024,1024,1684,1024,224.8,0,99,4.177,4.176,4.166,4.175,0,0,87.71,6,GPS_Atti,
0.371593020859365,36.9034610771134,5585.7709933772,84.973756,0,1.5099409932,9800,2017-11-10 07:45:45,17,16.568,5585.7709933772,84.973756,0.894776,1.61749020924,224.5, 9.1, -0.5,0,0,1024,1024,1684,1024,224.8,0,99,4.177,4.176,4.166,4.175,0,0,87.71,6,GPS_Atti,
0.371593041820696,36.9034611162063,5587.4114133772,86.614176,0,1.49937996924,9900,2017-11-10 07:45:45,17,16.568,5587.4114133772,86.614176,0.894776,1.61749020924,224.5, 9.3, -0.2,0,0,1024,1024,1684,1025,224.8,0,99,4.177,4.176,4.166,4.175,0,0,87.71,6,GPS_Atti,
0.37159302928127,36.9034612131167,5589.3799173772,88.58268,0,1.4967356122,10000,2017-11-10 07:45:45,17,16.541,5589.3799173772,88.58268,0.894776,1.61749020924,224.6, 9.1, 1.1,0,0,1024,1024,1684,1024,224.8,0,99,4.17,4.175,4.161,4.165,0,0,87.71,6,GPS_Atti,
0.371592990020707,36.9034613056392,5591.0203373772,90.2231,0,1.50481632112,10100,2017-11-10 07:45:45,17,16.541,5591.0203373772,90.2231,0.894776,1.61749020924,224.5, 9.2, 1.7,0,0,1024,1024,1684,1024,224.8,0,99,4.17,4.175,4.161,4.165,0,0,87.71,6,GPS_Atti,
0.371592980244343,36.9034614211451,5592.6607573772,91.86352,0,1.50190949688,10200,2017-11-10 07:45:45,17,16.541,5592.6607573772,91.86352,0.894776,1.61749020924,224.7, 9.5, 2.2,0,0,1024,1024,1684,1024,224.8,0,99,4.17,4.175,4.161,4.165,0,0,87.71,6,GPS_Atti,
0.371592973566094,36.9034615311555,5594.3011773772,93.50394,0,1.49929138656,10300,2017-11-10 07:45:45,17,16.541,5594.3011773772,93.50394,0.894776,1.61749020924,224.8, 9.7, 2.7,0,0,1024,1024,1684,1024,224.8,0,99,4.17,4.175,4.161,4.165,0,0,87.71,6,GPS_Atti,
0.371592997632054,36.9034616730242,5596.2696813772,95.472444,0.223694,1.48561684544,10400,2017-11-10 07:45:45,17,16.541,5596.2696813772,95.472444,0.894776,1.61749020924,224.8, 10.2, 3.1,0,0,1024,1024,1684,1024,224.8,0,99,4.17,4.175,4.161,4.165,0,0,87.71,6,GPS_Atti,
0.37159304242322,36.9034618218407,5597.9101013772,97.112864,0.223694,1.46602038812,10500,2017-11-10 07:45:45,17,16.541,5597.9101013772,97.112864,0.894776,1.61749020924,224.7, 8.4, 4,0,0,1024,1024,1684,1024,224.8,0,99,4.17,4.175,4.161,4.165,0,0,87.71,6,GPS_Atti,
0.371593174301536,36.903461947473,5599.5505213772,98.753284,0,1.41667983536,10600,2017-11-10 07:45:46,17,16.541,5599.5505213772,98.753284,0.894776,1.61749020924,224.6, 6.7, 3.4,0,0,1024,1024,1684,1024,224.8,0,99,4.17,4.175,4.161,4.165,0,0,87.71,6,GPS_Atti,
0.37159330779364,36.9034620036267,5601.1909413772,100.393704,0,1.36789046372,10700,2017-11-10 07:45:46,17,16.541,5601.1909413772,100.393704,0.894776,1.61749020924,224.6, 7.2, 2,0,0,1024,1024,1684,1024,224.8,0,99,4.17,4.175,4.161,4.165,0,0,87.71,6,GPS_Atti,
0.371593486778362,36.9034620280292,5602.8313613772,102.034124,0,1.30264767948,10800,2017-11-10 07:45:46,17,16.541,5602.8313613772,102.034124,0.894776,1.61749020924,224.6, 8, 1.4,0,0,1024,1024,1684,1024,224.7,0,99,4.17,4.175,4.161,4.165,0,0,87.71,6,GPS_Atti,
0.371593646354068,36.9034620399435,5604.4717813772,103.674544,0,1.24448166712,10900,2017-11-10 07:45:46,17,16.541,5604.4717813772,103.674544,0.894776,1.61749020924,224.6, 7.5, 1.7,0,0,1024,1024,1684,1024,224.7,0,99,4.17,4.175,4.161,4.165,0,0,87.71,6,GPS_Atti,
0.371593842665434,36.903462037502,5606.1122013772,105.314964,0.223694,1.1728510874,11000,2017-11-10 07:45:46,17,16.541,5606.1122013772,105.314964,0.894776,1.61749020924,224.6, 7.6, 1.3,0,0,1024,1024,1684,1025,224.7,0,99,4.153,4.154,4.142,4.153,0,0,87.71,6,GPS_Atti,
0.371594223560521,36.9034620021444,5609.3930413772,108.595804,0,1.03377299896,11200,2017-11-10 07:45:46,17,16.541,5609.3930413772,108.595804,0.894776,1.61749020924,224.5, 7.5, -0.6,0,0,1024,1024,1684,1027,224.7,0,99,4.153,4.154,4.142,4.153,0,0,87.71,6,GPS_Atti,
0.371594346898055,36.9034619934847,5611.0334613772,110.236224,0,0.98876643584,11300,2017-11-10 07:45:46,17,16.541,5611.0334613772,110.236224,0.894776,1.61749020924,224.5, 8.1, 0.2,0,0,1024,1024,1684,1024,224.7,0,99,4.153,4.154,4.142,4.153,0,0,87.71,6,GPS_Atti,
0.371594478765378,36.903462008984,5613.0019653772,112.204728,0,0.94067588312,11400,2017-11-10 07:45:46,17,16.541,5613.0019653772,112.204728,0.894776,1.61749020924,224.5, 8.3, 1.2,0,0,1024,1024,1684,1024,224.7,0,99,4.153,4.154,4.142,4.153,0,0,87.71,6,GPS_Atti,
0.371594594766772,36.9034619823889,5614.6423853772,113.845148,0,0.89833992376,11500,2017-11-10 07:45:46,17,16.541,5614.6423853772,113.845148,0.894776,1.61749020924,224.5, 8.7, 0.7,0,0,1024,1024,1684,1024,224.7,0,99,4.153,4.154,4.142,4.153,0,0,87.71,6,GPS_Atti,
0.371594726957749,36.9034619531467,5616.2828053772,115.485568,0.223694,0.85021984348,11600,2017-11-10 07:45:47,17,16.541,5616.2828053772,115.485568,0.894776,1.61749020924,224.6, 8.8, 0.5,0,0,1024,1024,1684,1024,224.7,0,99,4.153,4.154,4.142,4.153,0,0,87.71,6,GPS_Atti,
0.3715948415025,36.9034618990641,5617.9232253772,117.125988,0,0.8090223356,11700,2017-11-10 07:45:47,17,16.541,5617.9232253772,117.125988,0.894776,1.61749020924,224.6, 9.3, 0,0,0,1024,1024,1684,1024,224.7,0,99,4.153,4.154,4.142,4.153,0,0,87.71,6,GPS_Atti,
0.371595029523458,36.9034618632783,5619.5636453772,118.766408,0.223694,0.74120409196,11800,2017-11-10 07:45:47,17,16.541,5619.5636453772,118.766408,0.894776,1.61749020924,224.6, 8.3, -0.5,0,0,1024,1024,1684,1024,224.7,0,99,4.153,4.154,4.142,4.153,0,0,87.71,6,GPS_Atti,
0.371595210255908,36.9034618298205,5621.2040653772,120.406828,0.223694,0.67636813188,11900,2017-11-10 07:45:47,17,16.541,5621.2040653772,120.406828,0.894776,1.61749020924,224.6, 8.3, -0.9,0,0,1024,1024,1684,1024,224.7,0,99,4.153,4.154,4.142,4.153,0,0,87.71,6,GPS_Atti,
0.371595441628488,36.9034618287542,5622.8444853772,122.047248,0.223694,0.59236222368,12000,2017-11-10 07:45:47,17,16.541,5622.8444853772,122.047248,0.894776,1.61749020924,224.6, 8.1, -1,0,0,1024,1024,1684,1024,224.7,0,99,4.153,4.154,4.142,4.153,0,0,87.71,6,GPS_Atti,
0.371595646367866,36.9034618470783,5624.4849053772,123.687668,0.223694,0.5173720638,12100,2017-11-10 07:45:47,17,16.541,5624.4849053772,123.687668,0.894776,1.61749020924,224.6, 7.3, -0.4,0,0,1024,1024,1684,1024,224.7,0,99,4.153,4.154,4.142,4.153,0,0,87.71,6,GPS_Atti,
0.3715958725852,36.9034618661186,5626.4534093772,125.656172,0,0.43456038136,12200,2017-11-10 07:45:47,17,16.541,5626.4534093772,125.656172,0.894776,1.61749020924,224.5, 7.4, -0.2,0,0,1024,1024,1684,1024,224.7,0,99,4.153,4.154,4.142,4.153,0,0,87.71,6,GPS_Atti,
0.371596053395815,36.9034618479224,5628.0938293772,127.296592,0,0.36991471,12300,2017-11-10 07:45:47,17,16.541,5628.0938293772,127.296592,0.894776,1.61749020924,224.4, 8, 0,0,0,1024,1024,1684,1024,224.7,0,99,4.153,4.154,4.142,4.153,0,0,87.71,6,GPS_Atti,
0.371596270569585,36.9034618161894,5629.7342493772,128.937012,0.31540854,0.2940124766,12400,2017-11-10 07:45:47,17,16.541,5629.7342493772,128.937012,0.894776,1.61749020924,224.4, 8.3, 0.3,0,0,1024,1024,1684,1024,224.7,0,99,4.153,4.154,4.142,4.153,0,0,87.71,6,GPS_Atti,
0.371596801766592,36.9034616222471,5633.3431733772,132.545936,0.50107456,0.163966868764,12600,2017-11-10 07:45:48,17,16.541,5633.3431733772,132.545936,0.894776,1.61749020924,224.3, 7.7, -4.3,0,0,1024,1024,1684,1024,224.7,-0.1,99,4.153,4.154,4.142,4.153,0,0,87.71,6,GPS_Atti,
0.37159706436316,36.9034615143169,5634.9835933772,134.186356,0.31540854,0.174364506892,12700,2017-11-10 07:45:48,17,16.541,5634.9835933772,134.186356,0.894776,1.61749020924,224.4, 7.7, -4.8,0,0,1024,1024,1684,1024,224.7,-0.8,99,4.153,4.154,4.142,4.153,0,0,87.71,6,GPS_Atti,
0.37159733172476,36.9034614671612,5636.6240133772,135.826776,0.223694,0.216193904556,12800,2017-11-10 07:45:48,17,16.541,5636.6240133772,135.826776,0.894776,1.61749020924,224.3, 7.3, -3.9,0,0,1024,1024,1684,1024,224.7,-1.9,99,4.153,4.154,4.142,4.153,0,0,87.71,6,GPS_Atti,
0.371597566810192,36.9034614234496,5638.2644333772,137.467196,0.223694,0.27866962834,12900,2017-11-10 07:45:48,17,16.541,5638.2644333772,137.467196,0.894776,1.61749020924,224.2, 7.1, -5,0,0,1024,1024,1684,1024,224.7,-1.9,99,4.153,4.154,4.142,4.153,0,0,87.71,6,GPS_Atti,
0.371597830828494,36.9034614083962,5639.9048533772,139.107616,0.223694,0.35366799032,13000,2017-11-10 07:45:48,17,16.622,5639.9048533772,139.107616,0.894776,1.61749020924,224.3, 6.6, -4.7,0,0,1024,1024,1684,1024,224.7,-3,99,4.153,4.162,4.152,4.164,0,0,87.71,6,GPS_Atti,
0.371598013755883,36.9034614265116,5641.5452733772,140.748036,0,0.4055282282,13100,2017-11-10 07:45:48,17,16.622,5641.5452733772,140.748036,0.894776,1.61749020924,224.4, 6.3, -3.7,0,0,1024,1024,1684,1024,224.7,-4.1,99,4.153,4.162,4.152,4.164,0,0,87.71,6,GPS_Atti,
0.371598168995755,36.9034614981581,5643.5137773772,142.71654,0,0.44395670712,13200,2017-11-10 07:45:48,17,16.622,5643.5137773772,142.71654,0.894776,1.61749020924,224.4, 6.5, -2.1,0,0,1024,1024,1684,1024,224.7,-5.3,99,4.153,4.162,4.152,4.164,0,0,87.71,6,GPS_Atti,
0.371598254903096,36.9034615641577,5645.1541973772,144.35696,0,0.46412731144,13300,2017-11-10 07:45:48,17,16.622,5645.1541973772,144.35696,0.894776,1.61749020924,224.4, 6.9, -1.1,0,0,1024,1024,1684,1019,224.7,-6.4,99,4.153,4.162,4.152,4.164,0,0,87.71,6,GPS_Atti,
0.371598350087378,36.9034616012187,5646.7946173772,145.99738,0,0.49288387404,13400,2017-11-10 07:45:48,17,16.622,5646.7946173772,145.99738,0.894776,1.61749020924,224.3, 7.5, -1.8,0,0,1024,1024,1684,907,224.7,-6.5,99,4.153,4.162,4.152,4.164,0,0,87.71,6,GPS_Atti,
0.371598419973172,36.9034616347294,5648.4350373772,147.6378,0,0.514107628,13500,2017-11-10 07:45:48,17,16.622,5648.4350373772,147.6378,0.894776,1.61749020924,224.4, 7.5, -1.8,0,0,1024,1024,1684,835,224.4,-6.5,99,4.153,4.162,4.152,4.164,0,0,87.71,6,GPS_Atti,
0.371598532919808,36.903461673172,5650.0754573772,149.27822,0,0.550935057,13600,2017-11-10 07:45:49,17,16.622,5650.0754573772,149.27822,0.894776,1.61749020924,223.6, 6.6, -1,0,0,1024,1024,1684,797,223.3,-6.5,99,4.153,4.162,4.152,4.164,0,0,87.71,6,GPS_Atti,
0.371598603568121,36.9034616899945,5652.0439613772,151.246724,0,0.57494752496,13700,2017-11-10 07:45:49,17,16.622,5652.0439613772,151.246724,0.894776,1.61749020924,221.4, 7.1, -0.3,0,0,1024,1024,1684,807,221.8,-6.5,99,4.153,4.162,4.152,4.164,0,0,87.71,6,GPS_Atti,
0.371598740958211,36.9034616727271,5653.6843813772,152.887144,0,0.6253609124,13800,2017-11-10 07:45:49,17,16.622,5653.6843813772,152.887144,0.894776,1.61749020924,218.2, 7.7, -2.2,0,0,1024,1024,1684,906,220.3,-6.5,99,4.153,4.162,4.152,4.164,0,0,87.71,6,GPS_Atti,
0.371598873737768,36.9034616543201,5655.3248013772,154.527564,0,0.67421262,13900,2017-11-10 07:45:49,17,16.622,5655.3248013772,154.527564,0.894776,1.61749020924,215.2, 6.8, -3,0,0,1024,1024,1684,967,219,-6.5,99,4.153,4.162,4.152,4.164,0,0,87.71,6,GPS_Atti,
0.371599050563734,36.9034616169149,5656.9652213772,156.167984,0,0.74013781896,14000,2017-11-10 07:45:49,17,16.433,5656.9652213772,156.167984,0.894776,1.61749020924,213.5, 6.3, -4.1,0,0,1024,1024,1684,967,218,-6.5,99,4.149,4.152,4.137,4.149,0,0,87.71,6,GPS_Atti,
0.371599182633875,36.9034615671945,5658.9337253772,158.136488,0,0.7908956946,14100,2017-11-10 07:45:49,17,16.433,5658.9337253772,158.136488,0.894776,1.61749020924,213, 6.1, -4.7,0,0,1024,1024,1684,976,217.2,-6.5,99,4.149,4.152,4.137,4.149,0,0,87.71,6,GPS_Atti,
0.371599297133678,36.9034614939752,5660.5741453772,159.776908,0,0.83729005304,14200,2017-11-10 07:45:49,17,16.433,5660.5741453772,159.776908,0.894776,1.61749020924,212.6, 6.7, -4.6,0,0,1024,1024,1684,989,217.2,-6.5,99,4.149,4.152,4.137,4.149,0,0,87.71,6,GPS_Atti,
0.371599369666826,36.9034613974765,5662.5426493772,161.745412,0.223694,0.87123690452,14300,2017-11-10 07:45:49,17,16.433,5662.5426493772,161.745412,0.894776,1.61749020924,212.4, 7, -5.4,0,0,1024,1024,1684,1005,216.6,-6.5,99,4.149,4.152,4.137,4.149,0,0,87.71,6,GPS_Atti,
0.371599479541531,36.9034613137202,5664.1830693772,163.385832,0.223694,0.9178806068,14400,2017-11-10 07:45:49,17,16.433,5664.1830693772,163.385832,0.894776,1.61749020924,212.2, 7.2, -5.7,0,0,1024,1024,1684,1016,216.2,-6.5,99,4.149,4.152,4.137,4.149,0,0,87.71,6,GPS_Atti,
0.371599542037839,36.9034612265749,5665.8234893772,165.026252,0.223694,0.94872706448,14500,2017-11-10 07:45:49,17,16.433,5665.8234893772,165.026252,0.894776,1.61749020924,212.2, 7.7, -6,0,0,1024,1024,1684,1022,216,-6.6,99,4.149,4.152,4.137,4.149,0,0,87.71,6,GPS_Atti,
0.371599589446691,36.9034611032321,5667.4639093772,166.666672,0.223694,0.97924215732,14600,2017-11-10 07:45:50,17,16.433,5667.4639093772,166.666672,0.894776,1.61749020924,212.3, 8.1, -5.9,0,0,1024,1024,1684,1023,215.8,-6.8,99,4.149,4.152,4.137,4.149,0,0,87.71,6,GPS_Atti,
0.37159961177192,36.9034609840594,5669.4324133772,168.635176,0.223694,1.00206039952,14700,2017-11-10 07:45:50,17,16.433,5669.4324133772,168.635176,0.894776,1.61749020924,212.3, 8.3, -5.5,0,0,1024,1024,1684,1022,215.6,-7,99,4.149,4.152,4.137,4.149,0,0,87.71,6,GPS_Atti,
0.371599667067517,36.9034608626046,5671.0728333772,170.275596,0.223694,1.03764439016,14800,2017-11-10 07:45:50,17,16.433,5671.0728333772,170.275596,0.894776,1.61749020924,212.2, 8.1, -6,0,0,1024,1024,1684,1024,215.5,-7.3,99,4.149,4.152,4.137,4.149,0,0,87.71,6,GPS_Atti,
0.371599714196722,36.9034607510857,5672.7132533772,171.916016,0.223694,1.07001971928,14900,2017-11-10 07:45:50,17,16.433,5672.7132533772,171.916016,0.894776,1.61749020924,212.3, 7.8, -7,0,0,1024,1024,1684,1023,215.4,-7.6,99,4.149,4.152,4.137,4.149,0,0,87.71,6,GPS_Atti,
0.371599776276544,36.9034606667786,5674.3536733772,173.556436,0,1.1037073844,15000,2017-11-10 07:45:50,17,16.514,5674.3536733772,173.556436,0.894776,1.61749020924,212.3, 7.7, -6.9,0,0,1024,1024,1684,1024,215.3,-8,99,4.149,4.158,4.148,4.158,0,0,87.71,6,GPS_Atti,
0.371599796329025,36.9034606239476,5675.9940933772,175.196856,0,1.11718507512,15100,2017-11-10 07:45:50,17,16.514,5675.9940933772,175.196856,0.894776,1.61749020924,212.3, 7.7, -6.2,0,0,1024,1024,1684,1024,215.3,-8.3,99,4.149,4.158,4.148,4.158,0,0,87.71,6,GPS_Atti,
0.37159979474114,36.9034606047081,5677.6345133772,176.837276,0,1.11981958964,15200,2017-11-10 07:45:50,17,16.514,5677.6345133772,176.837276,0.894776,1.61749020924,212.4, 7.4, -5.8,0,0,1024,1024,1684,1024,215.2,-8.7,99,4.149,4.158,4.148,4.158,0,0,87.71,6,GPS_Atti,
0.371599758652989,36.9034606068852,5679.2749333772,178.477696,0,1.10772969424,15300,2017-11-10 07:45:50,17,16.514,5679.2749333772,178.477696,0.894776,1.61749020924,212.3, 7.5, -5.2,0,0,1024,1024,1684,1024,215.1,-9,99,4.149,4.158,4.148,4.158,0,0,87.71,6,GPS_Atti,
0.371599744996374,36.9034606147505,5680.9153533772,180.118116,0.223694,1.1019849434,15400,2017-11-10 07:45:50,17,16.514,5680.9153533772,180.118116,0.894776,1.61749020924,212.4, 7.5, -4.7,0,0,1024,1024,1684,1024,215,-9.4,99,4.149,4.158,4.148,4.158,0,0,87.71,6,GPS_Atti,
0.371599713008314,36.9034606218438,5682.8838573772,182.08662,0.223694,1.09042326324,15500,2017-11-10 07:45:50,17,16.514,5682.8838573772,182.08662,0.894776,1.61749020924,212.4, 7.9, -4.7,0,0,1024,1024,1684,1024,215,-9.4,99,4.149,4.158,4.148,4.158,0,0,87.71,6,GPS_Atti,
0.371599661735992,36.9034606231398,5684.5242773772,183.72704,0.223694,1.07361223908,15600,2017-11-10 07:45:51,17,16.514,5684.5242773772,183.72704,0.894776,1.61749020924,212.4, 7.8, -5.1,0,0,1024,1024,1684,1024,215,-9.8,99,4.149,4.158,4.148,4.158,0,0,87.71,6,GPS_Atti,
0.371599569972886,36.9034606512108,5686.1646973772,185.36746,0.223694,1.03923231672,15700,2017-11-10 07:45:51,17,16.514,5686.1646973772,185.36746,0.894776,1.61749020924,212.5, 7.7, -4.2,0,0,1024,1024,1684,1024,214.9,-10.2,99,4.149,4.158,4.148,4.158,0,0,87.71,6,GPS_Atti,
0.371599460616835,36.9034606910965,5687.8051173772,187.00788,0.223694,0.99719819464,15800,2017-11-10 07:45:51,17,16.514,5687.8051173772,187.00788,0.894776,1.61749020924,212.5, 8.3, -3.1,0,0,1024,1024,1684,1024,214.9,-10.5,99,4.149,4.158,4.148,4.158,0,0,87.71,6,GPS_Atti,
0.371599339476059,36.903460729683,5689.4455373772,188.6483,0.223694,0.95166997796,15900,2017-11-10 07:45:51,17,16.514,5689.4455373772,188.6483,0.894776,1.61749020924,212.4, 8.6, -3.5,0,0,1024,1024,1684,1024,214.8,-10.9,99,4.149,4.158,4.148,4.158,0,0,87.71,6,GPS_Atti,
0.37159918203761,36.9034607865236,5691.4140413772,190.616804,0.447388,0.89141735136,16000,2017-11-10 07:45:51,17,16.568,5691.4140413772,190.616804,0.894776,1.61749020924,212.6, 8.7, -2.6,0,0,1024,1024,1684,1024,214.8,-11.3,99,4.149,4.158,4.148,4.158,0,0,87.71,6,GPS_Atti,
0.371599004147584,36.9034608456509,5693.0544613772,192.257224,0.447388,0.82442916024,16100,2017-11-10 07:45:51,17,16.568,5693.0544613772,192.257224,0.894776,1.61749020924,212.4, 9.1, -2.6,0,0,1024,1024,1684,1024,214.7,-11.6,99,4.149,4.158,4.148,4.158,0,0,87.71,6,GPS_Atti,
0.371598825695668,36.9034609011446,5694.6948813772,193.897644,0.223694,0.75821196652,16200,2017-11-10 07:45:51,17,16.568,5694.6948813772,193.897644,0.894776,1.61749020924,212.3, 10.1, -3,0,0,1024,1024,1684,1024,214.6,-12,99,4.149,4.158,4.148,4.158,0,0,87.71,6,GPS_Atti,
0.371598677312665,36.9034609773209,5696.3353013772,195.538064,0.31540854,0.69756235828,16300,2017-11-10 07:45:51,17,16.568,5696.3353013772,195.538064,0.894776,1.61749020924,212.3, 9.7, -4.2,0,0,1024,1024,1684,1024,214.6,-12.3,99,4.149,4.158,4.148,4.158,0,0,87.71,6,GPS_Atti,
0.371598540535634,36.9034611389424,5697.9757213772,197.178484,0.31540854,0.6244094688,16400,2017-11-10 07:45:51,17,16.568,5697.9757213772,197.178484,0.894776,1.61749020924,212.6, 9, -2.4,0,0,1024,1024,1684,1024,214.5,-12.5,99,4.149,4.158,4.148,4.158,0,0,87.71,6,GPS_Atti,
0.371598405238807,36.9034613253942,5699.6161413772,198.818904,0.31540854,0.54878282596,16500,2017-11-10 07:45:51,17,16.568,5699.6161413772,198.818904,0.894776,1.61749020924,212.6, 8.4, 0.2,0,0,1024,1024,1684,1024,214.5,-12.6,99,4.149,4.158,4.148,4.158,0,0,87.71,6,GPS_Atti,
0.371598326654374,36.9034614688212,5701.2565613772,200.459324,0.31540854,0.50105316564,16600,2017-11-10 07:45:52,17,16.568,5701.2565613772,200.459324,0.894776,1.61749020924,212.6, 8, 0.7,0,0,1024,1024,1684,1024,214.4,-12.7,99,4.149,4.158,4.148,4.158,0,0,87.71,6,GPS_Atti,
0.371598282597229,36.903461533406,5702.8969813772,202.099744,0,0.47747048772,16700,2017-11-10 07:45:52,17,16.568,5702.8969813772,202.099744,0.894776,1.61749020924,212.5, 8.6, -1.1,0,0,1024,1024,1684,1024,214.4,-12.8,99,4.149,4.158,4.148,4.158,0,0,87.71,6,GPS_Atti,
0.371598249077033,36.9034615715557,5704.5374013772,203.740164,0,0.4612204872,16800,2017-11-10 07:45:52,17,16.568,5704.5374013772,203.740164,0.894776,1.61749020924,212.4, 8.6, -2.6,0,0,1024,1024,1684,1024,214.4,-12.8,99,4.149,4.158,4.148,4.158,0,0,87.71,6,GPS_Atti,
0.371598221837744,36.9034616253455,5705.8497373772,205.0525,0,0.44557744208,16900,2017-11-10 07:45:52,17,16.568,5705.8497373772,205.0525,0.894776,1.61749020924,212.4, 8.2, -2.7,0,0,1024,1024,1684,1024,214.3,-12.9,99,4.149,4.158,4.148,4.158,0,0,87.71,6,GPS_Atti,
0.371598212378419,36.9034617265394,5707.4901573772,206.69292,0,0.43254922644,17000,2017-11-10 07:45:52,17,16.595,5707.4901573772,206.69292,0.894776,1.61749020924,212.4, 7.7, -2.1,0,0,1024,1024,1684,1024,214.3,-13.1,99,4.156,4.159,4.147,4.159,0,0,87.71,6,GPS_Atti,
0.371598213270195,36.903461823309,5709.1305773772,208.33334,0,0.42635171968,17100,2017-11-10 07:45:52,17,16.595,5709.1305773772,208.33334,0.894776,1.61749020924,212.5, 7.1, -1.8,0,0,1024,1024,1684,1024,214.3,-13.3,99,4.156,4.159,4.147,4.159,0,0,87.71,6,GPS_Atti,
0.371598205881334,36.9034619548243,5710.7709973772,209.97376,0,0.41940290056,17200,2017-11-10 07:45:52,17,16.595,5710.7709973772,209.97376,0.894776,1.61749020924,212.5, 6.7, -1.7,0,0,1024,1024,1684,1024,214.2,-13.5,99,4.156,4.159,4.147,4.159,0,0,87.71,6,GPS_Atti,
0.371598192550892,36.9034620430221,5712.4114173772,211.61418,0,0.41473426524,17300,2017-11-10 07:45:52,17,16.595,5712.4114173772,211.61418,0.894776,1.61749020924,212.4, 6.9, -2.4,0,0,1024,1024,1684,1024,214.2,-13.9,99,4.156,4.159,4.147,4.159,0,0,87.71,6,GPS_Atti,
0.371598173422069,36.903462122444,5714.3799213772,213.582684,0,0.41010171916,17400,2017-11-10 07:45:52,16,16.595,5714.3799213772,213.582684,0.894776,1.61749020924,212.4, 7.7, -3,0,0,1024,1024,1684,1024,214.1,-14.6,99,4.156,4.159,4.147,4.159,0,0,87.71,6,GPS_Atti,
0.371598136654653,36.9034623033478,5717.6607613772,216.863524,0,0.4099573622,17600,2017-11-10 07:45:53,16,16.595,5717.6607613772,216.863524,0.894776,1.61749020924,212.4, 8.3, -2.4,0,0,1024,1024,1684,1024,214.1,-15,99,4.156,4.159,4.147,4.159,0,0,87.71,6,GPS_Atti,
0.371598142206833,36.903462400104,5719.3011813772,218.503944,0,0.42299542036,17700,2017-11-10 07:45:53,16,16.595,5719.3011813772,218.503944,0.894776,1.61749020924,212.4, 7.7, -2.1,0,0,1024,1024,1684,1024,214.1,-15.4,99,4.156,4.159,4.147,4.159,0,0,87.71,6,GPS_Atti,
0.371598140187562,36.9034625118515,5720.9416013772,220.144364,0,0.43833990904,17800,2017-11-10 07:45:53,16,16.595,5720.9416013772,220.144364,0.894776,1.61749020924,212.5, 7.1, -2,0,0,1024,1024,1684,1024,214,-15.8,99,4.156,4.159,4.147,4.159,0,0,87.71,6,GPS_Atti,
0.371598138814173,36.9034625648046,5722.5820213772,221.784784,0,0.44659122164,17900,2017-11-10 07:45:53,16,16.595,5722.5820213772,221.784784,0.894776,1.61749020924,212.4, 7.6, -2.5,0,0,1024,1024,1684,1024,214,-16.2,99,4.156,4.159,4.147,4.159,0,0,87.71,6,GPS_Atti,
0.371598141375411,36.903462619414,5724.2224413772,223.425204,0,0.45706038208,18000,2017-11-10 07:45:53,16,16.46,5724.2224413772,223.425204,0.894776,1.61749020924,212.3, 8, -3.5,0,0,1024,1024,1684,1024,214,-16.6,99,4.151,4.15,4.135,4.146,0,0,87.71,6,GPS_Atti,
0.371598156059192,36.9034626704544,5725.8628613772,225.065624,0,0.47121392584,18100,2017-11-10 07:45:53,16,16.46,5725.8628613772,225.065624,0.894776,1.61749020924,212.3, 7.5, -3.8,0,0,1024,1024,1684,1024,214,-16.6,99,4.151,4.15,4.135,4.146,0,0,87.71,6,GPS_Atti,
0.371598188297599,36.9034627407122,5727.5032813772,226.706044,0,0.4949311182,18200,2017-11-10 07:45:53,16,16.46,5727.5032813772,226.706044,0.894776,1.61749020924,212.4, 6.8, -3,0,0,1024,1024,1684,1024,213.9,-17,99,4.151,4.15,4.135,4.146,0,0,87.71,6,GPS_Atti,
0.371598213632015,36.9034627852628,5729.1437013772,228.346464,0,0.5116798064,18300,2017-11-10 07:45:53,16,16.46,5729.1437013772,228.346464,0.894776,1.61749020924,212.4, 6.6, -2.4,0,0,1024,1024,1684,1024,213.9,-17.5,99,4.151,4.15,4.135,4.146,0,0,87.71,6,GPS_Atti,
0.371598246656147,36.9034628214226,5730.7841213772,229.986884,0,0.52909122428,18400,2017-11-10 07:45:53,16,16.46,5730.7841213772,229.986884,0.894776,1.61749020924,212.5, 6.9, -2.7,0,0,1024,1024,1684,1024,213.9,-17.9,99,4.151,4.15,4.135,4.146,0,0,87.71,6,GPS_Atti,
0.371598264127112,36.9034628208206,5732.7526253772,231.955388,0,0.53420933468,18500,2017-11-10 07:45:53,16,16.46,5732.7526253772,231.955388,0.894776,1.61749020924,212.4, 7.4, -3.3,0,0,1024,1024,1684,1031,213.9,-18.4,99,4.151,4.15,4.135,4.146,0,0,87.71,6,GPS_Atti,
0.371598296252546,36.9034628308298,5734.3930453772,233.595808,0,0.54595146104,18600,2017-11-10 07:45:54,16,16.46,5734.3930453772,233.595808,0.894776,1.61749020924,212.4, 7.7, -3.3,0,0,1024,1024,1684,1035,213.9,-18.8,99,4.151,4.15,4.135,4.146,0,0,87.71,6,GPS_Atti,
0.371598316863558,36.9034628262111,5736.0334653772,235.236228,0,0.551263141,18700,2017-11-10 07:45:54,16,16.46,5736.0334653772,235.236228,0.894776,1.61749020924,212.5, 7.5, -3,0,0,1024,1024,1684,1035,213.9,-19.3,99,4.151,4.15,4.135,4.146,0,0,87.71,6,GPS_Atti,
0.371598360483975,36.9034628444287,5737.6738853772,236.876648,0,0.56821196044,18800,2017-11-10 07:45:54,16,16.46,5737.6738853772,236.876648,0.894776,1.61749020924,212.4, 7.8, -3.1,0,0,1024,1024,1684,1032,213.8,-19.7,99,4.151,4.15,4.135,4.146,0,0,87.71,6,GPS_Atti,
0.371598386400254,36.9034628309318,5739.3143053772,238.517068,0,0.5735072362,18900,2017-11-10 07:45:54,16,16.46,5739.3143053772,238.517068,0.894776,1.61749020924,212.4, 7.9, -3.8,0,0,1024,1024,1684,1032,213.8,-20.2,99,4.151,4.15,4.135,4.146,0,0,87.71,6,GPS_Atti,
0.371598404603917,36.9034628041498,5740.9547253772,240.157488,0,0.5740321706,19000,2017-11-10 07:45:54,16,16.46,5740.9547253772,240.157488,0.894776,1.61749020924,212.3, 8.1, -4.4,0,0,1024,1024,1684,1032,213.8,-20.6,98,4.151,4.15,4.135,4.146,0,0,87.71,6,GPS_Atti,
0.371598388317035,36.9034627796084,5742.5951453772,241.797908,0,0.56434056924,19100,2017-11-10 07:45:54,16,16.46,5742.5951453772,241.797908,0.894776,1.61749020924,212.4, 7.9, -4.2,0,0,1024,1024,1684,1034,213.8,-21.1,98,4.151,4.15,4.135,4.146,0,0,87.71,6,GPS_Atti,
0.371598384764075,36.9034628145206,5744.2355653772,243.438328,0,0.56982613372,19200,2017-11-10 07:45:54,16,16.46,5744.2355653772,243.438328,0.894776,1.61749020924,212.4, 7.8, -3.1,0,0,1024,1024,1684,1034,213.8,-21.5,98,4.151,4.15,4.135,4.146,0,0,87.71,6,GPS_Atti,
0.371598360317772,36.9034628516481,5745.8759853772,245.078748,0,0.56960631744,19300,2017-11-10 07:45:54,16,16.46,5745.8759853772,245.078748,0.894776,1.61749020924,212.4, 7.8, -2.2,0,0,1024,1024,1684,1035,213.8,-21.5,98,4.151,4.15,4.135,4.146,0,0,87.71,6,GPS_Atti,
0.371598350677384,36.9034628838362,5747.5164053772,246.719168,0,0.57325789236,19400,2017-11-10 07:45:54,16,16.46,5747.5164053772,246.719168,0.894776,1.61749020924,212.4, 8.2, -2.5,0,0,1024,1024,1684,1039,213.8,-21.9,98,4.151,4.15,4.135,4.146,0,0,87.71,6,GPS_Atti,
0.3715983367034,36.9034628982461,5749.1568253772,248.359588,0,0.57208663248,19500,2017-11-10 07:45:54,16,16.46,5749.1568253772,248.359588,0.894776,1.61749020924,212.4, 8.6, -3,0,0,1024,1024,1684,1038,213.7,-22.4,98,4.151,4.15,4.135,4.146,0,0,87.71,6,GPS_Atti,
0.371598359341927,36.9034629212581,5750.7972453772,250.000008,0,0.58368440188,19600,2017-11-10 07:45:55,16,16.46,5750.7972453772,250.000008,0.894776,1.61749020924,212.4, 8.3, -3,0,0,1024,1024,1684,1037,213.7,-22.4,98,4.151,4.15,4.135,4.146,0,0,87.71,6,GPS_Atti,
0.371598357612011,36.9034629263524,5752.4376653772,251.640428,0,0.5842519872,19700,2017-11-10 07:45:55,16,16.46,5752.4376653772,251.640428,0.894776,1.61749020924,212.4, 7.8, -2.6,0,0,1024,1024,1684,1036,213.7,-23.8,98,4.151,4.15,4.135,4.146,0,0,87.71,6,GPS_Atti,
0.371598425006081,36.9034628862838,5756.0465893772,255.249352,0,0.59627298496,19900,2017-11-10 07:45:55,16,16.46,5756.0465893772,255.249352,0.894776,1.61749020924,212.4, 8.4, -3,0,0,1024,1024,1684,1036,213.7,-24.2,98,4.151,4.15,4.135,4.146,0,0,87.71,6,GPS_Atti,
0.371598456494285,36.9034628435444,5757.6870093772,256.889772,0,0.5976706228,20000,2017-11-10 07:45:55,16,16.406,5757.6870093772,256.889772,0.894776,1.61749020924,212.4, 8.7, -3.5,0,0,1024,1024,1684,1036,213.7,-24.7,98,4.14,4.144,4.126,4.139,0,0,87.71,6,GPS_Atti,
0.371598451755615,36.9034627980355,5759.3274293772,258.530192,0,0.58771655424,20100,2017-11-10 07:45:55,16,16.406,5759.3274293772,258.530192,0.894776,1.61749020924,212.4, 9, -3.6,0,0,1024,1024,1684,1036,213.7,-24.7,98,4.14,4.144,4.126,4.139,0,0,87.71,6,GPS_Atti,
0.371598458033572,36.903462753517,5760.9678493772,260.170612,0,0.58177167216,20200,2017-11-10 07:45:55,16,16.406,5760.9678493772,260.170612,0.894776,1.61749020924,212.4, 9.3, -3.2,0,0,1024,1024,1684,1037,213.7,-25.2,98,4.14,4.144,4.126,4.139,0,0,87.71,6,GPS_Atti,
0.371598449089649,36.903462711486,5762.6082693772,261.811032,0,0.57170933588,20300,2017-11-10 07:45:55,16,16.406,5762.6082693772,261.811032,0.894776,1.61749020924,212.4, 9.1, -3.1,0,0,1024,1024,1684,1035,213.7,-25.2,98,4.14,4.144,4.126,4.139,0,0,87.71,6,GPS_Atti,
0.371598474625381,36.903462667487,5764.2486893772,263.451452,0,0.572916685,20400,2017-11-10 07:45:55,16,16.406,5764.2486893772,263.451452,0.894776,1.61749020924,212.4, 8.9, -3.4,0,0,1024,1024,1684,1039,213.6,-25.2,98,4.14,4.144,4.126,4.139,0,0,87.71,6,GPS_Atti,
0.371598485729842,36.9034626230889,5765.8891093772,265.091872,0,0.56984253792,20500,2017-11-10 07:45:55,16,16.406,5765.8891093772,265.091872,0.894776,1.61749020924,212.5, 8.6, -3.6,0,0,1024,1024,1684,1051,213.6,-25.3,98,4.14,4.144,4.126,4.139,0,0,87.71,6,GPS_Atti,
0.371598502792577,36.9034625702672,5767.5295293772,266.732292,0,0.5681102544,20600,2017-11-10 07:45:56,16,16.406,5767.5295293772,266.732292,0.894776,1.61749020924,212.5, 8.8, -3.6,0,0,1024,1024,1684,1050,213.6,-25.3,98,4.14,4.144,4.126,4.139,0,0,87.71,6,GPS_Atti,
0.371598493403986,36.9034625133078,5769.1699493772,268.372712,0,0.55750657952,20700,2017-11-10 07:45:56,16,16.406,5769.1699493772,268.372712,0.894776,1.61749020924,212.5, 9.4, -3.4,0,0,1024,1024,1684,1050,213.6,-25.5,98,4.14,4.144,4.126,4.139,0,0,87.71,6,GPS_Atti,
0.371598499099774,36.9034624479979,5770.8103693772,270.013132,0,0.55181760296,20800,2017-11-10 07:45:56,16,16.406,5770.8103693772,270.013132,0.894776,1.61749020924,212.7, 9.4, -3.6,0,0,1024,1024,1684,1052,213.6,-25.7,98,4.14,4.144,4.126,4.139,0,0,87.71,6,GPS_Atti,
0.37159848678029,36.9034623867492,5772.4507893772,271.653552,0,0.54116471548,20900,2017-11-10 07:45:56,16,16.406,5772.4507893772,271.653552,0.894776,1.61749020924,212.9, 9.6, -3.6,0,0,1024,1024,1684,1052,213.6,-25.9,98,4.14,4.144,4.126,4.139,0,0,87.71,6,GPS_Atti,
0.371598465921449,36.9034623366616,5774.0912093772,273.293972,0,0.529199492,21000,2017-11-10 07:45:56,16,16.352,5774.0912093772,273.293972,0.894776,1.61749020924,213, 9.4, -3.5,0,0,1024,1024,1684,1052,213.6,-26.2,98,4.134,4.138,4.123,4.135,0,0,87.71,6,GPS_Atti,
0.371598432505779,36.9034622938632,5775.7316293772,274.934392,0,0.51379266736,21100,2017-11-10 07:45:56,16,16.352,5775.7316293772,274.934392,0.894776,1.61749020924,213.2, 9.5, -3.5,0,0,1024,1024,1684,1052,213.6,-26.4,98,4.134,4.138,4.123,4.135,0,0,87.71,6,GPS_Atti,
0.37159841987801,36.9034622519241,5777.3720493772,276.574812,0,0.50620736528,21200,2017-11-10 07:45:56,16,16.352,5777.3720493772,276.574812,0.894776,1.61749020924,213.3, 9.6, -3.6,0,0,1024,1024,1684,1052,213.6,-26.7,98,4.134,4.138,4.123,4.135,0,0,87.71,6,GPS_Atti,
0.371598402494777,36.9034622062704,5779.0124693772,278.215232,0,0.49708991092,21300,2017-11-10 07:45:56,16,16.352,5779.0124693772,278.215232,0.894776,1.61749020924,213.5, 9.7, -3.5,0,0,1024,1024,1684,1050,213.6,-26.9,98,4.134,4.138,4.123,4.135,0,0,87.71,6,GPS_Atti,
0.371598435212761,36.9034621556989,5780.6528893772,279.855652,0,0.50637796896,21400,2017-11-10 07:45:56,16,16.352,5780.6528893772,279.855652,0.894776,1.61749020924,213.6, 9.8, -3.7,0,0,1024,1024,1684,1050,213.7,-27.4,98,4.134,4.138,4.123,4.135,0,0,87.71,6,GPS_Atti,
0.37159850661596,36.9034620739655,5783.9337293772,283.136492,0,0.52974411144,21600,2017-11-10 07:45:57,16,16.352,5783.9337293772,283.136492,0.894776,1.61749020924,213.8, 9.7, -3.6,0,0,1024,1024,1684,1050,213.7,-27.6,98,4.134,4.138,4.123,4.135,0,0,87.71,6,GPS_Atti,
0.371598540461845,36.9034620471268,5785.5741493772,284.776912,0,0.54162403308,21700,2017-11-10 07:45:57,16,16.352,5785.5741493772,284.776912,0.894776,1.61749020924,214, 9.3, -3.4,0,0,1024,1024,1684,1044,213.7,-27.7,98,4.134,4.138,4.123,4.135,0,0,87.71,6,GPS_Atti,
0.371598594718037,36.9034620436152,5787.2145693772,286.417332,0,0.56136156652,21800,2017-11-10 07:45:57,16,16.352,5787.2145693772,286.417332,0.894776,1.61749020924,214.1, 9.1, -3.5,0,0,1024,1024,1684,1035,213.7,-27.7,98,4.134,4.138,4.123,4.135,0,0,87.71,6,GPS_Atti,
0.371598638215608,36.9034620346365,5788.8549893772,288.057752,0,0.57712600272,21900,2017-11-10 07:45:57,16,16.352,5788.8549893772,288.057752,0.894776,1.61749020924,214.1, 8.7, -4.1,0,0,1024,1024,1642,1024,213.7,-27.7,98,4.134,4.138,4.123,4.135,0,0,87.71,6,GPS_Atti,
0.371598701545082,36.9034620130711,5790.4954093772,289.698172,0,0.60007219768,22000,2017-11-10 07:45:57,16,16.46,5790.4954093772,289.698172,0.894776,1.61749020924,214.1, 8.6, -4.3,0,0,1024,1024,1469,1024,213.7,-27.7,98,4.143,4.148,4.134,4.148,0,0,87.71,6,GPS_Atti,
0.371598735045229,36.9034619967764,5792.1358293772,291.338592,0,0.61224739492,22100,2017-11-10 07:45:57,16,16.46,5792.1358293772,291.338592,0.894776,1.61749020924,214, 8.6, -4.3,0,0,1024,1024,1310,1024,213.8,-27.7,98,4.143,4.148,4.134,4.148,0,0,87.71,6,GPS_Atti,
0.371598766674344,36.9034619953953,5793.7762493772,292.979012,0,0.6237861092,22200,2017-11-10 07:45:57,16,16.46,5793.7762493772,292.979012,0.894776,1.61749020924,213.8, 10.2, -5,0,0,1024,1024,1024,1024,213.8,-27.6,98,4.143,4.148,4.134,4.148,0,0,87.71,6,GPS_Atti,
0.371598750448579,36.9034619741687,5795.4166693772,294.619432,0,0.61790028224,22300,2017-11-10 07:45:57,16,16.46,5795.4166693772,294.619432,0.894776,1.61749020924,213.7, 11.8, -5.5,0,0,1024,1024,1024,1024,213.8,-27.6,98,4.143,4.148,4.134,4.148,0,0,87.71,6,GPS_Atti,
0.371598740347544,36.9034619477824,5796.4009213772,295.603684,0,0.61439306428,22400,2017-11-10 07:45:57,16,16.46,5796.4009213772,295.603684,0.894776,1.61749020924,213.7, 11.8, -5.1,0,0,1024,1024,1024,1024,213.8,-27.7,98,4.143,4.148,4.134,4.148,0,0,87.71,6,GPS_Atti,
0.371598701511547,36.9034618999907,5797.3851733772,296.587936,0,0.60095474364,22500,2017-11-10 07:45:57,16,16.46,5797.3851733772,296.587936,0.894776,1.61749020924,213.8, 11.8, -4.7,0,0,1024,1024,1024,1024,213.9,-27.6,98,4.143,4.148,4.134,4.148,0,0,87.71,6,GPS_Atti,
0.371598671913712,36.9034618058098,5798.0413413772,297.244104,0.223694,0.59312337856,22600,2017-11-10 07:45:58,16,16.46,5798.0413413772,297.244104,0.894776,1.61749020924,213.7, 12, -4.9,0,0,1024,1024,1024,1024,213.9,-27.6,98,4.143,4.148,4.134,4.148,0,0,87.71,6,GPS_Atti,
0.371598612242537,36.9034616816164,5798.3694253772,297.572188,0.223694,0.57864503164,22700,2017-11-10 07:45:58,16,16.46,5798.3694253772,297.572188,0.894776,1.61749020924,213.8, 11.9, -4.9,0,0,1024,1024,993,1024,213.9,-27.7,98,4.143,4.148,4.134,4.148,0,0,87.71,6,GPS_Atti,
0.371598565269357,36.9034615275727,5798.6975093772,297.900272,0.223694,0.5758202284,22800,2017-11-10 07:45:58,16,16.46,5798.6975093772,297.900272,0.894776,1.61749020924,213.9, 10.9, -4.9,0,0,1024,1024,893,1024,213.9,-27.7,98,4.143,4.148,4.134,4.148,0,0,87.71,6,GPS_Atti,
0.371598512678351,36.9034613723326,5798.6975093772,297.900272,0.223694,0.57725723632,22900,2017-11-10 07:45:58,16,16.46,5798.6975093772,297.900272,0.894776,1.61749020924,214, 10.3, -4.9,0,0,1024,1024,804,1024,213.9,-27.7,98,4.143,4.148,4.134,4.148,0,0,87.71,6,GPS_Atti,
0.371598484733947,36.9034611736866,5798.6975093772,297.900272,0.447388,0.6004429326,23000,2017-11-10 07:45:58,16,16.433,5798.6975093772,297.900272,0.894776,1.61749020924,214, 10.5, -5.8,0,0,1024,1024,743,1024,214,-27.6,98,4.143,4.148,4.134,4.148,0,0,87.71,6,GPS_Atti,
0.371598445716327,36.9034609841959,5798.6975093772,297.900272,0.447388,0.62607613552,23100,2017-11-10 07:45:58,16,16.433,5798.6975093772,297.900272,0.894776,1.61749020924,213.9, 11.1, -6.7,0,0,1024,1024,687,1024,214,-27.7,98,4.143,4.148,4.134,4.148,0,0,87.71,6,GPS_Atti,
0.371598451248049,36.9034608090669,5798.6975093772,297.900272,0.223694,0.667158814,23200,2017-11-10 07:45:58,16,16.433,5798.6975093772,297.900272,0.894776,1.61749020924,213.9, 11.5, -7,0,0,1024,1024,673,1024,214.1,-27.6,98,4.143,4.148,4.134,4.148,0,0,87.71,6,GPS_Atti,
0.371598444831573,36.9034606831183,5798.3694253772,297.572188,0.223694,0.6960630144,23300,2017-11-10 07:45:58,16,16.433,5798.6975093772,297.900272,0.894776,1.61749020924,214, 11.2, -7.6,0,0,1024,1024,651,1024,214.1,-27.6,98,4.143,4.148,4.134,4.148,0,0,87.71,6,GPS_Atti,
0.371598446236513,36.9034606189815,5798.0413413772,297.244104,0.223694,0.71268703068,23400,2017-11-10 07:45:58,16,16.433,5798.6975093772,297.900272,0.894776,1.61749020924,214.1, 10.2, -7.4,0,0,1024,1024,632,1024,214.1,-27.7,98,4.143,4.148,4.134,4.148,0,0,87.71,6,GPS_Atti,
