latitude,longitude,altitude(feet),ascent(feet),speed(mph),distance(feet),time(millisecond),datetime(utc),satellites,voltage(v),max_altitude(feet),max_ascent(feet),max_speed(mph),max_distance(feet),compass_heading(degrees), pitch(degrees), roll(degrees),isPhoto,isVideo,rc_elevator,rc_aileron,rc_throttle,rc_rudder,gimbal_heading(degrees),gimbal_pitch(degrees),battery_percent,voltageCell1,voltageCell2,voltageCell3,voltageCell4,voltageCell5,voltageCell6,battery_temperature(f),flycStateRaw,flycState,message
0.307980748270123,36.8793957133504,5801.79107903,0,0,0,100,2017-11-14 12:53:39,12,0,5801.79107903,0,0,0,343.7, -1.4, 1.5,0,0,1024,1024,1024,1024,348.2,-8.1,100,4.32,4.321,4.318,4.309,0,0,82.31,41,Motors_Started,
0.307980681940749,36.8793958205112,5801.79107903,0,0,0.045980644516,200,2017-11-14 12:53:39,12,0,5801.79107903,0,0,0.045980644516,343.7, -1.4, 1.5,0,0,1024,1024,1024,1024,348.2,-8.1,100,4.32,4.321,4.318,4.309,0,0,82.31,41,Motors_Started,
0.307980615027578,36.8793959264162,5801.79107903,0,0,0.091685042304,300,2017-11-14 12:53:39,12,0,5801.79107903,0,0,0.091685042304,343.7, -1.4, 1.5,0,0,1024,1024,1024,1024,348.2,-8.1,100,4.32,4.321,4.318,4.309,0,0,82.31,41,Motors_Started,
0.30798055205687,36.8793960304476,5801.79107903,0,0,0.136048888868,400,2017-11-14 12:53:39,12,17.214,5801.79107903,0,0,0.136048888868,343.6, -1.4, 1.5,0,0,1024,1024,1024,1024,348.2,-8.1,100,4.32,4.321,4.318,4.309,0,0,82.31,41,Motors_Started,Setting new Return-To-Home altitude to 30m (98 ft). Setting new Maximum Flight Altitude to 150m (492 ft)
0.307980491941231,36.8793961311656,5801.79107903,0,0,0.178839244568,500,2017-11-14 12:53:39,12,17.214,5801.79107903,0,0,0.178839244568,343.7, -1.4, 1.5,0,0,1024,1024,1024,1024,348.2,-8.1,100,4.32,4.321,4.318,4.309,0,0,82.31,41,Motors_Started,
0.307980433259845,36.8793962309864,5801.79107903,0,0,0.221079075316,600,2017-11-14 12:53:39,12,17.214,5801.79107903,0,0,0.221079075316,343.6, -1.4, 1.5,0,0,1024,1024,1024,1024,348.2,-8.1,100,4.32,4.321,4.318,4.309,0,0,82.31,41,Motors_Started,
0.307980378981771,36.879396329667,5801.79107903,0,0,0.26213583516,700,2017-11-14 12:53:39,12,17.214,5801.79107903,0,0,0.26213583516,343.6, -1.4, 1.5,0,0,1024,1024,1024,1024,348.2,-8.1,100,4.32,4.321,4.318,4.309,0,0,82.31,41,Motors_Started,
0.307980322802896,36.8793964290928,5801.79107903,0,0,0.3037893798,800,2017-11-14 12:53:39,12,17.214,5801.79107903,0,0,0.3037893798,343.6, -1.4, 1.5,0,0,364,364,386,1684,348.2,-8.1,100,4.32,4.321,4.318,4.309,0,0,82.31,41,Motors_Started,
0.307980299752678,36.8793965000108,5801.79107903,0,0,0.330380588,900,2017-11-14 12:53:39,12,17.214,5801.79107903,0,0,0.330380588,343.6, -1.4, 1.6,0,0,1024,1024,1024,1024,347.9,-8.1,100,4.32,4.321,4.318,4.309,0,0,82.31,41,Motors_Started,
0.307980275110656,36.8793965698198,5801.79107903,0,0,0.35699476208,1000,2017-11-14 12:53:39,12,17.214,5801.79107903,0,0,0.35699476208,343.6, -1.4, 1.5,0,0,1024,1024,1024,1024,346,-8.1,100,4.32,4.321,4.318,4.309,0,0,82.31,41,Motors_Started,
0.307980284185975,36.8793966102742,5801.79107903,0,0,0.36844817452,1100,2017-11-14 12:53:40,12,17.214,5801.79107903,0,0,0.36844817452,343.6, -1.3, 1.5,0,0,1024,1024,1024,1024,345.2,-8.1,100,4.32,4.321,4.318,4.309,0,0,82.31,41,Motors_Started,
0.307980275328054,36.8793966630554,5801.79107903,0,0,0.38708334572,1200,2017-11-14 12:53:40,12,17.214,5801.79107903,0,0,0.38708334572,343.6, -1.3, 1.4,0,0,1024,1024,1024,1024,344.8,-8.1,100,4.32,4.321,4.318,4.309,0,0,82.31,41,Motors_Started,
0.307980297796102,36.8793966937064,5801.79107903,0,0,0.39363190236,1300,2017-11-14 12:53:40,12,17.214,5801.79107903,0,0,0.39363190236,343.6, -1.4, 1.5,0,0,1024,1024,1024,1024,344.6,-8.1,100,4.32,4.321,4.318,4.309,0,0,82.31,41,Motors_Started,
0.307980308153006,36.8793967354733,5801.79107903,0,0,0.40601707336,1400,2017-11-14 12:53:40,12,17.161,5801.79107903,0,0,0.40601707336,343.6, -1.4, 1.6,0,0,1024,1024,1024,1024,344.6,-8.1,100,4.319,4.321,4.312,4.304,0,0,82.31,41,Motors_Started,
0.307980337283834,36.8793967583155,5801.79107903,0,0,0.4096784908,1500,2017-11-14 12:53:40,12,17.161,5801.79107903,0,0,0.4096784908,343.6, -1.4, 1.6,0,0,1024,1024,1024,1024,344.5,-8.1,100,4.319,4.321,4.312,4.304,0,0,82.31,41,Motors_Started,
0.307980352848094,36.8793967955377,5801.79107903,0,0,0.42036090584,1600,2017-11-14 12:53:40,12,17.161,5801.79107903,0,0,0.42036090584,343.6, -1.4, 1.6,0,0,1024,1024,1024,1024,344.4,-8.1,100,4.319,4.321,4.312,4.304,0,0,82.31,10,Assisted_Takeoff,
0.307980376579002,36.8793968466852,5801.79107903,0,0,0.43516077508,1700,2017-11-14 12:53:40,12,17.161,5801.79107903,0,0,0.43516077508,343.6, -1.2, 1.4,0,0,1024,1024,1024,1024,344.3,-8.1,100,4.319,4.321,4.312,4.304,0,0,82.31,10,Assisted_Takeoff,
0.307980388180037,36.8793969109453,5801.79107903,0,0,0.45625985712,1800,2017-11-14 12:53:40,12,17.161,5801.79107903,0,0,0.45625985712,343.6, -1.3, 1.5,0,0,1024,1024,1024,1024,344.2,-8.1,100,4.319,4.321,4.312,4.304,0,0,82.31,10,Assisted_Takeoff,
0.307980357466769,36.8793969991545,5801.79107903,0,0,0.49030841464,1900,2017-11-14 12:53:40,12,17.161,5801.79107903,0,0,0.49030841464,343.6, -1.4, 1.5,0,0,1024,1024,1032,1024,344.2,-8.1,100,4.319,4.321,4.312,4.304,0,0,82.31,10,Assisted_Takeoff,
0.30798030649525,36.8793970857363,5801.79107903,0,0,0.52601051552,2000,2017-11-14 12:53:40,12,17.161,5801.79107903,0,0,0.52601051552,343.6, -1.3, 1.4,0,0,1024,1024,1073,1024,344.2,-8.1,100,4.319,4.321,4.312,4.304,0,0,82.31,10,Assisted_Takeoff,
0.307980238771928,36.8793971916445,5801.79107903,0,0,0.57048230172,2100,2017-11-14 12:53:41,12,17.161,5801.79107903,0,0,0.57048230172,343.6, -1.3, 1.5,0,0,1024,1024,1106,1024,344.1,-8.1,100,4.319,4.321,4.312,4.304,0,0,82.31,10,Assisted_Takeoff,
0.307980181734863,36.8793972925134,5801.79107903,0,0,0.61210303796,2200,2017-11-14 12:53:41,12,17.161,5801.79107903,0,0,0.61210303796,343.6, -1.4, 1.5,0,0,1024,1024,1148,1024,344.1,-8.1,100,4.319,4.321,4.312,4.304,0,0,82.31,10,Assisted_Takeoff,
0.307980108437785,36.8793973778866,5801.79107903,0,0,0.65061681872,2300,2017-11-14 12:53:41,12,17.161,5801.79107903,0,0,0.65061681872,343.6, -1.2, 1.4,0,0,1024,1024,1162,1024,344.1,-8.1,100,4.319,4.321,4.312,4.304,0,0,82.31,10,Assisted_Takeoff,
0.30798004071487,36.8793974535988,5801.79107903,0,0,0.68539372272,2400,2017-11-14 12:53:41,12,17.108,5801.79107903,0,0,0.68539372272,343.6, -1, 1.3,0,0,1024,1024,1171,1024,344,-8.1,100,4.296,4.297,4.289,4.279,0,0,82.31,10,Assisted_Takeoff,
0.307979969362561,36.8793975139266,5801.79107903,0,0,0.7157644586,2500,2017-11-14 12:53:41,12,17.108,5801.79107903,0,0,0.7157644586,343.6, -1.1, 1.3,0,0,1024,1024,1207,1024,344,-8.1,100,4.296,4.297,4.289,4.279,0,0,82.31,10,Assisted_Takeoff,
0.307979901731653,36.8793975734236,5801.79107903,0,0,0.74561354092,2600,2017-11-14 12:53:41,12,17.108,5801.79107903,0,0,0.74561354092,343.6, -1, 1.2,0,0,1024,1024,1279,1024,344,-8.1,100,4.296,4.297,4.289,4.279,0,0,82.31,10,Assisted_Takeoff,
0.307979835604206,36.8793976500897,5801.79107903,0,0,0.7811351956,2700,2017-11-14 12:53:41,12,17.108,5801.79107903,0,0,0.7811351956,343.6, -1, 1.2,0,0,1024,1024,1322,1024,344,-8.1,100,4.296,4.297,4.289,4.279,0,0,82.31,10,Assisted_Takeoff,
0.307979769741382,36.879397733084,5801.79107903,0,0,0.81881892384,2800,2017-11-14 12:53:41,12,17.108,5801.79107903,0,0,0.81881892384,343.5, -0.5, 1.1,0,0,1024,1024,1336,1024,344,-8.1,100,4.296,4.297,4.289,4.279,0,0,82.31,10,Assisted_Takeoff,
0.30797974557283,36.8793977969233,5801.79107903,0,0,0.84362863592,2900,2017-11-14 12:53:41,12,17.108,5801.79107903,0,0,0.84362863592,343.6, 1.8, 0.4,0,0,1024,1024,1362,1024,344,-8.1,100,4.296,4.297,4.289,4.279,0,0,82.31,10,Assisted_Takeoff,
0.30797971081695,36.8793978526561,5801.79107903,0,0,0.86745081516,3000,2017-11-14 12:53:41,12,17.108,5801.79107903,0,0,0.86745081516,343.7, 3.2, -0.5,0,0,1024,1024,1377,1024,344,-8.1,100,4.296,4.297,4.289,4.279,0,0,82.31,6,GPS_Atti,
0.307979608292151,36.8793978778878,5801.79107903,0,0.223694,0.89254924116,3100,2017-11-14 12:53:42,12,17.108,5801.79107903,0,0.223694,0.89254924116,343.8, 1.9, -0.4,0,0,1024,1024,1377,1024,344,-8.1,100,4.296,4.297,4.289,4.279,0,0,82.31,6,GPS_Atti,
0.307979441192221,36.8793978786351,5801.79107903,0,0.223694,0.92277233924,3200,2017-11-14 12:53:42,12,17.108,5801.79107903,0,0.223694,0.92277233924,343.9, 1.2, 0.5,0,0,1024,1024,1367,1024,344,-8.1,100,4.296,4.297,4.289,4.279,0,0,82.31,6,GPS_Atti,Obstacle Avoided. Revise Flight Route
0.307979257969066,36.8793978364003,5802.11916303,0.328084,0.223694,0.9463747022,3300,2017-11-14 12:53:42,12,17.108,5802.11916303,0.328084,0.223694,0.9463747022,343.8, 0.2, 1.3,0,0,1024,1024,1365,1024,344,-8.1,100,4.296,4.297,4.289,4.279,0,0,82.31,6,GPS_Atti,
0.307979047877806,36.8793978146245,5802.44724703,0.656168,0.223694,0.98621066148,3400,2017-11-14 12:53:42,12,17.108,5802.44724703,0.656168,0.223694,0.98621066148,343.8, -0.9, 1.2,0,0,1024,1024,1364,1024,344,-8.1,100,4.296,4.297,4.289,4.279,0,0,82.31,6,GPS_Atti,
0.307978823526262,36.879397780448,5803.10341503,1.312336,0.223694,1.03049215896,3500,2017-11-14 12:53:42,12,17.108,5803.10341503,1.312336,0.223694,1.03049215896,344, -1.8, 2,0,0,1024,1024,1361,1024,344,-8.1,100,4.296,4.297,4.289,4.279,0,0,82.31,6,GPS_Atti,
0.307978614267545,36.879397761763,5803.43149903,1.64042,0.223694,1.07922903716,3600,2017-11-14 12:53:42,12,17.108,5803.43149903,1.64042,0.223694,1.07922903716,343.8, -1.6, 2.4,0,0,1024,1024,1379,1024,344,-8.1,100,4.296,4.297,4.289,4.279,0,0,82.31,6,GPS_Atti,
0.307978333391081,36.87939764506,5804.74383503,2.952756,0.31540854,1.1282644718,3800,2017-11-14 12:53:42,12,17.108,5804.74383503,2.952756,0.31540854,1.1282644718,343.5, -3.5, -1.6,0,0,1024,1024,1386,1024,344,-8.1,100,4.296,4.297,4.289,4.279,0,0,82.31,6,GPS_Atti,
0.307978304802933,36.8793974095162,5805.40000303,3.608924,0.447388,1.08522969352,3900,2017-11-14 12:53:42,12,17.108,5805.40000303,3.608924,0.447388,1.1282644718,343.5, -2.2, 1.3,0,0,1024,1024,1381,1024,343.9,-8.1,100,4.296,4.297,4.289,4.279,0,0,82.31,6,GPS_Atti,
0.307978289973508,36.8793971097219,5806.05617103,4.265092,0.447388,1.03149937684,4000,2017-11-14 12:53:42,12,17.108,5806.05617103,4.265092,0.447388,1.1282644718,343.7, -0.4, 5,0,0,1024,1024,1375,1024,343.9,-8.2,100,4.296,4.297,4.289,4.279,0,0,82.31,6,GPS_Atti,
0.307978289024125,36.8793968016669,5806.71233903,4.92126,0.223694,0.98118769544,4100,2017-11-14 12:53:43,12,17.108,5806.71233903,4.92126,0.447388,1.1282644718,343.8, 0.4, 5.7,0,0,1024,1024,1362,1024,343.9,-9.2,100,4.296,4.297,4.289,4.279,0,0,82.31,6,GPS_Atti,
0.30797824793604,36.8793965987985,5807.36850703,5.577428,0.223694,0.96775593648,4200,2017-11-14 12:53:43,12,17.108,5807.36850703,5.577428,0.447388,1.1282644718,343.6, -0.4, 4.2,0,0,1024,1024,1358,1024,343.9,-10.3,100,4.296,4.297,4.289,4.279,0,0,82.31,6,GPS_Atti,
0.307978201031153,36.8793964368845,5808.02467503,6.233596,0.31540854,0.96612207816,4300,2017-11-14 12:53:43,12,17.108,5808.02467503,6.233596,0.447388,1.1282644718,343.5, -2, 3.6,0,0,1024,1024,1373,1024,344,-11.5,100,4.296,4.297,4.289,4.279,0,0,82.31,6,GPS_Atti,
0.307978117786725,36.8793963061579,5808.68084303,6.889764,0.31540854,0.98379924408,4400,2017-11-14 12:53:43,12,16.683,5808.68084303,6.889764,0.447388,1.1282644718,343.3, -2.2, 2.8,0,0,1024,1024,1375,1024,343.9,-12.6,100,4.241,4.264,4.244,4.226,0,0,82.31,6,GPS_Atti,
0.307978004621266,36.8793961409004,5809.33701103,7.545932,0.31540854,1.01310042612,4500,2017-11-14 12:53:43,12,16.683,5809.33701103,7.545932,0.447388,1.1282644718,343.5, -1.7, 4,0,0,1024,1024,1374,1033,343.9,-13.8,100,4.241,4.264,4.244,4.226,0,0,82.31,6,GPS_Atti,Home Point Recorded. RTH Altitude:  30m.
0.307977821773875,36.8793959679315,5810.32126303,8.530184,0.50107456,1.07176184532,4600,2017-11-14 12:53:43,12,16.683,5810.32126303,8.530184,0.50107456,1.1282644718,343.6, -2.5, 5.4,0,0,1024,1024,1374,1033,343.9,-13.8,100,4.241,4.264,4.244,4.226,0,0,82.31,6,GPS_Atti,
0.307977573053481,36.8793957888859,5810.97743103,9.186352,0.70687304,1.15880253052,4700,2017-11-14 12:53:43,12,16.683,5810.97743103,9.186352,0.70687304,1.15880253052,343.6, -4.1, 6.4,0,0,1024,1024,1355,1163,344,-14.9,100,4.241,4.264,4.244,4.226,0,0,82.31,6,GPS_Atti,
0.307977289648044,36.8793956272674,5811.63359903,9.84252,0.70687304,1.26226710076,4800,2017-11-14 12:53:43,12,16.683,5811.63359903,9.84252,0.70687304,1.26226710076,343.6, -5.8, 6.6,0,0,1024,1024,1346,1175,344.2,-16,100,4.241,4.264,4.244,4.226,0,0,82.31,6,GPS_Atti,
0.307976988313439,36.8793954457509,5811.96168303,10.170604,0.50107456,1.37528875792,4900,2017-11-14 12:53:43,12,16.683,5811.96168303,10.170604,0.70687304,1.37528875792,344.5, -6.6, 6.6,0,0,1024,1024,1345,1130,344.9,-17.1,100,4.241,4.264,4.244,4.226,0,0,82.31,6,GPS_Atti,
0.307976721482305,36.8793952695809,5812.61785103,10.826772,0.50107456,1.47806435176,5000,2017-11-14 12:53:43,12,16.683,5812.61785103,10.826772,0.70687304,1.47806435176,346.2, -6.5, 6.9,0,0,1024,1024,1345,1130,345.8,-18.2,100,4.241,4.264,4.244,4.226,0,0,82.31,6,GPS_Atti,
0.307976464755666,36.8793951342882,5813.27401903,11.48294,0.447388,1.57705385624,5100,2017-11-14 12:53:44,12,16.683,5813.27401903,11.48294,0.70687304,1.57705385624,347.9, -6.7, 7,0,0,1024,1024,1324,1050,346.4,-19.3,100,4.241,4.264,4.244,4.226,0,0,82.31,6,GPS_Atti,
0.307976250057538,36.8793950379554,5813.93018703,12.139108,0.447388,1.65956698224,5200,2017-11-14 12:53:44,12,16.683,5813.93018703,12.139108,0.70687304,1.65956698224,348.7, -7, 6.3,0,0,1024,1024,1282,1024,346.8,-20.4,100,4.241,4.264,4.244,4.226,0,0,82.31,6,GPS_Atti,
0.307976097686476,36.8793949442038,5814.58635503,12.795276,0.223694,1.71980976632,5300,2017-11-14 12:53:44,12,16.683,5814.58635503,12.795276,0.70687304,1.71980976632,348.7, -7.3, 6,0,0,1024,1024,1235,1024,347.1,-21.5,100,4.241,4.264,4.244,4.226,0,0,82.31,6,GPS_Atti,
0.307975987085003,36.8793948394615,5814.91443903,13.12336,0.31540854,1.76613194628,5400,2017-11-14 12:53:44,12,16.949,5814.91443903,13.12336,0.70687304,1.76613194628,348.7, -7.4, 6.3,0,0,1024,1024,1199,1024,347.3,-22.6,100,4.213,4.233,4.227,4.213,0,0,82.31,6,GPS_Atti,
0.307975945332513,36.8793947237049,5815.57060703,13.779528,0.31540854,1.78916016224,5500,2017-11-14 12:53:44,12,16.949,5815.57060703,13.779528,0.70687304,1.78916016224,348.7, -7.3, 7,0,0,1024,1024,1194,1024,347.4,-23.7,100,4.213,4.233,4.227,4.213,0,0,82.31,6,GPS_Atti,
0.307975924656159,36.8793946042816,5815.89869103,14.107612,0.223694,1.80581042524,5600,2017-11-14 12:53:44,12,16.949,5815.89869103,14.107612,0.70687304,1.80581042524,348.7, -6.9, 7,0,0,1024,1024,1172,1024,347.5,-24.8,100,4.213,4.233,4.227,4.213,0,0,82.31,6,GPS_Atti,
0.307975964065318,36.8793944339945,5816.22677503,14.435696,0,1.80684388984,5700,2017-11-14 12:53:44,12,16.949,5816.22677503,14.435696,0.70687304,1.80684388984,348.8, -6.1, 6.7,0,0,1024,1024,1133,1024,347.6,-25.9,100,4.213,4.233,4.227,4.213,0,0,82.31,6,GPS_Atti,
0.307975998360349,36.8793942580815,5816.55485903,14.76378,0.223694,1.81251318136,5800,2017-11-14 12:53:44,12,16.949,5816.55485903,14.76378,0.70687304,1.81251318136,348.9, -5.7, 7.4,0,0,1024,1024,1169,1024,347.7,-26,100,4.213,4.233,4.227,4.213,0,0,82.31,6,GPS_Atti,
0.307976089156687,36.8793941081078,5816.88294303,15.091864,0.223694,1.79793640924,5900,2017-11-14 12:53:44,12,16.949,5816.88294303,15.091864,0.70687304,1.81251318136,349, -5.9, 7.7,0,0,1024,1024,1232,1024,347.8,-26,100,4.213,4.233,4.227,4.213,0,0,82.31,6,GPS_Atti,
0.307976177314131,36.8793940044045,5816.88294303,15.091864,0,1.78045281288,6000,2017-11-14 12:53:44,12,16.949,5816.88294303,15.091864,0.70687304,1.81251318136,349.2, -5, 6.9,0,0,1024,1024,1235,1024,347.9,-26,100,4.213,4.233,4.227,4.213,0,0,82.31,6,GPS_Atti,
0.307976274575391,36.8793939450916,5817.21102703,15.419948,0,1.75509520052,6100,2017-11-14 12:53:45,12,16.949,5817.21102703,15.419948,0.70687304,1.81251318136,349.2, -4.7, 6.3,0,0,1024,1024,1234,1024,347.9,-26,100,4.213,4.233,4.227,4.213,0,0,82.31,6,GPS_Atti,
0.307976329545147,36.8793939048476,5817.53911103,15.748032,0,1.74196855968,6200,2017-11-14 12:53:45,12,16.949,5817.53911103,15.748032,0.70687304,1.81251318136,349, -5.5, 6.3,0,0,1024,1024,1225,1024,348,-26,100,4.213,4.233,4.227,4.213,0,0,82.31,6,GPS_Atti,
0.30797636924824,36.8793938991799,5817.86719503,16.076116,0,1.72936029156,6300,2017-11-14 12:53:45,12,16.949,5817.86719503,16.076116,0.70687304,1.81251318136,349, -6.1, 6.8,0,0,1024,1024,1251,1024,348.1,-26,100,4.213,4.233,4.227,4.213,0,0,82.31,6,GPS_Atti,
0.307976404928262,36.8793939046265,5818.19527903,16.4042,0,1.71657813892,6400,2017-11-14 12:53:45,12,16.975,5818.19527903,16.4042,0.70687304,1.81251318136,349, -6.1, 7.3,0,0,1024,1024,1330,1024,348.1,-26,100,4.234,4.247,4.245,4.225,0,0,82.31,6,GPS_Atti,
0.307976465767744,36.8793939385867,5818.52336303,16.732284,0,1.69132551344,6500,2017-11-14 12:53:45,12,16.975,5818.52336303,16.732284,0.70687304,1.81251318136,349, -6.4, 6.3,0,0,1024,1024,1380,1024,348.2,-26,100,4.234,4.247,4.245,4.225,0,0,82.31,6,GPS_Atti,
0.307976542127926,36.8793939831805,5818.85144703,17.060368,0,1.65936357016,6600,2017-11-14 12:53:45,12,16.975,5818.85144703,17.060368,0.70687304,1.81251318136,349.1, -5.2, 5.2,0,0,1024,1024,1417,1024,348.3,-26,100,4.234,4.247,4.245,4.225,0,0,82.31,6,GPS_Atti,
0.307976623036351,36.8793940230975,5819.50761503,17.716536,0,1.6265256426,6700,2017-11-14 12:53:45,12,16.975,5819.50761503,17.716536,0.70687304,1.81251318136,349.1, -4.9, 5.1,0,0,1024,1024,1440,1024,348.3,-26,100,4.234,4.247,4.245,4.225,0,0,82.31,6,GPS_Atti,
0.307976666230014,36.8793940425229,5820.16378303,18.372704,0,1.60925530084,6800,2017-11-14 12:53:45,12,16.975,5820.16378303,18.372704,0.70687304,1.81251318136,349, -6.1, 5.9,0,0,1024,1024,1496,1024,348.3,-26,100,4.234,4.247,4.245,4.225,0,0,82.31,6,GPS_Atti,
0.307976705815045,36.8793940700247,5820.81995103,19.028872,0,1.5920932268,6900,2017-11-14 12:53:45,12,16.975,5820.81995103,19.028872,0.70687304,1.81251318136,348.8, -7.3, 6.1,0,0,1024,1024,1518,1024,348.4,-26,100,4.234,4.247,4.245,4.225,0,0,82.31,6,GPS_Atti,
0.307976785857953,36.879394091899,5821.80420303,20.013124,0.223694,1.56203745156,7000,2017-11-14 12:53:45,12,16.975,5821.80420303,20.013124,0.70687304,1.81251318136,348.9, -6.6, 6,0,0,1024,1024,1541,1024,348.4,-26,100,4.234,4.247,4.245,4.225,0,0,82.31,6,GPS_Atti,
0.307976890022187,36.8793940708673,5822.78845503,20.997376,0.223694,1.5299213088,7100,2017-11-14 12:53:46,12,16.975,5822.78845503,20.997376,0.70687304,1.81251318136,348.9, -5.5, 6.3,0,0,1024,1024,1598,1024,348.5,-26,100,4.234,4.247,4.245,4.225,0,0,82.31,6,GPS_Atti,
0.307977012200269,36.8793940330042,5824.10079103,22.309712,0.223694,1.49462275124,7200,2017-11-14 12:53:46,12,16.975,5824.10079103,22.309712,0.70687304,1.81251318136,348.9, -4.1, 6.6,0,0,1024,1024,1655,1024,348.5,-26,100,4.234,4.247,4.245,4.225,0,0,82.31,6,GPS_Atti,
0.307977132875298,36.8793940082763,5825.41312703,23.622048,0,1.45840555848,7300,2017-11-14 12:53:46,12,16.975,5825.41312703,23.622048,0.70687304,1.81251318136,349.1, -3.4, 5.6,0,0,1024,1024,1684,1024,348.5,-26,100,4.234,4.247,4.245,4.225,0,0,82.31,6,GPS_Atti,
0.307977232058122,36.8793940049794,5826.72546303,24.934384,0,1.42628613488,7400,2017-11-14 12:53:46,12,16.338,5826.72546303,24.934384,0.70687304,1.81251318136,349.1, -4, 5.1,0,0,1024,1024,1684,1024,348.5,-26,100,4.234,4.247,4.245,4.225,0,0,82.31,6,GPS_Atti,
0.307977320696771,36.8793939620492,5828.36588303,26.574804,0,1.40432419192,7500,2017-11-14 12:53:46,12,16.338,5828.36588303,26.574804,0.70687304,1.81251318136,348.9, -5.6, 6.1,0,0,1024,1024,1684,1024,348.6,-26,100,4.234,4.247,4.245,4.225,0,0,82.31,6,GPS_Atti,
0.30797742939378,36.8793939160251,5829.67821903,27.88714,0,1.37704400732,7600,2017-11-14 12:53:46,12,16.338,5829.67821903,27.88714,0.70687304,1.81251318136,348.6, -6.5, 6.7,0,0,1024,1024,1684,1022,348.6,-26,100,4.234,4.247,4.245,4.225,0,0,82.31,6,GPS_Atti,
0.30797755100272,36.8793938656591,5831.64672303,29.855644,0.223694,1.34729663104,7700,2017-11-14 12:53:46,12,16.338,5831.64672303,29.855644,0.70687304,1.81251318136,348.7, -6.5, 6.7,0,0,1024,1024,1684,1022,348.6,-26,100,4.234,4.247,4.245,4.225,0,0,82.31,6,GPS_Atti,
0.307977697285845,36.8793937944616,5833.28714303,31.496064,0.223694,1.31500332292,7800,2017-11-14 12:53:46,12,16.338,5833.28714303,31.496064,0.70687304,1.81251318136,348.8, -5.7, 7.2,0,0,1024,1024,1684,1022,348.6,-26,100,4.234,4.247,4.245,4.225,0,0,82.31,6,GPS_Atti,
0.307977863194162,36.8793937084664,5835.25564703,33.464568,0,1.28181762632,7900,2017-11-14 12:53:46,12,16.338,5835.25564703,33.464568,0.70687304,1.81251318136,348.9, -4.4, 7.6,0,0,1024,1024,1684,1022,348.6,-26,100,4.234,4.247,4.245,4.225,0,0,82.31,6,GPS_Atti,
0.307977998637549,36.8793936210318,5837.22415103,35.433072,0,1.2606135574,8000,2017-11-14 12:53:46,12,16.338,5837.22415103,35.433072,0.70687304,1.81251318136,348.9, -4.5, 8.1,0,0,1024,1024,1684,1022,348.6,-26,100,4.234,4.247,4.245,4.225,0,0,82.31,6,GPS_Atti,
0.307978062746132,36.8793935028579,5838.86457103,37.073492,0,1.26903547368,8100,2017-11-14 12:53:47,12,16.338,5838.86457103,37.073492,0.70687304,1.81251318136,348.8, -6.1, 8.2,0,0,1024,1024,1684,1018,348.7,-26,100,4.234,4.247,4.245,4.225,0,0,82.31,6,GPS_Atti,
0.307978097883068,36.879393389781,5840.83307503,39.041996,0,1.28597773144,8200,2017-11-14 12:53:47,12,16.338,5840.83307503,39.041996,0.70687304,1.81251318136,348.7, -7.3, 7.7,0,0,1024,1024,1684,1022,348.7,-26,100,4.234,4.247,4.245,4.225,0,0,82.31,6,GPS_Atti,
0.307978097204821,36.8793932606325,5842.47349503,40.682416,0,1.31769689256,8300,2017-11-14 12:53:47,12,16.338,5842.47349503,40.682416,0.70687304,1.81251318136,348.6, -7.9, 7.6,0,0,1024,1024,1684,1023,348.7,-25.7,100,4.234,4.247,4.245,4.225,0,0,82.31,6,GPS_Atti,
0.307978106439727,36.8793931314111,5844.44199903,42.65092,0,1.34774610612,8400,2017-11-14 12:53:47,12,16.603,5844.44199903,42.65092,0.70687304,1.81251318136,348.6, -7.6, 8.2,0,0,1024,1024,1684,1024,348.7,-25.2,100,4.163,4.186,4.179,4.164,0,0,82.31,6,GPS_Atti,
0.307978130885928,36.8793929620083,5846.08241903,44.29134,0,1.38548560864,8500,2017-11-14 12:53:47,12,16.603,5846.08241903,44.29134,0.70687304,1.81251318136,348.7, -7.1, 8.4,0,0,1024,1024,1684,1024,348.8,-25,100,4.163,4.186,4.179,4.164,0,0,82.31,6,GPS_Atti,
0.307978173071584,36.879392813656,5847.72283903,45.93176,0,1.41492130512,8600,2017-11-14 12:53:47,12,16.603,5847.72283903,45.93176,0.70687304,1.81251318136,348.6, -7, 7.7,0,0,1024,1024,1684,1024,348.8,-25,100,4.163,4.186,4.179,4.164,0,0,82.31,6,GPS_Atti,
0.307978251063467,36.8793926723637,5849.69134303,47.900264,0,1.43564309056,8700,2017-11-14 12:53:47,12,16.603,5849.69134303,47.900264,0.70687304,1.81251318136,348.6, -7.4, 7.5,0,0,1024,1024,1684,1024,348.8,-25,100,4.163,4.186,4.179,4.164,0,0,82.31,6,GPS_Atti,
0.307978342966332,36.8793925316276,5851.33176303,49.540684,0,1.45521986284,8800,2017-11-14 12:53:47,12,16.603,5851.33176303,49.540684,0.70687304,1.81251318136,348.6, -7.4, 7.7,0,0,1024,1024,1684,1024,348.8,-25,100,4.163,4.186,4.179,4.164,0,0,82.31,6,GPS_Atti,
0.307978447213617,36.8793923765815,5853.30026703,51.509188,0,1.47881238328,8900,2017-11-14 12:53:47,12,16.603,5853.30026703,51.509188,0.70687304,1.81251318136,348.6, -7.1, 8.2,0,0,1024,1024,1684,1024,348.8,-25,100,4.163,4.186,4.179,4.164,0,0,82.31,6,GPS_Atti,
0.307978547566479,36.8793922191035,5854.94068703,53.149608,0,1.50663390648,9000,2017-11-14 12:53:47,12,16.603,5854.94068703,53.149608,0.70687304,1.81251318136,348.5, -6.9, 9.1,0,0,1024,1024,1684,1024,348.9,-25,100,4.163,4.186,4.179,4.164,0,0,82.31,6,GPS_Atti,
0.307978668571267,36.8793920651092,5856.90919103,55.118112,0,1.53212603328,9100,2017-11-14 12:53:48,12,16.603,5856.90919103,55.118112,0.70687304,1.81251318136,348.5, -6.9, 9.4,0,0,1024,1024,1684,1023,348.9,-25,100,4.163,4.186,4.179,4.164,0,0,82.31,6,GPS_Atti,
0.307978803831453,36.8793919433429,5858.54961103,56.758532,0,1.54764112564,9200,2017-11-14 12:53:48,12,16.603,5858.54961103,56.758532,0.70687304,1.81251318136,348.5, -6.8, 8.7,0,0,1024,1024,1684,1024,348.9,-25,100,4.163,4.186,4.179,4.164,0,0,82.31,6,GPS_Atti,
0.307978957931109,36.879391831441,5860.51811503,58.727036,0,1.55966540424,9300,2017-11-14 12:53:48,12,16.603,5860.51811503,58.727036,0.70687304,1.81251318136,348.5, -6.7, 8.6,0,0,1024,1024,1684,1024,348.9,-25,100,4.163,4.186,4.179,4.164,0,0,82.31,6,GPS_Atti,
0.307979109164296,36.8793917335772,5862.15853503,60.367456,0,1.57032813424,9400,2017-11-14 12:53:48,12,16.656,5862.15853503,60.367456,0.70687304,1.81251318136,348.5, -6.6, 8.4,0,0,1024,1024,1684,1023,348.9,-25,100,4.165,4.18,4.172,4.161,0,0,82.31,6,GPS_Atti,
0.307979247973269,36.8793916463937,5864.12703903,62.33596,0,1.58155188788,9500,2017-11-14 12:53:48,12,16.656,5864.12703903,62.33596,0.70687304,1.81251318136,348.6, -6.5, 8.3,0,0,1024,1024,1684,1023,348.9,-25,100,4.165,4.18,4.172,4.161,0,0,82.31,6,GPS_Atti,
0.307979379900031,36.8793915576513,5865.76745903,63.97638,0,1.59626317444,9600,2017-11-14 12:53:48,12,16.656,5865.76745903,63.97638,0.70687304,1.81251318136,348.7, -6.4, 8.8,0,0,1024,1024,1684,1023,348.9,-25,100,4.165,4.18,4.172,4.161,0,0,82.31,6,GPS_Atti,
0.307979501237429,36.8793914289749,5867.73596303,65.944884,0,1.62799873976,9700,2017-11-14 12:53:48,12,16.656,5867.73596303,65.944884,0.70687304,1.81251318136,348.6, -6.8, 9.4,0,0,1024,1024,1684,1024,348.9,-25,100,4.165,4.18,4.172,4.161,0,0,82.31,6,GPS_Atti,
0.307979622977867,36.8793912962291,5869.37638303,67.585304,0,1.66303483012,9800,2017-11-14 12:53:48,12,16.656,5869.37638303,67.585304,0.70687304,1.81251318136,348.5, -7.1, 10.3,0,0,1024,1024,1684,1024,348.9,-25,100,4.165,4.18,4.172,4.161,0,0,82.31,6,GPS_Atti,
0.307979768473231,36.8793911781992,5871.01680303,69.225724,0,1.6927986106,9900,2017-11-14 12:53:48,12,16.656,5871.01680303,69.225724,0.70687304,1.81251318136,348.3, -7.4, 10.5,0,0,1024,1024,1684,1024,349,-25,100,4.165,4.18,4.172,4.161,0,0,82.31,6,GPS_Atti,
0.307979946644953,36.8793910937119,5872.65722303,70.866144,0,1.71063653768,10000,2017-11-14 12:53:48,12,16.656,5872.65722303,70.866144,0.70687304,1.81251318136,348.4, -6.8, 9.9,0,0,1024,1024,1684,1024,349,-25,100,4.165,4.18,4.172,4.161,0,0,82.31,6,GPS_Atti,
0.307980154393696,36.8793909936818,5874.29764303,72.506564,0.223694,1.73552170908,10100,2017-11-14 12:53:49,12,16.656,5874.29764303,72.506564,0.70687304,1.81251318136,348.6, -5.5, 9.6,0,0,1024,1024,1684,1024,349,-25,100,4.165,4.18,4.172,4.161,0,0,82.31,6,GPS_Atti,
0.307980349929109,36.8793908952287,5876.26614703,74.475068,0,1.763861605,10200,2017-11-14 12:53:49,12,16.656,5876.26614703,74.475068,0.70687304,1.81251318136,348.8, -4.6, 9.6,0,0,1024,1024,1684,1024,349,-25,100,4.165,4.18,4.172,4.161,0,0,82.31,6,GPS_Atti,
0.307980511914097,36.879390815217,5878.23465103,76.443572,0,1.78913391552,10300,2017-11-14 12:53:49,12,16.656,5878.23465103,76.443572,0.70687304,1.81251318136,348.7, -5.4, 9.9,0,0,1024,1024,1684,1024,349,-25,100,4.165,4.18,4.172,4.161,0,0,82.31,6,GPS_Atti,
0.307980643163833,36.8793907560792,5879.87507103,78.083992,0,1.8090387718,10400,2017-11-14 12:53:49,12,16.55,5879.87507103,78.083992,0.70687304,1.81251318136,348.6, -6.1, 10.6,0,0,1024,1024,1684,1024,349,-25,100,4.146,4.165,4.156,4.146,0,0,82.31,6,GPS_Atti,
0.30798075159052,36.8793906949399,5881.84357503,80.052496,0,1.8309383788,10500,2017-11-14 12:53:49,12,16.55,5881.84357503,80.052496,0.70687304,1.8309383788,348.6, -6, 10.9,0,0,1024,1024,1684,1024,349,-25,100,4.146,4.165,4.156,4.146,0,0,82.31,6,GPS_Atti,
0.307980842953556,36.8793906566176,5883.48399503,81.692916,0,1.8452428412,10600,2017-11-14 12:53:49,12,16.55,5883.48399503,81.692916,0.70687304,1.8452428412,348.5, -6.2, 10.7,0,0,1024,1024,1684,1024,349,-25,100,4.146,4.165,4.156,4.146,0,0,82.31,6,GPS_Atti,
0.307980916724105,36.8793906210161,5885.45249903,83.66142,0,1.858923944,10700,2017-11-14 12:53:49,12,16.55,5885.45249903,83.66142,0.70687304,1.858923944,348.5, -6.7, 10.4,0,0,1024,1024,1684,1024,349.1,-25,100,4.146,4.165,4.156,4.146,0,0,82.31,6,GPS_Atti,
0.307980990966088,36.8793906025602,5887.09291903,85.30184,0,1.86674218572,10800,2017-11-14 12:53:49,12,16.55,5887.09291903,85.30184,0.70687304,1.86674218572,348.4, -7.1, 10.1,0,0,1024,1024,1684,1024,349.1,-25,100,4.146,4.165,4.156,4.146,0,0,82.31,6,GPS_Atti,
0.307981081433073,36.8793905981831,5888.73333903,86.94226,0,1.8701936294,10900,2017-11-14 12:53:49,12,16.55,5888.73333903,86.94226,0.70687304,1.8701936294,348.4, -6.7, 10,0,0,1024,1024,1684,1024,349.1,-25,100,4.146,4.165,4.156,4.146,0,0,82.31,6,GPS_Atti,
0.307981192733963,36.8793906189098,5890.37375903,88.58268,0,1.86573824868,11000,2017-11-14 12:53:49,12,16.55,5890.37375903,88.58268,0.70687304,1.8701936294,348.5, -6.1, 9.5,0,0,1024,1024,1684,1024,349.1,-25,100,4.146,4.165,4.156,4.146,0,0,82.31,6,GPS_Atti,
0.307981307197699,36.8793906617832,5892.34226303,90.551184,0,1.8542815554,11100,2017-11-14 12:53:50,12,16.55,5892.34226303,90.551184,0.70687304,1.8701936294,348.6, -5.8, 9.8,0,0,1024,1024,1684,1024,349.1,-25,100,4.146,4.165,4.156,4.146,0,0,82.31,6,GPS_Atti,
0.30798140764786,36.879390711488,5893.98268303,92.191604,0,1.84068903528,11200,2017-11-14 12:53:50,12,16.55,5893.98268303,92.191604,0.70687304,1.8701936294,348.6, -6.1, 10,0,0,1024,1024,1684,1024,349.1,-25,100,4.146,4.165,4.156,4.146,0,0,82.31,6,GPS_Atti,
0.307981495683985,36.8793907769953,5895.62310303,93.832024,0,1.82152892968,11300,2017-11-14 12:53:50,12,16.55,5895.62310303,93.832024,0.70687304,1.8701936294,348.6, -6, 10.1,0,0,1024,1024,1684,1024,349.1,-25,100,4.146,4.165,4.156,4.146,0,0,82.31,6,GPS_Atti,
0.307981567218273,36.879390844465,5897.26352303,95.472444,0,1.80133864032,11400,2017-11-14 12:53:50,12,16.55,5897.26352303,95.472444,0.70687304,1.8701936294,348.6, -5.9, 10.3,0,0,1024,1024,1684,1024,349.1,-25,100,4.146,4.165,4.156,4.146,0,0,82.31,6,GPS_Atti,
0.307981631598806,36.8793909132023,5898.90394303,97.112864,0,1.78071199924,11500,2017-11-14 12:53:50,12,16.55,5898.90394303,97.112864,0.70687304,1.8701936294,348.6, -6, 10.3,0,0,1024,1024,1684,1024,349.1,-25,100,4.146,4.165,4.156,4.146,0,0,82.31,6,GPS_Atti,
0.307981690094957,36.8793909921444,5900.54436303,98.753284,0,1.75644362576,11600,2017-11-14 12:53:50,12,16.55,5900.54436303,98.753284,0.70687304,1.8701936294,348.6, -6.2, 9.8,0,0,1024,1024,1684,1024,349.1,-25,100,4.146,4.165,4.156,4.146,0,0,82.31,6,GPS_Atti,
0.307981763852885,36.8793911085032,5901.85669903,100.06562,0,1.72042656424,11700,2017-11-14 12:53:50,12,16.55,5901.85669903,100.06562,0.70687304,1.8701936294,348.5, -6.2, 9.4,0,0,1024,1024,1684,1024,349.1,-25,100,4.146,4.165,4.156,4.146,0,0,82.31,6,GPS_Atti,
0.307981844791844,36.879391238649,5903.49711903,101.70604,0.223694,1.6808727572,11800,2017-11-14 12:53:50,12,16.55,5903.49711903,101.70604,0.70687304,1.8701936294,348.5, -6.1, 9.2,0,0,1024,1024,1684,1024,349.1,-25,100,4.146,4.165,4.156,4.146,0,0,82.31,6,GPS_Atti,
0.307981931434022,36.8793913854211,5905.13753903,103.34646,0.223694,1.63696199464,11900,2017-11-14 12:53:50,12,16.55,5905.13753903,103.34646,0.70687304,1.8701936294,348.6, -5.8, 8.3,0,0,1024,1024,1684,1024,349.1,-25,100,4.146,4.165,4.156,4.146,0,0,82.31,6,GPS_Atti,
0.307982007666777,36.8793915141596,5906.77795903,104.98688,0,1.59947183596,12000,2017-11-14 12:53:50,12,16.55,5906.77795903,104.98688,0.70687304,1.8701936294,348.7, -5.7, 8.2,0,0,1024,1024,1684,1024,349.2,-25,100,4.146,4.165,4.156,4.146,0,0,82.31,6,GPS_Atti,
0.307982084390102,36.8793916063193,5908.41837903,106.6273,0,1.57572839688,12100,2017-11-14 12:53:51,12,16.55,5908.41837903,106.6273,0.70687304,1.8701936294,348.7, -5.8, 8.9,0,0,1024,1024,1684,1024,349.1,-25,100,4.146,4.165,4.156,4.146,0,0,82.31,6,GPS_Atti,
0.307982149318607,36.8793916800841,5910.05879903,108.26772,0,1.55776907872,12200,2017-11-14 12:53:51,12,16.55,5910.05879903,108.26772,0.70687304,1.8701936294,348.6, -6, 9.3,0,0,1024,1024,1684,1024,349.2,-25,100,4.146,4.165,4.156,4.146,0,0,82.31,6,GPS_Atti,
0.307982199455955,36.8793917480002,5911.69921903,109.90814,0,1.54057747712,12300,2017-11-14 12:53:51,12,16.55,5911.69921903,109.90814,0.70687304,1.8701936294,348.6, -6.1, 9.7,0,0,1024,1024,1684,1024,349.2,-25,100,4.146,4.165,4.156,4.146,0,0,82.31,6,GPS_Atti,
0.307982238721607,36.8793918199428,5913.33963903,111.54856,0,1.52101710904,12400,2017-11-14 12:53:51,12,16.417,5913.33963903,111.54856,0.70687304,1.8701936294,348.6, -5.9, 9.7,0,0,1024,1024,1684,1024,349.2,-25,100,4.14,4.162,4.155,4.145,0,0,82.31,6,GPS_Atti,
0.30798227186431,36.8793919101824,5915.30814303,113.517064,0,1.49477038904,12500,2017-11-14 12:53:51,12,16.417,5915.30814303,113.517064,0.70687304,1.8701936294,348.6, -6.1, 9.6,0,0,1024,1024,1684,1024,349.2,-25,100,4.14,4.162,4.155,4.145,0,0,82.31,6,GPS_Atti,
0.307982300047994,36.8793920093116,5916.94856303,115.157484,0,1.46520345896,12600,2017-11-14 12:53:51,12,16.417,5916.94856303,115.157484,0.70687304,1.8701936294,348.6, -6.2, 9.3,0,0,1024,1024,1684,1024,349.2,-25,100,4.14,4.162,4.155,4.145,0,0,82.31,6,GPS_Atti,
0.307982307336095,36.8793921476506,5918.58898303,116.797904,0,1.41984584596,12700,2017-11-14 12:53:51,12,16.417,5918.58898303,116.797904,0.70687304,1.8701936294,348.6, -6.1, 9.1,0,0,1024,1024,1684,1024,349.2,-25,100,4.14,4.162,4.155,4.145,0,0,82.31,6,GPS_Atti,
0.307982308185125,36.8793922877589,5920.22940303,118.438324,0,1.37329072636,12800,2017-11-14 12:53:51,12,16.417,5920.22940303,118.438324,0.70687304,1.8701936294,348.6, -6.4, 9.3,0,0,1024,1024,1684,1024,349.2,-25,100,4.14,4.162,4.155,4.145,0,0,82.31,6,GPS_Atti,
0.307982319804887,36.8793924400536,5921.86982303,120.078744,0.223694,1.3247539794,12900,2017-11-14 12:53:51,12,16.417,5921.86982303,120.078744,0.70687304,1.8701936294,348.6, -6.4, 9.2,0,0,1024,1024,1684,1024,349.2,-25.7,100,4.14,4.162,4.155,4.145,0,0,82.31,6,GPS_Atti,
0.307982347949488,36.8793925934778,5923.51024303,121.719164,0.223694,1.27917655012,13000,2017-11-14 12:53:51,12,16.417,5923.51024303,121.719164,0.70687304,1.8701936294,348.6, -6.2, 8.8,0,0,1024,1024,1684,1024,349.2,-27,100,4.14,4.162,4.155,4.145,0,0,82.31,6,GPS_Atti,
0.307982360468152,36.8793927782585,5924.82257903,123.0315,0.223694,1.22176513096,13100,2017-11-14 12:53:52,12,16.417,5924.82257903,123.0315,0.70687304,1.8701936294,348.6, -6.2, 8.2,0,0,1024,1024,1684,1023,349.2,-29,100,4.14,4.162,4.155,4.145,0,0,82.31,6,GPS_Atti,
0.307982361613762,36.8793929540089,5926.46299903,124.67192,0.223694,1.16618442052,13200,2017-11-14 12:53:52,12,16.417,5926.46299903,124.67192,0.70687304,1.8701936294,348.7, -6.2, 7.7,0,0,1024,1024,1684,1024,349.2,-31.6,100,4.14,4.162,4.155,4.145,0,0,82.31,6,GPS_Atti,
0.307982333128612,36.8793931458935,5928.10341903,126.31234,0.223694,1.1008202452,13300,2017-11-14 12:53:52,12,16.417,5928.10341903,126.31234,0.70687304,1.8701936294,348.7, -6.5, 7.8,0,0,1024,1024,1684,1023,349.2,-35,100,4.14,4.162,4.155,4.145,0,0,82.31,6,GPS_Atti,
0.307982287800263,36.8793933073536,5930.07192303,128.280844,0,1.0421424218,13400,2017-11-14 12:53:52,12,16.524,5930.07192303,128.280844,0.70687304,1.8701936294,348.6, -7.1, 8.2,0,0,1024,1024,1684,1019,349.2,-39.5,100,4.137,4.157,4.146,4.135,0,0,82.31,6,GPS_Atti,
0.307982234285929,36.879393455238,5931.71234303,129.921264,0,0.9862533124,13500,2017-11-14 12:53:52,12,16.524,5931.71234303,129.921264,0.70687304,1.8701936294,348.5, -7.5, 8.5,0,0,1024,1024,1684,1017,349.2,-45,100,4.137,4.157,4.146,4.135,0,0,82.31,6,GPS_Atti,
0.307982188037306,36.8793935695011,5933.35276303,131.561684,0,0.94219491204,13600,2017-11-14 12:53:52,12,16.524,5933.35276303,131.561684,0.70687304,1.8701936294,348.5, -7.7, 8.7,0,0,1024,1024,1684,1021,349.3,-56.3,100,4.137,4.157,4.146,4.135,0,0,82.31,6,GPS_Atti,
0.30798209800023,36.8793937822034,5936.96168703,135.170608,0,0.85960632672,13800,2017-11-14 12:53:52,12,16.524,5936.96168703,135.170608,0.70687304,1.8701936294,348.5, -7.7, 9,0,0,1024,1024,1684,1022,349.3,-61.9,100,4.137,4.157,4.146,4.135,0,0,82.31,6,GPS_Atti,
0.30798205256135,36.8793938707932,5938.60210703,136.811028,0,0.82363191612,13900,2017-11-14 12:53:52,12,16.524,5938.60210703,136.811028,0.70687304,1.8701936294,348.5, -7.8, 9.2,0,0,1024,1024,1684,1022,349.3,-67.6,100,4.137,4.157,4.146,4.135,0,0,82.31,6,GPS_Atti,
0.307982008075924,36.879393941571,5940.24252703,138.451448,0,0.79317915924,14000,2017-11-14 12:53:52,12,16.524,5940.24252703,138.451448,0.70687304,1.8701936294,348.5, -7.8, 9.1,0,0,1024,1024,1684,1021,349.3,-67.6,100,4.137,4.157,4.146,4.135,0,0,82.31,6,GPS_Atti,
0.307981951049851,36.8793940221693,5942.21103103,140.419952,0,0.75715553604,14100,2017-11-14 12:53:53,12,16.524,5942.21103103,140.419952,0.70687304,1.8701936294,348.5, -7.9, 9.2,0,0,1024,1024,1684,1022,349.3,-73.3,100,4.137,4.157,4.146,4.135,0,0,82.31,6,GPS_Atti,
0.307981896928107,36.8793940944577,5943.85145103,142.060372,0,0.72421918328,14200,2017-11-14 12:53:53,12,16.524,5943.85145103,142.060372,0.70687304,1.8701936294,348.5, -8.3, 9,0,0,1024,1024,1684,1022,349.3,-78.9,100,4.137,4.157,4.146,4.135,0,0,82.31,6,GPS_Atti,
0.307981841222702,36.8793941831969,5945.49187103,143.700792,0,0.6860564524,14300,2017-11-14 12:53:53,12,16.524,5945.49187103,143.700792,0.70687304,1.8701936294,348.5, -8.3, 8.9,0,0,1024,1024,1684,1023,349.3,-84.5,100,4.137,4.157,4.146,4.135,0,0,82.31,6,GPS_Atti,
0.307981797499388,36.8793942562572,5947.46037503,145.669296,0,0.65509844616,14400,2017-11-14 12:53:53,12,16.497,5947.46037503,145.669296,0.70687304,1.8701936294,348.5, -8, 9.1,0,0,1024,1024,1684,1023,349.3,-89.9,100,4.137,4.157,4.146,4.135,0,0,82.31,6,GPS_Atti,
0.30798177446749,36.879394317707,5949.10079503,147.309716,0,0.63202757928,14500,2017-11-14 12:53:53,12,16.497,5949.10079503,147.309716,0.70687304,1.8701936294,348.5, -8, 8.8,0,0,1024,1024,1684,1022,349.3,-90,100,4.137,4.157,4.146,4.135,0,0,82.31,6,GPS_Atti,
0.307981760468572,36.8793943605413,5951.06929903,149.27822,0,0.61643046592,14600,2017-11-14 12:53:53,12,16.497,5951.06929903,149.27822,0.70687304,1.8701936294,348.5, -8.4, 8.8,0,0,1024,1024,1684,1022,349.3,-90,100,4.137,4.157,4.146,4.135,0,0,82.31,6,GPS_Atti,
0.307981747212223,36.8793944201882,5952.70971903,150.91864,0,0.59618112144,14700,2017-11-14 12:53:53,12,16.497,5952.70971903,150.91864,0.70687304,1.8701936294,348.4, -8.6, 9,0,0,1024,1024,1684,1023,349.3,-90,100,4.137,4.157,4.146,4.135,0,0,82.31,6,GPS_Atti,
0.307981741793169,36.8793944777496,5954.35013903,152.55906,0,0.5784613046,14800,2017-11-14 12:53:53,12,16.497,5954.35013903,152.55906,0.70687304,1.8701936294,348.4, -8.7, 9.2,0,0,1024,1024,1684,1024,349.3,-90,100,4.137,4.157,4.146,4.135,0,0,82.31,6,GPS_Atti,
0.307981740662621,36.8793945510583,5955.99055903,154.19948,0,0.55760172388,14900,2017-11-14 12:53:53,12,16.497,5955.99055903,154.19948,0.70687304,1.8701936294,348.4, -8.8, 9.2,0,0,1024,1024,1684,1024,349.3,-90,100,4.137,4.157,4.146,4.135,0,0,82.31,6,GPS_Atti,
0.307981761879211,36.8793946099461,5957.63097903,155.8399,0,0.54665027996,15000,2017-11-14 12:53:53,12,16.497,5957.63097903,155.8399,0.70687304,1.8701936294,348.4, -8.2, 8.7,0,0,1024,1024,1684,1024,349.4,-89.9,100,4.137,4.157,4.146,4.135,0,0,82.31,6,GPS_Atti,
0.307981804270458,36.8793946702375,5958.94331503,157.152236,0,0.5415518546,15100,2017-11-14 12:53:54,12,16.497,5958.94331503,157.152236,0.70687304,1.8701936294,348.5, -7.7, 8,0,0,1024,1024,1684,1024,349.4,-90,100,4.137,4.157,4.146,4.135,0,0,82.31,6,GPS_Atti,
0.307981856041136,36.8793946965226,5960.58373503,158.792656,0,0.54861878396,15200,2017-11-14 12:53:54,12,16.497,5960.58373503,158.792656,0.70687304,1.8701936294,348.5, -7.7, 8.4,0,0,1024,1024,1684,1024,349.4,-90,100,4.137,4.157,4.146,4.135,0,0,82.31,6,GPS_Atti,
0.307981892527645,36.8793947036849,5962.22415503,160.433076,0,0.55676510968,15300,2017-11-14 12:53:54,12,16.497,5962.22415503,160.433076,0.70687304,1.8701936294,348.5, -7.4, 9.4,0,0,1024,1024,1684,1024,349.4,-89.9,100,4.137,4.157,4.146,4.135,0,0,82.31,6,GPS_Atti,
0.307981940285429,36.8793947024334,5963.86457503,162.073496,0,0.5702428004,15400,2017-11-14 12:53:54,12,16.391,5963.86457503,162.073496,0.70687304,1.8701936294,348.6, -6.9, 9.6,0,0,1024,1024,1684,1024,349.4,-90,100,4.118,4.142,4.136,4.124,0,0,82.31,6,GPS_Atti,
0.307981987406491,36.8793947452174,5965.50499503,163.713916,0,0.5737204908,15500,2017-11-14 12:53:54,12,16.391,5965.50499503,163.713916,0.70687304,1.8701936294,348.6, -6.5, 9.1,0,0,1024,1024,1684,1024,349.4,-90,100,4.118,4.142,4.136,4.124,0,0,82.31,6,GPS_Atti,
0.307982028494169,36.8793947945031,5967.14541503,165.354336,0,0.57494096328,15600,2017-11-14 12:53:54,12,16.391,5967.14541503,165.354336,0.70687304,1.8701936294,348.7, -6.7, 8.9,0,0,1024,1024,1684,1024,349.4,-90,100,4.118,4.142,4.136,4.124,0,0,82.31,6,GPS_Atti,
0.307982008879154,36.8793948757588,5968.78583503,166.994756,0,0.5521981804,15700,2017-11-14 12:53:54,12,16.391,5968.78583503,166.994756,0.70687304,1.8701936294,348.5, -7.5, 8.8,0,0,1024,1024,1684,1024,349.4,-90,100,4.118,4.142,4.136,4.124,0,0,82.31,6,GPS_Atti,
0.30798198202082,36.8793949426803,5970.42625503,168.635176,0,0.53073492512,15800,2017-11-14 12:53:54,12,16.391,5970.42625503,168.635176,0.70687304,1.8701936294,348.5, -7.9, 8.4,0,0,1024,1024,1684,1024,349.4,-90,100,4.118,4.142,4.136,4.124,0,0,82.31,6,GPS_Atti,
0.307981934177135,36.879394978028,5972.06667503,170.275596,0,0.50910106616,15900,2017-11-14 12:53:54,12,16.391,5972.06667503,170.275596,0.70687304,1.8701936294,348.6, -8, 8.6,0,0,1024,1024,1684,1024,349.4,-90,100,4.118,4.142,4.136,4.124,0,0,82.31,6,GPS_Atti,
0.307981893785618,36.8793949694344,5973.70709503,171.916016,0,0.49833663012,16000,2017-11-14 12:53:54,12,16.391,5973.70709503,171.916016,0.70687304,1.8701936294,348.6, -8, 9.3,0,0,1024,1024,1684,1024,349.4,-90,100,4.118,4.142,4.136,4.124,0,0,82.31,6,GPS_Atti,
0.30798181570987,36.8793949751117,5975.34751503,173.556436,0,0.47352035636,16100,2017-11-14 12:53:55,12,16.391,5975.34751503,173.556436,0.70687304,1.8701936294,348.5, -8.3, 9.8,0,0,1024,1024,1684,1024,349.4,-90,100,4.118,4.142,4.136,4.124,0,0,82.31,6,GPS_Atti,
0.307981750657197,36.8793949881505,5976.98793503,175.196856,0,0.4513943714,16200,2017-11-14 12:53:55,12,16.391,5976.98793503,175.196856,0.70687304,1.8701936294,348.4, -8.8, 9.7,0,0,1024,1024,1684,1024,349.4,-90,100,4.118,4.142,4.136,4.124,0,0,82.31,6,GPS_Atti,
0.307981701090618,36.8793949919907,5978.30027103,176.509192,0,0.436023636,16300,2017-11-14 12:53:55,12,16.391,5978.30027103,176.509192,0.70687304,1.8701936294,348.5, -8.6, 9.5,0,0,1024,1024,1684,1024,349.4,-90,100,4.118,4.142,4.136,4.124,0,0,82.31,6,GPS_Atti,
0.307981686926412,36.8793949898206,5979.94069103,178.149612,0,0.4323983078,16400,2017-11-14 12:53:55,12,16.364,5979.94069103,178.149612,0.70687304,1.8701936294,348.5, -8.4, 9.1,0,0,1024,1024,1684,1024,349.4,-90,99,4.108,4.133,4.124,4.116,0,0,82.31,6,GPS_Atti,
0.307981663628264,36.8793950116446,5981.58111103,179.790032,0,0.42080710008,16500,2017-11-14 12:53:55,12,16.364,5981.58111103,179.790032,0.70687304,1.8701936294,348.5, -8.4, 9.1,0,0,1024,1024,1684,1024,349.4,-90,99,4.108,4.133,4.124,4.116,0,0,82.31,6,GPS_Atti,
0.307981647656078,36.8793950394639,5983.22153103,181.430452,0,0.41002954068,16600,2017-11-14 12:53:55,12,16.364,5983.22153103,181.430452,0.70687304,1.8701936294,348.5, -8.4, 9.1,0,0,1024,1024,1684,1024,349.4,-90,99,4.108,4.133,4.124,4.116,0,0,82.31,6,GPS_Atti,
0.307981609187346,36.8793950905,5984.53386703,182.742788,0,0.38768702028,16700,2017-11-14 12:53:55,12,16.364,5984.53386703,182.742788,0.70687304,1.8701936294,348.5, -8.5, 9.2,0,0,1024,1024,1684,1024,349.4,-90,99,4.108,4.133,4.124,4.116,0,0,82.31,6,GPS_Atti,
0.307981588796377,36.8793951319961,5986.17428703,184.383208,0,0.37287074684,16800,2017-11-14 12:53:55,12,16.364,5986.17428703,184.383208,0.70687304,1.8701936294,348.5, -8.5, 9.1,0,0,1024,1024,1684,1024,349.4,-90,99,4.108,4.133,4.124,4.116,0,0,82.31,6,GPS_Atti,
0.307981573170236,36.8793951915595,5987.81470703,186.023628,0,0.3561187778,16900,2017-11-14 12:53:55,12,16.364,5987.81470703,186.023628,0.70687304,1.8701936294,348.6, -8.3, 9,0,0,1024,1024,1684,1024,349.5,-90,99,4.108,4.133,4.124,4.116,0,0,82.31,6,GPS_Atti,
0.307981569229808,36.8793952439317,5989.45512703,187.664048,0,0.34503281944,17000,2017-11-14 12:53:55,12,16.364,5989.45512703,187.664048,0.70687304,1.8701936294,348.5, -8.7, 8.9,0,0,1024,1024,1684,1024,349.5,-90,99,4.108,4.133,4.124,4.116,0,0,82.31,6,GPS_Atti,
0.307981581646287,36.8793952891792,5991.09554703,189.304468,0,0.3411745516,17100,2017-11-14 12:53:56,12,16.364,5991.09554703,189.304468,0.70687304,1.8701936294,348.5, -9, 8.9,0,0,1024,1024,1684,1024,349.5,-90,99,4.108,4.133,4.124,4.116,0,0,82.31,6,GPS_Atti,
0.307981610742103,36.8793953152898,5992.73596703,190.944888,0,0.34656825256,17200,2017-11-14 12:53:56,12,16.364,5992.73596703,190.944888,0.70687304,1.8701936294,348.4, -9.2, 9,0,0,1024,1024,1684,1024,349.5,-90,99,4.108,4.133,4.124,4.116,0,0,82.31,6,GPS_Atti,
0.30798163784796,36.8793953278789,5994.37638703,192.585308,0,0.35372048376,17300,2017-11-14 12:53:56,12,16.364,5994.37638703,192.585308,0.70687304,1.8701936294,348.4, -9.2, 9.3,0,0,1024,1024,1684,1024,349.5,-90,99,4.108,4.133,4.124,4.116,0,0,82.31,6,GPS_Atti,
0.307981675150727,36.8793953404294,5996.01680703,194.225728,0,0.3645177282,17400,2017-11-14 12:53:56,12,16.311,5996.01680703,194.225728,0.70687304,1.8701936294,348.6, -8.8, 8.7,0,0,1024,1024,1684,1024,349.5,-90,99,4.105,4.126,4.119,4.11,0,0,82.31,6,GPS_Atti,
0.307981704709835,36.8793953452631,5997.65722703,195.866148,0,0.37390749228,17500,2017-11-14 12:53:56,12,16.311,5997.65722703,195.866148,0.70687304,1.8701936294,348.6, -8.7, 9.1,0,0,1024,1024,1684,1024,349.5,-90,99,4.105,4.126,4.119,4.11,0,0,82.31,6,GPS_Atti,
0.307981725890192,36.8793953554883,5999.29764703,197.506568,0,0.37982940848,17600,2017-11-14 12:53:56,12,16.311,5999.29764703,197.506568,0.70687304,1.8701936294,348.5, -9.1, 9.3,0,0,1024,1024,1684,1024,349.5,-90,99,4.105,4.126,4.119,4.11,0,0,82.31,6,GPS_Atti,
0.307981732229317,36.8793953988376,6000.93806703,199.146988,0,0.37688977584,17700,2017-11-14 12:53:56,12,16.311,6000.93806703,199.146988,0.70687304,1.8701936294,348.5, -9.5, 8.7,0,0,1024,1024,1684,1024,349.5,-90,99,4.105,4.126,4.119,4.11,0,0,82.31,6,GPS_Atti,
0.307981756704423,36.8793954504101,6002.57848703,200.787408,0,0.38022639012,17800,2017-11-14 12:53:56,12,16.311,6002.57848703,200.787408,0.70687304,1.8701936294,348.4, -9.5, 8.2,0,0,1024,1024,1684,1024,349.5,-90,99,4.105,4.126,4.119,4.11,0,0,82.31,6,GPS_Atti,
0.307981808633467,36.8793954740423,6004.21890703,202.427828,0,0.3966043434,17900,2017-11-14 12:53:56,12,16.311,6004.21890703,202.427828,0.70687304,1.8701936294,348.5, -9.1, 8.1,0,0,1024,1024,1684,1024,349.5,-90,99,4.105,4.126,4.119,4.11,0,0,82.31,6,GPS_Atti,
0.30798188338556,36.8793954730028,6005.85932703,204.068248,0,0.4233267852,18000,2017-11-14 12:53:56,12,16.311,6005.85932703,204.068248,0.70687304,1.8701936294,348.5, -8.8, 8.3,0,0,1024,1024,1684,1024,349.5,-89.9,99,4.105,4.126,4.119,4.11,0,0,82.31,6,GPS_Atti,
0.307981959662691,36.8793954364528,6007.17166303,205.380584,0,0.45337599876,18100,2017-11-14 12:53:57,12,16.311,6007.17166303,205.380584,0.70687304,1.8701936294,348.5, -8.7, 8.6,0,0,1024,1024,1684,1024,349.5,-90,99,4.105,4.126,4.119,4.11,0,0,82.31,6,GPS_Atti,
0.307982035346254,36.8793953860473,6008.81208303,207.021004,0,0.48453413624,18200,2017-11-14 12:53:57,12,16.311,6008.81208303,207.021004,0.70687304,1.8701936294,348.4, -8.8, 9.3,0,0,1024,1024,1684,1024,349.5,-90,99,4.105,4.126,4.119,4.11,0,0,82.31,6,GPS_Atti,
0.307982103854486,36.879395333204,6010.45250303,208.661424,0,0.51366143376,18300,2017-11-14 12:53:57,12,16.311,6010.45250303,208.661424,0.70687304,1.8701936294,348.4, -8.4, 9.7,0,0,1024,1024,1684,1024,349.5,-90,99,4.105,4.126,4.119,4.11,0,0,82.31,6,GPS_Atti,
0.307982183108209,36.8793953034062,6012.09292303,210.301844,0,0.54444555548,18400,2017-11-14 12:53:57,12,16.311,6012.09292303,210.301844,0.70687304,1.8701936294,348.5, -7.9, 9.5,0,0,1024,1024,1684,1024,349.5,-89.9,99,4.105,4.126,4.119,4.11,0,0,82.31,6,GPS_Atti,
0.307982247933919,36.8793952759349,6013.40525903,211.61418,0,0.56995080564,18500,2017-11-14 12:53:57,12,16.311,6013.40525903,211.61418,0.70687304,1.8701936294,348.6, -7.7, 9.1,0,0,1024,1024,1684,1024,349.5,-90,99,4.105,4.126,4.119,4.11,0,0,82.31,6,GPS_Atti,
0.307982309640343,36.8793952603953,6015.37376303,213.582684,0,0.59314962528,18600,2017-11-14 12:53:57,12,16.311,6015.37376303,213.582684,0.70687304,1.8701936294,348.6, -8, 9,0,0,1024,1024,1684,1024,349.5,-90,99,4.105,4.126,4.119,4.11,0,0,82.31,6,GPS_Atti,
0.307982343901177,36.8793952533968,6016.68609903,214.89502,0,0.60586944196,18700,2017-11-14 12:53:57,12,16.311,6016.68609903,214.89502,0.70687304,1.8701936294,348.5, -8.3, 9.1,0,0,1024,1024,1684,1024,349.5,-90,99,4.105,4.126,4.119,4.11,0,0,82.31,6,GPS_Atti,
0.30798238977648,36.8793952524429,6018.32651903,216.53544,0,0.6220636682,18800,2017-11-14 12:53:57,12,16.311,6018.32651903,216.53544,0.70687304,1.8701936294,348.4, -8.4, 9.1,0,0,1024,1024,1684,1024,349.5,-90,99,4.105,4.126,4.119,4.11,0,0,82.31,6,GPS_Atti,
0.307982450565887,36.8793952525018,6019.96693903,218.17586,0,0.6434383408,18900,2017-11-14 12:53:57,12,16.311,6019.96693903,218.17586,0.70687304,1.8701936294,348.4, -8.3, 9,0,0,1024,1024,1684,1024,349.5,-90,99,4.105,4.126,4.119,4.11,0,0,82.31,6,GPS_Atti,
0.307982530454907,36.8793952513852,6021.60735903,219.81628,0,0.6717191816,19000,2017-11-14 12:53:57,12,16.311,6021.60735903,219.81628,0.70687304,1.8701936294,348.4, -8.2, 9,0,0,1024,1024,1684,1024,349.5,-90,99,4.105,4.126,4.119,4.11,0,0,82.31,6,GPS_Atti,
0.30798260560719,36.8793952266824,6023.24777903,221.4567,0,0.7005249568,19100,2017-11-14 12:53:58,12,16.311,6023.24777903,221.4567,0.70687304,1.8701936294,348.5, -7.9, 8.9,0,0,1024,1024,1684,1024,349.5,-90,99,4.105,4.126,4.119,4.11,0,0,82.31,6,GPS_Atti,
0.307982681667942,36.8793951960399,6024.88819903,223.09712,0,0.73021327796,19200,2017-11-14 12:53:58,12,16.311,6024.88819903,223.09712,0.70687304,1.8701936294,348.5, -7.9, 8.8,0,0,1024,1024,1684,1024,349.5,-90,99,4.105,4.126,4.119,4.11,0,0,82.31,6,GPS_Atti,
0.307982739001994,36.879395166664,6026.52861903,224.73754,0,0.75320540468,19300,2017-11-14 12:53:58,12,16.311,6026.52861903,224.73754,0.70687304,1.8701936294,348.5, -7.8, 8.9,0,0,1024,1024,1684,1024,349.5,-90,99,4.105,4.126,4.119,4.11,0,0,82.31,6,GPS_Atti,
0.307982803491023,36.8793951493129,6028.16903903,226.37796,0,0.77757220336,19400,2017-11-14 12:53:58,12,16.311,6028.16903903,226.37796,0.70687304,1.8701936294,348.5, -7.8, 9.2,0,0,1024,1024,1684,1024,349.5,-90,99,4.105,4.126,4.119,4.11,0,0,82.31,6,GPS_Atti,
0.307982852076464,36.8793951431013,6029.80945903,228.01838,0,0.79526905432,19500,2017-11-14 12:53:58,12,16.311,6029.80945903,228.01838,0.70687304,1.8701936294,348.5, -7.7, 9.1,0,0,1024,1024,1684,1024,349.5,-90,99,4.105,4.126,4.119,4.11,0,0,82.31,6,GPS_Atti,
0.307982910289265,36.8793951468548,6031.44987903,229.6588,0,0.81543965864,19600,2017-11-14 12:53:58,12,16.311,6031.44987903,229.6588,0.70687304,1.8701936294,348.5, -7.6, 8.9,0,0,1024,1024,1684,1024,349.5,-90,99,4.105,4.126,4.119,4.11,0,0,82.31,6,GPS_Atti,
0.307982979964277,36.879395158733,6032.76221503,230.971136,0,0.83899937068,19700,2017-11-14 12:53:58,12,16.311,6032.76221503,230.971136,0.70687304,1.8701936294,348.5, -7.4, 8.5,0,0,1024,1024,1684,1024,349.6,-89.9,99,4.105,4.126,4.119,4.11,0,0,82.31,6,GPS_Atti,
0.307983063417757,36.8793951666104,6034.40263503,232.611556,0,0.8679134136,19800,2017-11-14 12:53:58,12,16.311,6034.40263503,232.611556,0.70687304,1.8701936294,348.5, -7.4, 8.7,0,0,1024,1024,1684,1024,349.6,-89.9,99,4.105,4.126,4.119,4.11,0,0,82.31,6,GPS_Atti,
0.30798315039458,36.8793951737267,6036.04305503,234.251976,0,0.89825462192,19900,2017-11-14 12:53:58,12,16.311,6036.04305503,234.251976,0.70687304,1.8701936294,348.5, -7.4, 8.8,0,0,1024,1024,1684,1024,349.5,-89.9,99,4.105,4.126,4.119,4.11,0,0,82.31,6,GPS_Atti,
0.30798323705182,36.8793951848351,6037.68347503,235.892396,0,0.92827758876,20000,2017-11-14 12:53:58,12,16.311,6037.68347503,235.892396,0.70687304,1.8701936294,348.6, -7.2, 8.5,0,0,1024,1024,1684,1024,349.5,-89.9,99,4.105,4.126,4.119,4.11,0,0,82.31,6,GPS_Atti,
0.307983296681368,36.8793952201796,6039.32389503,237.532816,0,0.94703743188,20100,2017-11-14 12:53:59,12,16.311,6039.32389503,237.532816,0.70687304,1.8701936294,348.6, -7.2, 8.7,0,0,1024,1024,1684,1024,349.5,-90,99,4.105,4.126,4.119,4.11,0,0,82.31,6,GPS_Atti,
0.307983342159534,36.8793952559544,6040.96431503,239.173236,0,0.96098100188,20200,2017-11-14 12:53:59,12,16.311,6040.96431503,239.173236,0.70687304,1.8701936294,348.6, -7.4, 8.8,0,0,1024,1024,1684,1024,349.5,-90,99,4.105,4.126,4.119,4.11,0,0,82.31,6,GPS_Atti,
0.307983394842954,36.8793952669644,6042.60473503,240.813656,0,0.97923887648,20300,2017-11-14 12:53:59,12,16.311,6042.60473503,240.813656,0.70687304,1.8701936294,348.6, -7.3, 9,0,0,1024,1024,1684,1024,349.6,-90,99,4.105,4.126,4.119,4.11,0,0,82.31,6,GPS_Atti,
0.307983457263656,36.8793952772988,6044.24515503,242.454076,0,1.00109583256,20400,2017-11-14 12:53:59,12,16.311,6044.24515503,242.454076,0.70687304,1.8701936294,348.6, -7.5, 8.6,0,0,1024,1024,1684,1024,349.5,-90,99,4.105,4.129,4.122,4.112,0,0,82.31,6,GPS_Atti,
0.307983492830704,36.8793953131347,6045.88557503,244.094496,0,1.0119422896,20500,2017-11-14 12:53:59,12,16.311,6045.88557503,244.094496,0.70687304,1.8701936294,348.6, -7.6, 8.3,0,0,1024,1024,1684,1024,349.6,-90,99,4.105,4.129,4.122,4.112,0,0,82.31,6,GPS_Atti,
0.307983526899381,36.8793953644856,6047.52599503,245.734916,0,1.02173887784,20600,2017-11-14 12:53:59,12,16.311,6047.52599503,245.734916,0.70687304,1.8701936294,348.6, -7.6, 8,0,0,1024,1024,1684,1024,349.6,-90,99,4.105,4.129,4.122,4.112,0,0,82.31,6,GPS_Atti,
0.307983557445327,36.879395425247,6049.16641503,247.375336,0,1.03030187024,20700,2017-11-14 12:53:59,12,16.311,6049.16641503,247.375336,0.70687304,1.8701936294,348.5, -7.8, 7.8,0,0,1024,1024,1684,1024,349.6,-90,99,4.105,4.129,4.122,4.112,0,0,82.31,6,GPS_Atti,
0.307983604299121,36.8793954772059,6050.80683503,249.015756,0,1.04557746128,20800,2017-11-14 12:53:59,12,16.311,6050.80683503,249.015756,0.70687304,1.8701936294,348.6, -7.5, 7.8,0,0,1024,1024,1684,1024,349.6,-90,99,4.105,4.129,4.122,4.112,0,0,82.31,6,GPS_Atti,
0.307983644104602,36.8793955305931,6052.44725503,250.656176,0,1.058645047,20900,2017-11-14 12:53:59,12,16.311,6052.44725503,250.656176,0.70687304,1.8701936294,348.6, -7.3, 7.9,0,0,1024,1024,1684,1024,349.6,-90,99,4.105,4.129,4.122,4.112,0,0,82.31,6,GPS_Atti,
0.307983681377243,36.8793955836762,6054.08767503,252.296596,0,1.07118769832,21000,2017-11-14 12:53:59,12,16.311,6054.08767503,252.296596,0.70687304,1.8701936294,348.6, -7.4, 7.7,0,0,1024,1024,1684,1024,349.6,-90,99,4.105,4.129,4.122,4.112,0,0,82.31,6,GPS_Atti,
0.307983680005279,36.8793956953741,6055.72809503,253.937016,0,1.06966210772,21100,2017-11-14 12:54:00,12,16.311,6055.72809503,253.937016,0.70687304,1.8701936294,348.6, -7.7, 7.5,0,0,1024,1024,1684,1024,349.6,-90,99,4.105,4.129,4.122,4.112,0,0,82.31,6,GPS_Atti,
0.307983677251376,36.8793958040508,6057.04043103,255.249352,0,1.06915029668,21200,2017-11-14 12:54:00,12,16.311,6057.04043103,255.249352,0.70687304,1.8701936294,348.6, -7.8, 7.5,0,0,1024,1024,1684,1024,349.6,-90,99,4.105,4.129,4.122,4.112,0,0,82.31,6,GPS_Atti,
0.30798365194271,36.8793959556786,6058.68085103,256.889772,0,1.06308730436,21300,2017-11-14 12:54:00,12,16.311,6058.68085103,256.889772,0.70687304,1.8701936294,348.5, -8.2, 7.5,0,0,1024,1024,1684,1024,349.6,-90,99,4.105,4.129,4.122,4.112,0,0,82.31,6,GPS_Atti,
0.307983641107655,36.8793960890507,6060.32127103,258.530192,0,1.06431433852,21400,2017-11-14 12:54:00,12,16.311,6060.32127103,258.530192,0.70687304,1.8701936294,348.6, -8.2, 7.4,0,0,1024,1024,1684,1024,349.6,-90,99,4.103,4.124,4.118,4.109,0,0,82.31,6,GPS_Atti,
0.307983624570399,36.8793962150934,6061.96169103,260.170612,0,1.06526250128,21500,2017-11-14 12:54:00,12,16.311,6061.96169103,260.170612,0.70687304,1.8701936294,348.6, -8.1, 7.4,0,0,1024,1024,1684,1024,349.6,-90,99,4.103,4.124,4.118,4.109,0,0,82.31,6,GPS_Atti,
0.307983626215127,36.8793962979111,6063.60211103,261.811032,0,1.0714567272,21600,2017-11-14 12:54:00,12,16.311,6063.60211103,261.811032,0.70687304,1.8701936294,348.6, -8, 7.3,0,0,1024,1024,1684,1024,349.6,-90,99,4.103,4.124,4.118,4.109,0,0,82.31,6,GPS_Atti,
0.307983614280261,36.8793963650297,6065.24253103,263.451452,0,1.07235239652,21700,2017-11-14 12:54:00,12,16.311,6065.24253103,263.451452,0.70687304,1.8701936294,348.6, -8.1, 7.3,0,0,1024,1024,1684,1024,349.6,-90,99,4.103,4.124,4.118,4.109,0,0,82.31,6,GPS_Atti,
0.307983613737175,36.879396405999,6066.88295103,265.091872,0,1.0755741814,21800,2017-11-14 12:54:00,12,16.311,6066.88295103,265.091872,0.70687304,1.8701936294,348.5, -8.3, 7.6,0,0,1024,1024,1684,1024,349.6,-90,99,4.103,4.124,4.118,4.109,0,0,82.31,6,GPS_Atti,
0.307983609559402,36.8793964393362,6068.52337103,266.732292,0,1.077017751,21900,2017-11-14 12:54:00,12,16.311,6068.52337103,266.732292,0.70687304,1.8701936294,348.5, -8.2, 7.7,0,0,1024,1024,1684,1024,349.6,-90,99,4.103,4.124,4.118,4.109,0,0,82.31,6,GPS_Atti,
0.307983619707458,36.8793964657712,6070.16379103,268.372712,0,1.08301184568,22000,2017-11-14 12:54:00,12,16.311,6070.16379103,268.372712,0.70687304,1.8701936294,348.5, -8, 7.7,0,0,1024,1024,1684,1024,349.6,-90,99,4.103,4.124,4.118,4.109,0,0,82.31,6,GPS_Atti,
0.307983621819143,36.8793964760895,6071.80421103,270.013132,0,1.08471788248,22100,2017-11-14 12:54:01,12,16.311,6071.80421103,270.013132,0.70687304,1.8701936294,348.6, -7.8, 7.6,0,0,1024,1024,1684,1024,349.6,-90,99,4.103,4.124,4.118,4.109,0,0,82.31,6,GPS_Atti,
0.307983630472694,36.8793964770756,6073.44463103,271.653552,0,1.0878609272,22200,2017-11-14 12:54:01,12,16.311,6073.44463103,271.653552,0.70687304,1.8701936294,348.6, -7.9, 7.6,0,0,1024,1024,1684,1024,349.6,-90,99,4.103,4.124,4.118,4.109,0,0,82.31,6,GPS_Atti,
0.307983621672583,36.8793964597352,6075.08505103,273.293972,0,1.08314964096,22300,2017-11-14 12:54:01,12,16.311,6075.08505103,273.293972,0.70687304,1.8701936294,348.6, -8, 7.7,0,0,1024,1024,1684,1024,349.6,-90,99,4.103,4.124,4.118,4.109,0,0,82.31,6,GPS_Atti,
0.307983621843976,36.8793964402986,6076.72547103,274.934392,0,1.08145016584,22400,2017-11-14 12:54:01,12,16.284,6076.72547103,274.934392,0.70687304,1.8701936294,348.6, -8, 7.9,0,0,1024,1024,1684,1024,349.6,-90,99,4.099,4.12,4.115,4.105,0,0,84.11,6,GPS_Atti,
0.307983605301225,36.8793964122727,6078.36589103,276.574812,0,1.07312339392,22500,2017-11-14 12:54:01,12,16.284,6078.36589103,276.574812,0.70687304,1.8701936294,348.6, -7.9, 7.7,0,0,1024,1024,1684,1024,349.6,-90,99,4.099,4.12,4.115,4.105,0,0,84.11,6,GPS_Atti,
0.307983595052205,36.8793963875956,6080.00631103,278.215232,0,1.06737864308,22600,2017-11-14 12:54:01,12,16.284,6080.00631103,278.215232,0.70687304,1.8701936294,348.6, -8.1, 7.7,0,0,1024,1024,1684,1024,349.6,-90,99,4.099,4.12,4.115,4.105,0,0,84.11,6,GPS_Atti,
0.307983570185458,36.8793963524931,6081.64673103,279.855652,0,1.05564964008,22700,2017-11-14 12:54:01,12,16.284,6081.64673103,279.855652,0.70687304,1.8701936294,348.5, -8.3, 7.9,0,0,1024,1024,1612,1024,349.6,-90,99,4.099,4.12,4.115,4.105,0,0,84.11,6,GPS_Atti,
0.307983561119096,36.8793963145192,6083.28715103,281.496072,0,1.0494422908,22800,2017-11-14 12:54:01,12,16.284,6083.28715103,281.496072,0.70687304,1.8701936294,348.5, -8.3, 8.1,0,0,1024,1024,1612,1024,349.6,-90,99,4.099,4.12,4.115,4.105,0,0,84.11,6,GPS_Atti,
0.307983522620441,36.8793962699141,6084.92757103,283.136492,0,1.03238520364,22900,2017-11-14 12:54:01,12,16.284,6084.92757103,283.136492,0.70687304,1.8701936294,348.3, -9.1, 9,0,0,1024,1024,1551,1023,349.6,-90,99,4.099,4.12,4.115,4.105,0,0,84.11,6,GPS_Atti,
0.307983472197301,36.8793962090703,6086.56799103,284.776912,0,1.01014767012,23000,2017-11-14 12:54:01,12,16.284,6086.56799103,284.776912,0.70687304,1.8701936294,348.1, -10.5, 10.4,0,0,1024,1024,1542,1023,349.6,-90,99,4.099,4.12,4.115,4.105,0,0,84.11,6,GPS_Atti,
0.307983416693212,36.8793961318936,6087.88032703,286.089248,0,0.98547575332,23100,2017-11-14 12:54:02,12,16.284,6087.88032703,286.089248,0.70687304,1.8701936294,348.2, -10.1, 10.5,0,0,1024,1024,1546,1024,349.6,-90,99,4.099,4.12,4.115,4.105,0,0,84.11,6,GPS_Atti,
0.307983398154395,36.8793960559897,6089.19266303,287.401584,0,0.97485567424,23200,2017-11-14 12:54:02,12,16.284,6089.19266303,287.401584,0.70687304,1.8701936294,348.5, -8.4, 9.5,0,0,1024,1024,1547,1024,349.6,-90,99,4.099,4.12,4.115,4.105,0,0,84.11,6,GPS_Atti,
