latitude,longitude,altitude(feet),ascent(feet),speed(mph),distance(feet),time(millisecond),datetime(utc),satellites,gpslevel,voltage(v),max_altitude(feet),max_ascent(feet),max_speed(mph),max_distance(feet), xSpeed(mph), ySpeed(mph), zSpeed(mph), compass_heading(degrees), pitch(degrees), roll(degrees),isPhoto,isVideo,rc_elevator,rc_aileron,rc_throttle,rc_rudder,gimbal_heading(degrees),gimbal_pitch(degrees),battery_percent,voltageCell1,voltageCell2,voltageCell3,voltageCell4,voltageCell5,voltageCell6,current(A),battery_temperature(f),flycStateRaw,flycState,message
0.313740210429078,36.8862270917646,5837.5867573408,0,0,0,0,2018-03-30 07:28:17,8,0,17.158,5837.5867573408,0,0,0,0,0,0,217.9, 2.8, 2,0,0,364,364,364,1684,222.3,0,100,4.312,4.316,4.27,4.298,0,0,1.538,82.31,41,Motors_Started,Setting new Return-To-Home altitude to 30m (98 ft). Setting new Maximum Flight Altitude to 120m (394 ft)
0.313740176469355,36.8862270928919,5837.5867573408,0,0,0.0123970148324,100,2018-03-30 07:28:17,8,0,17.158,5837.5867573408,0,0,0.0123970148324,0,0,0,217.9, 2.8, 2,0,0,364,364,364,1684,222.3,0,100,4.312,4.316,4.27,4.298,0,0,1.538,82.31,41,Motors_Started,
0.313740150353922,36.8862270945997,5837.5867573408,0,0,0.0219427828544,200,2018-03-30 07:28:17,8,0,17.158,5837.5867573408,0,0,0.0219427828544,0,0,0,217.9, 2.8, 2,0,0,364,364,364,1684,222.3,0,100,4.312,4.316,4.27,4.298,0,0,1.538,82.31,41,Motors_Started,
0.313740131312501,36.8862270952361,5837.5867573408,0,0,0.0288934064364,300,2018-03-30 07:28:17,8,0,17.158,5837.5867573408,0,0,0.0288934064364,0,0,0,217.9, 2.8, 2,0,0,364,364,364,1684,222.3,0,100,4.312,4.316,4.27,4.298,0,0,1.538,82.31,41,Motors_Started,
0.313740122789658,36.8862271273004,5837.5867573408,0,0,0.034503610028,400,2018-03-30 07:28:17,8,0,17.158,5837.5867573408,0,0,0.034503610028,0,0,0,217.9, 2.8, 2,0,0,364,364,364,1684,222.3,0,100,4.312,4.316,4.27,4.298,0,0,1.538,82.31,41,Motors_Started,
0.313740114983279,36.8862271575423,5837.5867573408,0,0,0.04229166802,500,2018-03-30 07:28:17,8,0,17.158,5837.5867573408,0,0,0.04229166802,0,0,0,217.9, 2.8, 2,0,0,364,364,364,1684,222.3,0,100,4.312,4.316,4.27,4.298,0,0,1.538,82.31,41,Motors_Started,
0.313740086555455,36.8862271855363,5837.5867573408,0,0,0.056684056932,600,2018-03-30 07:28:17,8,0,17.158,5837.5867573408,0,0,0.056684056932,0,0,0,217.9, 2.8, 2,0,0,364,364,364,1684,222.3,0,100,4.312,4.316,4.27,4.298,0,0,1.538,82.31,41,Motors_Started,
0.313740056844469,36.8862272042741,5837.5867573408,0,0,0.069461616396,700,2018-03-30 07:28:17,8,0,17.158,5837.5867573408,0,0,0.069461616396,0,0,0,217.9, 2.8, 2,0,0,364,364,460,1660,222.3,0,100,4.312,4.316,4.27,4.298,0,0,1.538,82.31,41,Motors_Started,
0.313740037258003,36.8862272182376,5837.5867573408,0,0,0.078237207228,800,2018-03-30 07:28:17,8,0,17.158,5837.5867573408,0,0,0.078237207228,0,0,0,217.9, 2.8, 2,0,0,635,545,578,1574,222.3,0,100,4.312,4.316,4.27,4.298,0,0,1.538,82.31,41,Motors_Started,
0.313740021783485,36.8862272281858,5837.5867573408,0,0,0.084937994844,900,2018-03-30 07:28:17,8,0,17.158,5837.5867573408,0,0,0.084937994844,0,0,0,217.9, 2.8, 2.1,0,0,951,898,835,1355,222.2,0,100,4.312,4.316,4.27,4.298,0,0,1.538,82.31,41,Motors_Started,
0.313740018074424,36.8862272317748,5837.5867573408,0,0,0.086802496216,1000,2018-03-30 07:28:18,8,0,17.131,5837.5867573408,0,0,0.086802496216,0,0,0,218, 2.8, 2.1,0,0,1024,1024,1024,1030,221.8,0,100,4.312,4.316,4.27,4.298,0,0,1.554,82.31,41,Motors_Started,
0.313740014358238,36.8862272360629,5837.5867573408,0,0,0.0888205409,1100,2018-03-30 07:28:18,8,0,17.131,5837.5867573408,0,0,0.0888205409,0,0,0,218, 2.8, 2.1,0,0,1024,1024,1024,1024,220.8,0,100,4.312,4.316,4.27,4.298,0,0,1.554,82.31,41,Motors_Started,
0.31373998070171,36.8862272365192,5837.5867573408,0,0,0.099067260388,1200,2018-03-30 07:28:18,8,0,17.131,5837.5867573408,0,0,0.099067260388,0,0,0,217.9, 2.7, 2,0,0,1024,1024,1024,1024,219.7,0,100,4.312,4.316,4.27,4.298,0,0,1.554,82.31,41,Motors_Started,
0.313739952894528,36.8862272388588,5837.5867573408,0,0,0.108207352544,1300,2018-03-30 07:28:18,8,0,17.131,5837.5867573408,0,0,0.108207352544,0,0,0,218, 2.7, 2.1,0,0,1024,1024,1024,1024,219.2,0,100,4.312,4.316,4.27,4.298,0,0,1.554,82.31,41,Motors_Started,
0.313739932263415,36.8862272359251,5837.5867573408,0,0,0.11430774644,1400,2018-03-30 07:28:18,8,0,17.131,5837.5867573408,0,0,0.11430774644,0,0,0,218, 2.7, 2.1,0,0,1024,1024,1024,1024,219,0,100,4.312,4.316,4.27,4.298,0,0,1.554,82.31,41,Motors_Started,
0.313739919109658,36.8862272354507,5837.5867573408,0,0,0.118512799068,1500,2018-03-30 07:28:18,8,0,17.131,5837.5867573408,0,0,0.118512799068,0,0,0,217.9, 2.8, 2.2,0,0,1024,1024,1024,1024,218.8,0,100,4.312,4.316,4.27,4.298,0,0,1.554,82.31,10,Assisted_Takeoff,
0.313739911571947,36.8862272318371,5837.5867573408,0,0,0.12041995136,1600,2018-03-30 07:28:18,8,0,17.131,5837.5867573408,0,0,0.12041995136,0,0,0,217.9, 2.5, 2,0,0,1024,1024,1024,1024,218.7,0,100,4.312,4.316,4.27,4.298,0,0,1.554,82.31,10,Assisted_Takeoff,
0.313739903902994,36.886227230933,5837.5867573408,0,0,0.122822510492,1700,2018-03-30 07:28:18,8,0,17.131,5837.5867573408,0,0,0.122822510492,0,0,0,217.9, 2.6, 2,0,0,1024,1024,1024,1024,218.6,0,100,4.312,4.316,4.27,4.298,0,0,1.554,82.31,10,Assisted_Takeoff,
0.313739907393156,36.8862272277533,5837.5867573408,0,0,0.12118438708,1800,2018-03-30 07:28:18,8,0,17.131,5837.5867573408,0,0,0.122822510492,0,0,0,217.9, 2.5, 2,0,0,1024,1024,1024,1024,218.5,0,100,4.312,4.316,4.27,4.298,0,0,1.554,82.31,10,Assisted_Takeoff,
0.313739906322302,36.8862272268214,5837.5867573408,0,0,0.12140256294,1900,2018-03-30 07:28:18,8,0,17.131,5837.5867573408,0,0,0.122822510492,0,0,0,217.9, 2.6, 2,0,0,1024,1024,1024,1024,218.5,0,100,4.312,4.316,4.27,4.298,0,0,1.554,82.31,10,Assisted_Takeoff,
0.313739739621187,36.8862272493682,5837.5867573408,0,0,0.181142722332,2000,2018-03-30 07:28:19,14,0,17.077,5837.5867573408,0,0,0.181142722332,0,0,0,217.9, 2.5, 2,0,0,1024,1024,1024,1024,218.5,0,100,4.301,4.316,4.264,4.288,0,0,3.2,82.31,10,Assisted_Takeoff,
0.313739528493626,36.8862272793802,5837.5867573408,0,0,0.25804790852,2100,2018-03-30 07:28:19,14,0,17.077,5837.5867573408,0,0,0.25804790852,0,0,0,217.9, 2.5, 2,0,0,1024,1024,1024,1024,218.4,0,100,4.301,4.316,4.264,4.288,0,0,3.2,82.31,10,Assisted_Takeoff,
0.313739132719244,36.8862273077142,5837.5867573408,0,0,0.4010170732,2200,2018-03-30 07:28:19,14,0,17.077,5837.5867573408,0,0,0.4010170732,0,0,0,217.9, 2.5, 2,0,0,1024,1024,1024,1024,218.4,0,100,4.301,4.316,4.264,4.288,0,0,3.2,82.31,10,Assisted_Takeoff,
0.313738798680292,36.8862273256075,5837.5867573408,0,0,0.52209319256,2300,2018-03-30 07:28:19,14,0,17.077,5837.5867573408,0,0,0.52209319256,0,0,0,217.9, 2.5, 2,0,0,1024,1024,1024,1024,218.3,0,100,4.301,4.316,4.264,4.288,0,0,3.2,82.31,10,Assisted_Takeoff,
0.313738316949409,36.8862273380328,5837.5867573408,0,0,0.6966535656,2400,2018-03-30 07:28:19,14,0,17.077,5837.5867573408,0,0,0.6966535656,0,0,0,217.9, 2.5, 2,0,0,1024,1024,1024,1024,218.3,0,100,4.301,4.316,4.264,4.288,0,0,3.2,82.31,10,Assisted_Takeoff,
0.313737909790778,36.886227348319,5837.5867573408,0,0,0.84458992204,2500,2018-03-30 07:28:19,14,0,17.077,5837.5867573408,0,0,0.84458992204,0,0,0,217.9, 2.5, 2,0,0,1024,1024,1024,1024,218.3,0,100,4.301,4.316,4.264,4.288,0,0,3.2,82.31,10,Assisted_Takeoff,
0.313737415306837,36.8862273518459,5837.5867573408,0,0,1.02420278868,2600,2018-03-30 07:28:19,14,0,17.077,5837.5867573408,0,0,1.02420278868,0,0,0,217.9, 2.5, 2,0,0,1024,1024,1024,1024,218.3,0,100,4.301,4.316,4.264,4.288,0,0,3.2,82.31,10,Assisted_Takeoff,
0.313737005562644,36.886227356389,5837.5867573408,0,0,1.17327431576,2700,2018-03-30 07:28:19,14,0,17.077,5837.5867573408,0,0,1.17327431576,0,0,0,217.9, 2.5, 2,0,0,1024,1024,1024,1024,218.3,0,100,4.301,4.316,4.264,4.288,0,0,3.2,82.31,10,Assisted_Takeoff,
0.313736569712662,36.8862273276755,5837.5867573408,0,0,1.33109912396,2800,2018-03-30 07:28:19,14,0,17.077,5837.5867573408,0,0,1.33109912396,0,0,0,217.9, 2.5, 1.9,0,0,1024,1024,1024,1024,218.2,0,100,4.301,4.316,4.264,4.288,0,0,3.2,82.31,10,Assisted_Takeoff,
0.313736203662471,36.8862272987276,5837.5867573408,0,0,1.46381566364,2900,2018-03-30 07:28:19,14,0,17.077,5837.5867573408,0,0,1.46381566364,0,0,0,217.9, 2.5, 1.9,0,0,1024,1024,1024,1024,218.2,0,100,4.301,4.316,4.264,4.288,0,0,3.2,82.31,10,Assisted_Takeoff,
0.313735837214532,36.8862272649767,5837.5867573408,0,0,1.59681435556,3000,2018-03-30 07:28:20,14,0,17.158,5837.5867573408,0,0,1.59681435556,0,0,0,217.9, 2.5, 1.9,0,0,1024,1024,1024,1024,218.2,0,100,4.307,4.311,4.264,4.292,0,0,1.762,82.31,10,Assisted_Takeoff,
0.313735510721689,36.8862272455205,5837.5867573408,0,0,1.71560372944,3100,2018-03-30 07:28:20,14,0,17.158,5837.5867573408,0,0,1.71560372944,0,0,0,217.9, 2.5, 1.9,0,0,1024,1024,1024,1024,218.2,0,100,4.307,4.311,4.264,4.292,0,0,1.762,82.31,10,Assisted_Takeoff,
0.313735197401329,36.8862272256356,5837.5867573408,0,0,1.82965228952,3200,2018-03-30 07:28:20,14,0,17.158,5837.5867573408,0,0,1.82965228952,0,0,0,217.9, 2.5, 1.9,0,0,1024,1024,1024,1024,218.2,0,100,4.307,4.311,4.264,4.292,0,0,1.762,82.31,10,Assisted_Takeoff,
0.313734901964133,36.8862272144886,5837.5867573408,0,0,1.93730649244,3300,2018-03-30 07:28:20,14,0,17.158,5837.5867573408,0,0,1.93730649244,0,0,0,217.9, 2.5, 1.9,0,0,1024,1024,1024,1024,218.2,0,100,4.307,4.311,4.264,4.292,0,0,1.762,82.31,10,Assisted_Takeoff,
0.313734625994172,36.8862272049093,5837.5867573408,0,0,2.03789704684,3400,2018-03-30 07:28:20,14,0,17.158,5837.5867573408,0,0,2.03789704684,0,0,0,217.9, 2.5, 1.9,0,0,1024,1024,1024,1024,218.2,0,100,4.307,4.311,4.264,4.292,0,0,1.762,82.31,10,Assisted_Takeoff,
0.313734353114183,36.8862271998988,5837.5867573408,0,0,2.1374016432,3500,2018-03-30 07:28:20,14,0,17.158,5837.5867573408,0,0,2.1374016432,0,0,0,217.9, 2.5, 1.9,0,0,1024,1024,1024,1024,218.2,0,100,4.307,4.311,4.264,4.292,0,0,1.762,82.31,10,Assisted_Takeoff,
0.313734129494625,36.8862271725858,5837.5867573408,0,0,2.21882224948,3600,2018-03-30 07:28:20,14,0,17.158,5837.5867573408,0,0,2.21882224948,0,0,0,217.9, 2.5, 1.9,0,0,1024,1024,1024,1024,218.2,0,100,4.307,4.311,4.264,4.292,0,0,1.762,82.31,10,Assisted_Takeoff,
0.313733911625102,36.8862271407097,5837.5867573408,0,0,2.29818576908,3700,2018-03-30 07:28:20,14,0,17.158,5837.5867573408,0,0,2.29818576908,0,0,0,217.9, 2.5, 1.9,0,0,1024,1024,1024,1024,218.2,0,100,4.307,4.311,4.264,4.292,0,0,1.762,82.31,10,Assisted_Takeoff,
0.313733735726689,36.8862271086502,5837.5867573408,0,0,2.36229994436,3800,2018-03-30 07:28:20,14,0,17.158,5837.5867573408,0,0,2.36229994436,0,0,0,217.9, 2.5, 1.9,0,0,1024,1024,1024,1024,218.2,0,100,4.307,4.311,4.264,4.292,0,0,1.762,82.31,10,Assisted_Takeoff,
0.313733532211086,36.8862270898227,5837.5867573408,0,0,2.43654535356,3900,2018-03-30 07:28:20,14,0,17.158,5837.5867573408,0,0,2.43654535356,0,0,0,217.9, 2.5, 1.9,0,0,1024,1024,1024,1024,218.2,0,100,4.307,4.311,4.264,4.292,0,0,1.762,82.31,10,Assisted_Takeoff,
0.31373336689308,36.8862270488977,5837.5867573408,0,0,2.49690952872,4000,2018-03-30 07:28:21,14,0,17.131,5837.5867573408,0,0,2.49690952872,0,0,0,217.9, 2.5, 1.9,0,0,1024,1024,1024,1024,218.2,0,100,4.307,4.311,4.264,4.292,0,0,1.762,82.31,10,Assisted_Takeoff,
0.31373317943882,36.8862270090632,5837.5867573408,0,0,2.56542987212,4100,2018-03-30 07:28:21,14,0,17.131,5837.5867573408,0,0,2.56542987212,0,0,0,217.9, 2.5, 1.9,0,0,1024,1024,1024,1024,218.2,0,100,4.307,4.311,4.264,4.292,0,0,1.762,82.31,10,Assisted_Takeoff,
0.313733021390188,36.8862269755659,5837.5867573408,0,0,2.62325795796,4200,2018-03-30 07:28:21,14,0,17.131,5837.5867573408,0,0,2.62325795796,0,0,0,217.9, 2.5, 1.9,0,0,1024,1024,1024,1024,218.2,0,100,4.307,4.311,4.264,4.292,0,0,1.762,82.31,10,Assisted_Takeoff,
0.313732836155498,36.8862269534116,5837.5867573408,0,0,2.69097121472,4300,2018-03-30 07:28:21,14,0,17.131,5837.5867573408,0,0,2.69097121472,0,0,0,217.9, 2.5, 1.9,0,0,1024,1024,1024,1024,218.2,0,100,4.307,4.311,4.264,4.292,0,0,1.762,82.31,10,Assisted_Takeoff,
0.313732702484672,36.8862269129431,5837.5867573408,0,0,2.74004601944,4400,2018-03-30 07:28:21,14,0,17.131,5837.5867573408,0,0,2.74004601944,0,0,0,217.9, 2.5, 1.9,0,0,1024,1024,1024,1024,218.2,0,100,4.307,4.311,4.264,4.292,0,0,1.762,82.31,10,Assisted_Takeoff,
0.313732550011832,36.8862268733959,5837.5867573408,0,0,2.79603355404,4500,2018-03-30 07:28:21,14,0,17.131,5837.5867573408,0,0,2.79603355404,0,0,0,217.9, 2.5, 1.9,0,0,1024,1024,1024,1024,218.2,0,100,4.307,4.311,4.264,4.292,0,0,1.762,82.31,10,Assisted_Takeoff,
0.313732440854788,36.8862268451213,5837.5867573408,0,0,2.83615166556,4600,2018-03-30 07:28:21,14,0,17.131,5837.5867573408,0,0,2.83615166556,0,0,0,217.9, 2.5, 1.9,0,0,1024,1024,1024,1024,218.2,0,100,4.307,4.311,4.264,4.292,0,0,1.762,82.31,10,Assisted_Takeoff,
0.313732305793272,36.8862268249231,5837.5867573408,0,0,2.88564313696,4700,2018-03-30 07:28:21,14,0,17.131,5837.5867573408,0,0,2.88564313696,0,0,0,217.9, 2.5, 1.9,0,0,1024,1024,1024,1024,218.1,0,100,4.307,4.311,4.264,4.292,0,0,1.762,82.31,10,Assisted_Takeoff,
0.313732204519525,36.8862267892557,5837.5867573408,0,0,2.92303487044,4800,2018-03-30 07:28:21,14,0,17.131,5837.5867573408,0,0,2.92303487044,0,0,0,217.9, 2.5, 1.9,0,0,1024,1024,1024,1024,218.1,0,100,4.307,4.311,4.264,4.292,0,0,1.762,82.31,10,Assisted_Takeoff,
0.313732076124858,36.8862267520613,5837.5867573408,0,0,2.97038395332,4900,2018-03-30 07:28:21,14,0,17.131,5837.5867573408,0,0,2.97038395332,0,0,0,217.9, 2.5, 1.9,0,0,1024,1024,1024,1024,218.1,0,100,4.307,4.311,4.264,4.292,0,0,1.762,82.31,10,Assisted_Takeoff,
0.313732000308577,36.8862267278576,5837.5867573408,0,0,2.99839904608,5000,2018-03-30 07:28:22,14,0,17.158,5837.5867573408,0,0,2.99839904608,0,0,0,217.9, 2.4, 1.9,0,0,1024,1024,1024,1024,218.1,0,100,4.307,4.311,4.265,4.293,0,0,1.97,82.31,10,Assisted_Takeoff,
0.313731902166328,36.8862267099188,5837.5867573408,0,0,3.0344653202,5100,2018-03-30 07:28:22,14,0,17.158,5837.5867573408,0,0,3.0344653202,0,0,0,217.9, 2.5, 1.9,0,0,1024,1024,1024,1024,218.1,0,100,4.307,4.311,4.265,4.293,0,0,1.97,82.31,10,Assisted_Takeoff,
0.313731765334693,36.8862266427807,5837.5867573408,0,0,3.08553815648,5300,2018-03-30 07:28:22,14,0,17.158,5837.5867573408,0,0,3.08553815648,0,0,0,217.9, 2.5, 1.9,0,0,1024,1024,1024,1024,218.1,0,100,4.307,4.311,4.265,4.293,0,0,1.97,82.31,10,Assisted_Takeoff,
0.313731716333185,36.8862266216533,5837.5867573408,0,0,3.10380915444,5400,2018-03-30 07:28:22,14,0,17.158,5837.5867573408,0,0,3.10380915444,0,0,0,217.9, 2.4, 1.9,0,0,1024,1024,1024,1024,218.1,0,100,4.307,4.311,4.265,4.293,0,0,1.97,82.31,10,Assisted_Takeoff,
0.313731639451087,36.8862266057133,5837.5867573408,0,0,3.13213920784,5500,2018-03-30 07:28:22,14,0,17.158,5837.5867573408,0,0,3.13213920784,0,0,0,217.8, 2.5, 1.9,0,0,1024,1024,1024,1024,218.1,0,100,4.307,4.311,4.265,4.293,0,0,1.97,82.31,10,Assisted_Takeoff,
0.31373158650223,36.8862265760209,5837.5867573408,0,0,3.15205718748,5600,2018-03-30 07:28:22,14,0,17.158,5837.5867573408,0,0,3.15205718748,0,0,0,217.8, 2.4, 1.9,0,0,1024,1024,1024,1024,218.1,0,100,4.307,4.311,4.265,4.293,0,0,1.97,82.31,10,Assisted_Takeoff,
0.313731508336104,36.8862265431786,5837.5867573408,0,0,3.18125666348,5700,2018-03-30 07:28:22,14,0,17.158,5837.5867573408,0,0,3.18125666348,0,0,0,217.8, 2.4, 1.9,0,0,1024,1024,1024,1024,218.1,0,100,4.307,4.311,4.265,4.293,0,0,1.97,82.31,10,Assisted_Takeoff,
0.313731472897092,36.8862264970448,5837.5867573408,0,0,3.1952592886,5800,2018-03-30 07:28:22,14,0,17.158,5837.5867573408,0,0,3.1952592886,0,0,0,217.8, 2.4, 1.9,0,1,1024,1024,1024,1024,218.1,0,100,4.307,4.311,4.265,4.293,0,0,1.97,82.31,10,Assisted_Takeoff,
0.313731422401486,36.8862264527276,5837.5867573408,0,0,3.21477372492,5900,2018-03-30 07:28:23,14,0,17.158,5837.5867573408,0,0,3.21477372492,0,0,0,217.8, 2.4, 1.9,0,1,1024,1024,1024,1024,218.1,0,100,4.307,4.311,4.265,4.293,0,0,1.97,82.31,10,Assisted_Takeoff,
0.31373138128816,36.8862263954121,5837.5867573408,0,0,3.23130915852,6000,2018-03-30 07:28:23,13,0,17.131,5837.5867573408,0,0,3.23130915852,0,0,0,217.8, 2.4, 1.9,0,1,1024,1024,1024,1024,218.1,0,100,4.307,4.311,4.265,4.293,0,0,1.97,82.31,10,Assisted_Takeoff,
0.313731312935852,36.8862263439051,5837.5867573408,0,0,3.25769039296,6100,2018-03-30 07:28:23,13,0,17.131,5837.5867573408,0,0,3.25769039296,0,0,0,217.8, 2.4, 1.9,0,1,1024,1024,1024,1024,218.1,0,100,4.307,4.311,4.265,4.293,0,0,1.97,82.31,10,Assisted_Takeoff,
0.313731275916435,36.8862262790617,5837.5867573408,0,0,3.27320876616,6200,2018-03-30 07:28:23,13,0,17.131,5837.5867573408,0,0,3.27320876616,0,0,0,217.8, 2.4, 1.9,0,1,1024,1024,1024,1024,218.1,0,100,4.307,4.311,4.265,4.293,0,0,1.97,82.31,10,Assisted_Takeoff,
0.313731218977076,36.8862262237529,5837.5867573408,0,0,3.295767822,6300,2018-03-30 07:28:23,13,0,17.131,5837.5867573408,0,0,3.295767822,0,0,0,217.8, 2.4, 1.9,0,1,1024,1024,1024,1024,218.1,0,100,4.307,4.311,4.265,4.293,0,0,1.97,82.31,10,Assisted_Takeoff,
0.313731189249017,36.8862261896054,5837.5867573408,0,0,3.3077756964,6400,2018-03-30 07:28:23,13,0,17.131,5837.5867573408,0,0,3.3077756964,0,0,0,217.8, 2.4, 1.9,0,1,1024,1024,1024,1024,218.1,0,100,4.307,4.311,4.265,4.293,0,0,1.97,82.31,10,Assisted_Takeoff,
0.313731144221726,36.8862261633936,5837.5867573408,0,0,3.3250985316,6500,2018-03-30 07:28:23,13,0,17.131,5837.5867573408,0,0,3.3250985316,0,0,0,217.8, 2.4, 1.9,0,1,1024,1024,1024,1024,218.1,0,100,4.307,4.311,4.265,4.293,0,0,1.97,82.31,10,Assisted_Takeoff,
0.313731122417675,36.8862261296847,5837.5867573408,0,0,3.3342848836,6600,2018-03-30 07:28:23,13,0,17.131,5837.5867573408,0,0,3.3342848836,0,0,0,217.8, 2.4, 1.9,0,1,1024,1024,1024,1024,218.1,0,100,4.307,4.311,4.265,4.293,0,0,1.97,82.31,10,Assisted_Takeoff,
0.313731081692734,36.8862260921021,5837.5867573408,0,0,3.3505250416,6700,2018-03-30 07:28:23,13,0,17.131,5837.5867573408,0,0,3.3505250416,0,0,0,217.8, 2.4, 1.9,0,1,1024,1024,1024,1024,218.1,0,100,4.307,4.311,4.265,4.293,0,0,1.97,82.31,10,Assisted_Takeoff,
0.313731058372601,36.8862260457403,5837.5867573408,0,0,3.3608596876,6800,2018-03-30 07:28:23,13,0,17.131,5837.5867573408,0,0,3.3608596876,0,0,0,217.8, 2.4, 1.9,0,1,1024,1024,1024,1024,218.1,0,100,4.307,4.311,4.265,4.293,0,0,1.97,82.31,10,Assisted_Takeoff,
0.313731017787706,36.886225999739,5837.5867573408,0,0,3.3775263548,6900,2018-03-30 07:28:23,13,0,17.131,5837.5867573408,0,0,3.3775263548,0,0,0,217.8, 2.4, 1.9,0,1,1024,1024,1024,1024,218.1,0,100,4.307,4.311,4.265,4.293,0,0,1.97,82.31,10,Assisted_Takeoff,
0.313730990740065,36.8862259742397,5837.5867573408,0,0,3.3884187436,7000,2018-03-30 07:28:24,13,0,17.158,5837.5867573408,0,0,3.3884187436,0,0,0,217.8, 2.4, 1.9,0,1,1024,1024,1024,1024,218.1,0,100,4.307,4.311,4.265,4.293,0,0,1.962,82.31,10,Assisted_Takeoff,
0.313730947808582,36.8862259534434,5837.5867573408,0,0,3.4048885604,7100,2018-03-30 07:28:24,13,0,17.158,5837.5867573408,0,0,3.4048885604,0,0,0,217.8, 2.4, 1.9,0,1,1024,1024,1024,1024,218.1,0,100,4.307,4.311,4.265,4.293,0,0,1.962,82.31,10,Assisted_Takeoff,
0.313730915816171,36.8862259252784,5837.5867573408,0,0,3.4177494532,7200,2018-03-30 07:28:24,14,0,17.158,5837.5867573408,0,0,3.4177494532,0,0,0,217.8, 2.4, 1.9,0,1,1024,1024,1024,1024,218.1,0,100,4.307,4.311,4.265,4.293,0,0,1.962,82.31,10,Assisted_Takeoff,
0.313730870897172,36.8862258911662,5837.5867573408,0,0,3.4355644144,7300,2018-03-30 07:28:24,14,0,17.158,5837.5867573408,0,0,3.4355644144,0,0,0,217.8, 2.4, 1.9,0,1,1024,1024,1024,1024,218.1,0,100,4.307,4.311,4.265,4.293,0,0,1.962,82.31,10,Assisted_Takeoff,
0.31373083443224,36.886225847827,5837.5867573408,0,0,3.450787512,7400,2018-03-30 07:28:24,14,0,17.158,5837.5867573408,0,0,3.450787512,0,0,0,217.8, 2.4, 1.9,0,1,1024,1024,1024,1024,218.1,0,100,4.307,4.311,4.265,4.293,0,0,1.962,82.31,10,Assisted_Takeoff,
0.313730786688704,36.8862258042359,5837.5867573408,0,0,3.4701772764,7500,2018-03-30 07:28:24,14,0,17.158,5837.5867573408,0,0,3.4701772764,0,0,0,217.8, 2.4, 1.9,0,1,1024,1024,1024,1024,218.1,0,100,4.307,4.311,4.265,4.293,0,0,1.962,82.31,10,Assisted_Takeoff,
0.313730746466138,36.88622578002,5837.5867573408,0,0,3.4859253084,7600,2018-03-30 07:28:24,14,0,17.158,5837.5867573408,0,0,3.4859253084,0,0,0,217.8, 2.4, 1.9,0,1,1024,1024,1024,1024,218.1,0,100,4.307,4.311,4.265,4.293,0,0,1.962,82.31,10,Assisted_Takeoff,
0.313730697037977,36.886225760932,5837.5867573408,0,0,3.50475733,7700,2018-03-30 07:28:24,14,0,17.158,5837.5867573408,0,0,3.50475733,0,0,0,217.8, 2.4, 1.9,0,1,1024,1024,1024,1024,218.1,0,100,4.307,4.311,4.265,4.293,0,0,1.962,82.31,10,Assisted_Takeoff,
0.313730653738465,36.8862257344326,5837.5867573408,0,0,3.5217520812,7800,2018-03-30 07:28:24,14,0,17.158,5837.5867573408,0,0,3.5217520812,0,0,0,217.8, 2.4, 1.9,0,1,1024,1024,1024,1024,218.1,0,100,4.307,4.311,4.265,4.293,0,0,1.962,82.31,10,Assisted_Takeoff,
0.313730603879581,36.8862257011176,5837.5867573408,0,0,3.5414699296,7900,2018-03-30 07:28:25,14,0,17.158,5837.5867573408,0,0,3.5414699296,0,0,0,217.8, 2.4, 1.9,0,1,1024,1024,1024,1024,218.1,0,100,4.307,4.311,4.265,4.293,0,0,1.962,82.31,10,Assisted_Takeoff,
0.313730586367295,36.8862256839174,5837.5867573408,0,0,3.5486877776,8000,2018-03-30 07:28:25,14,0,17.158,5837.5867573408,0,0,3.5486877776,0,0,0,217.8, 2.4, 1.9,0,1,1024,1024,1092,1023,218.1,0,100,4.307,4.311,4.265,4.293,0,0,1.962,82.31,10,Assisted_Takeoff,
0.313730561327525,36.8862256688197,5837.5867573408,0,0,3.5585302976,8100,2018-03-30 07:28:25,14,0,17.158,5837.5867573408,0,0,3.5585302976,0,0,0,217.8, 2.4, 1.9,0,1,1024,1024,1092,1023,218.1,0,100,4.307,4.311,4.265,4.293,0,0,1.962,82.31,10,Assisted_Takeoff,
0.3137305419409,36.8862256443398,5837.5867573408,0,0,3.5668636312,8200,2018-03-30 07:28:25,14,0,17.158,5837.5867573408,0,0,3.5668636312,0,0,0,217.8, 2.4, 1.9,0,1,1024,1024,1134,1023,218.1,0,100,4.307,4.311,4.265,4.293,0,0,1.962,82.31,10,Assisted_Takeoff,
0.313730504754567,36.886225612334,5837.5867573408,0,0,3.582021112,8300,2018-03-30 07:28:25,14,0,17.158,5837.5867573408,0,0,3.582021112,0,0,0,217.8, 2.4, 1.9,0,1,1024,1024,1164,1024,218.1,0,100,4.307,4.311,4.265,4.293,0,0,1.962,82.31,10,Assisted_Takeoff,
0.313730470615867,36.8862255958588,5837.5867573408,0,0,3.5952428972,8400,2018-03-30 07:28:25,14,0,17.158,5837.5867573408,0,0,3.5952428972,0,0,0,217.8, 2.3, 1.9,0,1,1024,1024,1202,1024,218.1,0,100,4.307,4.311,4.265,4.293,0,0,1.962,82.31,10,Assisted_Takeoff,
0.313730423534294,36.8862255817619,5837.5867573408,0,0,3.6129922416,8500,2018-03-30 07:28:25,14,0,17.158,5837.5867573408,0,0,3.6129922416,0,0,0,217.8, 2.3, 1.8,0,1,1024,1024,1205,1024,218.1,0,100,4.307,4.311,4.265,4.293,0,0,1.962,82.31,10,Assisted_Takeoff,
0.313730377963103,36.8862255828669,5837.5867573408,0,0,3.6293636332,8600,2018-03-30 07:28:25,14,0,17.158,5837.5867573408,0,0,3.6293636332,0,0,0,217.8, 2.2, 1.8,0,1,1024,1024,1200,1024,218,0,100,4.307,4.311,4.265,4.293,0,0,1.962,82.31,10,Assisted_Takeoff,
0.313730323886549,36.8862255800404,5837.5867573408,0,0,3.6490158648,8700,2018-03-30 07:28:25,14,0,17.158,5837.5867573408,0,0,3.6490158648,0,0,0,217.9, 2.2, 1.8,0,1,1024,1024,1200,1024,218,0,100,4.307,4.311,4.265,4.293,0,0,1.962,82.31,10,Assisted_Takeoff,
0.313730273067697,36.8862255901829,5837.5867573408,0,0,3.6667980176,8800,2018-03-30 07:28:25,14,0,17.158,5837.5867573408,0,0,3.6667980176,0,0,0,217.9, 2, 1.8,0,1,1024,1024,1208,1024,218,0,100,4.307,4.311,4.265,4.293,0,0,1.962,82.31,10,Assisted_Takeoff,
0.313730215366227,36.8862255911711,5837.5867573408,0,0,3.6875657348,8900,2018-03-30 07:28:25,14,0,17.158,5837.5867573408,0,0,3.6875657348,0,0,0,218.1, 2.4, 1.5,0,1,1024,1024,1229,1024,218,0,100,4.307,4.311,4.265,4.293,0,0,1.962,82.31,10,Assisted_Takeoff,
0.313730179007958,36.8862255830518,5837.5867573408,0,0,3.701115604,9000,2018-03-30 07:28:26,14,0,17.131,5837.5867573408,0,0,3.701115604,0,0,0,218.4, 3.1, 0.1,0,1,1024,1024,1281,1024,218,0,100,4.307,4.311,4.265,4.293,0,0,1.962,82.31,10,Assisted_Takeoff,
0.313730165824075,36.8862255878426,5837.5867573408,0,0,3.7056103548,9100,2018-03-30 07:28:26,14,0,17.131,5837.5867573408,0,0,3.7056103548,0,0,-0.447388,218.6, 3.2, -1.2,0,1,1024,1024,1299,1024,218.1,0,100,4.307,4.311,4.265,4.293,0,0,1.962,82.31,6,P-GPS,Home Point Recorded. RTH Altitude:  30m.
0.313730201146654,36.8862256650252,5837.5867573408,0,0.223694,3.6887796456,9200,2018-03-30 07:28:26,14,0,17.131,5837.5867573408,0,0.223694,3.7056103548,0,0.223694,-0.894776,218.6, 0.9, 0.4,0,1,1024,1024,1287,1024,218.1,0,100,4.307,4.311,4.265,4.293,0,0,1.962,82.31,6,P-GPS,
0.313730221873489,36.8862257572629,5837.5867573408,0,0,3.6767061544,9300,2018-03-30 07:28:26,14,0,17.131,5837.5867573408,0,0.223694,3.7056103548,0,0,-1.342164,218.5, 0.4, 1.7,0,1,1024,1024,1282,1024,218.1,0,100,4.307,4.311,4.265,4.293,0,0,1.962,82.31,6,P-GPS,
0.313730258433685,36.8862258393118,5837.9148413408,0.328084,0,3.659612978,9400,2018-03-30 07:28:26,14,0,17.131,5837.9148413408,0.328084,0.223694,3.7056103548,0,0,-1.789552,218.5, -0.1, 0.5,0,1,1024,1024,1288,1024,218.1,0,100,4.307,4.311,4.265,4.293,0,0,1.962,82.31,6,P-GPS,
0.313730263612951,36.8862258922714,5838.2429253408,0.656168,0,3.6553806944,9500,2018-03-30 07:28:26,14,0,17.131,5838.2429253408,0.656168,0.223694,3.7056103548,0,0,-2.013246,218.4, -1.3, 0.4,0,1,1024,1024,1306,1024,218.1,0,100,4.307,4.311,4.265,4.293,0,0,1.962,82.31,6,P-GPS,
0.313730224527853,36.8862258653652,5838.5710093408,0.984252,0,3.6707350256,9600,2018-03-30 07:28:26,14,0,17.131,5838.5710093408,0.984252,0.223694,3.7056103548,0,0,-2.23694,218.5, -0.7, 0.6,0,1,1024,1024,1327,1024,218.1,0,100,4.307,4.311,4.265,4.293,0,0,1.962,82.31,6,P-GPS,
0.313730132283014,36.8862257679345,5838.8990933408,1.312336,0,3.7085959192,9700,2018-03-30 07:28:26,14,0,17.131,5838.8990933408,1.312336,0.223694,3.7085959192,0,0,-2.460634,218.8, 1.3, 0.3,0,1,1024,1024,1382,1024,218.1,0,100,4.307,4.311,4.265,4.293,0,0,1.962,82.31,6,P-GPS,
0.313730030359518,36.8862256685777,5839.2271773408,1.64042,0.223694,3.7502953956,9800,2018-03-30 07:28:26,15,0,17.131,5839.2271773408,1.64042,0.223694,3.7502953956,0,-0.223694,-2.684328,218.8, 1.8, -0.1,0,1,1024,1024,1420,1024,218.1,0,100,4.307,4.311,4.265,4.293,0,0,1.962,82.31,6,P-GPS,
0.313729920039766,36.8862255807696,5839.5552613408,1.968504,0.223694,3.7946851608,9900,2018-03-30 07:28:26,15,0,17.131,5839.5552613408,1.968504,0.223694,3.7946851608,0,-0.223694,-3.35541,218.8, 1.4, -0.1,0,1,1024,1024,1465,1024,218.1,0,100,4.307,4.311,4.265,4.293,0,0,1.962,82.31,6,P-GPS,
0.313729829577259,36.8862255020481,5840.2114293408,2.624672,0.223694,3.8315946108,10000,2018-03-30 07:28:27,15,0,17.024,5840.2114293408,2.624672,0.223694,3.8315946108,0,-0.223694,-3.802798,218.7, 2.3, -0.5,0,1,1024,1024,1480,1024,218.1,0,100,4.306,4.31,4.265,4.292,0,0,1.978,82.31,6,P-GPS,
0.31372974185868,36.886225418415,5840.8675973408,3.28084,0.223694,3.867946318,10100,2018-03-30 07:28:27,15,0,17.024,5840.8675973408,3.28084,0.223694,3.867946318,0,-0.223694,-4.47388,218.9, 2.4, -0.7,0,1,1024,1024,1465,1024,218.1,0,100,4.306,4.31,4.265,4.292,0,0,1.978,82.31,6,P-GPS,
0.313729690911996,36.8862252908917,5841.5237653408,3.937008,0.223694,3.893864954,10200,2018-03-30 07:28:27,15,0,17.024,5841.5237653408,3.937008,0.223694,3.893864954,0,-0.223694,-5.144962,218.8, 1.4, -0.3,0,1,1024,1024,1461,1024,218.1,0,100,4.306,4.31,4.265,4.292,0,0,1.978,82.31,6,P-GPS,
0.313729619321526,36.8862250915672,5842.5080173408,4.92126,0.447388,3.9324804408,10300,2018-03-30 07:28:27,15,0,17.024,5842.5080173408,4.92126,0.447388,3.9324804408,0,-0.447388,-5.59235,218.7, 2, -0.9,0,1,1024,1024,1460,1024,218.1,0,100,4.306,4.31,4.265,4.292,0,0,1.978,82.31,6,P-GPS,
0.313729546366421,36.8862248943868,5843.1641853408,5.577428,0.447388,3.9725066888,10400,2018-03-30 07:28:27,15,0,17.024,5843.1641853408,5.577428,0.447388,3.9725066888,0,-0.447388,-6.039738,218.6, 3.7, -1.8,0,1,1024,1024,1490,1024,218.1,0,100,4.306,4.31,4.265,4.292,0,0,1.978,82.31,6,P-GPS,
0.313729429892779,36.8862247281152,5844.1484373408,6.56168,0.223694,4.0267061656,10500,2018-03-30 07:28:27,15,0,17.024,5844.1484373408,6.56168,0.447388,4.0267061656,0,-0.223694,-6.263432,218.6, 4, -2.1,0,1,1024,1024,1491,1024,218.2,0,100,4.306,4.31,4.265,4.292,0,0,1.978,82.31,6,P-GPS,
0.313729333819468,36.8862245443683,5845.1326893408,7.545932,0.3131716,4.0757219152,10600,2018-03-30 07:28:27,15,0,17.024,5845.1326893408,7.545932,0.447388,4.0757219152,-0.223694,-0.223694,-6.487126,218.6, 3.8, -1.9,0,1,1024,1024,1502,1024,218.2,0,100,4.306,4.31,4.265,4.292,0,0,1.978,82.31,6,P-GPS,
0.313729193595784,36.8862243382525,5846.1169413408,8.530184,0.3131716,4.1431103688,10700,2018-03-30 07:28:27,15,0,17.024,5846.1169413408,8.530184,0.447388,4.1431103688,-0.223694,-0.447388,-6.71082,218.5, 4.2, -2.3,0,1,1024,1024,1511,1024,218.2,0,100,4.306,4.31,4.265,4.292,0,0,1.978,82.31,6,P-GPS,
0.313728998515521,36.88622418311,5847.1011933408,9.514436,0.4921268,4.2260828124,10800,2018-03-30 07:28:27,15,0,17.024,5847.1011933408,9.514436,0.4921268,4.2260828124,-0.223694,-0.447388,-6.71082,218.4, 5.8, -1.6,0,1,1024,1024,1525,1024,218.2,0,100,4.306,4.31,4.265,4.292,0,0,1.978,82.31,6,P-GPS,
0.313728762807209,36.8862240473388,5848.0854453408,10.498688,0.4921268,4.3218177236,10900,2018-03-30 07:28:27,15,0,17.024,5848.0854453408,10.498688,0.4921268,4.3218177236,-0.223694,-0.447388,-6.71082,218.5, 7.1, -0.6,0,1,1024,1024,1517,1024,218.2,0,100,4.306,4.31,4.265,4.292,0,0,1.978,82.31,6,P-GPS,
0.313728616339256,36.8862238504215,5849.0696973408,11.48294,0.447388,4.3922901668,11000,2018-03-30 07:28:28,15,0,16.703,5849.0696973408,11.48294,0.4921268,4.3922901668,0,-0.447388,-6.934514,218.6, 5.7, -2,0,1,1024,1024,1511,1024,218.2,0,100,4.235,4.236,4.192,4.223,0,0,12.4,82.31,6,P-GPS,
0.313728482090333,36.8862236115835,5850.0539493408,12.467192,0.4921268,4.4634843948,11100,2018-03-30 07:28:28,15,0,16.703,5850.0539493408,12.467192,0.4921268,4.4634843948,-0.223694,-0.447388,-7.158208,218.6, 6, -3.9,0,1,1024,1024,1500,1024,218.2,0,100,4.235,4.236,4.192,4.223,0,0,12.4,82.31,6,P-GPS,
0.313728378382877,36.8862233114718,5851.3662853408,13.779528,0.4921268,4.5318899088,11200,2018-03-30 07:28:28,14,0,16.703,5851.3662853408,13.779528,0.4921268,4.5318899088,-0.447388,-0.223694,-7.158208,218.4, 7.5, -3.1,0,1,1024,1024,1499,1024,218.2,0,100,4.235,4.236,4.192,4.223,0,0,12.4,82.31,6,P-GPS,
0.313728259935561,36.8862230522377,5852.3505373408,14.76378,0.3131716,4.6024935856,11300,2018-03-30 07:28:28,14,0,16.703,5852.3505373408,14.76378,0.4921268,4.6024935856,-0.223694,-0.223694,-7.158208,218.4, 8.3, -1.4,0,1,1024,1024,1500,1024,218.2,0,100,4.235,4.236,4.192,4.223,0,0,12.4,82.31,6,P-GPS,
0.313728216290819,36.8862227460472,5853.3347893408,15.748032,0.223694,4.6544292828,11400,2018-03-30 07:28:28,15,0,16.703,5853.3347893408,15.748032,0.4921268,4.6544292828,0,-0.223694,-7.158208,218.3, 7.5, -2.4,0,1,1024,1024,1512,1024,218.2,0,100,4.235,4.236,4.192,4.223,0,0,12.4,82.31,6,P-GPS,
0.313728153576998,36.8862224885263,5854.3190413408,16.732284,0.447388,4.7086287596,11500,2018-03-30 07:28:28,15,0,16.703,5854.3190413408,16.732284,0.4921268,4.7086287596,0,-0.447388,-7.158208,218.4, 7.3, -3.4,0,1,1024,1024,1529,1024,218.2,0,100,4.235,4.236,4.192,4.223,0,0,12.4,82.31,6,P-GPS,
0.313728019036583,36.8862223540422,5855.6313773408,18.04462,0.223694,4.7720802052,11600,2018-03-30 07:28:28,15,0,16.703,5855.6313773408,18.04462,0.4921268,4.7720802052,0,-0.223694,-6.934514,218.4, 7.4, -4,0,1,1024,1024,1540,1024,218.2,0,100,4.235,4.236,4.192,4.223,0,0,12.4,82.31,6,P-GPS,
0.313727841074524,36.8862223081384,5856.6156293408,19.028872,0,4.8386812572,11700,2018-03-30 07:28:28,15,0,16.703,5856.6156293408,19.028872,0.4921268,4.8386812572,0,0,-6.934514,218.4, 7.3, -3.1,0,1,1024,1024,1517,1024,218.2,0,100,4.235,4.236,4.192,4.223,0,0,12.4,82.31,6,P-GPS,
0.313727663335561,36.8862223263867,5857.5998813408,20.013124,0,4.8968505504,11800,2018-03-30 07:28:28,15,0,16.703,5857.5998813408,20.013124,0.4921268,4.8968505504,0,0,-7.158208,218.3, 6.7, -1.3,0,1,1024,1024,1522,1024,218.2,0,100,4.235,4.236,4.192,4.223,0,0,12.4,82.31,6,P-GPS,
0.313727524262372,36.8862223179702,5858.5841333408,20.997376,0,4.945374174,11900,2018-03-30 07:28:28,15,0,16.703,5858.5841333408,20.997376,0.4921268,4.945374174,0,0,-7.381902,218.3, 6.3, -1.8,0,1,1024,1024,1539,1024,218.3,0,100,4.235,4.236,4.192,4.223,0,0,12.4,82.31,6,P-GPS,
0.313727439302378,36.886222250472,5859.8964693408,22.309712,0.223694,4.983103834,12000,2018-03-30 07:28:29,15,0,16.515,5859.8964693408,22.309712,0.4921268,4.983103834,0,-0.223694,-7.381902,218.4, 6.5, -2.3,0,1,1024,1024,1525,1024,218.2,0,100,4.198,4.198,4.158,4.184,0,0,16.824,84.11,6,P-GPS,
0.313727344574977,36.8862221277805,5860.8807213408,23.293964,0.223694,5.0313649904,12100,2018-03-30 07:28:29,15,0,16.515,5860.8807213408,23.293964,0.4921268,5.0313649904,0,-0.223694,-7.605596,218.4, 6.8, -3.6,0,1,1024,1024,1491,1024,218.3,0,100,4.198,4.198,4.158,4.184,0,0,16.824,84.11,6,P-GPS,
0.313727220674815,36.8862219825054,5862.1930573408,24.6063,0.3131716,5.0927166984,12200,2018-03-30 07:28:29,15,0,16.515,5862.1930573408,24.6063,0.4921268,5.0927166984,-0.223694,-0.223694,-7.82929,218.4, 6.8, -4,0,1,1024,1024,1489,1024,218.3,0,100,4.198,4.198,4.158,4.184,0,0,16.824,84.11,6,P-GPS,
0.313727031150803,36.886221832245,5863.1773093408,25.590552,0.3131716,5.1771983284,12300,2018-03-30 07:28:29,15,0,16.515,5863.1773093408,25.590552,0.4921268,5.1771983284,-0.223694,-0.223694,-7.605596,218.2, 9.5, -4.8,0,1,1024,1024,1497,1024,218.3,0,100,4.198,4.198,4.158,4.184,0,0,16.824,84.11,6,P-GPS,
0.313726800668168,36.8862216787601,5864.4896453408,26.902888,0.3131716,5.276082846,12400,2018-03-30 07:28:29,15,0,16.515,5864.4896453408,26.902888,0.4921268,5.276082846,-0.223694,0,-7.158208,218.3, 10.6, -3.7,0,1,1024,1024,1511,1024,218.3,0,100,4.198,4.198,4.158,4.184,0,0,16.824,84.11,6,P-GPS,
0.313726571053493,36.886221563741,5865.4738973408,27.88714,0.223694,5.3694883608,12500,2018-03-30 07:28:29,15,0,16.515,5865.4738973408,27.88714,0.4921268,5.3694883608,-0.223694,0,-7.158208,218.4, 9.1, -2.2,0,1,1024,1024,1517,1024,218.3,0,100,4.198,4.198,4.158,4.184,0,0,16.824,84.11,6,P-GPS,
0.313726386409114,36.886221443924,5866.4581493408,28.871392,0.3131716,5.4483597544,12600,2018-03-30 07:28:29,15,0,16.515,5866.4581493408,28.871392,0.4921268,5.4483597544,-0.223694,-0.223694,-7.381902,218.4, 8.8, -1.9,0,1,1024,1024,1519,1024,218.3,0,100,4.198,4.198,4.158,4.184,0,0,16.824,84.11,6,P-GPS,
0.313726201509068,36.8862213177943,5867.7704853408,30.183728,0.3131716,5.5282482084,12700,2018-03-30 07:28:29,15,0,16.515,5867.7704853408,30.183728,0.4921268,5.5282482084,-0.223694,-0.223694,-7.381902,218.3, 9.5, -2.5,0,1,1024,1024,1520,1024,218.3,0,100,4.198,4.198,4.158,4.184,0,0,16.824,84.11,6,P-GPS,
0.313726001554058,36.8862212168235,5868.7547373408,31.16798,0.3131716,5.609744274,12800,2018-03-30 07:28:29,15,0,16.515,5868.7547373408,31.16798,0.4921268,5.609744274,-0.223694,-0.223694,-7.158208,218.3, 10.2, -2.4,0,1,1024,1024,1542,1024,218.3,0,100,4.198,4.198,4.158,4.184,0,0,16.824,84.11,6,P-GPS,
0.313725795314883,36.8862211343151,5870.0670733408,32.480316,0,5.690781022,12900,2018-03-30 07:28:29,15,0,16.515,5870.0670733408,32.480316,0.4921268,5.690781022,0,0,-7.381902,218.3, 10.5, -2.4,0,1,1024,1024,1541,1024,218.3,0,100,4.198,4.198,4.158,4.184,0,0,16.824,84.11,6,P-GPS,
0.313725637977881,36.8862210476918,5871.0513253408,33.464568,0,5.755905696,13000,2018-03-30 07:28:30,15,0,16.649,5871.0513253408,33.464568,0.4921268,5.755905696,0,0,-7.605596,218.3, 10.3, -2.7,0,1,1024,1024,1552,1024,218.3,0,100,4.198,4.198,4.158,4.184,0,0,16.824,84.11,6,P-GPS,
0.313725505714031,36.8862209580789,5872.3636613408,34.776904,0,5.8130251204,13100,2018-03-30 07:28:30,15,0,16.649,5872.3636613408,34.776904,0.4921268,5.8130251204,0,0,-7.82929,218.3, 9.8, -2.7,0,1,1024,1024,1571,1024,218.3,0,100,4.198,4.198,4.158,4.184,0,0,16.824,84.11,6,P-GPS,
0.31372538049483,36.8862208757707,5873.6759973408,36.08924,0,5.8667652796,13200,2018-03-30 07:28:30,15,0,16.649,5873.6759973408,36.08924,0.4921268,5.8667652796,0,0,-8.052984,218.3, 10.1, -3.1,0,1,1024,1024,1558,1024,218.3,0,100,4.198,4.198,4.158,4.184,0,0,16.824,84.11,6,P-GPS,
0.313725247522607,36.886220780215,5874.9883333408,37.401576,0,5.9250001896,13300,2018-03-30 07:28:30,15,0,16.649,5874.9883333408,37.401576,0.4921268,5.9250001896,0,0,-8.500372,218.3, 10, -3.9,0,1,1024,1024,1558,1024,218.3,0,100,4.198,4.198,4.158,4.184,0,0,16.824,84.11,6,P-GPS,
0.313725120674962,36.8862207251137,5876.3006693408,38.713912,0.223694,5.9754595088,13400,2018-03-30 07:28:30,15,0,16.649,5876.3006693408,38.713912,0.4921268,5.9754595088,0,-0.223694,-8.500372,218.3, 10.2, -3.9,0,1,1024,1024,1551,1024,218.3,0,100,4.198,4.198,4.158,4.184,0,0,16.824,84.11,6,P-GPS,
0.313724977700836,36.8862206445677,5877.6130053408,40.026248,0.223694,6.034941138,13500,2018-03-30 07:28:30,15,0,16.649,5877.6130053408,40.026248,0.4921268,6.034941138,0,-0.223694,-8.500372,218.2, 11.3, -3.8,0,1,1024,1024,1551,1024,218.3,0,100,4.198,4.198,4.158,4.184,0,0,16.824,84.11,6,P-GPS,
0.313724865466847,36.886220526401,5878.9253413408,41.338584,0.223694,6.0895015072,13600,2018-03-30 07:28:30,15,0,16.649,5878.9253413408,41.338584,0.4921268,6.0895015072,0,-0.223694,-8.724066,218.1, 12.1, -4.4,0,1,1024,1024,1561,1024,218.3,0,100,4.198,4.198,4.158,4.184,0,0,16.824,84.11,6,P-GPS,
0.313724777775138,36.886220384585,5880.5657613408,42.979004,0.223694,6.1393702752,13700,2018-03-30 07:28:30,15,0,16.649,5880.5657613408,42.979004,0.4921268,6.1393702752,0,-0.223694,-8.500372,218, 12, -4.4,0,1,1024,1024,1595,1024,218.3,0,100,4.198,4.198,4.158,4.184,0,0,16.824,84.11,6,P-GPS,
0.313724733561255,36.886220305708,5881.8780973408,44.29134,0,6.1656498036,13800,2018-03-30 07:28:30,15,0,16.649,5881.8780973408,44.29134,0.4921268,6.1656498036,0,0,-8.500372,217.9, 11.3, -5.1,0,1,1024,1024,1595,1024,218.4,0,100,4.198,4.198,4.158,4.184,0,0,16.824,84.11,6,P-GPS,
0.313724697372344,36.8862202832325,5883.1904333408,45.603676,0,6.1810369432,13900,2018-03-30 07:28:30,15,0,16.649,5883.1904333408,45.603676,0.4921268,6.1810369432,0,0,-8.500372,218.1, 9.2, -6.2,0,1,1024,1024,1601,1024,218.4,0,100,4.198,4.198,4.158,4.184,0,0,16.824,84.11,6,P-GPS,
0.313724671623388,36.8862203346038,5884.5027693408,46.916012,0,6.1821524288,14000,2018-03-30 07:28:31,15,0,16.863,5884.5027693408,46.916012,0.4921268,6.1821524288,0,0,-8.724066,218.3, 9.2, -4.6,0,1,1024,1024,1631,1024,218.4,0,100,4.205,4.208,4.163,4.198,0,0,13.498,84.11,6,P-GPS,
0.313724582923672,36.8862204052662,5885.8151053408,48.228348,0.223694,6.2016406184,14100,2018-03-30 07:28:31,15,0,16.863,5885.8151053408,48.228348,0.4921268,6.2016406184,0,0.223694,-8.94776,218.3, 9.9, -2.5,0,1,1024,1024,1625,1024,218.4,0,100,4.205,4.208,4.163,4.198,0,0,13.498,84.11,6,P-GPS,
0.313724526030724,36.8862205508068,5887.4555253408,49.868768,0.223694,6.2000986236,14200,2018-03-30 07:28:31,15,0,16.863,5887.4555253408,49.868768,0.4921268,6.2016406184,0,0.223694,-9.171454,218.3, 9.6, -2,0,1,1024,1024,1614,1024,218.4,0,100,4.205,4.208,4.163,4.198,0,0,13.498,84.11,6,P-GPS,
0.31372445177042,36.8862206961076,5888.7678613408,51.181104,0.223694,6.2049870752,14300,2018-03-30 07:28:31,15,0,16.863,5888.7678613408,51.181104,0.4921268,6.2049870752,0,0.223694,-9.395148,218.4, 9.9, -1.9,0,1,1024,1024,1616,1024,218.4,0,100,4.205,4.208,4.163,4.198,0,0,13.498,84.11,6,P-GPS,
0.313724417794565,36.8862208800574,5890.4082813408,52.821524,0.223694,6.191601248,14400,2018-03-30 07:28:31,15,0,16.863,5890.4082813408,52.821524,0.4921268,6.2049870752,0,0.223694,-9.395148,218.3, 10.6, -1.2,0,1,1024,1024,1619,1024,218.4,0,100,4.205,4.208,4.163,4.198,0,0,13.498,84.11,6,P-GPS,
0.313724379480534,36.886221051767,5891.7206173408,54.13386,0.223694,6.1820211952,14500,2018-03-30 07:28:31,15,0,16.863,5891.7206173408,54.13386,0.4921268,6.2049870752,0,0.223694,-9.395148,218.1, 9.9, -0.4,0,1,1024,1024,1620,1024,218.4,0,100,4.205,4.208,4.163,4.198,0,0,13.498,84.11,6,P-GPS,
0.313724412031502,36.8862211849798,5893.3610373408,55.77428,0.223694,6.1537403544,14600,2018-03-30 07:28:31,15,0,16.863,5893.3610373408,55.77428,0.4921268,6.2049870752,0,0.223694,-9.395148,218.1, 8.4, -2,0,1,1024,1024,1675,1024,218.4,0,100,4.205,4.208,4.163,4.198,0,0,13.498,84.11,6,P-GPS,
0.313724400068952,36.8862213795016,5896.3137933408,58.727036,0,6.1333335296,14800,2018-03-30 07:28:31,15,0,16.863,5896.3137933408,58.727036,0.4921268,6.2049870752,0,0,-9.842536,218.5, 8.2, -1.9,0,1,1024,1024,1674,1024,218.4,0,100,4.205,4.208,4.163,4.198,0,0,13.498,84.11,6,P-GPS,
0.313724306200555,36.8862214856332,5897.9542133408,60.367456,0,6.1525920604,14900,2018-03-30 07:28:31,15,0,16.863,5897.9542133408,60.367456,0.4921268,6.2049870752,-0.223694,0,-9.842536,218.3, 10.7, -1,0,1,1024,1024,1677,1024,218.4,0,100,4.205,4.208,4.163,4.198,0,0,13.498,84.11,6,P-GPS,
0.313724182214086,36.886221591965,5899.2665493408,61.679792,0.223694,6.1825461296,15000,2018-03-30 07:28:32,15,0,16.462,5899.2665493408,61.679792,0.4921268,6.2049870752,-0.223694,0,-10.06623,218.3, 13.1, -0.4,0,1,1024,1024,1676,1024,218.4,0,100,4.18,4.173,4.134,4.17,0,0,16.81,84.11,6,P-GPS,
0.313724081371063,36.8862216949667,5900.9069693408,63.320212,0.223694,6.2053479676,15100,2018-03-30 07:28:32,15,0,16.462,5900.9069693408,63.320212,0.4921268,6.2053479676,0,0.223694,-10.289924,218.4, 11.8, -1.3,0,1,1024,1024,1671,1024,218.4,0,100,4.18,4.173,4.134,4.17,0,0,16.81,84.11,6,P-GPS,
0.313724069449224,36.886221835543,5902.5473893408,64.960632,0.223694,6.19340571,15200,2018-03-30 07:28:32,15,0,16.462,5902.5473893408,64.960632,0.4921268,6.2053479676,0,0.223694,-10.06623,218.5, 9.8, -1.5,0,1,1024,1024,1669,1022,218.4,0,100,4.18,4.173,4.134,4.17,0,0,16.81,84.11,6,P-GPS,
0.313724040757669,36.8862219906216,5904.1878093408,66.601052,0.223694,6.1860894368,15300,2018-03-30 07:28:32,15,0,16.462,5904.1878093408,66.601052,0.4921268,6.2053479676,0,0.223694,-10.289924,218.4, 9.8, -0.4,0,1,1024,1024,1642,1023,218.4,0,100,4.18,4.173,4.134,4.17,0,0,16.81,84.11,6,P-GPS,
0.313724020266959,36.8862221936787,5905.8282293408,68.241472,0.223694,6.1713584652,15400,2018-03-30 07:28:32,15,0,16.462,5905.8282293408,68.241472,0.4921268,6.2053479676,0,0.223694,-10.289924,218.4, 9.9, -0.5,0,1,1024,1024,1622,1023,218.4,0,100,4.18,4.173,4.134,4.17,0,0,16.81,84.11,6,P-GPS,
0.313723944982364,36.8862224060077,5907.4686493408,69.881892,0.3131716,6.1757875992,15500,2018-03-30 07:28:32,15,0,16.462,5907.4686493408,69.881892,0.4921268,6.2053479676,-0.223694,0.223694,-10.06623,218.3, 10.6, 0.9,0,1,1024,1024,1640,1023,218.4,0,100,4.18,4.173,4.134,4.17,0,0,16.81,84.11,6,P-GPS,
0.313723872430299,36.8862226352515,5908.7809853408,71.194228,0.223694,6.1786747384,15600,2018-03-30 07:28:32,15,0,16.462,5908.7809853408,71.194228,0.4921268,6.2053479676,0,0.223694,-9.842536,218.4, 11.2, 2,0,1,1024,1024,1637,1022,218.4,0,100,4.18,4.173,4.134,4.17,0,0,16.81,84.11,6,P-GPS,
0.313723796398249,36.8862228279609,5910.4214053408,72.834648,0.223694,6.1874017728,15700,2018-03-30 07:28:32,15,0,16.462,5910.4214053408,72.834648,0.4921268,6.2053479676,0,0.223694,-9.618842,218.4, 11.6, 2.5,0,1,1024,1024,1627,1024,218.4,0,100,4.18,4.173,4.134,4.17,0,0,16.81,84.11,6,P-GPS,
0.313723807416301,36.8862229878587,5911.7337413408,74.146984,0.223694,6.1690946856,15800,2018-03-30 07:28:32,15,0,16.462,5911.7337413408,74.146984,0.4921268,6.2053479676,0,0.223694,-9.618842,218.3, 11, 2,0,1,1024,1024,1616,1024,218.4,0,100,4.18,4.173,4.134,4.17,0,0,16.81,84.11,6,P-GPS,
0.313723860785296,36.8862230903904,5913.3741613408,75.787404,0,6.1412075456,15900,2018-03-30 07:28:32,15,0,16.462,5913.3741613408,75.787404,0.4921268,6.2053479676,0,0,-9.618842,218.2, 9.8, 1.3,0,1,1024,1024,1601,1024,218.4,0,100,4.18,4.173,4.134,4.17,0,0,16.81,84.11,6,P-GPS,
0.313723954108164,36.8862231845057,5915.0145813408,77.427824,0,6.1000330036,16000,2018-03-30 07:28:33,15,0,16.489,5915.0145813408,77.427824,0.4921268,6.2053479676,0,0,-9.618842,218.2, 8, -0.4,0,1,1024,1024,1599,1024,218.4,0,100,4.18,4.173,4.134,4.17,0,0,18.354,84.11,6,P-GPS,
0.313724000676777,36.8862232352084,5916.3269173408,78.74016,0,6.0791996696,16100,2018-03-30 07:28:33,15,0,16.489,5916.3269173408,78.74016,0.4921268,6.2053479676,0,0,-9.618842,218.2, 9.2, -1.8,0,1,1024,1024,1597,1024,218.4,0,100,4.18,4.173,4.134,4.17,0,0,18.354,84.11,6,P-GPS,
0.313724051567281,36.8862232940706,5917.9673373408,80.38058,0,6.0561681728,16200,2018-03-30 07:28:33,15,0,16.489,5917.9673373408,80.38058,0.4921268,6.2053479676,0,0,-9.395148,218.3, 10.4, -1.3,0,1,1024,1024,1601,1024,218.4,0,100,4.18,4.173,4.134,4.17,0,0,18.354,84.11,6,P-GPS,
0.313724087450044,36.8862233087752,5919.2796733408,81.692916,0,6.0422246028,16300,2018-03-30 07:28:33,15,0,16.489,5919.2796733408,81.692916,0.4921268,6.2053479676,0,0,-9.395148,218.3, 11, -0.9,0,1,1024,1024,1599,1024,218.4,0,100,4.18,4.173,4.134,4.17,0,0,18.354,84.11,6,P-GPS,
0.313724163400672,36.8862233140356,5920.9200933408,83.333336,0.223694,6.0147967804,16400,2018-03-30 07:28:33,15,0,16.489,5920.9200933408,83.333336,0.4921268,6.2053479676,0,-0.223694,-9.395148,218.3, 11, -1.8,0,1,1024,1024,1596,1024,218.4,0,100,4.18,4.173,4.134,4.17,0,0,18.354,84.11,6,P-GPS,
0.313724220896144,36.886223280025,5922.2324293408,84.645672,0.223694,5.9972442864,16500,2018-03-30 07:28:33,15,0,16.489,5922.2324293408,84.645672,0.4921268,6.2053479676,0,-0.223694,-9.171454,218.3, 11.2, -2.8,0,1,1024,1024,1585,1024,218.4,0,100,4.18,4.173,4.134,4.17,0,0,18.354,84.11,6,P-GPS,
0.313724301761416,36.8862232530022,5923.8728493408,86.286092,0.223694,5.9708663328,16600,2018-03-30 07:28:33,15,0,16.489,5923.8728493408,86.286092,0.4921268,6.2053479676,0,-0.223694,-9.171454,218.3, 11.4, -3.4,0,1,1024,1024,1584,1024,218.4,0,100,4.18,4.173,4.134,4.17,0,0,18.354,84.11,6,P-GPS,
0.313724340787077,36.8862231934767,5925.1851853408,87.598428,0.223694,5.9621392984,16700,2018-03-30 07:28:33,15,0,16.489,5925.1851853408,87.598428,0.4921268,6.2053479676,0,-0.223694,-9.171454,218.3, 11.6, -3.4,0,1,1024,1024,1578,1024,218.4,0,100,4.18,4.173,4.134,4.17,0,0,18.354,84.11,6,P-GPS,
0.31372443770555,36.8862231282348,5926.4975213408,88.910764,0.223694,5.933563182,16800,2018-03-30 07:28:33,15,0,16.489,5926.4975213408,88.910764,0.4921268,6.2053479676,0,-0.223694,-8.94776,218.3, 11.8, -2.7,0,1,1024,1024,1579,1024,218.4,0,100,4.18,4.173,4.134,4.17,0,0,18.354,84.11,6,P-GPS,
0.313724525802741,36.8862230401368,5928.1379413408,90.551184,0.223694,5.9103676432,16900,2018-03-30 07:28:33,15,0,16.489,5928.1379413408,90.551184,0.4921268,6.2053479676,0,-0.223694,-8.94776,218.2, 12.4, -3.3,0,1,1024,1024,1577,1024,218.4,0,100,4.18,4.173,4.134,4.17,0,0,18.354,84.11,6,P-GPS,
0.313724638645768,36.8862229622592,5929.4502773408,91.86352,0.223694,5.8777232852,17000,2018-03-30 07:28:34,15,0,16.676,5929.4502773408,91.86352,0.4921268,6.2053479676,0,-0.223694,-9.171454,218.1, 12.4, -4.1,0,1,1024,1024,1573,1024,218.4,0,100,4.157,4.154,4.115,4.142,0,0,18.354,84.11,6,P-GPS,
0.313724716794796,36.8862228987929,5931.0906973408,93.50394,0.223694,5.8561681664,17100,2018-03-30 07:28:34,15,0,16.676,5931.0906973408,93.50394,0.4921268,6.2053479676,0,-0.223694,-8.94776,218.1, 11.7, -4,0,1,1024,1024,1571,1024,218.4,0,100,4.157,4.154,4.115,4.142,0,0,18.354,84.11,6,P-GPS,
0.313724826755476,36.8862228449308,5932.4030333408,94.816276,0,5.82267079,17200,2018-03-30 07:28:34,15,0,16.676,5932.4030333408,94.816276,0.4921268,6.2053479676,0,0,-8.724066,218.1, 12.2, -3.6,0,1,1024,1024,1572,1024,218.4,0,100,4.157,4.154,4.115,4.142,0,0,18.354,84.11,6,P-GPS,
0.313724912877366,36.8862227972847,5933.7153693408,96.128612,0,5.7970474296,17300,2018-03-30 07:28:34,15,0,16.676,5933.7153693408,96.128612,0.4921268,6.2053479676,0,0,-8.500372,218.1, 11.6, -3.4,0,1,1024,1024,1570,1024,218.4,0,100,4.157,4.154,4.115,4.142,0,0,18.354,84.11,6,P-GPS,
0.31372507321559,36.8862227606158,5935.0277053408,97.440948,0,5.744422756,17400,2018-03-30 07:28:34,15,0,16.676,5935.0277053408,97.440948,0.4921268,6.2053479676,0,0,-8.500372,218.2, 11.2, -3,0,1,1024,1024,1571,1024,218.4,0,100,4.157,4.154,4.115,4.142,0,0,18.354,84.11,6,P-GPS,
0.313725213836615,36.8862227193139,5936.0119573408,98.4252,0,5.699311206,17500,2018-03-30 07:28:34,15,0,16.676,5936.0119573408,98.4252,0.4921268,6.2053479676,0,0,-8.500372,218.1, 11.3, -3.1,0,1,1024,1024,1563,1024,218.4,0,100,4.157,4.154,4.115,4.142,0,0,18.354,84.11,6,P-GPS,
0.313725407385326,36.8862226656275,5937.3242933408,99.737536,0,5.637139288,17600,2018-03-30 07:28:34,15,0,16.676,5937.3242933408,99.737536,0.4921268,6.2053479676,0,0,-8.500372,218.1, 11.3, -3.8,0,1,1024,1024,1554,1024,218.5,0,100,4.157,4.154,4.115,4.142,0,0,18.354,84.11,6,P-GPS,
0.313725554062533,36.8862226174267,5938.6366293408,101.049872,0,5.5909778692,17700,2018-03-30 07:28:34,15,0,16.676,5938.6366293408,101.049872,0.4921268,6.2053479676,0,0,-8.500372,218.1, 11, -4,0,1,1024,1024,1552,1024,218.5,0,100,4.157,4.154,4.115,4.142,0,0,18.354,84.11,6,P-GPS,
0.313725762566874,36.8862225964121,5939.9489653408,102.362208,0,5.5205382344,17800,2018-03-30 07:28:34,15,0,16.676,5939.9489653408,102.362208,0.4921268,6.2053479676,0,0,-8.276678,218.1, 10.8, -4,0,1,1024,1024,1555,1024,218.5,0,100,4.157,4.154,4.115,4.142,0,0,18.354,84.11,6,P-GPS,
0.313725932216542,36.8862225766634,5941.2613013408,103.674544,0,5.4636484688,17900,2018-03-30 07:28:34,15,0,16.676,5941.2613013408,103.674544,0.4921268,6.2053479676,0,0,-8.052984,218.1, 10.9, -4.1,0,1,1024,1024,1561,1024,218.5,0,100,4.157,4.154,4.115,4.142,0,0,18.354,84.11,6,P-GPS,
0.313726134208735,36.8862225802022,5942.5736373408,104.98688,0,5.393044792,18000,2018-03-30 07:28:35,15,0,16.542,5942.5736373408,104.98688,0.4921268,6.2053479676,0,0,-8.052984,218.1, 10.9, -3.9,0,1,1024,1024,1562,1024,218.5,0,100,4.179,4.186,4.145,4.163,0,0,15.43,84.11,6,P-GPS,
0.313726291132112,36.8862225800636,5943.5578893408,105.971132,0,5.3385500396,18100,2018-03-30 07:28:35,15,0,16.542,5943.5578893408,105.971132,0.4921268,6.2053479676,0,0,-8.276678,218.2, 10.8, -4,0,1,1024,1024,1559,1024,218.5,0,100,4.179,4.186,4.145,4.163,0,0,15.43,84.11,6,P-GPS,
0.31372647862464,36.8862226029202,5944.8702253408,107.283468,0,5.2709319272,18200,2018-03-30 07:28:35,15,0,16.542,5944.8702253408,107.283468,0.4921268,6.2053479676,0,0,-8.052984,218.2, 10.6, -4.1,0,1,1024,1024,1553,1024,218.5,0,100,4.179,4.186,4.145,4.163,0,0,15.43,84.11,6,P-GPS,
0.313726625775725,36.8862226260921,5946.1825613408,108.595804,0,5.2172901932,18300,2018-03-30 07:28:35,15,0,16.542,5946.1825613408,108.595804,0.4921268,6.2053479676,0,0,-8.276678,218.1, 10.5, -4.2,0,1,1024,1024,1554,1024,218.5,0,100,4.179,4.186,4.145,4.163,0,0,15.43,84.11,6,P-GPS,
0.313726813300008,36.8862226448366,5947.4948973408,109.90814,0,5.1501642068,18400,2018-03-30 07:28:35,15,0,16.542,5947.4948973408,109.90814,0.4921268,6.2053479676,0,0,-8.052984,218.1, 10.3, -4.3,0,1,1024,1024,1554,1024,218.5,0,100,4.179,4.186,4.145,4.163,0,0,15.43,84.11,6,P-GPS,
0.313726954778408,36.8862226565804,5948.4791493408,110.892392,0,5.0998361212,18500,2018-03-30 07:28:35,15,0,16.542,5948.4791493408,110.892392,0.4921268,6.2053479676,0,0,-7.82929,218.1, 10.2, -4,0,1,1024,1024,1549,1024,218.5,0,100,4.179,4.186,4.145,4.163,0,0,15.43,84.11,6,P-GPS,
0.313727138023954,36.8862227067778,5949.7914853408,112.204728,0,5.0306432056,18600,2018-03-30 07:28:35,15,0,16.542,5949.7914853408,112.204728,0.4921268,6.2053479676,0,0,-8.052984,218.2, 10.2, -3.6,0,1,1024,1024,1550,1024,218.5,0,100,4.179,4.186,4.145,4.163,0,0,15.43,84.11,6,P-GPS,
0.313727280432196,36.8862227691843,5950.7757373408,113.18898,0,4.9741143324,18700,2018-03-30 07:28:35,15,0,16.542,5950.7757373408,113.18898,0.4921268,6.2053479676,0,0,-7.82929,218.2, 10, -3.4,0,1,1024,1024,1548,1024,218.5,0,100,4.179,4.186,4.145,4.163,0,0,15.43,84.11,6,P-GPS,
0.313727455153652,36.8862228481057,5952.0880733408,114.501316,0,4.9045605244,18800,2018-03-30 07:28:35,15,0,16.542,5952.0880733408,114.501316,0.4921268,6.2053479676,0,0,-7.82929,218.2, 10, -3.4,0,1,1024,1024,1547,1024,218.5,0,100,4.179,4.186,4.145,4.163,0,0,15.43,84.11,6,P-GPS,
0.313727571944027,36.8862229267477,5953.4004093408,115.813652,0,4.8550854572,18900,2018-03-30 07:28:35,15,0,16.542,5953.4004093408,115.813652,0.4921268,6.2053479676,0,0,-7.82929,218.2, 9.5, -3.3,0,1,1024,1024,1548,1024,218.5,0,100,4.179,4.186,4.145,4.163,0,0,15.43,84.11,6,P-GPS,
0.313727709698176,36.8862230196944,5954.3846613408,116.797904,0,4.796752122,19000,2018-03-30 07:28:36,15,0,16.569,5954.3846613408,116.797904,0.4921268,6.2053479676,0,0,-7.82929,218.3, 9.3, -3,0,1,1024,1024,1542,1023,218.5,0,100,4.183,4.179,4.142,4.166,0,0,15.622,84.11,6,P-GPS,
0.313727783289188,36.8862231002243,5955.6969973408,118.11024,0,4.7621720684,19100,2018-03-30 07:28:36,15,0,16.569,5955.6969973408,118.11024,0.4921268,6.2053479676,0,0,-7.82929,218.3, 9.8, -2.3,0,1,1024,1024,1515,1024,218.5,0,100,4.183,4.179,4.142,4.166,0,0,15.622,84.11,6,P-GPS,
0.313727912304293,36.8862231961468,5956.6812493408,119.094492,0,4.706693064,19200,2018-03-30 07:28:36,15,0,16.569,5956.6812493408,119.094492,0.4921268,6.2053479676,0,0,-7.82929,218.2, 10, -2.5,0,1,1024,1024,1509,1024,218.5,0,100,4.183,4.179,4.142,4.166,0,0,15.622,84.11,6,P-GPS,
0.313728001810903,36.8862232821721,5957.9935853408,120.406828,0,4.6661090732,19300,2018-03-30 07:28:36,15,0,16.569,5957.9935853408,120.406828,0.4921268,6.2053479676,0,0,-7.605596,218.2, 9.9, -2.6,0,1,1024,1024,1501,1024,218.5,0,100,4.183,4.179,4.142,4.166,0,0,15.622,84.11,6,P-GPS,
0.313728153213041,36.8862233751932,5958.9778373408,121.39108,0,4.6033137956,19400,2018-03-30 07:28:36,15,0,16.569,5958.9778373408,121.39108,0.4921268,6.2053479676,0,0,-7.605596,218.2, 9.7, -2.9,0,1,1024,1024,1511,1024,218.5,0,100,4.183,4.179,4.142,4.166,0,0,15.622,84.11,6,P-GPS,
0.313728259526821,36.8862234530065,5959.9620893408,122.375332,0,4.55790697,19500,2018-03-30 07:28:36,15,0,16.569,5959.9620893408,122.375332,0.4921268,6.2053479676,0,0,-7.381902,218.2, 9.5, -2.8,0,1,1024,1024,1532,1024,218.5,0,100,4.183,4.179,4.142,4.166,0,0,15.622,84.11,6,P-GPS,
0.313728372791615,36.8862235720286,5961.2744253408,123.687668,0,4.5058072308,19600,2018-03-30 07:28:36,15,0,16.569,5961.2744253408,123.687668,0.4921268,6.2053479676,0,0,-7.158208,218.2, 9.5, -2.6,0,1,1024,1024,1539,1024,218.5,0,100,4.183,4.179,4.142,4.166,0,0,15.622,84.11,6,P-GPS,
0.313728411528226,36.8862236705477,5962.2586773408,124.67192,0,4.482119566,19700,2018-03-30 07:28:36,15,0,16.569,5962.2586773408,124.67192,0.4921268,6.2053479676,0,0,-7.381902,218.3, 9.6, -2.1,0,1,1024,1024,1532,1024,218.5,0,100,4.183,4.179,4.142,4.166,0,0,15.622,84.11,6,P-GPS,
0.313728511824092,36.8862237454847,5963.2429293408,125.656172,0,4.4394030292,19800,2018-03-30 07:28:36,15,0,16.569,5963.2429293408,125.656172,0.4921268,6.2053479676,0,0,-7.381902,218.3, 9.7, -2.5,0,1,1024,1024,1521,1024,218.5,0,100,4.183,4.179,4.142,4.166,0,0,15.622,84.11,6,P-GPS,
0.313728610016008,36.886223787821,5964.5552653408,126.968508,0,4.4007219256,19900,2018-03-30 07:28:36,15,0,16.569,5964.5552653408,126.968508,0.4921268,6.2053479676,0,0,-7.605596,218.2, 9.8, -3.1,0,1,1024,1024,1521,1024,218.5,0,100,4.183,4.179,4.142,4.166,0,0,15.622,84.11,6,P-GPS,
0.313728761098971,36.8862238683416,5965.5395173408,127.95276,0,4.3396654932,20000,2018-03-30 07:28:37,15,0,16.569,5965.5395173408,127.95276,0.4921268,6.2053479676,0,0,-7.605596,218.2, 9.8, -3,0,1,1024,1024,1523,1024,218.5,0,100,4.183,4.179,4.142,4.166,0,0,15.686,84.11,6,P-GPS,
0.313728841759059,36.8862239362696,5966.8518533408,129.265096,0,4.3046589304,20100,2018-03-30 07:28:37,15,0,16.569,5966.8518533408,129.265096,0.4921268,6.2053479676,0,0,-7.605596,218.2, 10, -2.9,0,1,1024,1024,1525,1024,218.5,0,100,4.183,4.179,4.142,4.166,0,0,15.686,84.11,6,P-GPS,
0.313728942878918,36.8862240095276,5967.8361053408,130.249348,0,4.261975202,20200,2018-03-30 07:28:37,15,0,16.569,5967.8361053408,130.249348,0.4921268,6.2053479676,0,0,-7.381902,218.2, 10, -3.2,0,1,1024,1024,1525,1024,218.5,-0.1,100,4.183,4.179,4.142,4.166,0,0,15.686,84.11,6,P-GPS,
0.313728983741463,36.8862240660356,5969.1484413408,131.561684,0,4.2421917368,20300,2018-03-30 07:28:37,15,0,16.569,5969.1484413408,131.561684,0.4921268,6.2053479676,0,0,-7.605596,218.2, 10.1, -2.9,0,1,1024,1024,1517,1024,218.5,-0.9,100,4.183,4.179,4.142,4.166,0,0,15.686,84.11,6,P-GPS,
0.313729049761025,36.8862241636493,5970.1326933408,132.545936,0,4.2097770376,20400,2018-03-30 07:28:37,15,0,16.569,5970.1326933408,132.545936,0.4921268,6.2053479676,0,0,-7.605596,218.2, 9.9, -2.7,0,1,1024,1024,1514,1024,218.5,-1.9,100,4.183,4.179,4.142,4.166,0,0,15.686,84.11,6,P-GPS,
0.313729074189314,36.8862242417894,5971.1169453408,133.530188,0,4.1939961972,20500,2018-03-30 07:28:37,15,0,16.569,5971.1169453408,133.530188,0.4921268,6.2053479676,0,0,-7.381902,218.2, 9.8, -3.1,0,1,1024,1024,1517,1024,218.5,-3,100,4.183,4.179,4.142,4.166,0,0,15.686,84.11,6,P-GPS,
0.313729099602811,36.8862243502107,5972.4292813408,134.842524,0,4.175361026,20600,2018-03-30 07:28:37,15,0,16.569,5972.4292813408,134.842524,0.4921268,6.2053479676,0,0,-7.158208,218.3, 9.7, -2.6,0,1,1024,1024,1517,1024,218.5,-3,100,4.183,4.179,4.142,4.166,0,0,15.686,84.11,6,P-GPS,
0.313729091108847,36.8862244403386,5973.4135333408,135.826776,0,4.170603808,20700,2018-03-30 07:28:37,15,0,16.569,5973.4135333408,135.826776,0.4921268,6.2053479676,0,0,-7.158208,218.3, 9.7, -2.1,0,1,1024,1024,1519,1024,218.5,-4.3,100,4.183,4.179,4.142,4.166,0,0,15.686,84.11,6,P-GPS,
0.313729129536868,36.8862245448977,5974.3977853408,136.811028,0,4.1482612876,20800,2018-03-30 07:28:37,15,0,16.569,5974.3977853408,136.811028,0.4921268,6.2053479676,0,0,-7.158208,218.2, 9.9, -2.6,0,1,1024,1024,1515,1024,218.5,-5.6,100,4.183,4.179,4.142,4.166,0,0,15.686,84.11,6,P-GPS,
0.313729148553837,36.8862246200335,5975.3820373408,137.79528,0,4.1354332032,20900,2018-03-30 07:28:37,15,0,16.569,5975.3820373408,137.79528,0.4921268,6.2053479676,0,0,-7.158208,218.3, 10, -2.7,0,1,1024,1024,1516,1024,218.5,-5.6,100,4.183,4.179,4.142,4.166,0,0,15.686,84.11,6,P-GPS,
0.313729195975755,36.8862247053819,5976.3662893408,138.779532,0,4.1118439636,21000,2018-03-30 07:28:38,15,0,16.569,5976.3662893408,138.779532,0.4921268,6.2053479676,0,0,-6.934514,218.2, 9.8, -3.2,0,1,1024,1024,1519,1024,218.5,-5.6,99,4.172,4.173,4.131,4.155,0,0,15.686,84.11,6,P-GPS,
0.313729209392505,36.8862247761216,5977.3505413408,139.763784,0,4.1016733596,21100,2018-03-30 07:28:38,15,0,16.569,5977.3505413408,139.763784,0.4921268,6.2053479676,0,0,-6.934514,218.2, 9.4, -3.3,0,1,1024,1024,1510,1024,218.5,-5.6,99,4.172,4.173,4.131,4.155,0,0,15.686,84.11,6,P-GPS,
0.313729215469044,36.886224898986,5978.3347933408,140.748036,0,4.0904856952,21200,2018-03-30 07:28:38,15,0,16.569,5978.3347933408,140.748036,0.4921268,6.2053479676,0,0,-7.381902,218.2, 9.1, -2.9,0,1,1024,1024,1500,1024,218.5,-5.6,99,4.172,4.173,4.131,4.155,0,0,15.686,84.11,6,P-GPS,
0.313729165061374,36.8862250202716,5979.6471293408,142.060372,0.223694,4.1001641732,21300,2018-03-30 07:28:38,15,0,16.569,5979.6471293408,142.060372,0.4921268,6.2053479676,-0.223694,0,-7.381902,218.2, 9.3, -1.9,0,1,1024,1024,1547,1024,218.5,-5.6,99,4.172,4.173,4.131,4.155,0,0,15.686,84.11,6,P-GPS,
0.31372911339736,36.8862251546992,5980.6313813408,143.044624,0.223694,4.1099738848,21400,2018-03-30 07:28:38,15,0,16.569,5980.6313813408,143.044624,0.4921268,6.2053479676,-0.223694,0,-7.158208,218.3, 9.7, -1.3,0,1,1024,1024,1547,1024,218.5,-5.6,99,4.172,4.173,4.131,4.155,0,0,15.686,84.11,6,P-GPS,
0.313729048366263,36.8862252516245,5981.6156333408,144.028876,0.223694,4.1274279536,21500,2018-03-30 07:28:38,15,0,16.569,5981.6156333408,144.028876,0.4921268,6.2053479676,-0.223694,0,-7.381902,218.4, 9.7, -1.2,0,1,1024,1024,1554,1024,218.5,-5.6,99,4.172,4.173,4.131,4.155,0,0,15.686,84.11,6,P-GPS,
0.313729033216034,36.8862253400985,5982.9279693408,145.341212,0.223694,4.127788846,21600,2018-03-30 07:28:38,15,0,16.569,5982.9279693408,145.341212,0.4921268,6.2053479676,-0.223694,0,-7.605596,218.4, 9.6, -1.5,0,1,1024,1024,1558,1024,218.5,-5.6,99,4.172,4.173,4.131,4.155,0,0,15.686,84.11,6,P-GPS,
0.313729008328525,36.8862253889914,5983.9122213408,146.325464,0,4.134022442,21700,2018-03-30 07:28:38,15,0,16.569,5983.9122213408,146.325464,0.4921268,6.2053479676,0,0,-8.052984,218.3, 9.8, -1.3,0,1,1024,1024,1553,1024,218.5,-5.6,99,4.172,4.173,4.131,4.155,0,0,15.686,84.11,6,P-GPS,
