latitude,longitude,altitude(feet),ascent(feet),speed(mph),distance(feet),time(millisecond),datetime(utc),satellites,gpslevel,voltage(v),max_altitude(feet),max_ascent(feet),max_speed(mph),max_distance(feet), xSpeed(mph), ySpeed(mph), zSpeed(mph), compass_heading(degrees), pitch(degrees), roll(degrees),isPhoto,isVideo,rc_elevator,rc_aileron,rc_throttle,rc_rudder,gimbal_heading(degrees),gimbal_pitch(degrees),battery_percent,voltageCell1,voltageCell2,voltageCell3,voltageCell4,voltageCell5,voltageCell6,current(A),battery_temperature(f),flycStateRaw,flycState,message
0.0736399395050219,36.872375474637,5968.5624396817,0,0,0,0,2018-04-12 07:16:25,13,0,0,5968.5624396817,0,0,0,0,0,0,204.5, -0.2, 1.3,0,0,364,364,364,1684,209.1,0,99,4.265,4.267,4.267,4.265,0,0,0,75.11,6,P-GPS,
0.0736399595878075,36.8723754974556,5968.5624396817,0,0,0.0110905187276,100,2018-04-12 07:16:25,13,0,0,5968.5624396817,0,0,0.0110905187276,0,0,0,204.5, -0.2, 1.3,0,0,364,364,364,1684,209.1,0,99,4.265,4.267,4.267,4.265,0,0,0,75.11,41,Motors_Started,
0.0736399961178775,36.8723755390662,5968.5624396817,0,0,0.0312923566444,200,2018-04-12 07:16:25,13,0,0,5968.5624396817,0,0,0.0312923566444,0,0,0,204.5, -0.2, 1.3,0,0,364,364,364,1684,209.1,0,99,4.265,4.267,4.267,4.265,0,0,0,75.11,41,Motors_Started,
0.0736400308183906,36.8723755774094,5968.5624396817,0,0,0.050158794256,300,2018-04-12 07:16:25,13,0,0,5968.5624396817,0,0,0.050158794256,0,0,0,204.5, -0.2, 1.3,0,0,364,364,364,1684,209.1,0,99,4.265,4.267,4.267,4.265,0,0,0,75.11,41,Motors_Started,
0.0736400817105224,36.8723755951948,5968.5624396817,0,0,0.068019359132,400,2018-04-12 07:16:25,13,0,0,5968.5624396817,0,0,0.068019359132,0,0,0,204.5, -0.2, 1.3,0,0,389,377,376,1681,209.1,0,99,4.265,4.267,4.267,4.265,0,0,0,75.11,41,Motors_Started,
0.0736401260432818,36.8723756139332,5968.5624396817,0,0,0.084940291432,500,2018-04-12 07:16:25,13,0,16.997,5968.5624396817,0,0,0.084940291432,0,0,0,204.5, -0.2, 1.3,0,0,734,694,616,1457,209,0,99,4.265,4.267,4.267,4.265,0,0,1.512,75.11,41,Motors_Started,Setting new Return-To-Home altitude to 30m (98 ft). Setting new Maximum Flight Altitude to 150m (492 ft)
0.0736401841665191,36.8723756506831,5968.5624396817,0,0,0.109971460212,600,2018-04-12 07:16:25,13,0,16.997,5968.5624396817,0,0,0.109971460212,0,0,0,204.5, -0.2, 1.3,0,0,1024,1024,1024,1024,209,0,99,4.265,4.267,4.267,4.265,0,0,1.512,75.11,41,Motors_Started,
0.073640234519636,36.872375685862,5968.5624396817,0,0,0.13238025358,700,2018-04-12 07:16:25,13,0,16.997,5968.5624396817,0,0,0.13238025358,0,0,0,204.5, -0.2, 1.3,0,0,1024,1024,1024,1024,208,0,99,4.265,4.267,4.267,4.265,0,0,1.512,75.11,41,Motors_Started,
0.0736402585155725,36.8723757006051,5968.5624396817,0,0,0.142631894328,800,2018-04-12 07:16:25,13,0,16.997,5968.5624396817,0,0,0.142631894328,0,0,0,204.5, -0.2, 1.3,0,0,1024,1024,1024,1024,206.6,0,99,4.265,4.267,4.267,4.265,0,0,1.512,75.11,41,Motors_Started,
0.0736402822550291,36.8723757168202,5968.5624396817,0,0,0.153119427472,900,2018-04-12 07:16:26,13,0,16.997,5968.5624396817,0,0,0.153119427472,0,0,0,204.5, -0.2, 1.3,0,0,1024,1024,1024,1024,206,0,99,4.265,4.267,4.267,4.265,0,0,1.512,75.11,41,Motors_Started,
0.0736403183543756,36.8723757142294,5968.5624396817,0,0,0.16354495274,1000,2018-04-12 07:16:26,13,0,16.997,5968.5624396817,0,0,0.16354495274,0,0,0,204.5, -0.2, 1.3,0,0,1024,1024,1024,1024,205.7,0,99,4.265,4.267,4.267,4.265,0,0,1.512,75.11,41,Motors_Started,
0.073640353264958,36.8723757188909,5968.5624396817,0,0,0.175301514796,1100,2018-04-12 07:16:26,13,0,16.997,5968.5624396817,0,0,0.175301514796,0,0,0,204.5, -0.2, 1.3,0,0,1024,1024,1024,1024,205.5,0,99,4.265,4.267,4.267,4.265,0,0,1.512,75.11,41,Motors_Started,
0.0736404012177484,36.8723757450162,5968.5624396817,0,0,0.195214245092,1200,2018-04-12 07:16:26,13,0,16.997,5968.5624396817,0,0,0.195214245092,0,0,0,204.5, -0.2, 1.3,0,0,1024,1024,1024,1024,205.3,0,99,4.265,4.267,4.267,4.265,0,0,1.512,75.11,41,Motors_Started,
0.0736404440498966,36.8723757715714,5968.5624396817,0,0,0.213596135444,1300,2018-04-12 07:16:26,13,0,16.997,5968.5624396817,0,0,0.213596135444,0,0,0,204.6, -0.2, 1.3,0,0,1024,1024,1024,1024,205.3,0,99,4.265,4.267,4.267,4.265,0,0,1.512,75.11,41,Motors_Started,
0.0736404615467131,36.8723757808168,5968.5624396817,0,0,0.2208087341,1400,2018-04-12 07:16:26,13,0,16.997,5968.5624396817,0,0,0.2208087341,0,0,0,204.5, -0.2, 1.3,0,0,1024,1024,1024,1024,205.2,0,99,4.265,4.267,4.267,4.265,0,0,1.512,75.11,41,Motors_Started,
0.0736404801736698,36.8723757921609,5968.5624396817,0,0,0.2287647711,1500,2018-04-12 07:16:26,13,0,16.997,5968.5624396817,0,0,0.2287647711,0,0,0,204.6, -0.2, 1.3,0,0,1024,1024,1024,1024,205.1,0,99,4.265,4.267,4.267,4.265,0,0,1.512,75.11,41,Motors_Started,
0.0736405124624573,36.8723758263826,5968.5624396817,0,0,0.245292986852,1600,2018-04-12 07:16:26,13,0,16.997,5968.5624396817,0,0,0.245292986852,0,0,0,204.5, -0.2, 1.3,0,0,1024,1024,1024,1024,205.1,0,99,4.265,4.267,4.267,4.265,0,0,1.512,75.11,10,Assisted_Takeoff,
0.0736405445590885,36.8723758588254,5968.5624396817,0,0,0.261495743276,1700,2018-04-12 07:16:26,13,0,16.997,5968.5624396817,0,0,0.261495743276,0,0,0,204.6, -0.2, 1.3,0,0,1024,1024,1024,1024,205.1,0,99,4.265,4.267,4.267,4.265,0,0,1.512,75.11,10,Assisted_Takeoff,
0.0736405542971836,36.8723758760581,5968.5624396817,0,0,0.267886819596,1800,2018-04-12 07:16:26,13,0,16.997,5968.5624396817,0,0,0.267886819596,0,0,0,204.6, -0.2, 1.3,0,0,1024,1024,1024,1024,205,0,99,4.265,4.267,4.267,4.265,0,0,1.512,75.11,10,Assisted_Takeoff,
0.0736405668866842,36.872375893477,5968.5624396817,0,0,0.275221793584,1900,2018-04-12 07:16:27,13,0,16.997,5968.5624396817,0,0,0.275221793584,0,0,0,204.5, -0.2, 1.3,0,0,1024,1024,1024,1024,205,0,99,4.265,4.267,4.267,4.265,0,0,1.512,75.11,10,Assisted_Takeoff,
0.0736405951475155,36.872375930061,5968.5624396817,0,0,0.29125821142,2000,2018-04-12 07:16:27,13,0,16.997,5968.5624396817,0,0,0.29125821142,0,0,0,204.5, -0.2, 1.3,0,0,1024,1024,1024,1024,205,0,99,4.265,4.267,4.267,4.265,0,0,1.512,75.11,10,Assisted_Takeoff,
0.0736406231249976,36.8723759654002,5968.5624396817,0,0,0.30703413056,2100,2018-04-12 07:16:27,13,0,16.997,5968.5624396817,0,0,0.30703413056,0,0,0,204.5, -0.2, 1.3,0,0,1024,1024,1024,1024,205,0,99,4.265,4.267,4.267,4.265,0,0,1.512,75.11,10,Assisted_Takeoff,
0.0736406328174963,36.8723760186674,5968.5624396817,0,0,0.32153380294,2200,2018-04-12 07:16:27,13,0,16.997,5968.5624396817,0,0,0.32153380294,0,0,0,204.5, -0.2, 1.3,0,0,1024,1024,1024,1024,205,0,99,4.265,4.267,4.267,4.265,0,0,1.512,75.11,10,Assisted_Takeoff,
0.073640642660626,36.8723760664121,5968.5624396817,0,0,0.33530840968,2300,2018-04-12 07:16:27,13,0,16.997,5968.5624396817,0,0,0.33530840968,0,0,0,204.5, -0.2, 1.3,0,0,1024,1024,1024,1024,205,0,99,4.265,4.267,4.267,4.265,0,0,1.512,75.11,10,Assisted_Takeoff,
0.0736406727005324,36.8723760947516,5968.5624396817,0,0,0.35035434192,2400,2018-04-12 07:16:27,13,0,16.997,5968.5624396817,0,0,0.35035434192,0,0,0,204.5, -0.2, 1.3,0,0,1024,1024,1024,1024,204.9,0,99,4.265,4.267,4.267,4.265,0,0,1.512,75.11,10,Assisted_Takeoff,
0.0736407013774312,36.872376120165,5968.5624396817,0,0,0.36433072032,2500,2018-04-12 07:16:27,13,0,17.13,5968.5624396817,0,0,0.36433072032,0,0,0,204.5, -0.2, 1.3,0,0,1024,1024,1024,1024,204.9,0,99,4.26,4.262,4.255,4.247,0,0,2.252,75.11,10,Assisted_Takeoff,
0.0736407132121479,36.8723761237662,5968.5624396817,0,0,0.36847770208,2600,2018-04-12 07:16:27,13,0,17.13,5968.5624396817,0,0,0.36847770208,0,0,0,204.5, -0.2, 1.2,0,0,1024,1024,1024,1024,204.9,0,99,4.26,4.262,4.255,4.247,0,0,2.252,75.11,10,Assisted_Takeoff,
0.0736407246275404,36.8723761319763,5968.5624396817,0,0,0.37359581248,2700,2018-04-12 07:16:27,13,0,17.13,5968.5624396817,0,0,0.37359581248,0,0,0,204.5, -0.2, 1.2,0,0,1024,1024,1024,1024,204.9,0,99,4.26,4.262,4.255,4.247,0,0,2.252,75.11,10,Assisted_Takeoff,
0.0736407583053907,36.8723761583244,5968.5624396817,0,0,0.38918636416,2800,2018-04-12 07:16:27,13,0,17.13,5968.5624396817,0,0,0.38918636416,0,0,0,204.5, -0.2, 1.2,0,0,1024,1024,1024,1024,204.9,0,99,4.26,4.262,4.255,4.247,0,0,2.252,75.11,10,Assisted_Takeoff,
0.0736407887377521,36.8723761868389,5968.5624396817,0,0,0.4043799342,2900,2018-04-12 07:16:28,13,0,17.13,5968.5624396817,0,0,0.4043799342,0,0,0,204.5, -0.2, 1.2,0,0,1024,1024,1024,1024,204.9,0,99,4.26,4.262,4.255,4.247,0,0,2.252,75.11,10,Assisted_Takeoff,
0.0736408032121765,36.8723761970085,5968.5624396817,0,0,0.4108103806,3000,2018-04-12 07:16:28,14,0,17.13,5968.5624396817,0,0,0.4108103806,0,0,0,204.5, -0.2, 1.2,0,0,1024,1024,1024,1024,204.9,0,99,4.26,4.262,4.255,4.247,0,0,2.252,75.11,10,Assisted_Takeoff,
0.0736408159840628,36.8723762095842,5968.5624396817,0,0,0.41732940968,3100,2018-04-12 07:16:28,14,0,17.13,5968.5624396817,0,0,0.41732940968,0,0,0,204.5, -0.2, 1.2,0,0,1024,1024,1024,1024,204.9,0,99,4.26,4.262,4.255,4.247,0,0,2.252,75.11,10,Assisted_Takeoff,
0.0736408146234979,36.872376242164,5968.5624396817,0,0,0.4246883338,3200,2018-04-12 07:16:28,14,0,17.13,5968.5624396817,0,0,0.4246883338,0,0,0,204.5, -0.2, 1.2,0,0,1024,1024,1024,1024,204.9,0,99,4.26,4.262,4.255,4.247,0,0,2.252,75.11,10,Assisted_Takeoff,
0.0736408158073767,36.8723762752773,5968.5624396817,0,0,0.43307088,3300,2018-04-12 07:16:28,14,0,17.13,5968.5624396817,0,0,0.43307088,0,0,0,204.5, -0.2, 1.2,0,0,1024,1024,1024,1024,204.9,0,99,4.26,4.262,4.255,4.247,0,0,2.252,75.11,10,Assisted_Takeoff,
0.0736408434534704,36.8723762912413,5968.5624396817,0,0,0.44445211396,3400,2018-04-12 07:16:28,13,0,17.13,5968.5624396817,0,0,0.44445211396,0,0,0,204.5, -0.2, 1.2,0,0,1024,1024,1024,1024,204.9,0,99,4.26,4.262,4.255,4.247,0,0,2.252,75.11,10,Assisted_Takeoff,
0.0736408692724499,36.8723763085374,5968.5624396817,0,0,0.4556758676,3500,2018-04-12 07:16:28,13,0,16.97,5968.5624396817,0,0,0.4556758676,0,0,0,204.5, -0.2, 1.2,0,0,1024,1024,1024,1024,204.9,0,99,4.252,4.251,4.25,4.245,0,0,2.788,75.11,10,Assisted_Takeoff,
0.0736408840375517,36.8723763451,5968.5624396817,0,0,0.4686351856,3600,2018-04-12 07:16:28,13,0,16.97,5968.5624396817,0,0,0.4686351856,0,0,0,204.5, -0.2, 1.2,0,0,1024,1024,1024,1024,204.9,0,99,4.252,4.251,4.25,4.245,0,0,2.788,75.11,10,Assisted_Takeoff,
0.0736408965635429,36.8723763800377,5968.5624396817,0,0,0.4806758684,3700,2018-04-12 07:16:28,13,0,16.97,5968.5624396817,0,0,0.4806758684,0,0,0,204.5, -0.2, 1.2,0,0,1024,1024,1024,1024,204.9,0,99,4.252,4.251,4.25,4.245,0,0,2.788,75.11,10,Assisted_Takeoff,
0.0736409347098435,36.8723763956613,5968.5624396817,0,0,0.4947342678,3800,2018-04-12 07:16:28,13,0,16.97,5968.5624396817,0,0,0.4947342678,0,0,0,204.5, -0.2, 1.2,0,0,1024,1024,1024,1024,204.9,0,99,4.252,4.251,4.25,4.245,0,0,2.788,75.11,10,Assisted_Takeoff,
0.0736409670344569,36.872376412473,5968.5624396817,0,0,0.50756563304,3900,2018-04-12 07:16:28,13,0,16.97,5968.5624396817,0,0,0.50756563304,0,0,0,204.5, -0.2, 1.2,0,0,1024,1024,1024,1024,204.9,0,99,4.252,4.251,4.25,4.245,0,0,2.788,75.11,10,Assisted_Takeoff,
0.0736409856964251,36.872376411123,5968.5624396817,0,0,0.5122867618,4000,2018-04-12 07:16:29,13,0,16.97,5968.5624396817,0,0,0.5122867618,0,0,0,204.6, -0.2, 1.2,0,0,1024,1024,1024,1024,204.9,0,99,4.252,4.251,4.25,4.245,0,0,2.788,75.11,10,Assisted_Takeoff,
0.0736410013172741,36.8723764160538,5968.5624396817,0,0,0.51773951788,4100,2018-04-12 07:16:29,13,0,16.97,5968.5624396817,0,0,0.51773951788,0,0,0,204.6, -0.2, 1.2,0,0,1024,1024,1024,1024,204.9,0,99,4.252,4.251,4.25,4.245,0,0,2.788,75.11,10,Assisted_Takeoff,
0.0736410042346315,36.8723764065961,5968.5624396817,0,0,0.5162565782,4200,2018-04-12 07:16:29,13,0,16.97,5968.5624396817,0,0,0.51773951788,0,0,0,204.6, -0.2, 1.2,0,0,1024,1024,1024,1024,204.9,0,99,4.252,4.251,4.25,4.245,0,0,2.788,75.11,10,Assisted_Takeoff,
0.0736410086078179,36.8723764041713,5968.5624396817,0,0,0.5168799378,4300,2018-04-12 07:16:29,13,0,16.97,5968.5624396817,0,0,0.51773951788,0,0,0,204.6, -0.2, 1.2,0,0,1024,1024,1024,1024,204.9,0,99,4.252,4.251,4.25,4.245,0,0,2.788,75.11,10,Assisted_Takeoff,
0.0736410028634817,36.872376426244,5968.5624396817,0,0,0.52063321876,4400,2018-04-12 07:16:29,13,0,16.97,5968.5624396817,0,0,0.52063321876,0,0,0,204.6, -0.2, 1.2,0,0,1024,1024,1024,1024,204.9,0,99,4.252,4.251,4.25,4.245,0,0,2.788,75.11,10,Assisted_Takeoff,
0.0736410000536016,36.8723764504396,5968.5624396817,0,0,0.52580710344,4500,2018-04-12 07:16:29,13,0,16.97,5968.5624396817,0,0,0.52580710344,0,0,0,204.6, -0.2, 1.2,0,0,1024,1024,1024,1024,204.9,0,99,4.252,4.251,4.25,4.245,0,0,2.788,75.11,10,Assisted_Takeoff,
0.0736410250599876,36.8723764626411,5968.5624396817,0,0,0.53554463656,4600,2018-04-12 07:16:29,13,0,16.97,5968.5624396817,0,0,0.53554463656,0,0,0,204.6, -0.2, 1.2,0,0,1024,1024,1024,1024,204.9,0,99,4.252,4.251,4.25,4.245,0,0,2.788,75.11,10,Assisted_Takeoff,
0.0736410475023885,36.8723764748472,5968.5624396817,0,0,0.54459975496,4700,2018-04-12 07:16:29,13,0,16.97,5968.5624396817,0,0,0.54459975496,0,0,0,204.6, -0.2, 1.2,0,0,1024,1024,1024,1024,204.9,0,99,4.252,4.251,4.25,4.245,0,0,2.788,75.11,10,Assisted_Takeoff,
0.0736410611748043,36.8723764751957,5968.5624396817,0,0,0.54839896768,4800,2018-04-12 07:16:29,13,0,16.97,5968.5624396817,0,0,0.54839896768,0,0,0,204.6, -0.2, 1.2,0,0,1024,1024,1024,1024,204.9,0,99,4.252,4.251,4.25,4.245,0,0,2.788,75.11,10,Assisted_Takeoff,
0.0736410704398364,36.8723764792687,5968.5624396817,0,0,0.55191274732,4900,2018-04-12 07:16:30,13,0,16.97,5968.5624396817,0,0,0.55191274732,0,0,0,204.6, -0.2, 1.2,0,0,1024,1024,1024,1024,204.9,0,99,4.252,4.251,4.25,4.245,0,0,2.788,75.11,10,Assisted_Takeoff,
0.0736410713134966,36.8723765097242,5968.5624396817,0,0,0.55958991292,5000,2018-04-12 07:16:30,13,0,16.97,5968.5624396817,0,0,0.55958991292,0,0,0,204.6, -0.2, 1.2,0,0,1024,1024,1024,1024,204.9,0,99,4.252,4.251,4.25,4.245,0,0,2.788,75.11,10,Assisted_Takeoff,
0.0736410716562841,36.8723765384334,5968.5624396817,0,0,0.56680119924,5100,2018-04-12 07:16:30,13,0,16.97,5968.5624396817,0,0,0.56680119924,0,0,0,204.6, -0.2, 1.2,0,0,1024,1024,1024,1024,204.9,0,99,4.252,4.251,4.25,4.245,0,0,2.788,75.11,10,Assisted_Takeoff,
0.0736411019274296,36.872376554531,5968.5624396817,0,0,0.57888125212,5200,2018-04-12 07:16:30,13,0,16.97,5968.5624396817,0,0,0.57888125212,0,0,0,204.6, -0.2, 1.2,0,0,1024,1024,1024,1024,204.9,0,99,4.252,4.251,4.25,4.245,0,0,2.788,75.11,10,Assisted_Takeoff,
0.0736411301679054,36.8723765717682,5968.5624396817,0,0,0.590715242,5300,2018-04-12 07:16:30,13,0,16.97,5968.5624396817,0,0,0.590715242,0,0,0,204.6, -0.2, 1.2,0,0,1024,1024,1024,1024,204.9,0,99,4.252,4.251,4.25,4.245,0,0,2.788,75.11,10,Assisted_Takeoff,
0.0736411437287727,36.8723766085486,5968.5624396817,0,0,0.60348099044,5400,2018-04-12 07:16:30,13,0,16.97,5968.5624396817,0,0,0.60348099044,0,0,0,204.6, -0.2, 1.2,0,0,1024,1024,1024,1024,204.9,0,99,4.252,4.251,4.25,4.245,0,0,2.788,75.11,10,Assisted_Takeoff,
0.0736411542224659,36.8723766445277,5968.5624396817,0,0,0.61530841864,5500,2018-04-12 07:16:30,13,0,16.97,5968.5624396817,0,0,0.61530841864,0,0,0,204.6, -0.2, 1.2,0,0,1024,1024,1024,1024,204.9,0,99,4.256,4.257,4.258,4.254,0,0,1.928,75.11,10,Assisted_Takeoff,
0.0736411914959205,36.8723766656969,5968.5624396817,0,0,0.63047246112,5600,2018-04-12 07:16:30,13,0,16.97,5968.5624396817,0,0,0.63047246112,0,0,0,204.6, -0.2, 1.2,0,0,1024,1024,1026,1024,204.9,0,99,4.256,4.257,4.258,4.254,0,0,1.928,75.11,10,Assisted_Takeoff,
0.0736412220675139,36.8723766849214,5968.5624396817,0,0,0.64339240904,5700,2018-04-12 07:16:30,13,0,16.97,5968.5624396817,0,0,0.64339240904,0,0,0,204.6, -0.2, 1.2,0,0,1024,1024,1031,1024,204.9,0,99,4.256,4.257,4.258,4.254,0,0,1.928,75.11,10,Assisted_Takeoff,
0.073641242933581,36.8723766911256,5968.5624396817,0,0,0.6504921468,5800,2018-04-12 07:16:30,13,0,16.97,5968.5624396817,0,0,0.6504921468,0,0,0,204.6, -0.2, 1.2,0,0,1024,1024,1025,1024,204.9,0,99,4.256,4.257,4.258,4.254,0,0,1.928,75.11,10,Assisted_Takeoff,
0.0736412565319026,36.8723766980438,5968.5624396817,0,0,0.65584319684,5900,2018-04-12 07:16:30,13,0,16.97,5968.5624396817,0,0,0.65584319684,0,0,0,204.6, -0.2, 1.2,0,0,1024,1024,1024,1024,204.9,0,99,4.256,4.257,4.258,4.254,0,0,1.928,75.11,10,Assisted_Takeoff,
0.0736412931751494,36.8723767237386,5968.5624396817,0,0,0.67202429972,6000,2018-04-12 07:16:31,13,0,16.97,5968.5624396817,0,0,0.67202429972,0,0,0,204.6, -0.2, 1.2,0,0,1024,1024,1024,1024,204.9,0,99,4.256,4.257,4.258,4.254,0,0,1.928,75.11,10,Assisted_Takeoff,
0.0736413256284099,36.8723767546871,5968.5624396817,0,0,0.68838256796,6100,2018-04-12 07:16:31,13,0,16.97,5968.5624396817,0,0,0.68838256796,0,0,0,204.6, -0.2, 1.2,0,0,1024,1024,1024,1024,204.9,0,99,4.256,4.257,4.258,4.254,0,0,1.928,75.11,10,Assisted_Takeoff,
0.0736413524570247,36.8723767740116,5968.5624396817,0,0,0.7003609148,6200,2018-04-12 07:16:31,13,0,16.97,5968.5624396817,0,0,0.7003609148,0,0,0,204.6, -0.2, 1.2,0,0,1024,1024,1024,1024,204.9,0,99,4.256,4.257,4.258,4.254,0,0,1.928,75.11,10,Assisted_Takeoff,
0.0736413676593636,36.8723767913736,5968.5624396817,0,0,0.70873033764,6300,2018-04-12 07:16:31,13,0,16.97,5968.5624396817,0,0,0.70873033764,0,0,0,204.6, -0.2, 1.2,0,0,1024,1024,1026,1024,204.9,0,99,4.256,4.257,4.258,4.254,0,0,1.928,75.11,10,Assisted_Takeoff,
0.0736413732579541,36.8723768282769,5968.5624396817,0,0,0.71940947184,6400,2018-04-12 07:16:31,13,0,16.97,5968.5624396817,0,0,0.71940947184,0,0,0,204.6, -0.2, 1.2,0,0,1024,1024,1045,1024,204.9,0,99,4.256,4.257,4.258,4.254,0,0,1.928,75.11,10,Assisted_Takeoff,
0.0736413767509665,36.8723768643542,5968.5624396817,0,0,0.72942259552,6500,2018-04-12 07:16:31,13,0,16.97,5968.5624396817,0,0,0.72942259552,0,0,0,204.6, -0.2, 1.2,0,0,1024,1024,1077,1024,204.9,0,99,4.256,4.257,4.258,4.255,0,0,1.93,75.11,10,Assisted_Takeoff,
0.0736414052772342,36.8723768843136,5968.5624396817,0,0,0.74197180852,6600,2018-04-12 07:16:31,13,0,16.97,5968.5624396817,0,0,0.74197180852,0,0,0,204.6, -0.2, 1.2,0,0,1024,1024,1073,1024,204.9,0,99,4.256,4.257,4.258,4.255,0,0,1.93,75.11,10,Assisted_Takeoff,
0.0736414307176005,36.8723769024694,5968.5624396817,0,0,0.75325461728,6700,2018-04-12 07:16:31,13,0,16.97,5968.5624396817,0,0,0.75325461728,0,0,0,204.6, -0.2, 1.2,0,0,1024,1024,1078,1024,204.9,0,99,4.256,4.257,4.258,4.255,0,0,1.93,75.11,10,Assisted_Takeoff,
0.0736414491874124,36.8723769047799,5968.5624396817,0,0,0.75871393504,6800,2018-04-12 07:16:31,13,0,16.97,5968.5624396817,0,0,0.75871393504,0,0,0,204.6, -0.2, 1.2,0,0,1024,1024,1098,1024,204.9,0,99,4.256,4.257,4.258,4.255,0,0,1.93,75.11,10,Assisted_Takeoff,
0.0736414594140407,36.8723769126066,5968.5624396817,0,0,0.76338913204,6900,2018-04-12 07:16:32,13,0,16.97,5968.5624396817,0,0,0.76338913204,0,0,0,204.6, -0.2, 1.2,0,0,1024,1024,1108,1024,204.9,0,99,4.256,4.257,4.258,4.255,0,0,1.93,75.11,10,Assisted_Takeoff,
0.073641497111705,36.8723769415601,5968.5624396817,0,0,0.78063978876,7000,2018-04-12 07:16:32,13,0,16.97,5968.5624396817,0,0,0.78063978876,0,0,0,204.6, -0.2, 1.2,0,0,1024,1024,1115,1024,204.9,0,99,4.256,4.257,4.258,4.255,0,0,1.93,75.11,10,Assisted_Takeoff,
0.0736415260638108,36.8723769726834,5968.5624396817,0,0,0.79611551104,7100,2018-04-12 07:16:32,13,0,16.97,5968.5624396817,0,0,0.79611551104,0,0,0,204.6, -0.2, 1.2,0,0,1024,1024,1126,1024,204.8,0,99,4.256,4.257,4.258,4.255,0,0,1.93,75.11,10,Assisted_Takeoff,
0.0736415444758128,36.8723769882588,5968.5624396817,0,0,0.80490160056,7200,2018-04-12 07:16:32,13,0,16.97,5968.5624396817,0,0,0.80490160056,0,0,0,204.6, -0.2, 1.2,0,0,1024,1024,1132,1024,204.9,0,99,4.256,4.257,4.258,4.255,0,0,1.93,75.11,10,Assisted_Takeoff,
0.0736415563569402,36.8723770044838,5968.5624396817,0,0,0.81211944856,7300,2018-04-12 07:16:32,13,0,16.97,5968.5624396817,0,0,0.81211944856,0,0,0,204.6, -0.2, 1.2,0,0,1024,1024,1151,1024,204.9,0,99,4.256,4.257,4.258,4.255,0,0,1.93,75.11,10,Assisted_Takeoff,
0.0736415945968764,36.8723770047951,5968.5624396817,0,0,0.82238519692,7400,2018-04-12 07:16:32,13,0,16.97,5968.5624396817,0,0,0.82238519692,0,0,0,204.8, -0.2, 1.2,0,0,1024,1024,1182,1024,204.9,0,99,4.256,4.257,4.258,4.255,0,0,1.93,75.11,10,Assisted_Takeoff,
0.0736416228984188,36.8723770113443,5968.5624396817,0,0,0.83160763816,7500,2018-04-12 07:16:32,13,0,16.97,5968.5624396817,0,0,0.83160763816,0,0,0,204.9, -0.2, 1.2,0,0,1024,1024,1199,1024,204.9,0,99,4.256,4.256,4.257,4.255,0,0,1.928,75.11,10,Assisted_Takeoff,
0.0736416436342105,36.8723770043768,5968.5624396817,0,0,0.83550855692,7600,2018-04-12 07:16:32,13,0,16.97,5968.5624396817,0,0,0.83550855692,0,0,0,204.9, -0.1, 1.1,0,0,1024,1024,1218,1024,204.9,0,99,4.256,4.256,4.257,4.255,0,0,1.928,75.11,10,Assisted_Takeoff,
0.0736416553419086,36.8723770041378,5968.5624396817,0,0,0.83863519744,7700,2018-04-12 07:16:32,13,0,16.97,5968.5624396817,0,0,0.83863519744,0,0,0,205.1, 1.4, 1.3,0,0,1024,1024,1244,1024,204.9,0,99,4.256,4.256,4.257,4.255,0,0,1.928,75.11,10,Assisted_Takeoff,
0.073641666632725,36.8723770185958,5968.5624396817,0,0,0.84521984332,7800,2018-04-12 07:16:32,13,0,16.97,5968.5624396817,0,0,0.84521984332,0,0,-0.223694,205.1, 3.6, 1.2,0,0,1024,1024,1250,1024,204.9,0,99,4.256,4.256,4.257,4.255,0,0,1.928,75.11,10,Assisted_Takeoff,
0.0736417275992256,36.8723770369087,5968.5624396817,0,0.223694,0.86631236368,7900,2018-04-12 07:16:32,13,0,16.97,5968.5624396817,0,0.223694,0.86631236368,0.223694,0,-0.447388,205.1, 3.5, 0.8,0,0,1024,1024,1251,1024,204.9,0,99,4.256,4.256,4.257,4.255,0,0,1.928,75.11,6,P-GPS,
0.0736418878242731,36.8723770629858,5968.5624396817,0,0.223694,0.91712929444,8000,2018-04-12 07:16:33,13,0,16.97,5968.5624396817,0,0.223694,0.91712929444,0.223694,0,-0.894776,205, 1.3, 0.7,0,0,1024,1024,1242,1024,204.9,0,99,4.256,4.256,4.257,4.255,0,0,1.928,75.11,6,P-GPS,
0.0736420654671577,36.8723770887279,5968.5624396817,0,0.223694,0.97388126476,8100,2018-04-12 07:16:33,13,0,16.97,5968.5624396817,0,0.223694,0.97388126476,0.223694,0,-1.11847,205, -0.1, 0.1,0,0,1024,1024,1244,1024,204.9,0,99,4.256,4.256,4.257,4.255,0,0,1.928,75.11,6,P-GPS,
0.0736422450340487,36.8723770955999,5968.8905236817,0.328084,0.223694,1.0282644686,8200,2018-04-12 07:16:33,13,0,16.97,5968.8905236817,0.328084,0.223694,1.0282644686,0.223694,0,-1.565858,205.1, -0.8, 0,0,0,1024,1024,1244,1024,204.9,0,99,4.256,4.256,4.257,4.255,0,0,1.928,75.11,6,P-GPS,
0.0736423879161677,36.872377105106,5969.2186076817,0.656168,0.223694,1.07324806584,8300,2018-04-12 07:16:33,13,0,16.97,5969.2186076817,0.656168,0.223694,1.07324806584,0.223694,0,-1.565858,205.2, -1, 0.4,0,0,1024,1024,1252,1024,204.9,0,99,4.256,4.256,4.257,4.255,0,0,1.928,75.11,6,P-GPS,
0.0736425457604301,36.8723771236057,5969.2186076817,0.656168,0.223694,1.1252296948,8400,2018-04-12 07:16:33,13,0,16.97,5969.2186076817,0.656168,0.223694,1.1252296948,0.223694,0,-1.789552,205.3, -0.9, 0.6,0,0,1024,1024,1252,1024,204.9,0,99,4.256,4.256,4.257,4.255,0,0,1.928,75.11,6,P-GPS,
0.0736426825603107,36.8723771254254,5969.5466916817,0.984252,0,1.16805778016,8500,2018-04-12 07:16:33,13,0,16.542,5969.5466916817,0.984252,0.223694,1.16805778016,0,0,-1.789552,205.3, -0.8, 0,0,0,1024,1024,1269,1024,204.9,0,99,4.256,4.256,4.257,4.255,0,0,1.928,75.11,6,P-GPS,
0.0736428217808734,36.8723771070694,5969.8747756817,1.312336,0,1.2085466266,8600,2018-04-12 07:16:33,13,0,16.542,5969.8747756817,1.312336,0.223694,1.2085466266,0,0,-1.789552,205.2, -0.3, -0.8,0,0,1024,1024,1287,1024,204.9,0,99,4.256,4.256,4.257,4.255,0,0,1.928,75.11,6,P-GPS,Home Point Recorded. RTH Altitude:  30m.
0.0736429351213898,36.8723770998624,5970.2028596817,1.64042,0,1.24343836,8700,2018-04-12 07:16:33,13,0,16.542,5970.2028596817,1.64042,0.223694,1.24343836,0,0,-2.013246,205.2, -0.2, -1.2,0,0,1024,1024,1309,1024,204.9,0,99,4.256,4.256,4.257,4.255,0,0,1.928,75.11,6,P-GPS,
0.0736430278914016,36.8723770489164,5970.5309436817,1.968504,0,1.26474413496,8800,2018-04-12 07:16:33,14,0,16.542,5970.5309436817,1.968504,0.223694,1.26474413496,0,0,-2.23694,205.1, -0.3, -1.2,0,0,1024,1024,1336,1024,204.9,0,99,4.256,4.256,4.257,4.255,0,0,1.928,75.11,6,P-GPS,
0.0736431011217139,36.8723770336924,5970.8590276817,2.296588,0,1.2861384926,8900,2018-04-12 07:16:34,14,0,16.542,5970.8590276817,2.296588,0.223694,1.2861384926,0,0,-2.460634,205.2, -0.8, -0.6,0,0,1024,1024,1382,1024,204.9,0,99,4.256,4.256,4.257,4.255,0,0,1.928,75.11,6,P-GPS,
0.073643167800796,36.8723770042087,5971.1871116817,2.624672,0,1.30335962176,9000,2018-04-12 07:16:34,14,0,16.542,5971.1871116817,2.624672,0.223694,1.30335962176,0,0,-2.908022,205.3, -1.7, 0.2,0,0,1024,1024,1417,1024,204.9,0,99,4.256,4.256,4.257,4.255,0,0,1.928,75.11,6,P-GPS,
0.0736432078442339,36.8723769739932,5971.8432796817,3.28084,0,1.3119422992,9100,2018-04-12 07:16:34,14,0,16.542,5971.8432796817,3.28084,0.223694,1.3119422992,0,0,-3.35541,205.2, -0.3, -0.3,0,0,1024,1024,1428,1024,204.9,0,99,4.256,4.256,4.257,4.255,0,0,1.928,75.11,6,P-GPS,
0.0736432590091301,36.8723769990965,5972.1713636817,3.608924,0,1.33272970144,9200,2018-04-12 07:16:34,14,0,16.542,5972.1713636817,3.608924,0.223694,1.33272970144,0,0,-4.026492,205.2, 0.6, -0.1,0,0,1024,1024,1512,1024,204.9,0,99,4.256,4.256,4.257,4.255,0,0,1.928,75.11,6,P-GPS,
0.0736433321800042,36.8723770594679,5972.8275316817,4.265092,0,1.36621067364,9300,2018-04-12 07:16:34,14,0,16.542,5972.8275316817,4.265092,0.223694,1.36621067364,0,0,-4.47388,205.1, 0, 0.6,0,0,1024,1024,1621,1024,204.9,0,99,4.256,4.256,4.257,4.255,0,0,1.928,75.11,6,P-GPS,
0.0736434760245336,36.8723770664762,5973.4836996817,4.92126,0,1.41498036024,9400,2018-04-12 07:16:34,14,0,16.542,5973.4836996817,4.92126,0.223694,1.41498036024,0,0,-5.144962,205.1, -0.8, 0.3,0,0,1024,1024,1632,1024,204.9,0,99,4.256,4.256,4.257,4.255,0,0,1.928,75.11,6,P-GPS,
0.0736436079179124,36.8723770517502,5974.4679516817,5.905512,0,1.45686684452,9500,2018-04-12 07:16:34,14,0,16.061,5974.4679516817,5.905512,0.223694,1.45686684452,0,0,-6.039738,205, -0.3, -0.9,0,0,1024,1024,1615,1024,204.9,0,99,4.121,4.116,4.109,4.093,0,0,9.532,75.11,6,P-GPS,
0.0736437661131045,36.8723771042865,5975.4522036817,6.889764,0,1.517470521,9600,2018-04-12 07:16:34,14,0,16.061,5975.4522036817,6.889764,0.223694,1.517470521,0,0,-7.158208,204.9, 0, -1.1,0,0,1024,1024,1612,1024,204.9,0,99,4.121,4.116,4.109,4.093,0,0,9.532,75.11,6,P-GPS,
0.0736439293743859,36.8723772057212,5976.4364556817,7.874016,0.223694,1.5868110744,9700,2018-04-12 07:16:34,14,0,16.061,5976.4364556817,7.874016,0.223694,1.5868110744,0.223694,0,-8.052984,204.9, -1.7, -0.1,0,0,1024,1024,1612,1024,204.9,0,99,4.121,4.116,4.109,4.093,0,0,9.532,75.11,6,P-GPS,
0.0736440915193688,36.8723773340545,5977.7487916817,9.186352,0,1.65982944944,9800,2018-04-12 07:16:34,14,0,16.061,5977.7487916817,9.186352,0.223694,1.65982944944,0,0,-8.724066,204.9, -3.7, 0.2,0,0,1024,1024,1627,1024,204.9,0,99,4.121,4.116,4.109,4.093,0,0,9.532,75.11,6,P-GPS,
0.0736442076314969,36.8723774238131,5979.0611276817,10.498688,0,1.7119259078,9900,2018-04-12 07:16:34,14,0,16.061,5979.0611276817,10.498688,0.223694,1.7119259078,0,0,-9.171454,204.9, -3.7, -0.4,0,0,1024,1024,1634,1024,204.9,0,99,4.121,4.116,4.109,4.093,0,0,9.532,75.11,6,P-GPS,
0.0736443320535747,36.8723775464654,5980.3734636817,11.811024,0,1.77194231392,10000,2018-04-12 07:16:35,14,0,16.061,5980.3734636817,11.811024,0.223694,1.77194231392,0,0,-9.618842,205, -2.6, -0.6,0,0,1024,1024,1644,1024,204.9,0,99,4.121,4.116,4.109,4.093,0,0,9.532,75.11,6,P-GPS,
0.0736444139830349,36.8723776533445,5982.0138836817,13.451444,0,1.81575137044,10100,2018-04-12 07:16:35,14,0,16.061,5982.0138836817,13.451444,0.223694,1.81575137044,0,0,-9.842536,205, -2.3, -0.3,0,0,1024,1024,1652,1024,204.9,0,99,4.121,4.116,4.109,4.093,0,0,9.532,75.11,6,P-GPS,
0.0736444813436208,36.8723777412066,5983.3262196817,14.76378,0,1.85197184404,10200,2018-04-12 07:16:35,14,0,16.061,5983.3262196817,14.76378,0.223694,1.85197184404,0,0,-10.06623,205, -2.4, -0.2,0,0,1024,1024,1652,1022,204.9,0,99,4.121,4.116,4.109,4.093,0,0,9.532,75.11,6,P-GPS,
0.0736445232084733,36.8723778118791,5984.9666396817,16.4042,0,1.87722118868,10300,2018-04-12 07:16:35,14,0,16.061,5984.9666396817,16.4042,0.223694,1.87722118868,0,0,-10.289924,205, -2.4, -0.5,0,0,1024,1024,1670,1023,204.9,0,99,4.121,4.116,4.109,4.093,0,0,9.532,75.11,6,P-GPS,
0.0736445507878009,36.8723779037713,5986.6070596817,18.04462,0,1.90158470652,10400,2018-04-12 07:16:35,14,0,16.061,5986.6070596817,18.04462,0.223694,1.90158470652,0,0,-10.289924,205, -2.4, -0.6,0,0,1024,1024,1684,1024,204.9,0,99,4.121,4.116,4.109,4.093,0,0,9.532,75.11,6,P-GPS,
0.0736445560989709,36.8723779912544,5987.9193956817,19.356956,0,1.91836948396,10500,2018-04-12 07:16:35,14,0,15.233,5987.9193956817,19.356956,0.223694,1.91836948396,0,0,-10.513618,205, -2, -0.5,0,0,1024,1024,1684,1024,204.9,0,99,3.998,3.992,3.967,3.939,0,0,16.036,75.11,6,P-GPS,
0.0736445317073225,36.8723780335472,5989.5598156817,20.997376,0,1.91802171492,10600,2018-04-12 07:16:35,14,0,15.233,5989.5598156817,20.997376,0.223694,1.91836948396,0,0,-10.737312,205, -1.5, -0.4,0,0,1024,1024,1684,1024,204.9,0,99,3.998,3.992,3.967,3.939,0,0,16.036,75.11,6,P-GPS,
0.0736445094538211,36.8723780859205,5991.2002356817,22.637796,0,1.92034454964,10700,2018-04-12 07:16:35,14,0,15.233,5991.2002356817,22.637796,0.223694,1.92034454964,0,0,-10.737312,205, -2, -0.5,0,0,1024,1024,1684,1024,204.9,0,99,3.998,3.992,3.967,3.939,0,0,16.036,75.11,6,P-GPS,
0.073644524549497,36.8723781355499,5992.8406556817,24.278216,0,1.9341536052,10800,2018-04-12 07:16:35,14,0,15.233,5992.8406556817,24.278216,0.223694,1.9341536052,0,0,-10.961006,205, -2.6, -0.5,0,0,1024,1024,1684,1024,204.9,0,99,3.998,3.992,3.967,3.939,0,0,16.036,75.11,6,P-GPS,
0.073644521248641,36.8723781947748,5994.4810756817,25.918636,0,1.94405189948,10900,2018-04-12 07:16:36,14,0,15.233,5994.4810756817,25.918636,0.223694,1.94405189948,0,0,-10.961006,205, -2.7, -0.3,0,0,1024,1024,1684,1024,204.9,0,99,3.998,3.992,3.967,3.939,0,0,16.036,75.11,6,P-GPS,
0.0736445121651804,36.8723782359312,5996.1214956817,27.559056,0,1.94892394688,11000,2018-04-12 07:16:36,14,0,15.233,5996.1214956817,27.559056,0.223694,1.94892394688,0,0,-11.1847,205, -2.6, -0.1,0,0,1024,1024,1684,1024,204.9,0,99,3.998,3.992,3.967,3.939,0,0,16.036,75.11,6,P-GPS,
0.0736444847861514,36.8723782755459,5997.7619156817,29.199476,0,1.94792329068,11100,2018-04-12 07:16:36,14,0,15.233,5997.7619156817,29.199476,0.223694,1.94892394688,0,0,-11.1847,204.9, -2.8, -0.4,0,0,1024,1024,1684,1024,204.9,0,99,3.998,3.992,3.967,3.939,0,0,16.036,75.11,6,P-GPS,
0.0736444256231526,36.8723782954826,5999.4023356817,30.839896,0,1.93344166292,11200,2018-04-12 07:16:36,14,0,15.233,5999.4023356817,30.839896,0.223694,1.94892394688,0,0,-11.1847,205, -3, -0.6,0,0,1024,1024,1684,1024,204.9,0,99,3.998,3.992,3.967,3.939,0,0,16.036,75.11,6,P-GPS,
0.073644342302187,36.8723783206575,6001.0427556817,32.480316,0,1.9127461242,11300,2018-04-12 07:16:36,14,0,15.233,6001.0427556817,32.480316,0.223694,1.94892394688,0,0,-11.1847,205, -2.7, -0.5,0,0,1024,1024,1684,1024,204.9,0,99,3.998,3.992,3.967,3.939,0,0,16.036,75.11,6,P-GPS,
0.0736442363694624,36.872378304743,6002.6831756817,34.120736,0,1.87720478448,11400,2018-04-12 07:16:36,14,0,15.233,6002.6831756817,34.120736,0.223694,1.94892394688,0,0,-11.1847,205, -2, -0.4,0,0,1024,1024,1684,1024,204.9,0,99,3.998,3.992,3.967,3.939,0,0,16.036,75.11,6,P-GPS,
0.0736441275161234,36.8723783001728,6004.3235956817,35.761156,0,1.84323168628,11500,2018-04-12 07:16:36,14,0,15.714,6004.3235956817,35.761156,0.223694,1.94892394688,0,0,-10.961006,205, -1.5, -0.4,0,0,1024,1024,1684,1024,204.9,0,99,3.947,3.936,3.944,3.943,0,0,18.794,75.11,6,P-GPS,
0.0736440123183666,36.8723783103282,6005.9640156817,37.401576,0,1.81065950676,11600,2018-04-12 07:16:36,14,0,15.714,6005.9640156817,37.401576,0.223694,1.94892394688,0,0,-10.961006,204.9, -1.6, -0.2,0,0,1024,1024,1684,1024,204.9,0,99,3.947,3.936,3.944,3.943,0,0,18.794,75.11,6,P-GPS,
0.0736439140743403,36.8723783364891,6007.6044356817,39.041996,0,1.78691934852,11700,2018-04-12 07:16:36,14,0,15.714,6007.6044356817,39.041996,0.223694,1.94892394688,0,0,-10.961006,205, -2.3, -0.3,0,0,1024,1024,1684,1024,204.9,0,99,3.947,3.936,3.944,3.943,0,0,18.794,75.11,6,P-GPS,
0.0736438589979216,36.8723783080345,6009.2448556817,40.682416,0,1.7645505814,11800,2018-04-12 07:16:36,14,0,15.714,6009.2448556817,40.682416,0.223694,1.94892394688,0,0,-10.961006,205, -2.9, -0.4,0,0,1024,1024,1684,1024,204.9,0,99,3.947,3.936,3.944,3.943,0,0,18.794,75.11,6,P-GPS,
0.0736437898468615,36.8723782789776,6010.8852756817,42.322836,0,1.73790359892,11900,2018-04-12 07:16:37,14,0,15.714,6010.8852756817,42.322836,0.223694,1.94892394688,0,0,-10.961006,205.1, -2.8, -0.5,0,0,1024,1024,1684,1023,204.9,0,99,3.947,3.936,3.944,3.943,0,0,18.794,75.11,6,P-GPS,
0.0736436351283974,36.8723782443084,6014.1661156817,45.603676,0,1.68498364972,12100,2018-04-12 07:16:37,14,0,15.714,6014.1661156817,45.603676,0.223694,1.94892394688,0,0,-10.961006,205, -1.8, -0.4,0,0,1024,1024,1684,1023,204.9,0,99,3.947,3.936,3.944,3.943,0,0,18.794,75.11,6,P-GPS,
0.0736435701583672,36.8723781848014,6015.4784516817,46.916012,0,1.65299874056,12200,2018-04-12 07:16:37,14,0,15.714,6015.4784516817,46.916012,0.223694,1.94892394688,0,0,-10.961006,205, -1.5, -0.6,0,0,1024,1024,1684,1024,204.9,0,99,3.947,3.936,3.944,3.943,0,0,18.794,75.11,6,P-GPS,
0.0736435025136178,36.8723781423865,6017.1188716817,48.556432,0,1.6239665874,12300,2018-04-12 07:16:37,14,0,15.714,6017.1188716817,48.556432,0.223694,1.94892394688,0,0,-10.961006,205, -1.6, -0.7,0,0,1024,1024,1684,1024,204.9,0,99,3.947,3.936,3.944,3.943,0,0,18.794,75.11,6,P-GPS,
0.0736434476953076,36.8723781182077,6018.7592916817,50.196852,0,1.60267721664,12400,2018-04-12 07:16:37,14,0,15.714,6018.7592916817,50.196852,0.223694,1.94892394688,0,0,-11.1847,205, -1.9, -0.4,0,0,1024,1024,1684,1024,204.9,0,99,3.947,3.936,3.944,3.943,0,0,18.794,75.11,6,P-GPS,
0.073643388305955,36.872378103314,6020.7277956817,52.165356,0,1.58212275404,12500,2018-04-12 07:16:37,14,0,15.741,6020.7277956817,52.165356,0.223694,1.94892394688,0,0,-11.1847,205, -2.1, -0.5,0,0,1024,1024,1684,1024,204.9,0,99,3.947,3.936,3.944,3.943,0,0,18.794,75.11,6,P-GPS,
0.0736433575055652,36.872378057271,6022.3682156817,53.805776,0,1.56301842272,12600,2018-04-12 07:16:37,14,0,15.741,6022.3682156817,53.805776,0.223694,1.94892394688,0,0,-11.1847,205, -2.2, -0.6,0,0,1024,1024,1684,1024,204.9,0,99,3.947,3.936,3.944,3.943,0,0,18.794,75.11,6,P-GPS,
0.0736433084267058,36.872378019905,6024.0086356817,55.446196,0,1.54051186032,12700,2018-04-12 07:16:37,14,0,15.741,6024.0086356817,55.446196,0.223694,1.94892394688,0,0,-10.961006,205, -2, -0.5,0,0,1024,1024,1684,1024,204.9,0,99,3.947,3.936,3.944,3.943,0,0,18.794,75.11,6,P-GPS,
0.0736432370161797,36.8723779895217,6025.6490556817,57.086616,0,1.5130577912,12800,2018-04-12 07:16:37,14,0,15.741,6025.6490556817,57.086616,0.223694,1.94892394688,0,0,-11.1847,205, -1.8, -0.1,0,0,1024,1024,1684,1024,204.9,-0.2,99,3.947,3.936,3.944,3.943,0,0,18.794,75.11,6,P-GPS,
0.0736431681460262,36.8723779645261,6027.2894756817,58.727036,0,1.48756894524,12900,2018-04-12 07:16:38,14,0,15.741,6027.2894756817,58.727036,0.223694,1.94892394688,0,0,-11.1847,205, -1.9, -0.2,0,0,1024,1024,1684,1024,204.9,-0.7,99,3.947,3.936,3.944,3.943,0,0,18.794,75.11,6,P-GPS,
0.0736431655055042,36.8723779462333,6028.9298956817,60.367456,0,1.48273626792,13000,2018-04-12 07:16:38,14,0,15.741,6028.9298956817,60.367456,0.223694,1.94892394688,0,0,-11.1847,205, -1.8, -0.7,0,0,1024,1024,1684,1023,204.9,-1.7,99,3.947,3.936,3.944,3.943,0,0,18.794,75.11,6,P-GPS,
0.0736431602024764,36.8723779286047,6030.5703156817,62.007876,0,1.4772966352,13100,2018-04-12 07:16:38,14,0,15.741,6030.5703156817,62.007876,0.223694,1.94892394688,0,0,-10.961006,205, -2, -0.9,0,0,1024,1024,1684,1024,204.9,-3.8,99,3.947,3.936,3.944,3.943,0,0,18.794,75.11,6,P-GPS,
0.07364319774381,36.8723779294034,6032.2107356817,63.648296,0,1.48838915524,13200,2018-04-12 07:16:38,14,0,15.741,6032.2107356817,63.648296,0.223694,1.94892394688,0,0,-11.1847,205, -2.5, -0.9,0,0,1024,1024,1684,1024,204.9,-7,99,3.947,3.936,3.944,3.943,0,0,18.794,75.11,6,P-GPS,
0.0736432079272846,36.8723779321034,6033.8511556817,65.288716,0,1.49194886664,13300,2018-04-12 07:16:38,14,0,15.741,6033.8511556817,65.288716,0.223694,1.94892394688,0,0,-11.1847,205, -2.6, -0.9,0,0,1024,1024,1684,1024,204.9,-10.7,99,3.947,3.936,3.944,3.943,0,0,18.794,75.11,6,P-GPS,
0.073643190125949,36.8723778776398,6035.4915756817,66.929136,0,1.47486553276,13400,2018-04-12 07:16:38,14,0,15.741,6035.4915756817,66.929136,0.223694,1.94892394688,0,0,-10.961006,205, -2.2, -0.8,0,0,1024,1024,1673,1024,204.9,-14.4,99,3.947,3.936,3.944,3.943,0,0,18.794,75.11,6,P-GPS,
0.0736431464787646,36.8723778338295,6037.1319956817,68.569556,0,1.45256238244,13500,2018-04-12 07:16:38,14,0,15.714,6037.1319956817,68.569556,0.223694,1.94892394688,0,0,-10.961006,205, -1.7, -0.4,0,0,1024,1024,1663,1024,204.9,-17.4,99,3.966,3.966,3.967,3.951,0,0,17.068,75.11,6,P-GPS,
0.0736431291985311,36.8723778076921,6038.7724156817,70.209976,0,1.44183731648,13600,2018-04-12 07:16:38,14,0,15.714,6038.7724156817,70.209976,0.223694,1.94892394688,0,0,-10.961006,205, -1.7, -0.1,0,0,1024,1024,1659,1024,204.9,-17.6,99,3.966,3.966,3.967,3.951,0,0,17.068,75.11,6,P-GPS,
0.0736431141044837,36.8723777927962,6040.4128356817,71.850396,0,1.43418311676,13700,2018-04-12 07:16:38,14,0,15.714,6040.4128356817,71.850396,0.223694,1.94892394688,0,0,-10.961006,205, -2.2, -0.2,0,0,1024,1024,1646,1024,204.9,-17.6,99,3.966,3.966,3.967,3.951,0,0,17.068,75.11,6,P-GPS,
0.0736431344714328,36.8723777856164,6042.0532556817,73.490816,0,1.43865490168,13800,2018-04-12 07:16:38,14,0,15.714,6042.0532556817,73.490816,0.223694,1.94892394688,0,0,-10.737312,205, -2.2, -0.1,0,0,1024,1024,1650,1024,204.9,-17.6,99,3.966,3.966,3.967,3.951,0,0,17.068,75.11,6,P-GPS,
0.0736431383251455,36.8723777776081,6043.6936756817,75.131236,0,1.43808731636,13900,2018-04-12 07:16:39,14,0,15.714,6043.6936756817,75.131236,0.223694,1.94892394688,0,0,-10.513618,205, -2.1, -0.2,0,0,1024,1024,1650,1024,204.9,-17.6,99,3.966,3.966,3.967,3.951,0,0,17.068,75.11,6,P-GPS,
0.0736431618504617,36.8723777709839,6045.0060116817,76.443572,0,1.44365818268,14000,2018-04-12 07:16:39,16,0,15.714,6045.0060116817,76.443572,0.223694,1.94892394688,0,0,-10.513618,205, -2, -0.2,0,0,1024,1024,1644,1024,204.9,-17.6,99,3.966,3.966,3.967,3.951,0,0,17.068,75.11,6,P-GPS,
0.0736431823134889,36.8723777645434,6046.6464316817,78.083992,0,1.44838587312,14100,2018-04-12 07:16:39,16,0,15.714,6046.6464316817,78.083992,0.223694,1.94892394688,0,0,-10.513618,205, -2, -0.4,0,0,1024,1024,1636,1024,204.9,-17.6,99,3.966,3.966,3.967,3.951,0,0,17.068,75.11,6,P-GPS,
0.0736432598656916,36.8723777335033,6048.2868516817,79.724412,0,1.4651903356,14200,2018-04-12 07:16:39,16,0,15.714,6048.2868516817,79.724412,0.223694,1.94892394688,0,0,-10.289924,205, -2.3, -0.5,0,0,1024,1024,1634,1024,204.9,-17.6,99,3.966,3.966,3.967,3.951,0,0,17.068,75.11,6,P-GPS,
0.073643308603392,36.8723777097892,6049.9272716817,81.364832,0,1.47512471912,14300,2018-04-12 07:16:39,16,0,15.714,6049.9272716817,81.364832,0.223694,1.94892394688,0,0,-10.06623,205, -2.4, -0.5,0,0,1024,1024,1632,1024,204.9,-17.6,99,3.966,3.966,3.967,3.951,0,0,17.068,75.11,6,P-GPS,
0.0736433877172725,36.8723776963444,6051.2396076817,82.677168,0,1.49660109776,14400,2018-04-12 07:16:39,16,0,15.714,6051.2396076817,82.677168,0.223694,1.94892394688,0,0,-9.842536,205, -2.3, -0.6,0,0,1024,1024,1632,1024,204.9,-17.6,99,3.966,3.966,3.967,3.951,0,0,17.068,75.11,6,P-GPS,
0.0736434358516344,36.8723776927505,6052.8800276817,84.317588,0,1.51068902472,14500,2018-04-12 07:16:39,16,0,15.741,6052.8800276817,84.317588,0.223694,1.94892394688,0,0,-9.842536,205, -2.2, 0,0,0,1024,1024,1632,1024,204.9,-17.6,99,3.956,3.959,3.961,3.943,0,0,17.42,75.11,6,P-GPS,
0.0736435416207004,36.8723776529436,6054.1923636817,85.629924,0,1.53584978668,14600,2018-04-12 07:16:39,16,0,15.741,6054.1923636817,85.629924,0.223694,1.94892394688,0,0,-9.842536,205, -1.8, 0.1,0,0,1024,1024,1632,1024,204.9,-17.6,99,3.956,3.959,3.961,3.943,0,0,17.42,75.11,6,P-GPS,
0.0736436304132378,36.8723776024743,6055.5046996817,86.94226,0,1.55438325184,14700,2018-04-12 07:16:39,16,0,15.741,6055.5046996817,86.94226,0.223694,1.94892394688,0,0,-9.842536,205, -1.9, -0.3,0,0,1024,1024,1640,1024,204.9,-17.6,99,3.956,3.959,3.961,3.943,0,0,17.42,75.11,6,P-GPS,
0.0736437502691586,36.8723775488266,6057.1451196817,88.58268,0,1.58296592992,14800,2018-04-12 07:16:39,16,0,15.741,6057.1451196817,88.58268,0.223694,1.94892394688,0,0,-9.842536,205, -2.2, -1,0,0,1024,1024,1662,1024,204.9,-17.6,99,3.956,3.959,3.961,3.943,0,0,17.42,75.11,6,P-GPS,
0.0736438324876676,36.8723775008897,6058.7855396817,90.2231,0,1.60122708536,14900,2018-04-12 07:16:40,16,0,15.741,6058.7855396817,90.2231,0.223694,1.94892394688,0,0,-9.842536,205.1, -1.8, -1.2,0,0,1024,1024,1670,1024,204.9,-17.6,99,3.956,3.959,3.961,3.943,0,0,17.42,75.11,6,P-GPS,
0.0736439133871369,36.8723774476745,6060.0978756817,91.535436,0,1.61874020928,15000,2018-04-12 07:16:40,16,0,15.741,6060.0978756817,91.535436,0.223694,1.94892394688,0,0,-10.289924,205.1, -1.1, -1.2,0,0,1024,1024,1684,1024,204.9,-17.6,99,3.956,3.959,3.961,3.943,0,0,17.42,75.11,6,P-GPS,
0.0736439797649569,36.8723774183002,6061.7382956817,93.175856,0,1.63579073476,15100,2018-04-12 07:16:40,16,0,15.741,6061.7382956817,93.175856,0.223694,1.94892394688,0,0,-10.513618,205, -1.3, -1,0,0,1024,1024,1684,1024,204.9,-17.6,99,3.956,3.959,3.961,3.943,0,0,17.42,75.11,6,P-GPS,
0.0736440906603646,36.8723774018279,6063.3787156817,94.816276,0,1.66980648388,15200,2018-04-12 07:16:40,16,0,15.741,6063.3787156817,94.816276,0.223694,1.94892394688,0,0,-10.737312,205.1, -2.1, -0.7,0,0,1024,1024,1684,1024,204.9,-17.6,99,3.956,3.959,3.961,3.943,0,0,17.42,75.11,6,P-GPS,
0.0736441806530652,36.8723773951256,6065.0191356817,96.456696,0,1.69863194412,15300,2018-04-12 07:16:40,16,0,15.741,6065.0191356817,96.456696,0.223694,1.94892394688,0,0,-10.961006,205.1, -3.1, -0.8,0,0,1024,1024,1684,1024,204.9,-17.6,99,3.956,3.959,3.961,3.943,0,0,17.42,75.11,6,P-GPS,
0.0736442465285102,36.8723773954901,6066.6595556817,98.097116,0,1.72061029128,15400,2018-04-12 07:16:40,16,0,15.741,6066.6595556817,98.097116,0.223694,1.94892394688,0,0,-10.961006,205.1, -3.3, -0.7,0,0,1024,1024,1684,1024,204.9,-17.6,99,3.956,3.959,3.961,3.943,0,0,17.42,75.11,6,P-GPS,
0.0736442507412949,36.8723773849927,6068.6280596817,100.06562,0,1.72045937264,15500,2018-04-12 07:16:40,16,0,15.634,6068.6280596817,100.06562,0.223694,1.94892394688,0,0,-11.1847,205.1, -2.5, -0.5,0,0,1024,1024,1684,1024,204.9,-17.6,99,3.957,3.958,3.961,3.939,0,0,16.212,75.11,6,P-GPS,
0.073644259984343,36.8723773611469,6070.2684796817,101.70604,0,1.72004270596,15600,2018-04-12 07:16:40,16,0,15.634,6070.2684796817,101.70604,0.223694,1.94892394688,0,0,-10.961006,205.1, -1.6, -0.7,0,0,1024,1024,1684,1024,204.9,-17.6,99,3.957,3.958,3.961,3.939,0,0,16.212,75.11,6,P-GPS,
0.0736442462956428,36.8723773342247,6071.9088996817,103.34646,0,1.7115486112,15700,2018-04-12 07:16:40,16,0,15.634,6071.9088996817,103.34646,0.223694,1.94892394688,0,0,-10.961006,205, -1.3, -1.1,0,0,1024,1024,1684,1024,204.9,-17.6,99,3.957,3.958,3.961,3.939,0,0,16.212,75.11,6,P-GPS,
0.0736442326623096,36.872377297986,6073.5493196817,104.98688,0,1.701771708,15800,2018-04-12 07:16:40,16,0,15.634,6073.5493196817,104.98688,0.223694,1.94892394688,0,0,-10.961006,205.1, -1.5, -0.7,0,0,1024,1024,1684,1024,204.9,-17.6,99,3.957,3.958,3.961,3.939,0,0,16.212,75.11,6,P-GPS,
0.0736441979951796,36.8723772744407,6075.1897396817,106.6273,0,1.68677498836,15900,2018-04-12 07:16:40,16,0,15.634,6075.1897396817,106.6273,0.223694,1.94892394688,0,0,-10.961006,205.1, -1.3, -0.3,0,0,1024,1024,1684,1024,204.9,-17.6,99,3.957,3.958,3.961,3.939,0,0,16.212,75.11,6,P-GPS,
0.0736441866612094,36.8723772680203,6076.8301596817,108.26772,0,1.6820538596,16000,2018-04-12 07:16:41,16,0,15.634,6076.8301596817,108.26772,0.223694,1.94892394688,0,0,-10.961006,205.1, -0.7, 0,0,0,1024,1024,1684,1024,204.9,-17.6,99,3.957,3.958,3.961,3.939,0,0,16.212,75.11,6,P-GPS,
0.0736441709833648,36.8723772631452,6078.4705796817,109.90814,0,1.67609257332,16100,2018-04-12 07:16:41,16,0,15.634,6078.4705796817,109.90814,0.223694,1.94892394688,0,0,-10.961006,205.1, -0.8, 0,0,0,1024,1024,1684,1024,204.9,-17.6,99,3.957,3.958,3.961,3.939,0,0,16.212,75.11,6,P-GPS,
0.0736442013147627,36.8723772561083,6080.1109996817,111.54856,0,1.68529861036,16200,2018-04-12 07:16:41,16,0,15.634,6080.1109996817,111.54856,0.223694,1.94892394688,0,0,-11.1847,205.1, -1.1, -0.2,0,0,1024,1024,1684,1024,204.9,-17.6,99,3.957,3.958,3.961,3.939,0,0,16.212,75.11,6,P-GPS,
0.0736442195614777,36.8723772404328,6081.7514196817,113.18898,0,1.68925202256,16300,2018-04-12 07:16:41,16,0,15.634,6081.7514196817,113.18898,0.223694,1.94892394688,0,0,-11.1847,205.1, -1.3, -0.5,0,0,1024,1024,1684,1024,204.9,-17.6,99,3.957,3.958,3.961,3.939,0,0,16.212,75.11,6,P-GPS,
0.073644291243954,36.8723772311528,6083.3918396817,114.8294,0,1.712188375,16400,2018-04-12 07:16:41,16,0,15.634,6083.3918396817,114.8294,0.223694,1.94892394688,0,0,-11.1847,205.1, -1.4, -0.7,0,0,1024,1024,1684,1024,204.9,-17.6,99,3.957,3.958,3.961,3.939,0,0,16.212,75.11,6,P-GPS,
0.0736443344946123,36.8723772227521,6085.0322596817,116.46982,0,1.72569559328,16500,2018-04-12 07:16:41,16,0,15.634,6085.0322596817,116.46982,0.223694,1.94892394688,0,0,-10.961006,205.1, -1.4, -0.6,0,0,1024,1024,1684,1024,204.9,-17.6,99,3.957,3.958,3.961,3.939,0,0,16.212,75.11,6,P-GPS,
0.0736443771517028,36.8723771934086,6087.0007636817,118.438324,0,1.73627302144,16600,2018-04-12 07:16:41,16,0,15.634,6087.0007636817,118.438324,0.223694,1.94892394688,0,0,-11.1847,205.1, -1.4, -0.4,0,0,1024,1024,1684,1021,204.9,-17.6,99,3.957,3.958,3.961,3.939,0,0,16.212,75.11,6,P-GPS,
0.0736443919282036,36.8723771577785,6088.6411836817,120.078744,0,1.73666016056,16700,2018-04-12 07:16:41,16,0,15.634,6088.6411836817,120.078744,0.223694,1.94892394688,0,0,-11.1847,205.1, -1.4, -0.7,0,0,1024,1024,1684,1021,204.9,-17.6,99,3.957,3.958,3.961,3.939,0,0,16.212,75.11,6,P-GPS,
0.0736444079301086,36.8723771006969,6090.2816036817,121.719164,0,1.7348917878,16800,2018-04-12 07:16:41,16,0,15.634,6090.2816036817,121.719164,0.223694,1.94892394688,0,0,-11.1847,205.1, -1.4, -0.7,0,0,1024,1024,1684,1007,204.9,-17.6,99,3.957,3.958,3.961,3.939,0,0,16.212,75.11,6,P-GPS,
0.0736444005060324,36.872377051618,6091.9220236817,123.359584,0,1.726295987,16900,2018-04-12 07:16:42,16,0,15.634,6091.9220236817,123.359584,0.223694,1.94892394688,0,0,-11.1847,205.1, -1, -0.5,0,0,1024,1024,1684,1006,204.9,-17.6,99,3.957,3.958,3.961,3.939,0,0,16.212,75.11,6,P-GPS,
0.0736444382794193,36.8723770202833,6093.5624436817,125.000004,0,1.7355479558,17000,2018-04-12 07:16:42,16,0,15.634,6093.5624436817,125.000004,0.223694,1.94892394688,0,0,-11.1847,205.1, -1.1, -0.5,0,0,1024,1024,1684,1004,204.9,-17.6,99,3.957,3.958,3.961,3.939,0,0,16.212,75.11,6,P-GPS,
0.0736444747524937,36.87237698905,6095.2028636817,126.640424,0,1.74449480648,17100,2018-04-12 07:16:42,16,0,15.634,6095.2028636817,126.640424,0.223694,1.94892394688,0,0,-11.1847,205.1, -1.7, -1,0,0,1024,1024,1684,1001,204.9,-17.6,99,3.957,3.958,3.961,3.939,0,0,16.212,75.11,6,P-GPS,
0.0736445073384723,36.8723769443993,6097.1713676817,128.608928,0,1.75071855996,17200,2018-04-12 07:16:42,16,0,15.634,6097.1713676817,128.608928,0.223694,1.94892394688,0,0,-10.961006,205.1, -1.6, -1.1,0,0,1024,1024,1684,994,204.9,-17.6,99,3.957,3.958,3.961,3.939,0,0,16.212,75.11,6,P-GPS,
0.0736445042094172,36.8723769028864,6098.8117876817,130.249348,0,1.74504926844,17300,2018-04-12 07:16:42,16,0,15.634,6098.8117876817,130.249348,0.223694,1.94892394688,0,0,-11.1847,205, -1.1, -1,0,0,1024,1024,1684,993,204.9,-17.6,99,3.957,3.958,3.961,3.939,0,0,16.212,75.11,6,P-GPS,
0.0736445309395112,36.8723768210786,6100.4522076817,131.889768,0,1.74572512148,17400,2018-04-12 07:16:42,16,0,15.634,6100.4522076817,131.889768,0.223694,1.94892394688,0,0,-11.1847,204.9, -0.9, -1.1,0,0,1024,1024,1684,986,204.9,-17.5,99,3.957,3.958,3.961,3.939,0,0,16.212,75.11,6,P-GPS,
0.0736445384694362,36.8723767510158,6102.0926276817,133.530188,0,1.74135176176,17500,2018-04-12 07:16:42,16,0,15.66,6102.0926276817,133.530188,0.223694,1.94892394688,0,0,-11.1847,204.7, -0.6, -1,0,0,1024,1024,1684,979,204.9,-17.6,99,3.936,3.939,3.942,3.923,0,0,18.058,75.11,6,P-GPS,
0.0736445617138459,36.8723766859488,6104.0611316817,135.498692,0,1.743356355,17600,2018-04-12 07:16:42,16,0,15.66,6104.0611316817,135.498692,0.223694,1.94892394688,0,0,-11.1847,204.5, -0.6, -0.9,0,0,1024,1024,1684,968,204.8,-17.6,99,3.936,3.939,3.942,3.923,0,0,18.058,75.11,6,P-GPS,
0.073644579018506,36.8723766441017,6105.7015516817,137.139112,0,1.74567262804,17700,2018-04-12 07:16:42,16,0,15.66,6105.7015516817,137.139112,0.223694,1.94892394688,0,0,-11.1847,204.2, -1, -0.8,0,0,1024,1024,1684,962,204.6,-17.6,99,3.936,3.939,3.942,3.923,0,0,18.058,75.11,6,P-GPS,
0.0736446069145659,36.8723766292365,6107.3419716817,138.779532,0,1.7542323396,17800,2018-04-12 07:16:42,16,0,15.66,6107.3419716817,138.779532,0.223694,1.94892394688,0,0,-11.1847,203.8, -1.2, -1,0,0,1024,1024,1684,957,204.6,-17.6,99,3.936,3.939,3.942,3.923,0,0,18.058,75.11,6,P-GPS,
0.0736446199885285,36.8723766257674,6108.9823916817,140.419952,0,1.75855976756,17900,2018-04-12 07:16:42,16,0,15.66,6108.9823916817,140.419952,0.223694,1.94892394688,0,0,-11.1847,203.2, -1.3, -1.2,0,0,1024,1024,1684,958,204.4,-17.6,99,3.936,3.939,3.942,3.923,0,0,18.058,75.11,6,P-GPS,
0.0736446646274353,36.8723766045324,6110.6228116817,142.060372,0,1.77256239268,18000,2018-04-12 07:16:43,16,0,15.66,6110.6228116817,142.060372,0.223694,1.94892394688,0,0,-11.1847,202.6, -1.2, -1,0,0,1024,1024,1684,960,204.1,-17.6,99,3.936,3.939,3.942,3.923,0,0,18.058,75.11,6,P-GPS,
0.0736446709588256,36.8723765875944,6112.2632316817,143.700792,0,1.77338260268,18100,2018-04-12 07:16:43,16,0,15.66,6112.2632316817,143.700792,0.223694,1.94892394688,0,0,-11.1847,202, -1, -0.4,0,0,1024,1024,1684,970,203.8,-17.6,99,3.936,3.939,3.942,3.923,0,0,18.058,75.11,6,P-GPS,
0.0736446777429233,36.872376572926,6114.2317356817,145.669296,0,1.77457682844,18200,2018-04-12 07:16:43,16,0,15.66,6114.2317356817,145.669296,0.223694,1.94892394688,0,0,-10.961006,201.4, -0.7, -0.5,0,0,1024,1024,1684,957,203.6,-17.6,99,3.936,3.939,3.942,3.923,0,0,18.058,75.11,6,P-GPS,
0.0736446780897819,36.8723765544828,6115.8721556817,147.309716,0,1.77319231396,18300,2018-04-12 07:16:43,16,0,15.66,6115.8721556817,147.309716,0.223694,1.94892394688,0,0,-10.961006,200.9, -0.4, -0.7,0,0,1024,1024,1684,958,203.3,-17.6,99,3.936,3.939,3.942,3.923,0,0,18.058,75.11,6,P-GPS,
0.0736447053458633,36.8723765122489,6117.5125756817,148.950136,0,1.77954730104,18400,2018-04-12 07:16:43,16,0,15.66,6117.5125756817,148.950136,0.223694,1.94892394688,0,0,-10.961006,200.4, -0.8, -0.6,0,0,1024,1024,1684,973,202.9,-17.6,99,3.936,3.939,3.942,3.923,0,0,18.058,75.11,6,P-GPS,
0.0736447297554245,36.872376472291,6119.1529956817,150.590556,0,1.78522315424,18500,2018-04-12 07:16:43,16,0,15.687,6119.1529956817,150.590556,0.223694,1.94892394688,0,0,-10.961006,199.7, -1.1, -0.8,0,0,1024,1024,1684,993,202.5,-17.6,98,3.935,3.938,3.942,3.926,0,0,17.774,75.11,6,P-GPS,
0.0736447969368817,36.872376375369,6120.7934156817,152.230976,0,1.8024442834,18600,2018-04-12 07:16:43,16,0,15.687,6120.7934156817,152.230976,0.223694,1.94892394688,0,0,-10.961006,199.2, -1.1, -1.3,0,0,1024,1024,1684,1005,202.3,-17.6,98,3.935,3.938,3.942,3.926,0,0,17.774,75.11,6,P-GPS,
0.0736448447121716,36.8723762936648,6122.4338356817,153.871396,0,1.81443903444,18700,2018-04-12 07:16:43,16,0,15.687,6122.4338356817,153.871396,0.223694,1.94892394688,0,0,-10.961006,198.9, -1, -1.6,0,0,1024,1024,1684,1016,202.1,-17.6,98,3.935,3.938,3.942,3.926,0,0,17.774,75.11,6,P-GPS,
0.0736449163262533,36.8723762477982,6124.0742556817,155.511816,0,1.83757223728,18800,2018-04-12 07:16:43,16,0,15.687,6124.0742556817,155.511816,0.223694,1.94892394688,0,0,-10.961006,198.8, -1, -1.3,0,0,1024,1024,1684,1024,202,-17.6,98,3.935,3.938,3.942,3.926,0,0,17.774,75.11,6,P-GPS,
0.0736449692588254,36.8723762289506,6125.7146756817,157.152236,0,1.85562341896,18900,2018-04-12 07:16:44,16,0,15.687,6125.7146756817,157.152236,0.223694,1.94892394688,0,0,-10.961006,198.8, -1.2, -1,0,0,1024,1024,1684,1024,201.8,-17.6,98,3.935,3.938,3.942,3.926,0,0,17.774,75.11,6,P-GPS,
0.0736450466669108,36.8723762027489,6127.6831796817,159.12074,0,1.8821850996,19000,2018-04-12 07:16:44,16,0,15.687,6127.6831796817,159.12074,0.223694,1.94892394688,0,0,-10.961006,198.8, -1.2, -0.6,0,0,1024,1024,1684,1024,201.7,-17.6,98,3.935,3.938,3.942,3.926,0,0,17.774,75.11,6,P-GPS,
0.0736451139273474,36.8723761793495,6129.3235996817,160.76116,0,1.90531174076,19100,2018-04-12 07:16:44,16,0,15.687,6129.3235996817,160.76116,0.223694,1.94892394688,0,0,-10.961006,198.8, -1.7, -1.2,0,0,1024,1024,1684,1024,201.5,-17.6,98,3.935,3.938,3.942,3.926,0,0,17.774,75.11,6,P-GPS,
0.0736451891565747,36.8723761737304,6130.9640196817,162.40158,0,1.93224087548,19200,2018-04-12 07:16:44,16,0,15.687,6130.9640196817,162.40158,0.223694,1.94892394688,0,0,-10.961006,198.8, -1.9, -1.2,0,0,1024,1024,1684,1024,201.4,-17.6,98,3.935,3.938,3.942,3.926,0,0,17.774,75.11,6,P-GPS,
0.0736452306656122,36.8723761812835,6132.6044396817,164.042,0,1.94761817256,19300,2018-04-12 07:16:44,16,0,15.687,6132.6044396817,164.042,0.223694,1.94892394688,0,0,-10.961006,198.9, -1.6, -0.9,0,0,1024,1024,1684,1024,201.3,-17.6,98,3.935,3.938,3.942,3.926,0,0,17.774,75.11,6,P-GPS,
0.0736452727690318,36.8723762302636,6134.2448596817,165.68242,0,1.9652723726,19400,2018-04-12 07:16:44,16,0,15.687,6134.2448596817,165.68242,0.223694,1.9652723726,0,0,-10.961006,198.9, -1.6, -0.5,0,0,1024,1024,1684,1024,201.3,-17.6,98,3.935,3.938,3.942,3.926,0,0,17.774,75.11,6,P-GPS,
0.0736452923030317,36.8723762688196,6135.8852796817,167.32284,0,1.9743438952,19500,2018-04-12 07:16:44,16,0,15.527,6135.8852796817,167.32284,0.223694,1.9743438952,0,0,-10.961006,198.8, -1.5, -0.5,0,0,1024,1024,1684,1024,201.2,-17.6,98,3.931,3.934,3.938,3.921,0,0,17.508,75.11,6,P-GPS,
0.0736453265207112,36.8723762616152,6137.5256996817,168.96326,0,1.98631239952,19600,2018-04-12 07:16:44,16,0,15.527,6137.5256996817,168.96326,0.223694,1.98631239952,0,0,-10.961006,198.8, -1.3, -0.6,0,0,1024,1024,1684,1024,201.1,-17.6,98,3.931,3.934,3.938,3.921,0,0,17.508,75.11,6,P-GPS,
0.0736453440826655,36.8723762443633,6139.1661196817,170.60368,0,1.99175531308,19700,2018-04-12 07:16:44,16,0,15.527,6139.1661196817,170.60368,0.223694,1.99175531308,0,0,-10.961006,198.8, -1, -0.8,0,0,1024,1024,1684,1024,201,-17.6,98,3.931,3.934,3.938,3.921,0,0,17.508,75.11,6,P-GPS,
0.0736453584300713,36.8723762265498,6141.1346236817,172.572184,0,1.99603352844,19800,2018-04-12 07:16:44,16,0,15.527,6141.1346236817,172.572184,0.223694,1.99603352844,0,0,-10.961006,198.8, -1.1, -1,0,0,1024,1024,1684,1024,201,-17.6,98,3.931,3.934,3.938,3.921,0,0,17.508,75.11,6,P-GPS,
0.0736453622113183,36.8723762224276,6142.7750436817,174.212604,0,1.9971949458,19900,2018-04-12 07:16:44,16,0,15.527,6142.7750436817,174.212604,0.223694,1.9971949458,0,0,-10.961006,198.9, -1.2, -0.9,0,0,1024,1024,1684,1024,200.9,-17.6,98,3.931,3.934,3.938,3.921,0,0,17.508,75.11,6,P-GPS,
0.0736454285777392,36.8723762583572,6144.4154636817,175.853024,0,2.02299547156,20000,2018-04-12 07:16:45,16,0,15.527,6144.4154636817,175.853024,0.223694,2.02299547156,0,0,-10.961006,198.8, -1.3, -0.8,0,0,1024,1024,1684,1024,200.8,-17.6,98,3.931,3.934,3.938,3.921,0,0,17.508,75.11,6,P-GPS,
0.0736454877529513,36.8723763008927,6146.0558836817,177.493444,0,2.04659783452,20100,2018-04-12 07:16:45,16,0,15.527,6146.0558836817,177.493444,0.223694,2.04659783452,0,0,-10.961006,198.8, -1.7, -0.7,0,0,1024,1024,1684,1024,200.8,-17.6,98,3.931,3.934,3.938,3.921,0,0,17.508,75.11,6,P-GPS,
0.0736455760398569,36.8723763390055,6147.6963036817,179.133864,0,2.08052500096,20200,2018-04-12 07:16:45,16,0,15.527,6147.6963036817,179.133864,0.223694,2.08052500096,0,0,-11.1847,198.8, -1.9, -0.7,0,0,1024,1024,1684,1024,200.7,-17.6,98,3.931,3.934,3.938,3.921,0,0,17.508,75.11,6,P-GPS,
0.0736456242051592,36.8723763691947,6149.3367236817,180.774284,0,2.09958340052,20300,2018-04-12 07:16:45,16,0,15.527,6149.3367236817,180.774284,0.223694,2.09958340052,0,0,-11.1847,198.8, -1.7, -0.5,0,0,1024,1024,1684,1024,200.6,-17.6,98,3.931,3.934,3.938,3.921,0,0,17.508,75.11,6,P-GPS,
0.0736456890188587,36.8723763835336,6150.9771436817,182.414704,0,2.12375662964,20400,2018-04-12 07:16:45,16,0,15.527,6150.9771436817,182.414704,0.223694,2.12375662964,0,0,-10.961006,198.9, -1.6, -0.4,0,0,1024,1024,1684,1024,200.6,-17.6,98,3.931,3.934,3.938,3.921,0,0,17.508,75.11,6,P-GPS,
0.0736457280412622,36.8723763960141,6152.9456476817,184.383208,0,2.13853025216,20500,2018-04-12 07:16:45,16,0,15.5,6152.9456476817,184.383208,0.223694,2.13853025216,0,0,-11.1847,198.9, -1.7, -0.4,0,0,1024,1024,1669,1024,200.5,-17.6,98,3.931,3.934,3.938,3.921,0,0,17.508,75.11,6,P-GPS,
0.0736457955687636,36.8723763894215,6154.5860676817,186.023628,0,2.16249350752,20600,2018-04-12 07:16:45,16,0,15.5,6154.5860676817,186.023628,0.223694,2.16249350752,0,0,-11.1847,198.8, -1.7, -0.3,0,0,1024,1024,1669,1024,200.5,-17.6,98,3.931,3.934,3.938,3.921,0,0,17.508,75.11,6,P-GPS,
0.0736458368921585,36.8723763844937,6156.2264876817,187.664048,0,2.1771162114,20700,2018-04-12 07:16:45,16,0,15.5,6156.2264876817,187.664048,0.223694,2.1771162114,0,0,-11.1847,198.8, -2.1, -0.5,0,0,1024,1024,1670,1024,200.4,-17.6,98,3.931,3.934,3.938,3.921,0,0,17.508,75.11,6,P-GPS,
0.0736459295367802,36.8723763996326,6157.8669076817,189.304468,0,2.21136490016,20800,2018-04-12 07:16:45,16,0,15.5,6157.8669076817,189.304468,0.223694,2.21136490016,0,0,-10.961006,198.8, -2, -0.8,0,0,1024,1024,1679,1024,200.4,-17.6,98,3.931,3.934,3.938,3.921,0,0,17.508,75.11,6,P-GPS,
0.0736459921984909,36.8723764211612,6159.5073276817,190.944888,0,2.23516083268,20900,2018-04-12 07:16:46,16,0,15.5,6159.5073276817,190.944888,0.223694,2.23516083268,0,0,-10.961006,198.9, -1.8, -0.8,0,0,1024,1024,1684,1024,200.4,-17.6,98,3.931,3.934,3.938,3.921,0,0,17.508,75.11,6,P-GPS,
0.0736460708792053,36.872376445049,6161.1477476817,192.585308,0,2.26487211972,21000,2018-04-12 07:16:46,16,0,15.5,6161.1477476817,192.585308,0.223694,2.26487211972,0,0,-10.961006,198.8, -1.4, -0.2,0,0,1024,1024,1684,1024,200.4,-17.6,98,3.931,3.934,3.938,3.921,0,0,17.508,75.11,6,P-GPS,
0.0736461242701844,36.8723764688611,6163.1162516817,194.553812,0,2.28547907576,21100,2018-04-12 07:16:46,16,0,15.5,6163.1162516817,194.553812,0.223694,2.28547907576,0,0,-10.961006,198.8, -1.3, 0,0,0,1024,1024,1684,1024,200.3,-17.6,98,3.931,3.934,3.938,3.921,0,0,17.508,75.11,6,P-GPS,
0.0736461807723058,36.8723765110423,6164.7566716817,196.194232,0,2.30830387964,21200,2018-04-12 07:16:46,16,0,15.5,6164.7566716817,196.194232,0.223694,2.30830387964,0,0,-10.961006,198.8, -1.7, -0.3,0,0,1024,1024,1684,1024,200.3,-17.6,98,3.931,3.934,3.938,3.921,0,0,17.508,75.11,6,P-GPS,
0.0736462202409029,36.8723765518535,6166.3970916817,197.834652,0,2.3249836702,21300,2018-04-12 07:16:46,16,0,15.5,6166.3970916817,197.834652,0.223694,2.3249836702,0,0,-11.1847,198.8, -2, -0.3,0,0,1024,1024,1684,1024,200.3,-17.6,98,3.931,3.934,3.938,3.921,0,0,17.508,75.11,6,P-GPS,
0.0736463102971129,36.8723766088007,6168.0375116817,199.475072,0,2.3609252724,21400,2018-04-12 07:16:46,16,0,15.5,6168.0375116817,199.475072,0.223694,2.3609252724,0,0,-11.1847,198.8, -2.4, -0.2,0,0,1024,1024,1680,1024,200.2,-17.6,98,3.931,3.934,3.938,3.921,0,0,17.508,75.11,6,P-GPS,
0.0736463749324978,36.8723766514599,6169.6779316817,201.115492,0,2.38689640184,21500,2018-04-12 07:16:46,16,0,15.58,6169.6779316817,201.115492,0.223694,2.38689640184,0,0,-10.961006,198.8, -2.5, -0.3,0,0,1024,1024,1672,1024,200.2,-17.6,98,3.915,3.918,3.921,3.902,0,0,18.558,76.91,6,P-GPS,
0.0736464699017232,36.8723766674566,6171.3183516817,202.755912,0,2.4220309174,21600,2018-04-12 07:16:46,16,0,15.58,6171.3183516817,202.755912,0.223694,2.4220309174,0,0,-10.961006,198.8, -2.5, -0.4,0,0,1024,1024,1684,1024,200.2,-17.6,98,3.915,3.918,3.921,3.902,0,0,18.558,76.91,6,P-GPS,
0.0736465276952007,36.872376674441,6172.9587716817,204.396332,0,2.44323170548,21700,2018-04-12 07:16:46,16,0,15.58,6172.9587716817,204.396332,0.223694,2.44323170548,0,0,-10.961006,198.8, -2.4, -0.3,0,0,1024,1024,1684,1024,200.1,-17.6,98,3.915,3.918,3.921,3.902,0,0,18.558,76.91,6,P-GPS,
