latitude,longitude,altitude(feet),ascent(feet),speed(mph),distance(feet),time(millisecond),datetime(utc),satellites,gpslevel,voltage(v),max_altitude(feet),max_ascent(feet),max_speed(mph),max_distance(feet), xSpeed(mph), ySpeed(mph), zSpeed(mph), compass_heading(degrees), pitch(degrees), roll(degrees),isPhoto,isVideo,rc_elevator,rc_aileron,rc_throttle,rc_rudder,gimbal_heading(degrees),gimbal_pitch(degrees),battery_percent,voltageCell1,voltageCell2,voltageCell3,voltageCell4,voltageCell5,voltageCell6,current(A),battery_temperature(f),flycStateRaw,flycState,message
0.354429987637012,36.9190253468193,5497.4547215222,0,0,0,0,2018-04-16 05:09:03,12,0,0,5497.4547215222,0,0,0,0,0,0,209.1, -2, -1.4,0,0,364,364,364,1684,213.6,0,99,4.291,4.292,4.291,4.29,0,0,0,75.11,41,Motors_Started,
0.354429947192061,36.9190253530014,5497.4547215222,0,0,0.0149276907664,100,2018-04-16 05:09:03,12,0,0,5497.4547215222,0,0,0.0149276907664,0,0,0,209.1, -2, -1.4,0,0,364,364,364,1684,213.6,0,99,4.291,4.292,4.291,4.29,0,0,0,75.11,41,Motors_Started,
0.354429925977049,36.9190253493248,5497.4547215222,0,0,0.0225151582008,200,2018-04-16 05:09:03,12,0,0,5497.4547215222,0,0,0.0225151582008,0,0,0,209.2, -2, -1.4,0,0,364,364,364,1684,213.6,0,99,4.291,4.292,4.291,4.29,0,0,0,75.11,41,Motors_Started,
0.354429905366139,36.9190253481453,5497.4547215222,0,0,0.0300203749764,300,2018-04-16 05:09:03,12,0,0,5497.4547215222,0,0,0.0300203749764,0,0,0,209.2, -2, -1.4,0,0,364,364,364,1684,213.6,0,99,4.291,4.292,4.291,4.29,0,0,0,75.11,41,Motors_Started,
0.354429903947357,36.919025377209,5497.4547215222,0,0,0.0324848107508,400,2018-04-16 05:09:03,12,0,0,5497.4547215222,0,0,0.0324848107508,0,0,0,209.1, -2, -1.4,0,0,364,364,364,1684,213.6,0,99,4.291,4.292,4.291,4.29,0,0,0,75.11,41,Motors_Started,
0.35442989763103,36.9190254015285,5497.4547215222,0,0,0.038429135088,500,2018-04-16 05:09:03,12,0,0,5497.4547215222,0,0,0.038429135088,0,0,0,209.1, -2, -1.4,0,0,364,364,364,1684,213.6,0,99,4.291,4.292,4.291,4.29,0,0,0,75.11,41,Motors_Started,
0.354429869038352,36.9190254174478,5497.4547215222,0,0,0.050362206336,600,2018-04-16 05:09:04,12,0,0,5497.4547215222,0,0,0.050362206336,0,0,0,209.1, -2, -1.4,0,0,364,364,364,1684,213.6,0,99,4.291,4.292,4.291,4.29,0,0,0,75.11,41,Motors_Started,
0.354429840270209,36.9190254297034,5497.4547215222,0,0,0.061687009848,700,2018-04-16 05:09:04,12,0,0,5497.4547215222,0,0,0.061687009848,0,0,0,209.1, -2, -1.4,0,0,364,364,364,1684,213.6,0,99,4.291,4.292,4.291,4.29,0,0,0,75.11,41,Motors_Started,
0.354429790356467,36.9190254329046,5497.4547215222,0,0,0.07853182666,800,2018-04-16 05:09:04,11,0,0,5497.4547215222,0,0,0.07853182666,0,0,0,209.1, -2, -1.4,0,0,364,364,364,1684,213.6,0,99,4.291,4.292,4.291,4.29,0,0,0,75.11,41,Motors_Started,
0.354429741651946,36.9190254504859,5497.4547215222,0,0,0.097391407316,900,2018-04-16 05:09:04,11,0,17.151,5497.4547215222,0,0,0.097391407316,0,0,0,209.1, -2, -1.4,0,0,364,364,364,1684,213.6,0,99,4.291,4.292,4.291,4.29,0,0,1.472,75.11,41,Motors_Started,
0.354429724841086,36.9190254724112,5497.4547215222,0,0,0.106267391852,1000,2018-04-16 05:09:04,11,0,17.151,5497.4547215222,0,0,0.106267391852,0,0,0,209.1, -2, -1.4,0,0,364,364,364,1684,213.6,0,99,4.291,4.292,4.291,4.29,0,0,1.472,75.11,41,Motors_Started,
0.354429701858271,36.9190255007188,5497.4547215222,0,0,0.11842356022,1100,2018-04-16 05:09:04,11,0,17.151,5497.4547215222,0,0,0.11842356022,0,0,0,209.1, -2, -1.4,0,0,364,364,364,1684,213.6,0,99,4.291,4.292,4.291,4.29,0,0,1.472,75.11,41,Motors_Started,
0.354429661205235,36.9190255194714,5497.4547215222,0,0,0.134730319272,1200,2018-04-16 05:09:04,11,0,17.151,5497.4547215222,0,0,0.134730319272,0,0,0,209.1, -2, -1.4,0,0,364,364,364,1684,213.6,0,99,4.291,4.292,4.291,4.29,0,0,1.472,75.11,41,Motors_Started,
0.354429622853395,36.9190255340966,5497.4547215222,0,0,0.149605319748,1300,2018-04-16 05:09:04,11,0,17.151,5497.4547215222,0,0,0.149605319748,0,0,0,209.1, -2, -1.4,0,0,364,364,364,1684,213.5,0,99,4.291,4.292,4.291,4.29,0,0,1.472,75.11,41,Motors_Started,
0.354429607660343,36.9190255385715,5497.4547215222,0,0,0.155286094208,1400,2018-04-16 05:09:04,10,0,17.151,5497.4547215222,0,0,0.155286094208,0,0,0,209.1, -2, -1.4,0,0,443,429,638,1540,213.5,0,99,4.291,4.292,4.291,4.29,0,0,1.472,75.11,41,Motors_Started,
0.354429589723872,36.9190255444476,5497.4547215222,0,0,0.162097446132,1500,2018-04-16 05:09:05,10,0,17.151,5497.4547215222,0,0,0.162097446132,0,0,0,209, -2, -1.4,0,0,900,898,1024,1054,213.5,0,99,4.291,4.292,4.291,4.29,0,0,1.472,75.11,41,Motors_Started,
0.354429553936474,36.9190255416814,5497.4547215222,0,0,0.17347277458,1600,2018-04-16 05:09:05,10,0,17.151,5497.4547215222,0,0,0.17347277458,0,0,0,209.1, -2, -1.4,0,0,1024,1024,1024,1024,212.4,0,99,4.291,4.292,4.291,4.29,0,0,1.472,75.11,10,Assisted_Takeoff,
0.354429519813893,36.919025540497,5497.4547215222,0,0,0.184733601712,1700,2018-04-16 05:09:05,10,0,17.151,5497.4547215222,0,0,0.184733601712,0,0,0,209.1, -2, -1.4,0,0,1024,1024,1024,1024,211,0,99,4.291,4.292,4.291,4.29,0,0,1.472,75.11,10,Assisted_Takeoff,
0.354429507173364,36.9190255335448,5497.4547215222,0,0,0.18806923174,1800,2018-04-16 05:09:05,10,0,17.151,5497.4547215222,0,0,0.18806923174,0,0,0,209, -2, -1.4,0,0,1024,1024,1024,1024,210.4,0,99,4.291,4.292,4.291,4.29,0,0,1.472,75.11,10,Assisted_Takeoff,
0.354429491056794,36.9190255291537,5497.4547215222,0,0,0.1930036151,1900,2018-04-16 05:09:05,10,0,17.071,5497.4547215222,0,0,0.1930036151,0,0,0,209, -2, -1.4,0,0,1024,1024,1024,1024,210.1,0,99,4.273,4.271,4.263,4.258,0,0,3.106,75.11,10,Assisted_Takeoff,
0.354429456435769,36.9190255202878,5497.4547215222,0,0,0.203880255868,2000,2018-04-16 05:09:05,10,0,17.071,5497.4547215222,0,0,0.203880255868,0,0,0,209.1, -2.1, -1.4,0,0,1024,1024,1024,1024,209.9,0,99,4.273,4.271,4.263,4.258,0,0,3.106,75.11,10,Assisted_Takeoff,
0.354429422488971,36.9190255134716,5497.4547215222,0,0,0.214971463572,2100,2018-04-16 05:09:05,10,0,17.071,5497.4547215222,0,0,0.214971463572,0,0,0,209.1, -2.1, -1.4,0,0,1024,1024,1024,1024,209.8,0,99,4.273,4.271,4.263,4.258,0,0,3.106,75.11,10,Assisted_Takeoff,
0.354429409032362,36.9190255047019,5497.4547215222,0,0,0.218821201228,2200,2018-04-16 05:09:05,10,0,17.071,5497.4547215222,0,0,0.218821201228,0,0,0,209, -2.1, -1.4,0,0,1024,1024,1024,1024,209.7,0,99,4.273,4.271,4.263,4.258,0,0,3.106,75.11,10,Assisted_Takeoff,
0.354429391563833,36.9190254975106,5497.4547215222,0,0,0.224318576732,2300,2018-04-16 05:09:05,10,0,17.071,5497.4547215222,0,0,0.224318576732,0,0,0,209.1, -2.1, -1.4,0,0,1024,1024,1024,1024,209.6,0,99,4.273,4.271,4.263,4.258,0,0,3.106,75.11,10,Assisted_Takeoff,
0.354429354944352,36.9190254911636,5497.4547215222,0,0,0.236768708364,2400,2018-04-16 05:09:05,10,0,17.071,5497.4547215222,0,0,0.236768708364,0,0,0,209.1, -2.1, -1.4,0,0,1024,1024,1024,1024,209.6,0,99,4.273,4.271,4.263,4.258,0,0,3.106,75.11,10,Assisted_Takeoff,
0.354429320501276,36.919025484059,5497.4547215222,0,0,0.24850066412,2500,2018-04-16 05:09:05,10,0,17.071,5497.4547215222,0,0,0.24850066412,0,0,0,209.1, -2.1, -1.4,0,0,1024,1024,1024,1024,209.5,0,99,4.273,4.271,4.263,4.258,0,0,3.106,75.11,10,Assisted_Takeoff,
0.354429309135124,36.9190254392479,5497.4547215222,0,0,0.249837278336,2600,2018-04-16 05:09:06,10,0,17.071,5497.4547215222,0,0,0.249837278336,0,0,0,209, -2.1, -1.4,0,0,1024,1024,1024,1024,209.5,0,99,4.273,4.271,4.263,4.258,0,0,3.106,75.11,10,Assisted_Takeoff,
0.354429294078866,36.9190254010627,5497.4547215222,0,0,0.253816937256,2700,2018-04-16 05:09:06,10,0,17.071,5497.4547215222,0,0,0.253816937256,0,0,0,209, -2.1, -1.4,0,0,1024,1024,1024,1024,209.5,0,99,4.273,4.271,4.263,4.258,0,0,3.106,75.11,10,Assisted_Takeoff,
0.354429298490145,36.9190253717403,5497.4547215222,0,0,0.251599089416,2800,2018-04-16 05:09:06,10,0,17.071,5497.4547215222,0,0,0.253816937256,0,0,0,209, -2.1, -1.4,0,0,1024,1024,1024,1024,209.5,0,99,4.273,4.271,4.263,4.258,0,0,3.106,75.11,10,Assisted_Takeoff,
0.354429294668016,36.9190253452765,5497.4547215222,0,0,0.252830060584,2900,2018-04-16 05:09:06,10,0,17.124,5497.4547215222,0,0,0.253816937256,0,0,0,209, -2.1, -1.4,0,0,1024,1024,1024,1024,209.4,0,99,4.273,4.271,4.263,4.258,0,0,3.106,75.11,10,Assisted_Takeoff,
0.354429267309158,36.9190252909259,5497.4547215222,0,0,0.263601058304,3000,2018-04-16 05:09:06,10,0,17.124,5497.4547215222,0,0,0.263601058304,0,0,0,209, -2.1, -1.4,0,0,1024,1024,1024,1024,209.4,0,99,4.273,4.271,4.263,4.258,0,0,3.106,75.11,10,Assisted_Takeoff,
0.354429240180944,36.9190252436251,5497.4547215222,0,0,0.275295612484,3100,2018-04-16 05:09:06,10,0,17.124,5497.4547215222,0,0,0.275295612484,0,0,0,209, -2.1, -1.4,0,0,1024,1024,1024,1024,209.4,0,99,4.273,4.271,4.263,4.258,0,0,3.106,75.11,10,Assisted_Takeoff,
0.354429190632552,36.9190252151676,5497.4547215222,0,0,0.294727043552,3200,2018-04-16 05:09:06,10,0,17.124,5497.4547215222,0,0,0.294727043552,0,0,0,209, -2.1, -1.3,0,0,1024,1024,1024,1024,209.4,0,99,4.273,4.271,4.263,4.258,0,0,3.106,75.11,10,Assisted_Takeoff,
0.354429147250791,36.9190251849943,5497.4547215222,0,0,0.312247057236,3300,2018-04-16 05:09:06,10,0,17.124,5497.4547215222,0,0,0.312247057236,0,0,0,209, -2.1, -1.3,0,0,1024,1024,1024,1024,209.4,0,99,4.273,4.271,4.263,4.258,0,0,3.106,75.11,10,Assisted_Takeoff,
0.354429125268833,36.9190251760515,5497.4547215222,0,0,0.320743776668,3400,2018-04-16 05:09:06,10,0,17.124,5497.4547215222,0,0,0.320743776668,0,0,0,209, -2.1, -1.3,0,0,1024,1024,1024,1024,209.4,0,99,4.273,4.271,4.263,4.258,0,0,3.106,75.11,10,Assisted_Takeoff,
0.354429101230748,36.9190251582817,5497.4547215222,0,0,0.33063977436,3500,2018-04-16 05:09:07,10,0,17.124,5497.4547215222,0,0,0.33063977436,0,0,0,209, -2.1, -1.3,0,0,1024,1024,1024,1024,209.4,0,99,4.273,4.271,4.263,4.258,0,0,3.106,75.11,10,Assisted_Takeoff,
0.354429097782594,36.9190251598792,5497.4547215222,0,0,0.33174869828,3600,2018-04-16 05:09:07,10,0,17.124,5497.4547215222,0,0,0.33174869828,0,0,0,209, -2.1, -1.3,0,0,1024,1024,1024,1024,209.3,0,99,4.273,4.271,4.263,4.258,0,0,3.106,75.11,10,Assisted_Takeoff,
0.35442908750729,36.9190251503502,5497.4547215222,0,0,0.33614502388,3700,2018-04-16 05:09:07,10,0,17.124,5497.4547215222,0,0,0.33614502388,0,0,0,209, -2.1, -1.3,0,0,1024,1024,1024,1024,209.3,0,99,4.273,4.271,4.263,4.258,0,0,3.106,75.11,10,Assisted_Takeoff,
0.354429056324802,36.9190251191929,5497.4547215222,0,0,0.34979003744,3800,2018-04-16 05:09:07,11,0,17.124,5497.4547215222,0,0,0.34979003744,0,0,0,209, -2.1, -1.3,0,0,1024,1024,1024,1024,209.3,0,99,4.273,4.271,4.263,4.258,0,0,3.106,75.11,10,Assisted_Takeoff,
0.354429024375188,36.9190250835395,5497.4547215222,0,0,0.364337282,3900,2018-04-16 05:09:07,11,0,17.124,5497.4547215222,0,0,0.364337282,0,0,0,209, -2.2, -1.3,0,0,1024,1024,1024,1024,209.3,0,99,4.283,4.284,4.282,4.284,0,0,1.852,75.11,10,Assisted_Takeoff,
0.354429012413936,36.919025068891,5497.4547215222,0,0,0.36997704596,4000,2018-04-16 05:09:07,11,0,17.124,5497.4547215222,0,0,0.36997704596,0,0,0,209, -2.1, -1.3,0,0,1024,1024,1024,1024,209.3,0,99,4.283,4.284,4.282,4.284,0,0,1.852,75.11,10,Assisted_Takeoff,
0.354428996013979,36.919025046304,5497.4547215222,0,0,0.37804135068,4100,2018-04-16 05:09:07,11,0,17.124,5497.4547215222,0,0,0.37804135068,0,0,0,209, -2.2, -1.3,0,0,1024,1024,1024,1024,209.3,0,99,4.283,4.284,4.282,4.284,0,0,1.852,75.11,10,Assisted_Takeoff,
0.354428998308456,36.9190250450857,5497.4547215222,0,0,0.37736877848,4200,2018-04-16 05:09:07,11,0,17.124,5497.4547215222,0,0,0.37804135068,0,0,0,209, -2.2, -1.3,0,0,1024,1024,1024,1024,209.3,0,99,4.283,4.284,4.282,4.284,0,0,1.852,75.11,10,Assisted_Takeoff,
0.354428991922208,36.9190250313239,5497.4547215222,0,0,0.3810859702,4300,2018-04-16 05:09:07,11,0,17.124,5497.4547215222,0,0,0.3810859702,0,0,0,209, -2.2, -1.3,0,0,1024,1024,1024,1024,209.3,0,99,4.283,4.284,4.282,4.284,0,0,1.852,75.11,10,Assisted_Takeoff,
0.354428962313483,36.9190249993898,5497.4547215222,0,0,0.3949803276,4400,2018-04-16 05:09:07,11,0,17.124,5497.4547215222,0,0,0.3949803276,0,0,0,209, -2.2, -1.3,0,0,1024,1024,1024,1024,209.3,0,99,4.283,4.284,4.282,4.284,0,0,1.852,75.11,10,Assisted_Takeoff,
0.354428931322896,36.9190249615477,5497.4547215222,0,0,0.41022967192,4500,2018-04-16 05:09:07,11,0,17.124,5497.4547215222,0,0,0.41022967192,0,0,0,209, -2.2, -1.3,0,0,1024,1024,1024,1024,209.3,0,99,4.283,4.284,4.282,4.284,0,0,1.852,75.11,10,Assisted_Takeoff,
0.354428917950826,36.9190249471905,5497.4547215222,0,0,0.41662074824,4600,2018-04-16 05:09:08,11,0,17.124,5497.4547215222,0,0,0.41662074824,0,0,0,209, -2.2, -1.3,0,0,1024,1024,1024,1024,209.3,0,99,4.283,4.284,4.282,4.284,0,0,1.852,75.11,10,Assisted_Takeoff,
0.354428900406022,36.919024923932,5497.4547215222,0,0,0.4256233732,4700,2018-04-16 05:09:08,11,0,17.124,5497.4547215222,0,0,0.4256233732,0,0,0,209, -2.2, -1.3,0,0,1024,1024,1024,1024,209.3,0,99,4.283,4.284,4.282,4.284,0,0,1.852,75.11,10,Assisted_Takeoff,
0.354428900673595,36.9190248852745,5497.4547215222,0,0,0.43084647048,4800,2018-04-16 05:09:08,11,0,17.124,5497.4547215222,0,0,0.43084647048,0,0,0,209, -2.2, -1.3,0,0,1024,1024,1024,1024,209.3,0,99,4.283,4.284,4.282,4.284,0,0,1.852,75.11,10,Assisted_Takeoff,
0.35442889146477,36.9190248401988,5497.4547215222,0,0,0.4405840036,4900,2018-04-16 05:09:08,11,0,17.124,5497.4547215222,0,0,0.4405840036,0,0,0,209, -2.2, -1.3,0,0,1024,1024,1024,1024,209.3,0,99,4.285,4.286,4.285,4.284,0,0,1.928,75.11,10,Assisted_Takeoff,
0.354428859953132,36.9190248238329,5497.4547215222,0,0,0.4535269174,5000,2018-04-16 05:09:08,11,0,17.124,5497.4547215222,0,0,0.4535269174,0,0,0,209, -2.2, -1.3,0,0,1024,1024,1024,1024,209.3,0,99,4.285,4.286,4.285,4.284,0,0,1.928,75.11,10,Assisted_Takeoff,
0.354428827731263,36.919024796167,5497.4547215222,0,0,0.46845802024,5100,2018-04-16 05:09:08,11,0,17.124,5497.4547215222,0,0,0.46845802024,0,0,0,209, -2.2, -1.3,0,0,1024,1024,1024,1024,209.3,0,99,4.285,4.286,4.285,4.284,0,0,1.928,75.11,10,Assisted_Takeoff,
0.354428814359244,36.9190247965165,5497.4547215222,0,0,0.47281497576,5200,2018-04-16 05:09:08,11,0,17.124,5497.4547215222,0,0,0.47281497576,0,0,0,209, -2.2, -1.3,0,0,1024,1024,1024,1024,209.3,0,99,4.285,4.286,4.285,4.284,0,0,1.928,75.11,10,Assisted_Takeoff,
0.354428796134259,36.9190247804046,5497.4547215222,0,0,0.48133859808,5300,2018-04-16 05:09:08,11,0,17.124,5497.4547215222,0,0,0.48133859808,0,0,0,209, -2.2, -1.3,0,0,1024,1024,1024,1024,209.3,0,99,4.285,4.286,4.285,4.284,0,0,1.928,75.11,10,Assisted_Takeoff,
0.35442875750314,36.9190247907786,5497.4547215222,0,0,0.49253282416,5400,2018-04-16 05:09:08,11,0,17.124,5497.4547215222,0,0,0.49253282416,0,0,0,209, -2.2, -1.3,0,0,1024,1024,1024,1024,209.3,0,99,4.285,4.286,4.285,4.284,0,0,1.928,75.11,10,Assisted_Takeoff,
0.354428718333057,36.9190247814681,5497.4547215222,0,0,0.50696195848,5500,2018-04-16 05:09:09,11,0,17.124,5497.4547215222,0,0,0.50696195848,0,0,0,209, -2.2, -1.3,0,0,1024,1024,1024,1024,209.3,0,99,4.285,4.286,4.285,4.284,0,0,1.928,75.11,10,Assisted_Takeoff,
0.35442870074693,36.9190247922336,5497.4547215222,0,0,0.51126313972,5600,2018-04-16 05:09:09,11,0,17.124,5497.4547215222,0,0,0.51126313972,0,0,0,209, -2.2, -1.3,0,0,1024,1024,1024,1024,209.3,0,99,4.285,4.286,4.285,4.284,0,0,1.928,75.11,10,Assisted_Takeoff,
0.354428679982081,36.9190247886528,5497.4547215222,0,0,0.51874017408,5700,2018-04-16 05:09:09,11,0,17.124,5497.4547215222,0,0,0.51874017408,0,0,0,209, -2.3, -1.3,0,0,1024,1024,1024,1024,209.3,0,99,4.285,4.286,4.285,4.284,0,0,1.928,75.11,10,Assisted_Takeoff,
0.354428642140859,36.919024694994,5497.4547215222,0,0,0.5454724584,5800,2018-04-16 05:09:09,13,0,17.124,5497.4547215222,0,0,0.5454724584,0,0,0,209, -2.3, -1.3,0,0,1024,1024,1024,1024,209.3,0,99,4.285,4.286,4.285,4.284,0,0,1.928,75.11,10,Assisted_Takeoff,
0.354428600817159,36.919024599429,5497.4547215222,0,0,0.57478020212,5900,2018-04-16 05:09:09,13,0,17.124,5497.4547215222,0,0,0.57478020212,0,0,0,209, -2.3, -1.3,0,0,1024,1024,1051,1024,209.3,0,99,4.285,4.286,4.285,4.284,0,0,1.93,75.11,10,Assisted_Takeoff,
0.354428582889009,36.9190244612695,5497.4547215222,0,0,0.6058563186,6000,2018-04-16 05:09:09,13,0,17.124,5497.4547215222,0,0,0.6058563186,0,0,0,209, -2.3, -1.3,0,0,1024,1024,1399,1024,209.3,0,99,4.285,4.286,4.285,4.284,0,0,1.93,75.11,10,Assisted_Takeoff,
0.354428559173775,36.9190243378529,5497.4547215222,0,0,0.63806760572,6100,2018-04-16 05:09:09,13,0,17.124,5497.4547215222,0,0,0.63806760572,0,0,0,209, -2.3, -1.2,0,0,1024,1024,1399,1024,209.3,0,99,4.285,4.286,4.285,4.284,0,0,1.93,75.11,10,Assisted_Takeoff,
0.354428559236623,36.9190241877688,5497.4547215222,0,0,0.67113191124,6200,2018-04-16 05:09:09,13,0,17.124,5497.4547215222,0,0,0.67113191124,0,0,0,209, -2.3, -1.2,0,0,1024,1024,1684,1132,209.2,0,99,4.285,4.286,4.285,4.284,0,0,1.93,75.11,10,Assisted_Takeoff,
0.354428548468181,36.9190240506273,5497.4547215222,0,0,0.70664700424,6300,2018-04-16 05:09:09,13,0,17.124,5497.4547215222,0,0,0.70664700424,0,0,0,209, -2.3, -1.2,0,0,1024,1024,1684,1069,209.5,0,99,4.285,4.286,4.285,4.284,0,0,1.93,75.11,10,Assisted_Takeoff,
0.354428558971237,36.9190239027736,5497.4547215222,0,0,0.74112863264,6400,2018-04-16 05:09:09,13,0,17.124,5497.4547215222,0,0,0.74112863264,0,0,0,209, -2.2, -1.3,0,0,1024,1024,1684,1105,209.6,0,99,4.285,4.286,4.285,4.284,0,0,1.93,75.11,10,Assisted_Takeoff,
0.354428555632317,36.9190237650072,5497.4547215222,0,0,0.7784777152,6500,2018-04-16 05:09:09,13,0,17.124,5497.4547215222,0,0,0.7784777152,0,0,0,208.9, -1.8, -1.3,0,0,1024,1024,1684,1093,209.9,0,99,4.285,4.286,4.285,4.284,0,0,1.93,75.11,10,Assisted_Takeoff,
0.354428547053521,36.9190236301423,5497.4547215222,0,0,0.8176345406,6600,2018-04-16 05:09:10,13,0,17.124,5497.4547215222,0,0,0.8176345406,0,0,0,209.5, 0, -1.2,0,0,1024,1024,1684,1096,210.2,0,99,4.285,4.286,4.285,4.284,0,0,1.93,75.11,10,Assisted_Takeoff,
0.354428504147736,36.9190235148993,5497.4547215222,0,0,0.86003611676,6700,2018-04-16 05:09:10,13,0,17.124,5497.4547215222,0,0,0.86003611676,0,0,-0.447388,210.1, 1.1, -0.9,0,0,1024,1024,1684,1080,210.4,0,99,4.285,4.286,4.285,4.284,0,0,1.93,75.11,6,P-GPS,
0.354428447069044,36.9190234410664,5497.4547215222,0,0,0.89407483176,6800,2018-04-16 05:09:10,13,0,17.124,5497.4547215222,0,0,0.89407483176,0,0,-1.11847,210.8, 0.8, -0.2,0,0,1024,1024,1684,1112,210.7,0,99,4.285,4.286,4.285,4.284,0,0,1.93,75.11,6,P-GPS,
0.354428390583105,36.9190233823552,5497.7828055222,0.328084,0,0.92369425528,6900,2018-04-16 05:09:10,13,0,17.124,5497.7828055222,0.328084,0,0.92369425528,0,0,-2.013246,211.4, 0.3, 0.3,0,0,1024,1024,1684,1102,211.1,0,99,4.285,4.286,4.285,4.284,0,0,1.93,75.11,6,P-GPS,Setting new Return-To-Home altitude to 45m (148 ft). Setting new Maximum Flight Altitude to 150m (492 ft)
0.354428378621268,36.9190233516699,5498.1108895222,0.656168,0,0.93514110604,7000,2018-04-16 05:09:10,13,0,17.124,5498.1108895222,0.656168,0,0.93514110604,0,0,-2.684328,212.2, 0.3, 0.5,0,0,1024,1024,1684,1093,211.4,0,99,4.285,4.286,4.285,4.284,0,0,1.93,75.11,6,P-GPS,Home Point Recorded. RTH Altitude:  45m.
0.354428363865428,36.9190232907967,5498.4389735222,0.984252,0,0.9558563298,7100,2018-04-16 05:09:10,13,0,17.124,5498.4389735222,0.984252,0,0.9558563298,0,0,-3.579104,213, 0.5, 0.4,0,0,1024,1024,1684,1079,211.4,0,99,4.285,4.286,4.285,4.284,0,0,1.93,75.11,6,P-GPS,
0.354428365599721,36.9190232272985,5499.0951415222,1.64042,0,0.97375987368,7200,2018-04-16 05:09:10,13,0,17.124,5499.0951415222,1.64042,0,0.97375987368,0,0,-4.47388,213.7, 0.3, 0.3,0,0,1024,1024,1684,1077,211.7,0,99,4.285,4.286,4.285,4.284,0,0,1.93,75.11,6,P-GPS,
0.354428370762398,36.9190231393401,5499.7513095222,2.296588,0,0.99832024192,7300,2018-04-16 05:09:10,13,0,17.124,5499.7513095222,2.296588,0,0.99832024192,0,0,-5.368656,214.3, 0.1, 0.3,0,0,1024,1024,1684,1094,212,0,99,4.285,4.286,4.285,4.284,0,0,1.93,75.11,6,P-GPS,
0.354428404634949,36.9190230544495,5500.7355615222,3.28084,0,1.01639438948,7400,2018-04-16 05:09:10,13,0,17.124,5500.7355615222,3.28084,0,1.01639438948,0,0,-6.71082,214.9, 0.1, 0,0,0,1024,1024,1684,1095,212.3,0,99,4.285,4.286,4.285,4.284,0,0,1.93,75.11,6,P-GPS,
0.354428421725163,36.9190229445786,5501.7198135222,4.265092,0,1.0462106634,7500,2018-04-16 05:09:10,13,0,17.124,5501.7198135222,4.265092,0,1.0462106634,0,0,-8.052984,215.6, 0.3, -0.3,0,0,1024,1024,1684,1084,212.8,0,99,4.285,4.286,4.285,4.284,0,0,1.93,75.11,6,P-GPS,
0.354428440316396,36.9190228699509,5503.0321495222,5.577428,0,1.06551184512,7600,2018-04-16 05:09:11,14,0,17.124,5503.0321495222,5.577428,0,1.06551184512,0,0,-9.171454,216.2, 0.2, -0.5,0,0,1024,1024,1684,1072,213.3,0,99,4.285,4.286,4.285,4.284,0,0,1.93,75.11,6,P-GPS,
0.354428445569044,36.9190227834042,5504.3444855222,6.889764,0,1.09143048112,7700,2018-04-16 05:09:11,14,0,17.124,5504.3444855222,6.889764,0,1.09143048112,0,0,-10.06623,216.8, 0.1, -0.6,0,0,1024,1024,1684,1077,213.7,0,99,4.285,4.286,4.285,4.284,0,0,1.93,75.11,6,P-GPS,
0.354428552048111,36.9190227503832,5505.9849055222,8.530184,0,1.08245082204,7800,2018-04-16 05:09:11,14,0,17.124,5505.9849055222,8.530184,0,1.09143048112,0,0,-10.737312,217.3, 0, -0.4,0,0,1024,1024,1684,1080,214.1,0,99,4.285,4.286,4.285,4.284,0,0,1.93,75.11,6,P-GPS,
0.354428616095526,36.9190226914452,5507.6253255222,10.170604,0,1.09039701652,7900,2018-04-16 05:09:11,14,0,16.344,5507.6253255222,10.170604,0,1.09143048112,0,0,-11.1847,217.7, 0, -0.2,0,0,1024,1024,1684,1081,214.6,0,99,4.194,4.197,4.184,4.183,0,0,7.516,75.11,6,P-GPS,
0.354428773676133,36.9190227457119,5509.2657455222,11.811024,0,1.04726381304,8000,2018-04-16 05:09:11,14,0,16.344,5509.2657455222,11.811024,0,1.09143048112,0,0,-11.408394,218.2, 0.3, 0,0,0,1024,1024,1684,1077,215.1,0,99,4.194,4.197,4.184,4.183,0,0,7.516,75.11,6,P-GPS,
0.354428881587519,36.9190227558205,5510.9061655222,13.451444,0,1.0278379594,8100,2018-04-16 05:09:11,14,0,16.344,5510.9061655222,13.451444,0,1.09143048112,0,0,-11.408394,218.7, 0.3, -0.1,0,0,1024,1024,1684,1080,215.5,0,99,4.194,4.197,4.184,4.183,0,0,7.516,75.11,6,P-GPS,
0.354429087244882,36.9190228582684,5512.5465855222,15.091864,0,0.96553152696,8200,2018-04-16 05:09:11,14,0,16.344,5512.5465855222,15.091864,0,1.09143048112,0,0,-11.408394,219.1, 0.4, -0.2,0,0,1024,1024,1684,1077,216,0,99,4.194,4.197,4.184,4.183,0,0,7.516,75.11,6,P-GPS,
0.354429239251039,36.9190229064319,5514.1870055222,16.732284,0,0.9312828382,8300,2018-04-16 05:09:11,14,0,16.344,5514.1870055222,16.732284,0,1.09143048112,0,0,-11.1847,219.5, 0.4, -0.1,0,0,1024,1024,1684,1073,216.5,0,99,4.194,4.197,4.184,4.183,0,0,7.516,75.11,6,P-GPS,
0.354429437327124,36.9190230299174,5515.8274255222,18.372704,0,0.86882220628,8400,2018-04-16 05:09:11,14,0,16.344,5515.8274255222,18.372704,0,1.09143048112,0,0,-11.1847,220, 0.4, -0.1,0,0,1024,1024,1684,1073,216.9,0,99,4.194,4.197,4.184,4.183,0,0,7.516,75.11,6,P-GPS,
0.354429588407122,36.9190230940899,5517.4678455222,20.013124,0,0.83469818944,8500,2018-04-16 05:09:12,14,0,16.344,5517.4678455222,20.013124,0,1.09143048112,0,0,-10.961006,220.3, 0.4, -0.2,0,0,1024,1024,1684,1053,216.9,0,99,4.194,4.197,4.184,4.183,0,0,7.516,75.11,6,P-GPS,
0.354429769029754,36.9190232201217,5519.1082655222,21.653544,0,0.77999674412,8600,2018-04-16 05:09:12,14,0,16.344,5519.1082655222,21.653544,0,1.09143048112,0,0,-10.961006,220.7, 0.5, -0.2,0,0,1024,1024,1684,1024,216.9,0,99,4.194,4.197,4.184,4.183,0,0,7.516,75.11,6,P-GPS,
0.354429916037027,36.9190232977565,5520.7486855222,23.293964,0,0.74804136252,8700,2018-04-16 05:09:12,14,0,16.344,5520.7486855222,23.293964,0,1.09143048112,0,0,-10.737312,220.9, 0.2, -0.2,0,0,1024,1024,1684,1005,217.6,0,99,4.194,4.197,4.184,4.183,0,0,7.516,75.11,6,P-GPS,
0.354430002148687,36.9190234172221,5522.3891055222,24.934384,0,0.7040190514,8800,2018-04-16 05:09:12,14,0,16.344,5522.3891055222,24.934384,0,1.09143048112,0,0,-10.737312,220.9, 0, -0.2,0,0,1024,1024,1684,882,217.8,0,99,4.194,4.197,4.184,4.183,0,0,7.516,75.11,6,P-GPS,
0.354430068794336,36.9190234919662,5524.0295255222,26.574804,0,0.67737534976,8900,2018-04-16 05:09:12,14,0,16.451,5524.0295255222,26.574804,0,1.09143048112,0,0,-10.513618,220.9, 0.4, -0.3,0,0,1024,1024,1684,875,217.9,0,99,4.126,4.137,4.124,4.128,0,0,21.296,75.11,6,P-GPS,
0.354430145348048,36.9190236007038,5525.3418615222,27.88714,0,0.6396489706,9000,2018-04-16 05:09:12,14,0,16.451,5525.3418615222,27.88714,0,1.09143048112,0,0,-10.513618,219.9, 0.7, -0.5,0,0,1024,1024,1684,860,217.6,0,99,4.126,4.137,4.124,4.128,0,0,21.296,75.11,6,P-GPS,
0.354430220953751,36.9190236807156,5526.9822815222,29.52756,0,0.6137959514,9100,2018-04-16 05:09:12,14,0,16.451,5526.9822815222,29.52756,0,1.09143048112,0,0,-10.513618,218.2, 0.5, -0.5,0,0,1024,1024,1684,863,216.9,0,99,4.126,4.137,4.124,4.128,0,0,21.296,75.11,6,P-GPS,
0.354430333845529,36.9190239567647,5530.2631215222,32.8084,0,0.52264437368,9300,2018-04-16 05:09:12,14,0,16.451,5530.2631215222,32.8084,0,1.09143048112,0,0,-10.513618,214.4, 0, 0,0,0,1024,1024,1684,862,215.1,0,99,4.126,4.137,4.124,4.128,0,0,21.296,75.11,6,P-GPS,
0.354430373112097,36.919024116413,5531.5754575222,34.120736,0,0.47041996256,9400,2018-04-16 05:09:12,14,0,16.451,5531.5754575222,34.120736,0,1.09143048112,0,0,-10.513618,212.4, -0.1, 0.1,0,0,1024,1024,1684,872,215.1,0,99,4.126,4.137,4.124,4.128,0,0,21.296,75.11,6,P-GPS,
0.35443041021253,36.9190242314883,5533.2158775222,35.761156,0,0.43514765172,9500,2018-04-16 05:09:12,14,0,16.451,5533.2158775222,35.761156,0,1.09143048112,0,0,-10.737312,210.3, 0, 0.1,0,0,1024,1024,1684,883,212.9,0,99,4.126,4.137,4.124,4.128,0,0,21.296,75.11,6,P-GPS,
0.354430436250535,36.9190243987345,5534.8562975222,37.401576,0,0.38267061592,9600,2018-04-16 05:09:13,14,0,16.451,5534.8562975222,37.401576,0,1.09143048112,0,0,-10.737312,208.3, 0.2, 0,0,0,1024,1024,1684,876,211.6,0,99,4.126,4.137,4.124,4.128,0,0,21.296,75.11,6,P-GPS,
0.354430466032333,36.9190245238926,5536.4967175222,39.041996,0,0.34728675652,9700,2018-04-16 05:09:13,14,0,16.451,5536.4967175222,39.041996,0,1.09143048112,0,0,-10.513618,206.4, 0.3, 0,0,0,1024,1024,1684,901,210.1,0,99,4.126,4.137,4.124,4.128,0,0,21.296,75.11,6,P-GPS,
0.354430498294964,36.919024669133,5537.8090535222,40.354332,0,0.309587608332,9800,2018-04-16 05:09:13,14,0,16.451,5537.8090535222,40.354332,0,1.09143048112,0,0,-10.513618,204.7, 0.3, 0,0,0,1024,1024,1684,960,208.5,0,99,4.126,4.137,4.124,4.128,0,0,21.296,75.11,6,P-GPS,
0.354430530493373,36.9190247816391,5539.4494735222,41.994752,0,0.285914707312,9900,2018-04-16 05:09:13,14,0,16.451,5539.4494735222,41.994752,0,1.09143048112,0,0,-10.513618,203, 0.6, 0,0,0,1024,1024,1684,976,208.5,0,99,4.126,4.137,4.124,4.128,0,0,17.334,75.11,6,P-GPS,
0.354430535678949,36.9190249585132,5541.0898935222,43.635172,0,0.245054469784,10000,2018-04-16 05:09:13,14,0,16.451,5541.0898935222,43.635172,0,1.09143048112,0,0,-10.513618,202.1, 0.7, 0.1,0,0,1024,1024,1684,1022,207.1,0,99,4.126,4.137,4.124,4.128,0,0,17.334,75.11,6,P-GPS,
0.354430562080912,36.9190253393952,5544.0426495222,46.587928,0,0.20960302508,10200,2018-04-16 05:09:13,14,0,16.451,5544.0426495222,46.587928,0,1.09143048112,0,0,-10.737312,201.2, 0.3, 0,0,0,1024,1024,1684,1023,206.1,0,99,4.126,4.137,4.124,4.128,0,0,17.334,75.11,6,P-GPS,
0.35443058299227,36.9190255359449,5545.6830695222,48.228348,0,0.227911096532,10300,2018-04-16 05:09:13,14,0,16.451,5545.6830695222,48.228348,0,1.09143048112,0,0,-10.737312,201.2, 0.2, 0.1,0,0,1024,1024,1684,1024,205.7,0,99,4.126,4.137,4.124,4.128,0,0,17.334,75.11,6,P-GPS,
0.354430614048936,36.9190257645346,5547.3234895222,49.868768,0,0.27469817152,10400,2018-04-16 05:09:14,14,0,16.451,5547.3234895222,49.868768,0,1.09143048112,0,0,-10.961006,201.2, 0.3, 0.1,0,0,1024,1024,1684,1023,205.1,0,99,4.126,4.137,4.124,4.128,0,0,17.334,75.11,6,P-GPS,
0.354430689066059,36.9190262283028,5550.6043295222,53.149608,0,0.41100066932,10600,2018-04-16 05:09:14,14,0,16.451,5550.6043295222,53.149608,0,1.09143048112,0,0,-10.961006,201.2, 0.3, 0.1,0,0,1024,1024,1684,1023,204.9,0,99,4.126,4.137,4.124,4.128,0,0,17.334,75.11,6,P-GPS,
0.354430728169477,36.9190264594379,5552.2447495222,54.790028,0,0.48762468752,10700,2018-04-16 05:09:14,14,0,16.451,5552.2447495222,54.790028,0,1.09143048112,0,0,-11.1847,201.2, 0.2, 0.1,0,0,1024,1024,1684,1023,204.7,0,99,4.126,4.137,4.124,4.128,0,0,17.334,75.11,6,P-GPS,
0.354430814393958,36.9190267664634,5553.8851695222,56.430448,0,0.59937994044,10800,2018-04-16 05:09:14,14,0,16.451,5553.8851695222,56.430448,0,1.09143048112,0,0,-11.1847,201.2, 0, 0.1,0,0,1024,1024,1684,1023,204.3,0,99,4.126,4.137,4.124,4.128,0,0,17.334,75.11,6,P-GPS,
0.354431008242914,36.9190273280823,5557.4940935222,60.039372,0,0.8131233856,11000,2018-04-16 05:09:14,14,0,16.451,5557.4940935222,60.039372,0,1.09143048112,0,0,-11.408394,201.2, -0.2, 0.2,0,0,1024,1024,1684,1023,204.1,0,99,4.126,4.137,4.124,4.128,0,0,17.334,75.11,6,P-GPS,
0.354431108146528,36.9190275830746,5559.1345135222,61.679792,0,0.91257548852,11100,2018-04-16 05:09:14,14,0,16.451,5559.1345135222,61.679792,0,1.09143048112,0,0,-11.408394,201.2, -0.4, 0.3,0,0,1024,1024,1684,1023,204,0,99,4.126,4.137,4.124,4.128,0,0,17.334,75.11,6,P-GPS,
0.354431265702149,36.9190279202966,5560.7749335222,63.320212,0,1.04833008604,11200,2018-04-16 05:09:14,14,0,16.451,5560.7749335222,63.320212,0,1.09143048112,0,0,-11.408394,201.2, -0.5, 0.5,0,0,1024,1024,1684,1024,203.9,0,99,4.126,4.137,4.124,4.128,0,0,17.334,75.11,6,P-GPS,
0.354431387644921,36.9190281948463,5562.7434375222,65.288716,0,1.1578412444,11300,2018-04-16 05:09:14,14,0,16.451,5562.7434375222,65.288716,0,1.1578412444,0,0,-11.408394,201.2, -0.8, 0.6,0,0,1024,1024,1684,1024,203.8,0,99,4.126,4.137,4.124,4.128,0,0,17.334,75.11,6,P-GPS,
0.354431551953699,36.9190285343879,5564.3838575222,66.929136,0,1.29546263988,11400,2018-04-16 05:09:14,14,0,16.451,5564.3838575222,66.929136,0,1.29546263988,0,0,-11.408394,201.2, -1, 0.7,0,0,1024,1024,1684,1024,203.7,0,99,4.126,4.137,4.124,4.128,0,0,17.334,75.11,6,P-GPS,
0.354431773146875,36.9190291182731,5567.9927815222,70.53806,0,1.52240490436,11600,2018-04-16 05:09:15,14,0,16.451,5567.9927815222,70.53806,0,1.52240490436,0,0,-11.408394,201.2, -0.8, 1,0,0,1024,1024,1684,1024,203.6,0,99,4.126,4.137,4.124,4.128,0,0,17.334,75.11,6,P-GPS,
0.354431847165151,36.9190293697971,5569.6332015222,72.17848,0,1.61696855568,11700,2018-04-16 05:09:15,14,0,16.451,5569.6332015222,72.17848,0,1.61696855568,0,0,-11.408394,201.2, -0.9, 1.3,0,0,1024,1024,1684,1024,203.6,0,99,4.126,4.137,4.124,4.128,0,0,17.334,75.11,6,P-GPS,
0.354431937733099,36.9190296359783,5571.6017055222,74.146984,0,1.71901908388,11800,2018-04-16 05:09:15,14,0,16.451,5571.6017055222,74.146984,0,1.71901908388,0,0,-11.408394,201.2, -0.8, 1.4,0,0,1024,1024,1684,1024,203.4,0,99,4.126,4.137,4.124,4.128,0,0,17.334,75.11,6,P-GPS,
0.35443200062951,36.9190298301287,5573.2421255222,75.787404,0,1.79301843008,11900,2018-04-16 05:09:15,14,0,16.371,5573.2421255222,75.787404,0,1.79301843008,0,0,-11.408394,201.2, -0.8, 1.3,0,0,1024,1024,1684,1024,203.4,0,99,4.122,4.128,4.115,4.118,0,0,17.486,75.11,6,P-GPS,
0.354432133094269,36.9190300514282,5575.2106295222,77.755908,0,1.88650268504,12000,2018-04-16 05:09:15,14,0,16.371,5575.2106295222,77.755908,0,1.88650268504,0,0,-11.408394,201.2, -0.8, 1.1,0,0,1024,1024,1684,1024,203.2,0,99,4.122,4.128,4.115,4.118,0,0,17.486,75.11,6,P-GPS,
0.354432227688545,36.9190302074091,5576.8510495222,79.396328,0,1.95261817272,12100,2018-04-16 05:09:15,14,0,16.371,5576.8510495222,79.396328,0,1.95261817272,0,0,-11.1847,201.2, -0.9, 1,0,0,1024,1024,1684,1024,203.1,0,99,4.122,4.128,4.115,4.118,0,0,17.486,75.11,6,P-GPS,
0.354432420728571,36.919030569543,5580.4599735222,83.005252,0,2.10210636648,12300,2018-04-16 05:09:15,14,0,16.371,5580.4599735222,83.005252,0,2.10210636648,0,0,-11.632088,201.2, -0.6, 1,0,0,1024,1024,1684,1024,203.1,0,99,4.122,4.128,4.115,4.118,0,0,17.486,75.11,6,P-GPS,
0.354432523097853,36.9190307259119,5582.4284775222,84.973756,0,2.16961621116,12400,2018-04-16 05:09:15,14,0,16.371,5582.4284775222,84.973756,0,2.16961621116,0,0,-11.632088,201.2, -0.5, 0.9,0,0,1024,1024,1684,1024,203,0,99,4.122,4.128,4.115,4.118,0,0,17.486,75.11,6,P-GPS,
0.354432585933604,36.9190308225669,5584.3969815222,86.94226,0,2.21129600252,12500,2018-04-16 05:09:16,14,0,16.371,5584.3969815222,86.94226,0,2.21129600252,0,0,-11.632088,201.1, -0.5, 0.7,0,0,1024,1024,1684,1024,202.9,0,99,4.122,4.128,4.115,4.118,0,0,17.486,75.11,6,P-GPS,
0.354432695644319,36.9190310000296,5586.3654855222,88.910764,0,2.28696529628,12600,2018-04-16 05:09:16,14,0,16.371,5586.3654855222,88.910764,0,2.28696529628,0,0,-11.632088,201.1, -0.7, 1,0,0,1024,1024,1684,1024,202.9,0,99,4.122,4.128,4.115,4.118,0,0,17.486,75.11,6,P-GPS,
0.354432756102948,36.919031112125,5588.0059055222,90.551184,0,2.33337933976,12700,2018-04-16 05:09:16,14,0,16.371,5588.0059055222,90.551184,0,2.33337933976,0,0,-11.632088,201.1, -0.5, 1.2,0,0,1024,1024,1684,1024,202.8,0,99,4.122,4.128,4.115,4.118,0,0,17.486,75.11,6,P-GPS,
0.354432939383506,36.9190312962566,5591.9429135222,94.488192,0,2.42308406704,12900,2018-04-16 05:09:16,14,0,16.397,5591.9429135222,94.488192,0,2.42308406704,0,0,-11.632088,201.1, -0.7, 1.2,0,0,1024,1024,1684,1023,202.8,0,99,4.119,4.126,4.112,4.116,0,0,16.922,75.11,6,P-GPS,
0.354433069844668,36.9190313865285,5593.9114175222,96.456696,0,2.4739009978,13000,2018-04-16 05:09:16,14,0,16.397,5593.9114175222,96.456696,0,2.4739009978,0,0,-11.408394,201.1, -0.8, 1.2,0,0,1024,1024,1684,1024,202.7,0,99,4.119,4.126,4.112,4.116,0,0,16.922,75.11,6,P-GPS,
0.354433158949867,36.9190314228898,5595.8799215222,98.4252,0,2.50060047372,13100,2018-04-16 05:09:16,14,0,16.397,5595.8799215222,98.4252,0,2.50060047372,0,0,-11.1847,201.1, -0.9, 1,0,0,1024,1024,1684,1024,202.7,0,99,4.119,4.126,4.112,4.116,0,0,16.922,75.11,6,P-GPS,
0.354433377368582,36.9190314617948,5599.4888455222,102.034124,0,2.55086294252,13300,2018-04-16 05:09:16,14,0,16.397,5599.4888455222,102.034124,0,2.55086294252,0,0,-11.408394,201.2, -1, 0.6,0,0,1024,1024,1684,1024,202.6,0,99,4.119,4.126,4.112,4.116,0,0,16.922,75.11,6,P-GPS,
0.354433494123131,36.9190314909845,5601.4573495222,104.002628,0,2.58103026632,13400,2018-04-16 05:09:16,14,0,16.397,5601.4573495222,104.002628,0,2.58103026632,0,0,-11.1847,201.2, -0.9, 0.7,0,0,1024,1024,1684,1024,202.6,0,99,4.119,4.126,4.112,4.116,0,0,16.922,75.11,6,P-GPS,
0.354433563533521,36.9190314805825,5603.0977695222,105.643048,0.223694,2.59039706452,13500,2018-04-16 05:09:17,14,0,16.397,5603.0977695222,105.643048,0.223694,2.59039706452,0,-0.223694,-11.1847,201.2, -0.9, 0.8,0,0,1024,1024,1684,1024,202.5,0,99,4.119,4.126,4.112,4.116,0,0,16.922,75.11,6,P-GPS,
0.35443379897029,36.9190314436447,5607.0347775222,109.580056,0.223694,2.62326780048,13700,2018-04-16 05:09:17,14,0,16.397,5607.0347775222,109.580056,0.223694,2.62326780048,0,-0.223694,-11.1847,201.1, -1.1, 0.6,0,0,1024,1024,1684,1024,202.5,0,99,4.119,4.126,4.112,4.116,0,0,16.922,75.11,6,P-GPS,
0.354433890728631,36.9190314329295,5608.6751975222,111.220476,0.223694,2.63787410016,13800,2018-04-16 05:09:17,14,0,16.397,5608.6751975222,111.220476,0.223694,2.63787410016,0,-0.223694,-11.408394,201.1, -1, 0.7,0,0,1024,1024,1684,1024,202.5,0,99,4.119,4.126,4.112,4.116,0,0,16.922,75.11,6,P-GPS,
0.354433932425754,36.9190313810957,5610.6437015222,113.18898,0.223694,2.63026911304,13900,2018-04-16 05:09:17,14,0,16.451,5610.6437015222,113.18898,0.223694,2.63787410016,0,-0.223694,-11.408394,201.1, -0.8, 0.6,0,0,1024,1024,1684,1024,202.4,0,99,4.119,4.126,4.112,4.116,0,0,16.922,75.11,6,P-GPS,
0.354434020060061,36.9190313308695,5612.6122055222,115.157484,0.223694,2.63268381128,14000,2018-04-16 05:09:17,14,0,16.451,5612.6122055222,115.157484,0.223694,2.63787410016,0,-0.223694,-11.408394,201.1, -0.6, 0.4,0,0,1024,1024,1684,1024,202.4,0,99,4.119,4.126,4.112,4.116,0,0,16.922,75.11,6,P-GPS,
0.354434065338132,36.9190312507635,5614.5807095222,117.125988,0.223694,2.61785113364,14100,2018-04-16 05:09:17,14,0,16.451,5614.5807095222,117.125988,0.223694,2.63787410016,0,-0.223694,-11.1847,201.1, -0.4, 0.3,0,0,1024,1024,1684,1024,202.4,0,99,4.119,4.126,4.112,4.116,0,0,16.922,75.11,6,P-GPS,
0.354434135756528,36.9190311972345,5616.2211295222,118.766408,0.223694,2.61658144856,14200,2018-04-16 05:09:17,14,0,16.451,5616.2211295222,118.766408,0.223694,2.63787410016,0,-0.223694,-11.1847,201.2, -0.3, 0.3,0,0,1024,1024,1684,1024,202.4,0,99,4.119,4.126,4.112,4.116,0,0,16.922,75.11,6,P-GPS,
0.354434168839182,36.919031122435,5618.1896335222,120.734912,0.223694,2.6014272486,14300,2018-04-16 05:09:17,14,0,16.451,5618.1896335222,120.734912,0.223694,2.63787410016,0,-0.223694,-11.1847,201.2, -0.3, 0.5,0,0,1024,1024,1684,1024,202.4,0,99,4.119,4.126,4.112,4.116,0,0,16.922,75.11,6,P-GPS,
0.354434238018333,36.9190310810333,5619.8300535222,122.375332,0.223694,2.60415690748,14400,2018-04-16 05:09:17,14,0,16.451,5619.8300535222,122.375332,0.223694,2.63787410016,0,-0.223694,-10.961006,201.2, -0.4, 0.5,0,0,1024,1024,1684,1024,202.3,0,99,4.119,4.126,4.112,4.116,0,0,16.922,75.11,6,P-GPS,
0.354434275817368,36.9190310112711,5621.7985575222,124.343836,0.223694,2.59205716956,14500,2018-04-16 05:09:18,14,0,16.451,5621.7985575222,124.343836,0.223694,2.63787410016,0,-0.223694,-11.1847,201.2, -0.4, 0.5,0,0,1024,1024,1684,1024,202.3,0,99,4.119,4.126,4.112,4.116,0,0,16.922,75.11,6,P-GPS,
0.354434386432683,36.9190309369593,5623.4389775222,125.984256,0.223694,2.59525270772,14600,2018-04-16 05:09:18,14,0,16.451,5623.4389775222,125.984256,0.223694,2.63787410016,0,-0.223694,-11.1847,201.2, -0.6, 0.3,0,0,1024,1024,1684,1024,202.3,0,99,4.119,4.126,4.112,4.116,0,0,16.922,75.11,6,P-GPS,
0.35443445564196,36.9190308401089,5625.4074815222,127.95276,0.223694,2.58343512204,14700,2018-04-16 05:09:18,14,0,16.451,5625.4074815222,127.95276,0.223694,2.63787410016,0,-0.223694,-11.1847,201.2, -0.7, 0.2,0,0,1024,1024,1684,1022,202.3,0,99,4.119,4.126,4.112,4.116,0,0,16.922,75.11,6,P-GPS,
0.354434547292417,36.9190307808553,5627.0479015222,129.59318,0.223694,2.58806766812,14800,2018-04-16 05:09:18,14,0,16.451,5627.0479015222,129.59318,0.223694,2.63787410016,0,-0.223694,-11.408394,201.2, -0.7, 0.1,0,0,1024,1024,1684,975,202.3,0,99,4.119,4.126,4.112,4.116,0,0,16.922,75.11,6,P-GPS,
0.354434591376024,36.9190307045355,5629.0164055222,131.561684,0.223694,2.57725401948,14900,2018-04-16 05:09:18,14,0,16.424,5629.0164055222,131.561684,0.223694,2.63787410016,0,-0.223694,-11.632088,201.1, -0.7, 0.2,0,0,1024,1024,1684,991,202.2,0,99,4.116,4.123,4.111,4.113,0,0,16.428,75.11,6,P-GPS,
0.354434692868389,36.9190306670507,5630.9849095222,133.530188,0.223694,2.59127961048,15000,2018-04-16 05:09:18,14,0,16.424,5630.9849095222,133.530188,0.223694,2.63787410016,0,-0.223694,-11.408394,201.1, -0.6, 0.1,0,0,1024,1024,1684,1023,202.1,0,99,4.116,4.123,4.111,4.113,0,0,16.428,75.11,6,P-GPS,
0.354434750670823,36.9190306039482,5632.6253295222,135.170608,0.223694,2.5881890592,15100,2018-04-16 05:09:18,14,0,16.424,5632.6253295222,135.170608,0.223694,2.63787410016,0,-0.223694,-11.408394,200.8, -0.7, 0.1,0,0,1024,1024,1684,1023,202.1,0,99,4.116,4.123,4.111,4.113,0,0,16.428,75.11,6,P-GPS,
0.354434864330108,36.9190305751872,5634.5938335222,137.139112,0.223694,2.6085302672,15200,2018-04-16 05:09:18,14,0,16.424,5634.5938335222,137.139112,0.223694,2.63787410016,0,-0.223694,-11.1847,200.8, -0.8, 0.1,0,0,1024,1024,1684,1024,202.1,0,99,4.116,4.123,4.111,4.113,0,0,16.428,75.11,6,P-GPS,
0.354434934378033,36.9190305230703,5636.2342535222,138.779532,0.223694,2.61225073976,15300,2018-04-16 05:09:18,14,0,16.424,5636.2342535222,138.779532,0.223694,2.63787410016,0,-0.223694,-11.1847,200.7, -0.7, 0.2,0,0,1024,1024,1684,1024,202.1,0,99,4.116,4.123,4.111,4.113,0,0,16.428,75.11,6,P-GPS,
0.354435029760476,36.9190304633783,5638.2027575222,140.748036,0.223694,2.62085638308,15400,2018-04-16 05:09:18,14,0,16.424,5638.2027575222,140.748036,0.223694,2.63787410016,0,-0.223694,-11.1847,200.8, -0.6, 0.1,0,0,1024,1024,1684,1024,202,0,99,4.116,4.123,4.111,4.113,0,0,16.428,75.11,6,P-GPS,
0.354435140716544,36.9190302873368,5641.4835975222,144.028876,0.223694,2.604576855,15600,2018-04-16 05:09:19,15,0,16.424,5641.4835975222,144.028876,0.223694,2.63787410016,0,-0.223694,-11.1847,200.8, -0.7, -0.2,0,0,1024,1024,1684,1024,202,0,99,4.116,4.123,4.111,4.113,0,0,16.428,75.11,6,P-GPS,
0.354435169298178,36.9190301948701,5643.4521015222,145.99738,0.223694,2.58894693324,15700,2018-04-16 05:09:19,15,0,16.424,5643.4521015222,145.99738,0.223694,2.63787410016,0,-0.223694,-11.1847,200.8, -0.7, 0,0,0,1024,1024,1684,1024,202,0,99,4.116,4.123,4.111,4.113,0,0,16.428,75.11,6,P-GPS,
0.354435226538392,36.9190301425358,5645.0925215222,147.6378,0.223694,2.5913058572,15800,2018-04-16 05:09:19,15,0,16.371,5645.0925215222,147.6378,0.223694,2.63787410016,0,-0.223694,-11.1847,200.8, -0.6, 0,0,0,1024,1024,1684,1024,202,0,99,4.115,4.122,4.108,4.112,0,0,16.234,75.11,6,P-GPS,
0.354435330805218,36.9190300468042,5648.7014455222,151.246724,0,2.596292734,16000,2018-04-16 05:09:19,15,0,16.371,5648.7014455222,151.246724,0.223694,2.63787410016,0,0,-11.1847,200.8, -0.7, 0.1,0,0,1024,1024,1684,1024,201.9,0,99,4.115,4.122,4.108,4.112,0,0,16.234,75.11,6,P-GPS,
0.354435377861958,36.9190299961037,5650.3418655222,152.887144,0,2.59708997812,16100,2018-04-16 05:09:19,15,0,16.371,5650.3418655222,152.887144,0.223694,2.63787410016,0,0,-11.1847,200.8, -0.6, 0,0,0,1024,1024,1684,1024,201.9,0,99,4.115,4.122,4.108,4.112,0,0,16.234,75.11,6,P-GPS,
0.354435463851943,36.9190299728077,5651.9822855222,154.527564,0,2.6154364354,16200,2018-04-16 05:09:19,15,0,16.371,5651.9822855222,154.527564,0.223694,2.63787410016,0,0,-11.1847,200.8, -0.5, 0,0,0,1024,1024,1684,1024,201.9,0,99,4.115,4.122,4.108,4.112,0,0,16.234,75.11,6,P-GPS,
0.354435507253232,36.9190299343176,5653.9507895222,156.496068,0,2.6185532334,16300,2018-04-16 05:09:19,15,0,16.371,5653.9507895222,156.496068,0.223694,2.63787410016,0,0,-10.961006,200.8, -0.7, 0.2,0,0,1024,1024,1684,1024,201.8,0,99,4.115,4.122,4.108,4.112,0,0,16.234,75.11,6,P-GPS,
0.354435632815221,36.9190299447314,5657.2316295222,159.776908,0,2.65634522936,16500,2018-04-16 05:09:20,15,0,16.371,5657.2316295222,159.776908,0.223694,2.65634522936,0,0,-10.737312,200.8, -0.9, 0.3,0,0,1024,1024,1684,1024,201.8,0,99,4.115,4.122,4.108,4.112,0,0,16.234,75.11,6,P-GPS,
0.354435743383718,36.9190299749693,5658.8720495222,161.417328,0,2.69464247468,16600,2018-04-16 05:09:20,15,0,16.371,5658.8720495222,161.417328,0.223694,2.69464247468,0,0,-10.961006,200.8, -1, 0.2,0,0,1024,1024,1684,1024,201.8,0,99,4.115,4.122,4.108,4.112,0,0,16.234,75.11,6,P-GPS,
0.354435802169325,36.9190299722986,5660.5124695222,163.057748,0,2.71078420748,16700,2018-04-16 05:09:20,15,0,16.371,5660.5124695222,163.057748,0.223694,2.71078420748,0,0,-11.1847,200.8, -1, 0.2,0,0,1024,1024,1684,1024,201.8,0,99,4.115,4.122,4.108,4.112,0,0,16.234,75.11,6,P-GPS,
0.354435884268958,36.9190300001662,5662.1528895222,164.698168,0,2.74057751552,16800,2018-04-16 05:09:20,15,0,16.371,5662.1528895222,164.698168,0.223694,2.74057751552,0,0,-10.961006,200.8, -0.9, 0.3,0,0,1024,1024,1684,1024,201.8,0,99,4.115,4.122,4.108,4.112,0,0,16.234,75.11,6,P-GPS,
0.354435918912883,36.9190299999462,5664.1213935222,166.666672,0,2.75046268644,16900,2018-04-16 05:09:20,15,0,16.371,5664.1213935222,166.666672,0.223694,2.75046268644,0,0,-11.1847,200.8, -0.8, 0.3,0,0,1024,1024,1684,1024,201.7,0,98,4.115,4.122,4.108,4.112,0,0,16.234,75.11,6,P-GPS,
0.3544360221143,36.9190300273972,5665.7618135222,168.307092,0,2.78630914428,17000,2018-04-16 05:09:20,15,0,16.371,5665.7618135222,168.307092,0.223694,2.78630914428,0,0,-11.1847,200.8, -0.8, 0.3,0,0,1024,1024,1684,1024,201.7,0,98,4.115,4.122,4.108,4.112,0,0,16.234,75.11,6,P-GPS,
0.354436077178505,36.9190300260911,5667.4022335222,169.947512,0,2.80192266184,17100,2018-04-16 05:09:20,15,0,16.371,5667.4022335222,169.947512,0.223694,2.80192266184,0,0,-11.1847,200.8, -0.9, 0.3,0,0,1024,1024,1684,1024,201.7,0,98,4.115,4.122,4.108,4.112,0,0,16.234,75.11,6,P-GPS,
0.354436164382902,36.9190300850401,5669.0426535222,171.587932,0,2.8402559964,17200,2018-04-16 05:09:20,15,0,16.371,5669.0426535222,171.587932,0.223694,2.8402559964,0,0,-11.1847,200.8, -1.1, 0.4,0,0,1024,1024,1684,1024,201.7,0,98,4.115,4.122,4.108,4.112,0,0,16.234,75.11,6,P-GPS,
0.354436201134441,36.9190301074357,5671.0111575222,173.556436,0,2.85586951396,17300,2018-04-16 05:09:20,15,0,16.371,5671.0111575222,173.556436,0.223694,2.85586951396,0,0,-11.1847,200.8, -1, 0.3,0,0,1024,1024,1684,1024,201.7,0,98,4.115,4.122,4.108,4.112,0,0,16.234,75.11,6,P-GPS,
0.354436267946241,36.9190301829461,5672.6515775222,175.196856,0,2.89198171984,17400,2018-04-16 05:09:20,15,0,16.371,5672.6515775222,175.196856,0.223694,2.89198171984,0,0,-10.961006,200.8, -0.7, 0.4,0,0,1024,1024,1684,1024,201.7,0,98,4.115,4.122,4.108,4.112,0,0,16.234,75.11,6,P-GPS,
0.354436293574693,36.9190302218731,5674.2919975222,176.837276,0,2.90806111668,17500,2018-04-16 05:09:20,15,0,16.371,5674.2919975222,176.837276,0.223694,2.90806111668,0,0,-10.961006,200.8, -0.9, 0.5,0,0,1024,1024,1684,1024,201.7,0,98,4.115,4.122,4.108,4.112,0,0,16.234,75.11,6,P-GPS,
0.3544363960714,36.9190303096949,5675.9324175222,178.477696,0,2.95724418912,17600,2018-04-16 05:09:21,15,0,16.371,5675.9324175222,178.477696,0.223694,2.95724418912,0,0,-11.1847,200.8, -1, 0.5,0,0,1024,1024,1684,1024,201.7,0,98,4.115,4.122,4.108,4.112,0,0,16.234,75.11,6,P-GPS,
0.354436450086888,36.9190303575262,5677.5728375222,180.118116,0,2.98351059416,17700,2018-04-16 05:09:21,15,0,16.371,5677.5728375222,180.118116,0.223694,2.98351059416,0,0,-10.961006,200.8, -1.1, 0.5,0,0,1024,1024,1684,1024,201.6,0,98,4.115,4.122,4.108,4.112,0,0,16.234,75.11,6,P-GPS,
0.354436575573154,36.9190304949689,5680.8536775222,183.398956,0,3.05043973016,17900,2018-04-16 05:09:21,15,0,16.397,5680.8536775222,183.398956,0.223694,3.05043973016,0,0,-10.961006,200.8, -1.1, 0.7,0,0,1024,1024,1684,1024,201.6,0,98,4.11,4.116,4.101,4.105,0,0,16.388,75.11,6,P-GPS,
0.354436640274491,36.919030569596,5682.4940975222,185.039376,0,3.08581374704,18000,2018-04-16 05:09:21,15,0,16.397,5682.4940975222,185.039376,0.223694,3.08581374704,0,0,-10.961006,200.8, -1.2, 0.8,0,0,1024,1024,1684,1024,201.6,0,98,4.11,4.116,4.101,4.105,0,0,16.388,75.11,6,P-GPS,
0.354436661178826,36.9190306058282,5684.1345175222,186.679796,0,3.09998041416,18100,2018-04-16 05:09:21,15,0,16.397,5684.1345175222,186.679796,0.223694,3.09998041416,0,0,-10.961006,200.8, -1.2, 0.8,0,0,1024,1024,1684,1024,201.6,0,98,4.11,4.116,4.101,4.105,0,0,16.388,75.11,6,P-GPS,
0.354436756406974,36.9190307031705,5685.7749375222,188.320216,0,3.14925863096,18200,2018-04-16 05:09:21,15,0,16.397,5685.7749375222,188.320216,0.223694,3.14925863096,0,0,-11.1847,200.8, -1, 0.8,0,0,1024,1024,1684,1024,201.6,0,98,4.11,4.116,4.101,4.105,0,0,16.388,75.11,6,P-GPS,
0.354436800165707,36.9190307532313,5687.7434415222,190.28872,0,3.1731136186,18300,2018-04-16 05:09:21,15,0,16.397,5687.7434415222,190.28872,0.223694,3.1731136186,0,0,-11.1847,200.8, -1, 0.7,0,0,1024,1024,1684,1024,201.6,0,98,4.11,4.116,4.101,4.105,0,0,16.388,75.11,6,P-GPS,
0.354436886026231,36.9190308319583,5689.3838615222,191.92914,0,3.21550863308,18400,2018-04-16 05:09:21,15,0,16.397,5689.3838615222,191.92914,0.223694,3.21550863308,0,0,-11.1847,200.8, -1, 0.8,0,0,1024,1024,1684,1024,201.6,0,98,4.11,4.116,4.101,4.105,0,0,16.388,75.11,6,P-GPS,
0.354436922028685,36.9190308670156,5691.0242815222,193.56956,0,3.23375010348,18500,2018-04-16 05:09:22,15,0,16.397,5691.0242815222,193.56956,0.223694,3.23375010348,0,0,-11.1847,200.7, -1.1, 0.8,0,0,1024,1024,1684,1024,201.6,0,98,4.11,4.116,4.101,4.105,0,0,16.388,75.11,6,P-GPS,
0.354437002192098,36.9190309356799,5692.6647015222,195.20998,0,3.27223763752,18600,2018-04-16 05:09:22,15,0,16.397,5692.6647015222,195.20998,0.223694,3.27223763752,0,0,-11.1847,200.7, -1.3, 0.7,0,0,1024,1024,1684,1024,201.6,0,98,4.11,4.116,4.101,4.105,0,0,16.388,75.11,6,P-GPS,
0.354437028249644,36.919030964231,5694.3051215222,196.8504,0,3.2861549608,18700,2018-04-16 05:09:22,15,0,16.397,5694.3051215222,196.8504,0.223694,3.2861549608,0,0,-10.961006,200.7, -1.3, 0.8,0,0,1024,1024,1684,1024,201.5,0,98,4.11,4.116,4.101,4.105,0,0,16.388,75.11,6,P-GPS,
0.354437127569258,36.9190310315988,5695.9455415222,198.49082,0.223694,3.3298229412,18800,2018-04-16 05:09:22,15,0,16.397,5695.9455415222,198.49082,0.223694,3.3298229412,-0.223694,0,-10.961006,200.7, -1.3, 1,0,0,1024,1024,1684,1024,201.5,0,98,4.11,4.116,4.101,4.105,0,0,16.388,75.11,6,P-GPS,
0.354437170857371,36.9190310556539,5697.5859615222,200.13124,0.223694,3.3476379024,18900,2018-04-16 05:09:22,15,0,16.317,5697.5859615222,200.13124,0.223694,3.3476379024,-0.223694,0,-10.961006,200.8, -1.3, 1,0,0,1024,1024,1684,1024,201.5,0,98,4.106,4.113,4.098,4.101,0,0,16.342,75.11,6,P-GPS,
0.354437254730379,36.9190311501104,5699.2263815222,201.77166,0.223694,3.393044728,19000,2018-04-16 05:09:22,15,0,16.317,5699.2263815222,201.77166,0.223694,3.393044728,-0.223694,0,-10.961006,200.8, -1.3, 1,0,0,1024,1024,1684,1024,201.5,0,98,4.106,4.113,4.098,4.101,0,0,16.342,75.11,6,P-GPS,
0.35443735480559,36.9190313078717,5702.5072215222,205.0525,0.223694,3.4575788508,19200,2018-04-16 05:09:22,15,0,16.317,5702.5072215222,205.0525,0.223694,3.4575788508,-0.223694,0,-11.1847,200.7, -1.4, 1.2,0,0,1024,1024,1684,1024,201.5,0,98,4.106,4.113,4.098,4.101,0,0,16.342,75.11,6,P-GPS,
0.354437377117716,36.9190313603306,5704.1476415222,206.69292,0.223694,3.4759515548,19300,2018-04-16 05:09:22,15,0,16.317,5704.1476415222,206.69292,0.223694,3.4759515548,-0.223694,0,-10.961006,200.8, -1.3, 1.1,0,0,1024,1024,1684,1024,201.5,0,98,4.106,4.113,4.098,4.101,0,0,16.342,75.11,6,P-GPS,
0.354437487528661,36.9190314437544,5705.7880615222,208.33334,0.223694,3.526410874,19400,2018-04-16 05:09:22,15,0,16.317,5705.7880615222,208.33334,0.223694,3.526410874,-0.223694,0,-10.961006,200.8, -1.4, 1,0,0,1024,1024,1684,1024,201.5,0,98,4.106,4.113,4.098,4.101,0,0,16.342,75.11,6,P-GPS,
0.354437633516223,36.919031563904,5709.0689015222,211.61418,0.223694,3.5953741308,19600,2018-04-16 05:09:23,15,0,16.317,5709.0689015222,211.61418,0.223694,3.5953741308,-0.223694,0,-11.1847,200.8, -1.6, 0.9,0,0,1024,1024,1684,1024,201.5,0,98,4.106,4.113,4.098,4.101,0,0,16.342,75.11,6,P-GPS,
0.354437666353796,36.9190316065278,5711.0374055222,213.582684,0.223694,3.614501428,19700,2018-04-16 05:09:23,15,0,16.317,5711.0374055222,213.582684,0.223694,3.614501428,-0.223694,0,-11.1847,200.8, -1.4, 0.9,0,0,1024,1024,1684,1024,201.5,0,98,4.106,4.113,4.098,4.101,0,0,16.342,75.11,6,P-GPS,
0.354437769967617,36.9190316923476,5712.6778255222,215.223104,0.223694,3.6635827944,19800,2018-04-16 05:09:23,15,0,16.317,5712.6778255222,215.223104,0.223694,3.6635827944,-0.223694,0,-10.961006,200.8, -1.3, 1.1,0,0,1024,1024,1684,1024,201.5,0,98,4.106,4.113,4.098,4.101,0,0,16.342,75.11,6,P-GPS,
0.354437812798136,36.9190317171564,5714.3182455222,216.863524,0.223694,3.681430564,19900,2018-04-16 05:09:23,15,0,16.344,5714.3182455222,216.863524,0.223694,3.681430564,-0.223694,0,-11.1847,200.8, -1.3, 1.1,0,0,1024,1024,1684,1024,201.4,0,98,4.104,4.109,4.096,4.098,0,0,16.306,75.11,6,P-GPS,
0.354437899588502,36.9190318166667,5715.9586655222,218.503944,0.223694,3.7289043188,20000,2018-04-16 05:09:23,15,0,16.344,5715.9586655222,218.503944,0.223694,3.7289043188,-0.223694,0,-10.961006,200.8, -1.3, 0.9,0,0,1024,1024,1684,1024,201.4,0,98,4.104,4.109,4.096,4.098,0,0,16.306,75.11,6,P-GPS,
0.354437924135667,36.9190318558308,5717.5990855222,220.144364,0.3131716,3.7448820096,20100,2018-04-16 05:09:23,15,0,16.344,5717.5990855222,220.144364,0.3131716,3.7448820096,-0.223694,-0.223694,-10.961006,200.8, -1.5, 0.9,0,0,1024,1024,1684,1024,201.4,0,98,4.104,4.109,4.096,4.098,0,0,16.306,75.11,6,P-GPS,
0.35443799372315,36.9190319412818,5719.2395055222,221.784784,0.3131716,3.784284898,20200,2018-04-16 05:09:23,15,0,16.344,5719.2395055222,221.784784,0.3131716,3.784284898,-0.223694,-0.223694,-11.1847,200.8, -1.6, 0.9,0,0,1024,1024,1684,1024,201.4,0,98,4.104,4.109,4.096,4.098,0,0,16.306,75.11,6,P-GPS,
0.35443799996579,36.9190319619623,5720.8799255222,223.425204,0.3131716,3.790846578,20300,2018-04-16 05:09:23,15,0,16.344,5720.8799255222,223.425204,0.3131716,3.790846578,-0.223694,-0.223694,-10.961006,200.8, -1.3, 0.8,0,0,1024,1024,1684,1024,201.4,0,98,4.104,4.109,4.096,4.098,0,0,16.306,75.11,6,P-GPS,
0.354438059833905,36.9190320522739,5723.8326815222,226.37796,0.3131716,3.8286746632,20500,2018-04-16 05:09:24,15,0,16.344,5723.8326815222,226.37796,0.3131716,3.8286746632,-0.223694,-0.223694,-10.961006,200.8, -1.4, 0.9,0,0,1024,1024,1684,1024,201.4,0,98,4.104,4.109,4.096,4.098,0,0,16.306,75.11,6,P-GPS,
0.354438120223936,36.919032123649,5725.4731015222,228.01838,0.3131716,3.8622704648,20600,2018-04-16 05:09:24,15,0,16.344,5725.4731015222,228.01838,0.3131716,3.8622704648,-0.223694,-0.223694,-10.961006,200.8, -1.2, 0.8,0,0,1024,1024,1684,1024,201.4,-1.7,98,4.104,4.109,4.096,4.098,0,0,16.306,75.11,6,P-GPS,
0.35443811862969,36.919032140167,5727.1135215222,229.6588,0.3131716,3.8656825384,20700,2018-04-16 05:09:24,15,0,16.344,5727.1135215222,229.6588,0.3131716,3.8656825384,-0.223694,-0.223694,-10.961006,200.8, -1.1, 0.9,0,0,1024,1024,1684,1024,201.4,-7.3,98,4.104,4.109,4.096,4.098,0,0,16.306,75.11,6,P-GPS,
0.354438217226274,36.9190322212445,5728.7539415222,231.29922,0.3131716,3.9122704664,20800,2018-04-16 05:09:24,15,0,16.344,5728.7539415222,231.29922,0.3131716,3.9122704664,-0.223694,-0.223694,-11.1847,200.8, -0.9, 1,0,0,1024,1024,1684,1024,201.4,-12.9,98,4.104,4.109,4.096,4.098,0,0,16.306,75.11,6,P-GPS,
0.354438251631225,36.9190322442943,5730.7224455222,233.267724,0.3131716,3.9272967136,20900,2018-04-16 05:09:24,15,0,16.344,5730.7224455222,233.267724,0.3131716,3.9272967136,-0.223694,-0.223694,-11.1847,200.8, -0.9, 1,0,0,1024,1024,1684,1024,201.4,-18.6,98,4.104,4.109,4.096,4.098,0,0,16.306,75.11,6,P-GPS,
0.354438357003765,36.919032326534,5732.3628655222,234.908144,0.3131716,3.976049996,21000,2018-04-16 05:09:24,15,0,16.344,5732.3628655222,234.908144,0.3131716,3.976049996,-0.223694,-0.223694,-11.408394,200.8, -1, 0.9,0,0,1024,1024,1684,1024,201.4,-24.2,98,4.104,4.109,4.096,4.098,0,0,16.306,75.11,6,P-GPS,
0.354438394295946,36.9190323518604,5734.0032855222,236.548564,0.3131716,3.9923885792,21100,2018-04-16 05:09:24,15,0,16.344,5734.0032855222,236.548564,0.3131716,3.9923885792,-0.223694,-0.223694,-11.1847,200.8, -1.1, 1,0,0,1024,1024,1684,1024,201.4,-29.9,98,4.104,4.109,4.096,4.098,0,0,16.306,75.11,6,P-GPS,
0.354438465598181,36.9190324352639,5735.6437055222,238.188984,0.3131716,4.0318898928,21200,2018-04-16 05:09:24,15,0,16.344,5735.6437055222,238.188984,0.3131716,4.0318898928,-0.223694,-0.223694,-10.961006,200.7, -1.3, 1,0,0,1024,1024,1684,1024,201.4,-35.5,98,4.104,4.109,4.096,4.098,0,0,16.306,75.11,6,P-GPS,
0.354438471515946,36.9190324587034,5737.2841255222,239.829404,0.3131716,4.0390093156,21300,2018-04-16 05:09:24,15,0,16.344,5737.2841255222,239.829404,0.3131716,4.0390093156,-0.223694,-0.223694,-10.961006,200.8, -1.5, 1,0,0,1024,1024,1684,1024,201.4,-41.1,98,4.104,4.109,4.096,4.098,0,0,16.306,75.11,6,P-GPS,
0.35443855823466,36.9190325311175,5738.9245455222,241.469824,0.3131716,4.0802494744,21400,2018-04-16 05:09:24,15,0,16.344,5738.9245455222,241.469824,0.3131716,4.0802494744,-0.223694,-0.223694,-10.961006,200.8, -1.3, 1.1,0,0,1024,1024,1684,1024,201.4,-46.8,98,4.104,4.109,4.096,4.098,0,0,16.306,75.11,6,P-GPS,
0.354438584381771,36.9190325514126,5740.5649655222,243.110244,0.3131716,4.0922901572,21500,2018-04-16 05:09:24,15,0,16.344,5740.5649655222,243.110244,0.3131716,4.0922901572,-0.223694,-0.223694,-10.961006,200.7, -1.1, 1.1,0,0,1024,1024,1684,1024,201.4,-46.8,98,4.104,4.109,4.096,4.098,0,0,16.306,75.11,6,P-GPS,
0.354438639454933,36.9190326310047,5742.2053855222,244.750664,0.3131716,4.1263780848,21600,2018-04-16 05:09:25,15,0,16.344,5742.2053855222,244.750664,0.3131716,4.1263780848,-0.223694,-0.223694,-11.1847,200.7, -1.3, 1.1,0,0,1024,1024,1684,1024,201.4,-52.5,98,4.104,4.109,4.096,4.098,0,0,16.306,75.11,6,P-GPS,
0.354438620593481,36.919032651205,5743.8458055222,246.391084,0.3131716,4.1258531504,21700,2018-04-16 05:09:25,15,0,16.344,5743.8458055222,246.391084,0.3131716,4.1263780848,-0.223694,-0.223694,-11.1847,200.7, -1.4, 1.1,0,0,1024,1024,1684,1024,201.4,-58.1,98,4.104,4.109,4.096,4.098,0,0,16.306,75.11,6,P-GPS,
0.354438704868714,36.9190327588777,5747.1266455222,249.671924,0.3131716,4.1747376664,21900,2018-04-16 05:09:25,15,0,16.263,5747.1266455222,249.671924,0.3131716,4.1747376664,-0.223694,-0.223694,-10.961006,200.8, -0.9, 1.4,0,0,1024,1024,1684,1024,201.3,-69.4,98,4.104,4.109,4.096,4.098,0,0,16.346,75.11,6,P-GPS,
0.354438756557969,36.9190328425996,5748.7670655222,251.312344,0.3131716,4.2088912108,22000,2018-04-16 05:09:25,15,0,16.263,5748.7670655222,251.312344,0.3131716,4.2088912108,-0.223694,-0.223694,-10.961006,200.8, -0.9, 1.5,0,0,1024,1024,1684,1024,201.3,-69.4,98,4.104,4.109,4.096,4.098,0,0,16.346,75.11,6,P-GPS,
0.354438742027364,36.9190328665691,5750.4074855222,252.952764,0.3131716,4.2105644392,22100,2018-04-16 05:09:25,15,0,16.263,5750.4074855222,252.952764,0.3131716,4.2105644392,-0.223694,-0.223694,-11.1847,200.8, -1.1, 1.3,0,0,1024,1024,1684,1024,201.3,-80.7,98,4.104,4.109,4.096,4.098,0,0,16.346,75.11,6,P-GPS,
0.354438807013678,36.9190329086575,5753.6883255222,256.233604,0.3131716,4.2385500044,22300,2018-04-16 05:09:25,15,0,16.263,5753.6883255222,256.233604,0.3131716,4.2385500044,-0.223694,-0.223694,-11.1847,200.8, -0.9, 1.6,0,0,1024,1024,1684,1024,201.3,-89.9,98,4.104,4.109,4.096,4.098,0,0,16.346,75.11,6,P-GPS,
0.354438861205852,36.9190329671997,5755.3287455222,257.874024,0.3131716,4.2674542048,22400,2018-04-16 05:09:25,15,0,16.263,5755.3287455222,257.874024,0.3131716,4.2674542048,-0.223694,-0.223694,-10.737312,200.8, -1.2, 1.7,0,0,1024,1024,1684,1024,201.3,-89.9,98,4.104,4.109,4.096,4.098,0,0,16.346,75.11,6,P-GPS,
0.354438845616757,36.9190329704357,5756.9691655222,259.514444,0.3131716,4.2639108976,22500,2018-04-16 05:09:26,15,0,16.263,5756.9691655222,259.514444,0.3131716,4.2674542048,-0.223694,-0.223694,-10.961006,200.8, -1.2, 1.6,0,0,1024,1024,1684,1024,201.3,-89.9,98,4.104,4.109,4.096,4.098,0,0,16.346,75.11,6,P-GPS,
0.354438908100154,36.9190330628521,5758.6095855222,261.154864,0.3131716,4.3032153608,22600,2018-04-16 05:09:26,15,0,16.263,5758.6095855222,261.154864,0.3131716,4.3032153608,-0.223694,-0.223694,-11.1847,200.8, -1.2, 1.7,0,0,1024,1024,1684,1024,201.3,-89.9,98,4.104,4.109,4.096,4.098,0,0,16.346,75.11,6,P-GPS,
0.354438982050238,36.9190331807181,5761.8904255222,264.435704,0.3131716,4.3517717928,22800,2018-04-16 05:09:26,15,0,16.263,5761.8904255222,264.435704,0.3131716,4.3517717928,-0.223694,-0.223694,-11.1847,200.8, -0.9, 1.7,0,0,1024,1024,1684,1024,201.3,-90,98,4.104,4.109,4.096,4.098,0,0,16.346,75.11,6,P-GPS,
0.354438993774221,36.9190332066606,5763.5308455222,266.076124,0.3131716,4.361220612,22900,2018-04-16 05:09:26,15,0,16.344,5763.5308455222,266.076124,0.3131716,4.361220612,-0.223694,-0.223694,-11.1847,200.8, -1, 1.7,0,0,1024,1024,1684,1024,201.3,-90,98,4.099,4.106,4.093,4.096,0,0,16.346,75.11,6,P-GPS,
0.35443908873449,36.919033292277,5765.4993495222,268.044628,0.3131716,4.4078413484,23000,2018-04-16 05:09:26,15,0,16.344,5765.4993495222,268.044628,0.3131716,4.4078413484,-0.223694,-0.223694,-11.408394,200.7, -1.2, 1.7,0,0,1024,1024,1684,1024,201.3,-90,98,4.099,4.106,4.093,4.096,0,0,16.346,75.11,6,P-GPS,
0.354439111310423,36.9190333120695,5767.1397695222,269.685048,0.3131716,4.418799354,23100,2018-04-16 05:09:26,15,0,16.344,5767.1397695222,269.685048,0.3131716,4.418799354,-0.223694,-0.223694,-11.1847,200.7, -1.2, 1.6,0,0,1024,1024,1684,1024,201.3,-89.9,98,4.099,4.106,4.093,4.096,0,0,16.346,75.11,6,P-GPS,
0.354439201102825,36.9190333867035,5768.7801895222,271.325468,0.3131716,4.4613846572,23200,2018-04-16 05:09:26,15,0,16.344,5768.7801895222,271.325468,0.3131716,4.4613846572,-0.223694,-0.223694,-11.1847,200.8, -1.1, 1.7,0,0,1024,1024,1684,1024,201.3,-90,98,4.099,4.106,4.093,4.096,0,0,16.346,75.11,6,P-GPS,
0.354439226793158,36.919033403874,5770.4206095222,272.965888,0.3131716,4.4725723216,23300,2018-04-16 05:09:26,15,0,16.344,5770.4206095222,272.965888,0.3131716,4.4725723216,-0.223694,-0.223694,-10.961006,200.8, -1.1, 1.7,0,0,1024,1024,1684,1024,201.3,-89.9,98,4.099,4.106,4.093,4.096,0,0,16.346,75.11,6,P-GPS,
