latitude,longitude,altitude(feet),ascent(feet),speed(mph),distance(feet),time(millisecond),datetime(utc),satellites,voltage(v),max_altitude(feet),max_ascent(feet),max_speed(mph),max_distance(feet),compass_heading(degrees), pitch(degrees), roll(degrees),isPhoto,isVideo,rc_elevator,rc_aileron,rc_throttle,rc_rudder,gimbal_heading(degrees),gimbal_pitch(degrees),battery_percent,voltageCell1,voltageCell2,voltageCell3,voltageCell4,voltageCell5,voltageCell6,battery_temperature(f),flycStateRaw,flycState,message
0.339217159749596,36.9100307862528,5401.2294303853,0,0,0,100,2017-11-08 08:25:31,12,0,5401.2294303853,0,0,0,106.5, -3.5, 0.7,0,0,1024,1024,1024,1024,111.1,-3.3,53,3.879,3.881,3.88,3.88,0,0,103.91,41,Motors_Started,
0.339217157098693,36.9100307738829,5401.2294303853,0,0,0.0046155513288,200,2017-11-08 08:25:31,12,0,5401.2294303853,0,0,0.0046155513288,106.5, -3.5, 0.7,0,0,1024,1024,1024,1024,111.1,-3.3,53,3.879,3.881,3.88,3.88,0,0,103.91,41,Motors_Started,
0.339217147149918,36.9100307779576,5401.2294303853,0,0,0.005503773142,300,2017-11-08 08:25:32,12,0,5401.2294303853,0,0,0.005503773142,106.5, -3.5, 0.7,0,0,1024,1024,1024,1024,111.1,-3.3,53,3.879,3.881,3.88,3.88,0,0,103.91,41,Motors_Started,
0.339217141616669,36.9100307730671,5401.2294303853,0,0,0.00817995433,400,2017-11-08 08:25:32,12,15.499,5401.2294303853,0,0,0.00817995433,106.5, -3.5, 0.7,0,0,1024,1024,1024,1024,111.1,-3.3,53,3.879,3.881,3.88,3.88,0,0,103.91,41,Motors_Started,Setting new Return-To-Home altitude to 30m (98 ft). Setting new Maximum Flight Altitude to 100m (328 ft)
0.339217171654743,36.910030781814,5401.2294303853,0,0,0.004635662878,500,2017-11-08 08:25:32,12,15.499,5401.2294303853,0,0,0.00817995433,106.5, -3.5, 0.7,0,0,1024,1024,1024,1024,111.1,-3.3,53,3.879,3.881,3.88,3.88,0,0,103.91,41,Motors_Started,
0.339217194454079,36.9100307809307,5401.2294303853,0,0,0.0128099085464,600,2017-11-08 08:25:32,12,15.499,5401.2294303853,0,0,0.0128099085464,106.5, -3.5, 0.7,0,0,1024,1024,1024,1024,111.1,-3.3,53,3.879,3.881,3.88,3.88,0,0,103.91,41,Motors_Started,
0.33921720924493,36.9100307514781,5401.2294303853,0,0,0.0220696857456,700,2017-11-08 08:25:32,12,15.499,5401.2294303853,0,0,0.0220696857456,106.5, -3.5, 0.7,0,0,1024,1024,1024,1024,111.1,-3.3,53,3.879,3.881,3.88,3.88,0,0,103.91,41,Motors_Started,
0.339217220772583,36.9100307228241,5401.2294303853,0,0,0.0321126650696,800,2017-11-08 08:25:32,12,15.499,5401.2294303853,0,0,0.0321126650696,106.5, -3.5, 0.7,0,0,1024,1024,1024,1024,111.1,-3.3,53,3.879,3.881,3.88,3.88,0,0,103.91,41,Motors_Started,
0.339217224337451,36.9100307508968,5401.2294303853,0,0,0.0268644037468,900,2017-11-08 08:25:32,12,15.499,5401.2294303853,0,0,0.0321126650696,106.5, -3.5, 0.7,0,0,1024,1024,1024,1024,111.1,-3.3,53,3.879,3.881,3.88,3.88,0,0,103.91,41,Motors_Started,
0.339217227901911,36.9100307631671,5401.2294303853,0,0,0.026253117638,1000,2017-11-08 08:25:32,12,15.499,5401.2294303853,0,0,0.0321126650696,106.5, -3.5, 0.7,0,0,1024,1024,1024,1024,111.1,-3.3,53,3.879,3.881,3.88,3.88,0,0,103.91,41,Motors_Started,
0.339217224522585,36.9100307442804,5401.2294303853,0,0,0.0281600402712,1100,2017-11-08 08:25:32,12,15.499,5401.2294303853,0,0,0.0321126650696,106.5, -3.5, 0.7,0,0,927,703,717,1377,110.9,-3.3,53,3.879,3.881,3.88,3.88,0,0,103.91,41,Motors_Started,
0.33921722213325,36.9100307258808,5401.2294303853,0,0,0.0316734262104,1200,2017-11-08 08:25:32,12,15.499,5401.2294303853,0,0,0.0321126650696,106.5, -3.5, 0.7,0,0,1024,1024,1024,1024,109,-3.3,53,3.879,3.881,3.88,3.88,0,0,103.91,41,Motors_Started,
0.339217258179062,36.9100307605066,5401.2294303853,0,0,0.037120079928,1300,2017-11-08 08:25:33,12,15.499,5401.2294303853,0,0,0.037120079928,106.5, -3.5, 0.7,0,0,1024,1024,1024,1024,108.2,-3.3,53,3.879,3.881,3.88,3.88,0,0,103.91,41,Motors_Started,
0.339217284211469,36.9100307794105,5401.2294303853,0,0,0.045478347912,1400,2017-11-08 08:25:33,12,15.499,5401.2294303853,0,0,0.045478347912,106.5, -3.5, 0.7,0,0,1024,1024,1024,1024,107.8,-3.3,53,3.879,3.881,3.881,3.88,0,0,103.91,41,Motors_Started,
0.339217301982373,36.9100308028698,5401.2294303853,0,0,0.052246392748,1500,2017-11-08 08:25:33,12,15.499,5401.2294303853,0,0,0.052246392748,106.5, -3.5, 0.7,0,0,1024,1024,1024,1024,107.8,-3.3,53,3.879,3.881,3.881,3.88,0,0,103.91,41,Motors_Started,
0.339217315967959,36.9100308153885,5401.2294303853,0,0,0.05797900448,1600,2017-11-08 08:25:33,12,15.499,5401.2294303853,0,0,0.05797900448,106.5, -3.6, 0.7,0,0,1024,1024,1024,1024,107.5,-3.3,53,3.879,3.881,3.881,3.88,0,0,103.91,10,Assisted_Takeoff,
0.339217321112315,36.9100308304542,5401.2294303853,0,0,0.061041996704,1700,2017-11-08 08:25:33,12,15.499,5401.2294303853,0,0,0.061041996704,106.5, -3.5, 0.7,0,0,1024,1024,1024,1024,107.4,-3.3,53,3.879,3.881,3.881,3.88,0,0,103.91,10,Assisted_Takeoff,
0.339217324859263,36.9100308383147,5401.2294303853,0,0,0.063163715932,1800,2017-11-08 08:25:33,12,15.499,5401.2294303853,0,0,0.063163715932,106.5, -3.5, 0.7,0,0,1024,1024,1024,1024,107.3,-3.3,53,3.879,3.881,3.881,3.88,0,0,103.91,10,Assisted_Takeoff,
0.339217321753006,36.9100308462276,5401.2294303853,0,0,0.063027232988,1900,2017-11-08 08:25:33,12,15.499,5401.2294303853,0,0,0.063163715932,106.5, -3.6, 0.7,0,0,1024,1024,1127,1024,107.2,-3.3,53,3.879,3.881,3.881,3.88,0,0,103.91,10,Assisted_Takeoff,
0.339217318954423,36.9100308486868,5401.2294303853,0,0,0.062392390448,2000,2017-11-08 08:25:33,12,15.499,5401.2294303853,0,0,0.063163715932,106.5, -3.5, 0.7,0,0,1024,1024,1282,1024,107.1,-3.3,53,3.879,3.881,3.881,3.88,0,0,103.91,10,Assisted_Takeoff,
0.33921735310208,36.9100308531298,5401.2294303853,0,0,0.074645015512,2100,2017-11-08 08:25:33,12,15.499,5401.2294303853,0,0,0.074645015512,106.5, -3.5, 0.7,0,0,1024,1024,1368,1024,107.1,-3.3,53,3.879,3.881,3.881,3.88,0,0,103.91,10,Assisted_Takeoff,
0.339217376458038,36.9100308523108,5401.2294303853,0,0,0.08265748296,2200,2017-11-08 08:25:33,12,15.499,5401.2294303853,0,0,0.08265748296,106.5, -3.5, 0.7,0,0,1024,1024,1382,1024,107.1,-3.3,53,3.879,3.881,3.881,3.88,0,0,103.91,10,Assisted_Takeoff,
0.339217392412921,36.9100308542797,5401.2294303853,0,0,0.088440947712,2300,2017-11-08 08:25:34,12,15.499,5401.2294303853,0,0,0.088440947712,106.5, -3.5, 0.7,0,0,1024,1024,1387,1024,107,-3.3,53,3.879,3.881,3.881,3.88,0,0,103.91,10,Assisted_Takeoff,
0.339217400800222,36.9100308542379,5401.2294303853,0,0,0.09137795568,2400,2017-11-08 08:25:34,12,15.445,5401.2294303853,0,0,0.09137795568,106.4, -3.5, 0.7,0,0,1024,1024,1386,1024,107,-3.3,53,3.87,3.871,3.869,3.873,0,0,103.91,10,Assisted_Takeoff,
0.339217404893825,36.9100308634998,5401.2294303853,0,0,0.093775921636,2500,2017-11-08 08:25:34,12,15.445,5401.2294303853,0,0,0.093775921636,106.5, -3.1, 0.6,0,0,1024,1024,1386,1024,107,-3.3,53,3.87,3.871,3.869,3.873,0,0,103.91,10,Assisted_Takeoff,
0.339217399919539,36.9100309182126,5401.2294303853,0,0,0.099980974328,2600,2017-11-08 08:25:34,12,15.445,5401.2294303853,0,0,0.099980974328,106.5, -1.2, 0.6,0,0,1024,1024,1385,1024,106.9,-3.3,53,3.87,3.871,3.869,3.873,0,0,103.91,10,Assisted_Takeoff,
0.339217382527452,36.9100310203065,5401.2294303853,0,0.223694,0.117891736056,2700,2017-11-08 08:25:34,12,15.445,5401.2294303853,0,0.223694,0.117891736056,106.6, -0.1, 1,0,0,1024,1024,1395,1024,106.9,-3.3,53,3.87,3.871,3.869,3.873,0,0,103.91,6,GPS_Atti,Obstacle Avoided. Revise Flight Route
0.339217351256849,36.9100311292844,5401.2294303853,0,0.223694,0.143335962592,2800,2017-11-08 08:25:34,12,15.445,5401.2294303853,0,0.223694,0.143335962592,106.7, 0.7, 1,0,0,1024,1024,1408,1024,106.9,-3.3,53,3.87,3.871,3.869,3.873,0,0,103.91,6,GPS_Atti,
0.339217301614345,36.9100312440972,5401.2294303853,0,0.223694,0.174876646016,2900,2017-11-08 08:25:34,12,15.445,5401.2294303853,0,0.223694,0.174876646016,106.7, 2.1, -0.4,0,0,1024,1024,1398,1024,106.9,-3.3,53,3.87,3.871,3.869,3.873,0,0,103.91,6,GPS_Atti,
0.339217270523074,36.9100313308117,5401.5575143853,0.328084,0,0.2027477099,3000,2017-11-08 08:25:34,12,15.445,5401.5575143853,0.328084,0.223694,0.2027477099,106.6, 3.7, -1.1,0,0,1024,1024,1390,1024,106.9,-3.3,53,3.87,3.871,3.869,3.873,0,0,103.91,6,GPS_Atti,
0.339217283739933,36.9100313502273,5401.8855983853,0.656168,0,0.210676515928,3100,2017-11-08 08:25:34,12,15.445,5401.8855983853,0.656168,0.223694,0.210676515928,106.7, 2.8, -0.2,0,0,1024,1024,1390,1024,106.9,-3.4,53,3.87,3.871,3.869,3.873,0,0,103.91,6,GPS_Atti,
0.339217348488494,36.9100312914077,5402.5417663853,1.312336,0,0.196746397372,3200,2017-11-08 08:25:34,12,15.445,5402.5417663853,1.312336,0.223694,0.210676515928,106.7, 0.4, 0.5,0,0,1024,1024,1387,1024,106.9,-3.3,53,3.87,3.871,3.869,3.873,0,0,103.91,6,GPS_Atti,
0.339217445661819,36.910031219594,5402.8698503853,1.64042,0.223694,0.189414048056,3300,2017-11-08 08:25:35,12,15.445,5402.8698503853,1.64042,0.223694,0.210676515928,106.7, -1.1, 0.7,0,0,1024,1024,1386,1024,106.9,-3.3,53,3.87,3.871,3.869,3.873,0,0,103.91,6,GPS_Atti,
0.33921753690374,36.9100311426885,5403.5260183853,2.296588,0,0.189331042804,3400,2017-11-08 08:25:35,12,15.258,5403.5260183853,2.296588,0.223694,0.210676515928,106.7, -1.9, 0.9,0,0,1024,1024,1380,1024,106.9,-3.3,53,3.824,3.831,3.829,3.821,0,0,103.91,6,GPS_Atti,
0.339217690713939,36.9100310733201,5404.1821863853,2.952756,0,0.22022146374,3500,2017-11-08 08:25:35,12,15.258,5404.1821863853,2.952756,0.223694,0.22022146374,106.7, -1.8, 1,0,0,1024,1024,1365,1024,106.9,-3.3,53,3.824,3.831,3.829,3.821,0,0,103.91,6,GPS_Atti,Home Point Recorded. RTH Altitude:  30m.
0.339217806567145,36.9100310240236,5404.8383543853,3.608924,0,0.251430126156,3600,2017-11-08 08:25:35,12,15.258,5404.8383543853,3.608924,0.223694,0.251430126156,106.8, -1.7, 1.2,0,0,1024,1024,1366,1024,106.9,-3.3,53,3.824,3.831,3.829,3.821,0,0,103.91,6,GPS_Atti,
0.339217906609177,36.9100310195335,5405.4945223853,4.265092,0,0.285473762416,3700,2017-11-08 08:25:35,12,15.258,5405.4945223853,4.265092,0.223694,0.285473762416,106.8, -1.5, 1,0,0,1024,1024,1380,1024,106.9,-3.3,53,3.824,3.831,3.829,3.821,0,0,103.91,6,GPS_Atti,
0.339217975038225,36.9100310205377,5406.1506903853,4.92126,0,0.309495416728,3800,2017-11-08 08:25:35,12,15.258,5406.1506903853,4.92126,0.223694,0.309495416728,106.7, -1.6, 0.8,0,0,1024,1024,1380,1024,106.9,-3.3,53,3.824,3.831,3.829,3.821,0,0,103.91,6,GPS_Atti,
0.339217999307537,36.910031120788,5407.1349423853,5.905512,0,0.32973426252,3900,2017-11-08 08:25:35,12,15.258,5407.1349423853,5.905512,0.223694,0.32973426252,106.7, -1.2, 0.3,0,0,1024,1024,1380,1024,106.9,-3.3,53,3.824,3.831,3.829,3.821,0,0,103.91,6,GPS_Atti,
0.339218016249258,36.9100312155782,5407.7911103853,6.56168,0,0.34955381696,4000,2017-11-08 08:25:35,12,15.258,5407.7911103853,6.56168,0.223694,0.34955381696,106.7, -0.3, 0,0,0,1024,1024,1389,1024,106.9,-3.3,53,3.824,3.831,3.829,3.821,0,0,103.91,6,GPS_Atti,
0.339218045621706,36.910031316701,5408.4472783853,7.217848,0,0.376722453,4100,2017-11-08 08:25:35,12,15.258,5408.4472783853,7.217848,0.223694,0.376722453,106.7, 0.1, 0.6,0,0,1024,1024,1398,1024,106.9,-3.3,53,3.824,3.831,3.829,3.821,0,0,103.91,6,GPS_Atti,
0.339218074861435,36.9100313963548,5409.1034463853,7.874016,0,0.40127625956,4200,2017-11-08 08:25:35,12,15.258,5409.1034463853,7.874016,0.223694,0.40127625956,106.7, 0, 0.8,0,0,1024,1024,1399,1024,106.9,-3.5,53,3.824,3.831,3.829,3.821,0,0,103.91,6,GPS_Atti,
0.339218118583935,36.9100315140476,5409.7596143853,8.530184,0,0.4391896466,4300,2017-11-08 08:25:36,12,15.258,5409.7596143853,8.530184,0.223694,0.4391896466,106.6, -0.1, 0.6,0,0,1024,1024,1399,1024,106.9,-3.5,53,3.824,3.831,3.829,3.821,0,0,103.91,6,GPS_Atti,
0.33921815089145,36.9100316063282,5410.4157823853,9.186352,0,0.46934712788,4400,2017-11-08 08:25:36,12,15.125,5410.4157823853,9.186352,0.223694,0.46934712788,106.6, 0, 0.2,0,0,1024,1024,1398,1024,106.9,-3.9,53,3.824,3.831,3.829,3.821,0,0,103.91,6,GPS_Atti,
0.339218207333319,36.9100317250135,5411.4000343853,10.170604,0,0.51321523952,4500,2017-11-08 08:25:36,12,15.125,5411.4000343853,10.170604,0.223694,0.51321523952,106.7, -0.1, 0.3,0,0,1024,1024,1399,1024,106.9,-4.6,53,3.824,3.831,3.829,3.821,0,0,103.91,6,GPS_Atti,
0.339218261926497,36.9100318185478,5412.0562023853,10.826772,0,0.55095802288,4600,2017-11-08 08:25:36,12,15.125,5412.0562023853,10.826772,0.223694,0.55095802288,106.7, 0.1, 0.5,0,0,1024,1024,1397,1024,106.9,-5.3,53,3.824,3.831,3.829,3.821,0,0,103.91,6,GPS_Atti,
0.339218296007387,36.91003188382,5412.7123703853,11.48294,0,0.57638125204,4700,2017-11-08 08:25:36,12,15.125,5412.7123703853,11.48294,0.223694,0.57638125204,106.7, 0.5, 0.8,0,0,1024,1024,1399,1024,106.9,-5.9,53,3.824,3.831,3.829,3.821,0,0,103.91,6,GPS_Atti,
0.339218328750103,36.9100318986876,5413.3685383853,12.139108,0.223694,0.58875658052,4800,2017-11-08 08:25:36,12,15.125,5413.3685383853,12.139108,0.223694,0.58875658052,106.7, 0, 1,0,0,1024,1024,1397,1024,106.9,-6.6,53,3.824,3.831,3.829,3.821,0,0,103.91,6,GPS_Atti,
0.339218402187839,36.9100318242188,5414.0247063853,12.795276,0.223694,0.59067259108,4900,2017-11-08 08:25:36,12,15.125,5414.0247063853,12.795276,0.223694,0.59067259108,106.6, -1.3, 0.8,0,0,1024,1024,1396,1024,106.9,-7.3,53,3.824,3.831,3.829,3.821,0,0,103.91,6,GPS_Atti,
0.339218435796887,36.9100317300089,5415.0089583853,13.779528,0.223694,0.57905841748,5000,2017-11-08 08:25:36,12,15.125,5415.0089583853,13.779528,0.223694,0.59067259108,106.6, -2.8, 0,0,0,1024,1024,1397,1024,106.9,-8,53,3.824,3.831,3.829,3.821,0,0,103.91,6,GPS_Atti,
0.33921844416485,36.9100316408834,5415.6651263853,14.435696,0,0.56287403376,5100,2017-11-08 08:25:36,12,15.125,5415.6651263853,14.435696,0.223694,0.59067259108,106.7, -2.8, -1,0,0,1024,1024,1398,1024,106.9,-8.6,53,3.824,3.831,3.829,3.821,0,0,103.91,6,GPS_Atti,
0.339218432313238,36.9100315809568,5416.3212943853,15.091864,0,0.54738846896,5200,2017-11-08 08:25:36,12,15.125,5416.3212943853,15.091864,0.223694,0.59067259108,106.7, -2.3, -1.4,0,0,1024,1024,1398,1024,106.9,-9.3,53,3.824,3.831,3.829,3.821,0,0,103.91,6,GPS_Atti,
0.33921841954522,36.9100315418354,5416.9774623853,15.748032,0.223694,0.53596458408,5300,2017-11-08 08:25:37,12,15.125,5416.9774623853,15.748032,0.223694,0.59067259108,106.6, -2, -1,0,0,1024,1024,1398,1024,106.9,-10,53,3.824,3.831,3.829,3.821,0,0,103.91,6,GPS_Atti,
0.339218408692251,36.9100314915154,5417.6336303853,16.4042,0.223694,0.52330710336,5400,2017-11-08 08:25:37,12,15.178,5417.6336303853,16.4042,0.223694,0.59067259108,106.5, -2.1, -1.3,0,0,1024,1024,1395,1024,106.9,-10.6,53,3.813,3.821,3.819,3.813,0,0,103.91,6,GPS_Atti,
0.339218424402257,36.9100314410145,5418.6178823853,17.388452,0.223694,0.51958006912,5500,2017-11-08 08:25:37,12,15.178,5418.6178823853,17.388452,0.223694,0.59067259108,106.6, -2.5, -1.1,0,0,1024,1024,1398,1024,106.9,-11.3,53,3.813,3.821,3.819,3.813,0,0,103.91,6,GPS_Atti,
0.339218438284743,36.910031390444,5419.2740503853,18.04462,0.223694,0.51593505588,5600,2017-11-08 08:25:37,12,15.178,5419.2740503853,18.04462,0.223694,0.59067259108,106.6, -2.7, -1.3,0,0,1024,1024,1400,1024,106.9,-11.3,53,3.813,3.821,3.819,3.813,0,0,103.91,6,GPS_Atti,
0.339218495713856,36.9100313042776,5419.9302183853,18.700788,0.223694,0.5227854498,5700,2017-11-08 08:25:37,12,15.178,5419.9302183853,18.700788,0.223694,0.59067259108,106.5, -2.7, -1.9,0,0,1024,1024,1407,1024,106.9,-11.9,53,3.813,3.821,3.819,3.813,0,0,103.91,6,GPS_Atti,
0.339218547329424,36.9100312307038,5420.5863863853,19.356956,0.223694,0.5315945052,5800,2017-11-08 08:25:37,12,15.178,5420.5863863853,19.356956,0.223694,0.59067259108,106.5, -3, -1.7,0,0,1024,1024,1407,1024,106.9,-12.6,53,3.813,3.821,3.819,3.813,0,0,103.91,6,GPS_Atti,
0.339218597558982,36.9100311654991,5421.5706383853,20.341208,0.223694,0.54252626408,5900,2017-11-08 08:25:37,12,15.178,5421.5706383853,20.341208,0.223694,0.59067259108,106.4, -3, -1.8,0,0,1024,1024,1405,1024,106.9,-13.9,53,3.813,3.821,3.819,3.813,0,0,103.91,6,GPS_Atti,
0.339218725557734,36.9100310479198,5422.8829743853,21.653544,0.223694,0.57920605528,6100,2017-11-08 08:25:37,12,15.178,5422.8829743853,21.653544,0.223694,0.59067259108,106.3, -4, -1.9,0,0,1024,1024,1405,1024,106.9,-14.5,53,3.813,3.821,3.819,3.813,0,0,103.91,6,GPS_Atti,
0.33921880318912,36.9100310119,5423.5391423853,22.309712,0,0.605232959,6200,2017-11-08 08:25:37,12,15.178,5423.5391423853,22.309712,0.223694,0.605232959,106.3, -4.5, -2,0,0,1024,1024,1406,1024,106.9,-15.2,53,3.813,3.821,3.819,3.813,0,0,103.91,6,GPS_Atti,
0.339218893652237,36.9100310087545,5424.5233943853,23.293964,0,0.63780185768,6300,2017-11-08 08:25:38,12,15.178,5424.5233943853,23.293964,0.223694,0.63780185768,106.4, -4.3, -1.9,0,0,1024,1024,1400,1024,106.8,-15.8,53,3.813,3.821,3.819,3.813,0,0,103.91,6,GPS_Atti,
0.339218985710619,36.9100310326453,5425.1795623853,23.950132,0,0.67223755432,6400,2017-11-08 08:25:38,12,15.151,5425.1795623853,23.950132,0.223694,0.67223755432,106.4, -4.1, -1.5,0,0,1024,1024,1398,1024,106.8,-16.5,53,3.807,3.816,3.815,3.808,0,0,103.91,6,GPS_Atti,
0.339219068850827,36.9100311075573,5425.8357303853,24.6063,0,0.70632876276,6500,2017-11-08 08:25:38,12,15.151,5425.8357303853,24.6063,0.223694,0.70632876276,106.4, -3.8, -1.3,0,0,1024,1024,1396,1024,106.8,-17.1,53,3.807,3.816,3.815,3.808,0,0,103.91,6,GPS_Atti,
0.339219139013558,36.9100311954206,5426.8199823853,25.590552,0,0.7374015984,6600,2017-11-08 08:25:38,12,15.151,5426.8199823853,25.590552,0.223694,0.7374015984,106.5, -3.3, -1.3,0,0,1024,1024,1395,1024,106.8,-17.8,53,3.807,3.816,3.815,3.808,0,0,103.91,6,GPS_Atti,
0.339219220019283,36.9100312768463,5427.4761503853,26.24672,0,0.7727034368,6700,2017-11-08 08:25:38,12,15.151,5427.4761503853,26.24672,0.223694,0.7727034368,106.5, -3.3, -1.3,0,0,1024,1024,1394,1024,106.8,-18.4,53,3.807,3.816,3.815,3.808,0,0,103.91,6,GPS_Atti,
0.339219284632684,36.9100313701868,5428.1323183853,26.902888,0,0.8040026504,6800,2017-11-08 08:25:38,12,15.151,5428.1323183853,26.902888,0.223694,0.8040026504,106.6, -3.5, -1.3,0,0,1024,1024,1394,1024,106.8,-19,53,3.807,3.816,3.815,3.808,0,0,103.91,6,GPS_Atti,
0.339219314095714,36.9100315075511,5429.1165703853,27.88714,0,0.82889438348,6900,2017-11-08 08:25:38,12,15.151,5429.1165703853,27.88714,0.223694,0.82889438348,106.5, -3.6, -0.8,0,0,1024,1024,1391,1024,106.8,-19.7,53,3.807,3.816,3.815,3.808,0,0,103.91,6,GPS_Atti,
0.339219317118921,36.9100316609157,5429.7727383853,28.543308,0,0.8493438592,7000,2017-11-08 08:25:38,12,15.151,5429.7727383853,28.543308,0.223694,0.8493438592,106.4, -3, -0.9,0,0,1024,1024,1391,1024,106.8,-20.3,53,3.807,3.816,3.815,3.808,0,0,103.91,6,GPS_Atti,
0.339219281858223,36.9100318736395,5430.4289063853,29.199476,0.223694,0.86997378112,7100,2017-11-08 08:25:38,12,15.151,5430.4289063853,29.199476,0.223694,0.86997378112,106.5, -2.1, -2.3,0,0,1024,1024,1392,1024,106.8,-20.3,53,3.807,3.816,3.815,3.808,0,0,103.91,6,GPS_Atti,
0.339219237880261,36.9100320805638,5431.0850743853,29.855644,0.223694,0.89323493672,7200,2017-11-08 08:25:38,12,15.151,5431.0850743853,29.855644,0.223694,0.89323493672,106.5, -1.6, -3.2,0,0,1024,1024,1392,1024,106.8,-20.9,53,3.807,3.816,3.815,3.808,0,0,103.91,6,GPS_Atti,
0.339219210604638,36.9100322572368,5431.7412423853,30.511812,0.223694,0.9208169586,7300,2017-11-08 08:25:39,12,15.151,5431.7412423853,30.511812,0.223694,0.9208169586,106.5, -1.6, -2.6,0,0,1024,1024,1391,1024,106.8,-21.4,53,3.807,3.816,3.815,3.808,0,0,103.91,6,GPS_Atti,
0.339219206288854,36.9100324362683,5432.3974103853,31.16798,0.223694,0.95913060812,7400,2017-11-08 08:25:39,12,15.178,5432.3974103853,31.16798,0.223694,0.95913060812,106.4, -1.2, -2.1,0,0,1024,1024,1376,1024,106.8,-21.6,53,3.805,3.814,3.813,3.808,0,0,103.91,6,GPS_Atti,
0.339219195480057,36.9100326325229,5433.0535783853,31.824148,0,1.0026903208,7500,2017-11-08 08:25:39,12,15.178,5433.0535783853,31.824148,0.223694,1.0026903208,106.5, -0.8, -2.2,0,0,1024,1024,1375,1024,106.8,-21.7,53,3.805,3.814,3.813,3.808,0,0,103.91,6,GPS_Atti,
0.339219205213674,36.9100328006384,5434.0378303853,32.8084,0.223694,1.04741145084,7600,2017-11-08 08:25:39,12,15.178,5434.0378303853,32.8084,0.223694,1.04741145084,106.5, -0.8, -2.6,0,0,1024,1024,1384,1024,106.8,-21.8,53,3.805,3.814,3.813,3.808,0,0,103.91,6,GPS_Atti,
0.339219249192247,36.9100329154373,5434.6939983853,33.464568,0.223694,1.08839242328,7700,2017-11-08 08:25:39,12,15.178,5434.6939983853,33.464568,0.223694,1.08839242328,106.6, -1.1, -2.6,0,0,1024,1024,1387,1024,106.8,-21.9,53,3.805,3.814,3.813,3.808,0,0,103.91,6,GPS_Atti,
0.339219328408312,36.9100330189616,5435.3501663853,34.120736,0,1.13560699172,7800,2017-11-08 08:25:39,12,15.178,5435.3501663853,34.120736,0.223694,1.13560699172,106.7, -1.3, -1.6,0,0,1024,1024,1382,1024,106.8,-21.9,53,3.805,3.814,3.813,3.808,0,0,103.91,6,GPS_Atti,
0.339219441578249,36.9100331078376,5436.0063343853,34.776904,0,1.18765751832,7900,2017-11-08 08:25:39,12,15.178,5436.0063343853,34.776904,0.223694,1.18765751832,106.9, -1.1, -0.5,0,0,1024,1024,1380,1024,106.8,-21.9,53,3.805,3.814,3.813,3.808,0,0,103.91,6,GPS_Atti,
0.339219527690775,36.910033174886,5436.6625023853,35.433072,0.223694,1.22713586604,8000,2017-11-08 08:25:39,12,15.178,5436.6625023853,35.433072,0.223694,1.22713586604,107, -1.3, 0,0,0,1024,1024,1388,1024,106.8,-21.9,53,3.805,3.814,3.813,3.808,0,0,103.91,6,GPS_Atti,
0.339219574203613,36.9100331904228,5437.3186703853,36.08924,0.223694,1.24313652272,8100,2017-11-08 08:25:39,12,15.178,5437.3186703853,36.08924,0.223694,1.24313652272,106.8, -2, -2.1,0,0,1024,1024,1389,1024,106.8,-21.9,53,3.805,3.814,3.813,3.808,0,0,103.91,6,GPS_Atti,
0.339219564840875,36.9100331941078,5437.9748383853,36.745408,0.223694,1.24166998724,8200,2017-11-08 08:25:39,12,15.178,5437.9748383853,36.745408,0.223694,1.24313652272,106.7, -1.5, -4.6,0,0,1024,1024,1389,1024,106.8,-22,53,3.805,3.814,3.813,3.808,0,0,103.91,6,GPS_Atti,
0.339219546728099,36.9100331681165,5438.6310063853,37.401576,0,1.23029203412,8300,2017-11-08 08:25:40,12,15.178,5438.6310063853,37.401576,0.223694,1.24313652272,106.5, -0.6, -5.9,0,0,1024,1024,1389,1024,106.8,-22.3,53,3.805,3.814,3.813,3.808,0,0,103.91,6,GPS_Atti,
0.339219588867752,36.9100331132689,5439.6152583853,38.385828,0,1.2272966272,8400,2017-11-08 08:25:40,12,15.151,5439.6152583853,38.385828,0.223694,1.24313652272,106.5, -1.4, -5.3,0,0,1024,1024,1389,1023,106.8,-22.5,53,3.805,3.814,3.813,3.808,0,0,103.91,6,GPS_Atti,
0.339219804832809,36.9100328368466,5440.9275943853,39.698164,0,1.22108927792,8600,2017-11-08 08:25:40,12,15.151,5440.9275943853,39.698164,0.223694,1.24313652272,106.5, -2.9, -3.2,0,0,1024,1024,1381,963,106.8,-22.7,53,3.805,3.814,3.813,3.808,0,0,103.91,6,GPS_Atti,
0.339219928559134,36.910032715744,5441.5837623853,40.354332,0,1.23128612864,8700,2017-11-08 08:25:40,12,15.151,5441.5837623853,40.354332,0.223694,1.24313652272,106.5, -3, -3.4,0,0,1024,1024,1375,883,106.8,-23,53,3.805,3.814,3.813,3.808,0,0,103.91,6,GPS_Atti,
0.33922005082678,36.9100325778808,5442.2399303853,41.0105,0,1.24092523656,8800,2017-11-08 08:25:40,12,15.151,5442.2399303853,41.0105,0.223694,1.24313652272,106.2, -3.1, -4.1,0,0,1024,1024,1369,805,106.4,-23.2,53,3.805,3.814,3.813,3.808,0,0,103.91,6,GPS_Atti,
0.339220188602913,36.9100323759327,5443.2241823853,41.994752,0,1.24802825516,8900,2017-11-08 08:25:40,12,15.151,5443.2241823853,41.994752,0.223694,1.24802825516,104.8, -3.5, -4.2,0,0,1024,1024,1364,811,105.3,-23.5,53,3.805,3.814,3.813,3.808,0,0,103.91,6,GPS_Atti,
0.339220357732292,36.9100321764803,5443.8803503853,42.65092,0.223694,1.2722605394,9000,2017-11-08 08:25:40,12,15.151,5443.8803503853,42.65092,0.223694,1.2722605394,102, -4.6, -3.2,0,0,1024,1024,1362,813,103.8,-23.7,53,3.805,3.814,3.813,3.808,0,0,103.91,6,GPS_Atti,
0.339220606119262,36.9100319298715,5444.5365183853,43.307088,0.223694,1.32482615788,9100,2017-11-08 08:25:40,12,15.151,5444.5365183853,43.307088,0.223694,1.32482615788,98.7, -5.1, -2.5,0,0,1024,1024,1360,831,102.1,-23.9,53,3.805,3.814,3.813,3.808,0,0,103.91,6,GPS_Atti,
0.33922082417687,36.9100317165577,5445.1926863853,43.963256,0.223694,1.37937668456,9200,2017-11-08 08:25:40,12,15.151,5445.1926863853,43.963256,0.223694,1.37937668456,95.5, -5.3, -2.5,0,0,1024,1024,1366,908,100,-24.2,53,3.805,3.814,3.813,3.808,0,0,103.91,6,GPS_Atti,
0.339221018614712,36.9100315015439,5445.8488543853,44.619424,0,1.43188652876,9300,2017-11-08 08:25:41,12,15.151,5445.8488543853,44.619424,0.223694,1.43188652876,92.5, -5.2, -2.5,0,0,1024,1024,1372,954,97.8,-24.4,53,3.805,3.814,3.813,3.808,0,0,103.91,6,GPS_Atti,
0.339221212406875,36.9100313192855,5446.5050223853,45.275592,0,1.49134519208,9400,2017-11-08 08:25:41,12,15.151,5446.5050223853,45.275592,0.223694,1.49134519208,90.5, -4.9, -2.1,0,0,1024,1024,1372,984,96,-24.7,52,3.803,3.811,3.81,3.804,0,0,103.91,6,GPS_Atti,
0.33922141648022,36.9100311801697,5447.1611903853,45.93176,0.223694,1.55970149348,9500,2017-11-08 08:25:41,12,15.151,5447.1611903853,45.93176,0.223694,1.55970149348,89.5, -5, -1.5,0,0,1024,1024,1372,984,96,-24.7,52,3.803,3.811,3.81,3.804,0,0,103.91,6,GPS_Atti,
0.339221614434279,36.9100310440441,5447.8173583853,46.587928,0.223694,1.62800858228,9600,2017-11-08 08:25:41,12,15.151,5447.8173583853,46.587928,0.223694,1.62800858228,88.9, -5.3, -1.3,0,0,1024,1024,1389,1024,93.7,-25.1,52,3.803,3.811,3.81,3.804,0,0,103.91,6,GPS_Atti,
0.33922180694445,36.9100308900404,5448.4735263853,47.244096,0.31540854,1.695948217,9700,2017-11-08 08:25:41,12,15.151,5448.4735263853,47.244096,0.31540854,1.695948217,88.7, -5.3, -1.4,0,0,1024,1024,1396,1024,93.7,-25.1,52,3.803,3.811,3.81,3.804,0,0,103.91,6,GPS_Atti,
0.339221999927685,36.9100307557852,5449.1296943853,47.900264,0.223694,1.76597118512,9800,2017-11-08 08:25:41,12,15.151,5449.1296943853,47.900264,0.31540854,1.76597118512,88.7, -5.3, -0.6,0,0,1024,1024,1397,1023,92.6,-25.5,52,3.803,3.811,3.81,3.804,0,0,103.91,6,GPS_Atti,
0.339222238461754,36.9100306247215,5449.7858623853,48.556432,0.223694,1.85390097796,9900,2017-11-08 08:25:41,12,15.151,5449.7858623853,48.556432,0.31540854,1.85390097796,88.7, -5.2, 0,0,0,1024,1024,1399,1024,92.6,-25.5,52,3.803,3.811,3.81,3.804,0,0,103.91,6,GPS_Atti,
0.339222438678536,36.9100305136344,5450.4420303853,49.2126,0,1.92857945804,10000,2017-11-08 08:25:41,12,15.151,5450.4420303853,49.2126,0.31540854,1.92857945804,88.7, -5.4, 0.1,0,0,1024,1024,1398,1024,92.3,-25.6,52,3.803,3.811,3.81,3.804,0,0,103.91,6,GPS_Atti,
0.339222613377601,36.9100303553739,5451.0981983853,49.868768,0,1.99595478828,10100,2017-11-08 08:25:41,12,15.151,5451.0981983853,49.868768,0.31540854,1.99595478828,88.7, -5.8, 0,0,0,1024,1024,1391,1024,92.1,-25.8,52,3.803,3.811,3.81,3.804,0,0,103.91,6,GPS_Atti,
0.339222746500048,36.9100302309652,5451.7543663853,50.524936,0,2.04836620728,10200,2017-11-08 08:25:41,12,15.151,5451.7543663853,50.524936,0.31540854,2.04836620728,88.7, -6.2, -0.3,0,0,1024,1024,1389,1024,91.9,-26,52,3.803,3.811,3.81,3.804,0,0,103.91,6,GPS_Atti,
0.339222881829444,36.9100301322951,5452.7386183853,51.509188,0,2.10128615648,10300,2017-11-08 08:25:42,12,15.151,5452.7386183853,51.509188,0.31540854,2.10128615648,88.8, -6.3, -0.6,0,0,1024,1024,1387,1024,91.7,-26.2,52,3.803,3.811,3.81,3.804,0,0,103.91,6,GPS_Atti,
0.339222982071571,36.9100300697583,5453.3947863853,52.165356,0,2.14029534408,10400,2017-11-08 08:25:42,12,15.125,5453.3947863853,52.165356,0.31540854,2.14029534408,88.8, -6.3, -1.1,0,0,1024,1024,1387,1024,91.6,-26.4,52,3.794,3.803,3.803,3.798,0,0,103.91,6,GPS_Atti,
0.33922308693278,36.9100299824068,5454.0509543853,52.821524,0,2.18232618532,10500,2017-11-08 08:25:42,12,15.125,5454.0509543853,52.821524,0.31540854,2.18232618532,88.8, -6.1, -1.2,0,0,1024,1024,1389,1024,91.4,-26.6,52,3.794,3.803,3.803,3.798,0,0,103.91,6,GPS_Atti,
0.339223179397458,36.910029936669,5455.0352063853,53.805776,0,2.21803156704,10600,2017-11-08 08:25:42,12,15.125,5455.0352063853,53.805776,0.31540854,2.21803156704,88.8, -5.7, -0.8,0,0,1024,1024,1394,1024,91.3,-26.8,52,3.794,3.803,3.803,3.798,0,0,103.91,6,GPS_Atti,
0.339223308520854,36.9100299106969,5455.6913743853,54.461944,0,2.26600400952,10700,2017-11-08 08:25:42,12,15.125,5455.6913743853,54.461944,0.31540854,2.26600400952,88.8, -5.6, -0.5,0,0,1024,1024,1398,1024,91.2,-27,52,3.794,3.803,3.803,3.798,0,0,103.91,6,GPS_Atti,
0.339223401211072,36.9100299082142,5456.3475423853,55.118112,0,2.29961621532,10800,2017-11-08 08:25:42,12,15.125,5456.3475423853,55.118112,0.31540854,2.29961621532,88.8, -5.6, -0.7,0,0,1024,1024,1397,1024,91.1,-27.2,52,3.794,3.803,3.803,3.798,0,0,103.91,6,GPS_Atti,
0.339223494967107,36.9100298950392,5457.0037103853,55.77428,0,2.33416017968,10900,2017-11-08 08:25:42,12,15.125,5457.0037103853,55.77428,0.31540854,2.33416017968,88.8, -5.3, -0.8,0,0,1024,1024,1398,1024,91,-27.4,52,3.794,3.803,3.803,3.798,0,0,103.91,6,GPS_Atti,
0.339223565577253,36.9100299098297,5457.9879623853,56.758532,0,2.35893380252,11000,2017-11-08 08:25:42,12,15.125,5457.9879623853,56.758532,0.31540854,2.35893380252,88.8, -5.2, -0.7,0,0,1024,1024,1395,1024,90.9,-27.6,52,3.794,3.803,3.803,3.798,0,0,103.91,6,GPS_Atti,
0.339223579419841,36.9100299285901,5458.6441303853,57.4147,0,2.36302172916,11100,2017-11-08 08:25:42,12,15.125,5458.6441303853,57.4147,0.31540854,2.36302172916,88.7, -5.2, -0.7,0,0,1024,1024,1395,1024,90.8,-27.8,52,3.794,3.803,3.803,3.798,0,0,103.91,6,GPS_Atti,
0.339223589823969,36.9100299693688,5459.6283823853,58.398952,0,2.36486556124,11200,2017-11-08 08:25:42,12,15.125,5459.6283823853,58.398952,0.31540854,2.36486556124,88.7, -5.2, -0.8,0,0,1024,1024,1395,1024,90.8,-28,52,3.794,3.803,3.803,3.798,0,0,103.91,6,GPS_Atti,
0.339223644045455,36.91002999795,5460.2845503853,59.05512,0,2.38320873768,11300,2017-11-08 08:25:43,12,15.125,5460.2845503853,59.05512,0.31540854,2.38320873768,88.7, -5, -0.6,0,0,1024,1024,1394,1024,90.8,-28,52,3.794,3.803,3.803,3.798,0,0,103.91,6,GPS_Atti,
0.339223683362607,36.9100300474574,5460.9407183853,59.711288,0,2.39535112652,11400,2017-11-08 08:25:43,12,15.125,5460.9407183853,59.711288,0.31540854,2.39535112652,88.7, -4.8, -0.5,0,0,1024,1024,1394,1024,90.7,-28.2,52,3.794,3.803,3.803,3.798,0,0,103.91,6,GPS_Atti,
0.339223727077372,36.9100301041979,5461.5968863853,60.367456,0,2.4089731742,11500,2017-11-08 08:25:43,12,15.125,5461.5968863853,60.367456,0.31540854,2.4089731742,88.7, -4.7, -0.6,0,0,1024,1024,1394,1024,90.6,-28.3,52,3.794,3.803,3.803,3.798,0,0,103.91,6,GPS_Atti,
0.339223746490867,36.9100301742911,5462.2530543853,61.023624,0.223694,2.4135171376,11600,2017-11-08 08:25:43,12,15.125,5462.2530543853,61.023624,0.31540854,2.4135171376,88.7, -4.6, -1,0,0,1024,1024,1394,1024,90.6,-28.5,52,3.794,3.803,3.803,3.798,0,0,103.91,6,GPS_Atti,
0.339223742084297,36.9100302374038,5462.9092223853,61.679792,0.223694,2.40989509024,11700,2017-11-08 08:25:43,12,15.125,5462.9092223853,61.679792,0.31540854,2.4135171376,88.7, -4.3, -1,0,0,1024,1024,1396,1024,90.5,-28.7,52,3.794,3.803,3.803,3.798,0,0,103.91,6,GPS_Atti,
0.339223737228277,36.9100303130086,5463.8934743853,62.664044,0.223694,2.40599089064,11800,2017-11-08 08:25:43,12,15.125,5463.8934743853,62.664044,0.31540854,2.4135171376,88.7, -3.9, -0.8,0,0,1024,1024,1397,1024,90.4,-28.9,52,3.794,3.803,3.803,3.798,0,0,103.91,6,GPS_Atti,
0.339223726198012,36.910030362319,5464.5496423853,63.320212,0,2.40075138916,11900,2017-11-08 08:25:43,12,15.125,5464.5496423853,63.320212,0.31540854,2.4135171376,88.7, -4, -0.6,0,0,1024,1024,1390,1024,90.4,-29.1,52,3.794,3.803,3.803,3.798,0,0,103.91,6,GPS_Atti,
0.339223706119297,36.9100304131379,5465.2058103853,63.97638,0,2.39231634952,12000,2017-11-08 08:25:43,12,15.125,5465.2058103853,63.97638,0.31540854,2.4135171376,88.7, -4.5, -1,0,0,1024,1024,1397,1024,90.3,-29.3,52,3.794,3.803,3.803,3.798,0,0,103.91,6,GPS_Atti,
0.339223687183751,36.9100304427779,5466.1900623853,64.960632,0,2.3848261918,12100,2017-11-08 08:25:43,12,15.125,5466.1900623853,64.960632,0.31540854,2.4135171376,88.8, -4.5, -1.4,0,0,1024,1024,1414,1024,90.3,-29.5,52,3.794,3.803,3.803,3.798,0,0,103.91,6,GPS_Atti,
0.33922367534822,36.9100304941332,5466.8462303853,65.6168,0.223694,2.37959981368,12200,2017-11-08 08:25:43,12,15.125,5466.8462303853,65.6168,0.31540854,2.4135171376,88.8, -4, -1.1,0,0,1024,1024,1414,1024,90.3,-29.7,52,3.794,3.803,3.803,3.798,0,0,103.91,6,GPS_Atti,
0.339223642471564,36.9100306160923,5467.5023983853,66.272968,0.223694,2.36603025944,12300,2017-11-08 08:25:44,12,15.125,5467.5023983853,66.272968,0.31540854,2.4135171376,88.7, -3.7, -0.8,0,0,1024,1024,1409,1024,90.2,-29.9,52,3.794,3.803,3.803,3.798,0,0,103.91,6,GPS_Atti,
0.339223610469382,36.9100307190941,5468.1585663853,66.929136,0,2.35366805432,12400,2017-11-08 08:25:44,12,15.125,5468.1585663853,66.929136,0.31540854,2.4135171376,88.8, -3.7, -0.8,0,0,1024,1024,1411,1024,90.2,-30.1,52,3.793,3.803,3.8,3.794,0,0,103.91,6,GPS_Atti,
0.339223547008106,36.91003078994,5469.1428183853,67.913388,0,2.33038721368,12500,2017-11-08 08:25:44,12,15.125,5469.1428183853,67.913388,0.31540854,2.4135171376,88.8, -4, -1,0,0,1024,1024,1411,1024,90.1,-30.3,52,3.793,3.803,3.8,3.794,0,0,103.91,6,GPS_Atti,
0.339223491652409,36.9100308559124,5470.1270703853,68.89764,0,2.31033143876,12600,2017-11-08 08:25:44,12,15.125,5470.1270703853,68.89764,0.31540854,2.4135171376,88.8, -4.1, -1.2,0,0,1024,1024,1411,1024,90.1,-30.5,52,3.793,3.803,3.8,3.794,0,0,103.91,6,GPS_Atti,
0.339223414570012,36.9100309399546,5470.7832383853,69.553808,0,2.28275597856,12700,2017-11-08 08:25:44,12,15.125,5470.7832383853,69.553808,0.31540854,2.4135171376,88.8, -4.1, -1.1,0,0,1024,1024,1411,1024,90.1,-30.5,52,3.793,3.803,3.8,3.794,0,0,103.91,6,GPS_Atti,
0.339223347518831,36.9100310179393,5471.4394063853,70.209976,0,2.259186424,12800,2017-11-08 08:25:44,12,15.125,5471.4394063853,70.209976,0.31540854,2.4135171376,88.8, -3.8, -1,0,0,1024,1024,1414,1024,90.1,-30.7,52,3.793,3.803,3.8,3.794,0,0,103.91,6,GPS_Atti,
0.339223264304528,36.9100311091536,5472.4236583853,71.194228,0,2.23035768292,12900,2017-11-08 08:25:44,12,15.125,5472.4236583853,71.194228,0.31540854,2.4135171376,88.8, -4, -1.3,0,0,1024,1024,1405,1024,90.1,-30.9,52,3.793,3.803,3.8,3.794,0,0,103.91,6,GPS_Atti,
0.339223178749337,36.9100311868814,5473.4079103853,72.17848,0,2.2008858972,13000,2017-11-08 08:25:44,12,15.125,5473.4079103853,72.17848,0.31540854,2.4135171376,88.8, -4.3, -1.8,0,0,1024,1024,1402,1024,90,-31.1,52,3.793,3.803,3.8,3.794,0,0,103.91,6,GPS_Atti,
0.33922305357329,36.9100312463177,5474.0640783853,72.834648,0,2.15689967532,13100,2017-11-08 08:25:44,12,15.125,5474.0640783853,72.834648,0.31540854,2.4135171376,88.8, -4.2, -2.4,0,0,1024,1024,1406,1024,90,-31.3,52,3.793,3.803,3.8,3.794,0,0,103.91,6,GPS_Atti,
0.339222949879676,36.9100313036384,5475.0483303853,73.8189,0,2.12094166892,13200,2017-11-08 08:25:44,12,15.125,5475.0483303853,73.8189,0.31540854,2.4135171376,88.8, -3.9, -2.5,0,0,1024,1024,1406,1024,90,-31.5,52,3.793,3.803,3.8,3.794,0,0,103.91,6,GPS_Atti,
0.33922284448678,36.910031384138,5475.7044983853,74.475068,0,2.08551187776,13300,2017-11-08 08:25:45,12,15.125,5475.7044983853,74.475068,0.31540854,2.4135171376,88.8, -3.3, -2.1,0,0,1024,1024,1406,1024,89.9,-31.7,52,3.793,3.803,3.8,3.794,0,0,103.91,6,GPS_Atti,
0.339222763613366,36.9100314401376,5476.6887503853,75.45932,0,2.05843838608,13400,2017-11-08 08:25:45,12,15.098,5476.6887503853,75.45932,0.31540854,2.4135171376,88.8, -3.5, -1.7,0,0,1024,1024,1406,1024,89.9,-31.9,52,3.789,3.799,3.797,3.791,0,0,103.91,6,GPS_Atti,
0.339222663600036,36.9100314662832,5477.3449183853,76.115488,0,2.02334652144,13500,2017-11-08 08:25:45,12,15.098,5477.3449183853,76.115488,0.31540854,2.4135171376,88.7, -3.7, -2,0,0,1024,1024,1406,1024,89.9,-32,52,3.789,3.799,3.797,3.791,0,0,103.91,6,GPS_Atti,
0.339222575793114,36.9100314733417,5478.3291703853,77.09974,0,1.99187670416,13600,2017-11-08 08:25:45,12,15.098,5478.3291703853,77.09974,0.31540854,2.4135171376,88.7, -3.7, -2.3,0,0,1024,1024,1406,1024,89.8,-32.3,52,3.789,3.799,3.797,3.791,0,0,103.91,6,GPS_Atti,
0.339222468868667,36.9100314692488,5478.9853383853,77.755908,0,1.95299218848,13700,2017-11-08 08:25:45,12,15.098,5478.9853383853,77.755908,0.31540854,2.4135171376,88.8, -4.1, -2.3,0,0,1024,1024,1415,1024,89.8,-32.6,52,3.789,3.799,3.797,3.791,0,0,103.91,6,GPS_Atti,
0.339222328215073,36.9100314155659,5480.6257583853,79.396328,0,1.8996391684,13900,2017-11-08 08:25:45,12,15.098,5480.6257583853,79.396328,0.31540854,2.4135171376,88.8, -4.6, -2.7,0,0,1024,1024,1413,1024,89.8,-32.8,52,3.789,3.799,3.797,3.791,0,0,103.91,6,GPS_Atti,
0.339222294260795,36.910031379377,5481.2819263853,80.052496,0,1.88578090024,14000,2017-11-08 08:25:45,12,15.098,5481.2819263853,80.052496,0.31540854,2.4135171376,88.8, -4.9, -2.8,0,0,1024,1024,1414,1024,89.7,-33,52,3.789,3.799,3.797,3.791,0,0,103.91,6,GPS_Atti,
0.339222253247619,36.9100313636293,5482.2661783853,81.036748,0,1.8702592462,14100,2017-11-08 08:25:45,12,15.098,5482.2661783853,81.036748,0.31540854,2.4135171376,88.8, -5.2, -2.4,0,0,1024,1024,1414,1024,89.7,-33.2,52,3.789,3.799,3.797,3.791,0,0,103.91,6,GPS_Atti,
0.339222243304747,36.9100313540238,5482.9223463853,81.692916,0,1.86626318308,14200,2017-11-08 08:25:45,12,15.098,5482.9223463853,81.692916,0.31540854,2.4135171376,88.8, -5.1, -2,0,0,1024,1024,1414,1024,89.7,-33.2,52,3.789,3.799,3.797,3.791,0,0,103.91,6,GPS_Atti,
0.339222235052607,36.9100313790933,5483.5785143853,82.349084,0,1.86431108328,14300,2017-11-08 08:25:46,12,15.125,5483.5785143853,82.349084,0.31540854,2.4135171376,88.8, -4.7, -1.7,0,0,1024,1024,1412,1024,89.7,-33.6,52,3.788,3.798,3.797,3.791,0,0,103.91,6,GPS_Atti,
0.339222239490117,36.9100314197499,5485.2189343853,83.989504,0,1.86769691016,14500,2017-11-08 08:25:46,12,15.125,5485.2189343853,83.989504,0.31540854,2.4135171376,88.8, -5, -1.3,0,0,1024,1024,1413,1024,89.7,-33.8,52,3.788,3.798,3.797,3.791,0,0,103.91,6,GPS_Atti,
0.339222249401641,36.9100314355683,5486.2031863853,84.973756,0,1.87200793392,14600,2017-11-08 08:25:46,12,15.125,5486.2031863853,84.973756,0.31540854,2.4135171376,88.8, -5.3, -1.1,0,0,1024,1024,1413,1024,89.7,-34,52,3.788,3.798,3.797,3.791,0,0,103.91,6,GPS_Atti,
0.339222241971865,36.9100314633882,5486.8593543853,85.629924,0,1.87062998112,14700,2017-11-08 08:25:46,12,15.125,5486.8593543853,85.629924,0.31540854,2.4135171376,88.8, -4.8, -1.1,0,0,1024,1024,1417,1024,89.7,-34,52,3.788,3.798,3.797,3.791,0,0,103.91,6,GPS_Atti,
0.33922225101665,36.9100314932412,5487.5155223853,86.286092,0,1.87536751408,14800,2017-11-08 08:25:46,12,15.125,5487.5155223853,86.286092,0.31540854,2.4135171376,88.8, -4.7, -0.9,0,0,1024,1024,1417,1024,89.6,-34.4,52,3.788,3.798,3.797,3.791,0,0,103.91,6,GPS_Atti,
0.339222228949606,36.9100315220483,5488.1716903853,86.94226,0,1.86887473172,14900,2017-11-08 08:25:46,12,15.125,5488.1716903853,86.94226,0.31540854,2.4135171376,88.8, -4.7, -1,0,0,1024,1024,1412,1024,89.6,-34.6,52,3.788,3.798,3.797,3.791,0,0,103.91,6,GPS_Atti,
0.339222219690273,36.9100315531004,5489.1559423853,87.926512,0,1.86719494164,15000,2017-11-08 08:25:46,12,15.125,5489.1559423853,87.926512,0.31540854,2.4135171376,88.8, -4.8, -1,0,0,1024,1024,1408,1024,89.6,-34.8,52,3.788,3.798,3.797,3.791,0,0,103.91,6,GPS_Atti,
0.339222189579122,36.9100315370198,5489.8121103853,88.58268,0,1.85545937696,15100,2017-11-08 08:25:46,12,15.125,5489.8121103853,88.58268,0.31540854,2.4135171376,88.8, -5, -1.2,0,0,1024,1024,1412,1024,89.6,-35,52,3.788,3.798,3.797,3.791,0,0,103.91,6,GPS_Atti,
0.339222173083799,36.9100315432647,5490.4682783853,89.238848,0,1.84984585972,15200,2017-11-08 08:25:46,12,15.125,5490.4682783853,89.238848,0.31540854,2.4135171376,88.8, -4.8, -1.7,0,0,1024,1024,1417,1024,89.6,-35.2,52,3.788,3.798,3.797,3.791,0,0,103.91,6,GPS_Atti,
0.339222114609225,36.9100315453449,5491.4525303853,90.2231,0,1.82886816876,15300,2017-11-08 08:25:47,12,15.125,5491.4525303853,90.2231,0.31540854,2.4135171376,88.8, -4.4, -1.9,0,0,1024,1024,1415,1024,89.6,-35.4,52,3.788,3.798,3.797,3.791,0,0,103.91,6,GPS_Atti,
0.339222099401186,36.9100315677122,5492.1086983853,90.879268,0,1.82464244684,15400,2017-11-08 08:25:47,12,15.018,5492.1086983853,90.879268,0.31540854,2.4135171376,88.8, -4, -1.5,0,0,1024,1024,1415,1024,89.5,-35.6,52,3.788,3.798,3.797,3.791,0,0,103.91,6,GPS_Atti,
0.339222097798797,36.9100315627231,5492.7648663853,91.535436,0,1.82377958592,15500,2017-11-08 08:25:47,12,15.018,5492.7648663853,91.535436,0.31540854,2.4135171376,88.8, -4.1, -1.6,0,0,1024,1024,1416,1024,89.5,-35.8,52,3.788,3.798,3.797,3.791,0,0,103.91,6,GPS_Atti,
0.339222118369302,36.9100315695033,5493.7491183853,92.519688,0,1.8315781426,15600,2017-11-08 08:25:47,12,15.018,5493.7491183853,92.519688,0.31540854,2.4135171376,88.8, -4.2, -1.6,0,0,1024,1024,1417,1024,89.5,-36,52,3.788,3.798,3.797,3.791,0,0,103.91,6,GPS_Atti,
0.339222142945779,36.9100315913674,5494.4052863853,93.175856,0,1.84169297232,15700,2017-11-08 08:25:47,12,15.018,5494.4052863853,93.175856,0.31540854,2.4135171376,88.8, -4.3, -0.8,0,0,1024,1024,1417,1024,89.5,-36,52,3.788,3.798,3.797,3.791,0,0,103.91,6,GPS_Atti,
0.339222182337432,36.9100316250736,5495.0614543853,93.832024,0,1.85786751352,15800,2017-11-08 08:25:47,12,15.018,5495.0614543853,93.832024,0.31540854,2.4135171376,88.8, -4, -0.4,0,0,1024,1024,1417,1024,89.5,-36.1,52,3.788,3.798,3.797,3.791,0,0,103.91,6,GPS_Atti,
0.339222224221011,36.9100315985823,5496.0457063853,94.816276,0,1.87138785516,15900,2017-11-08 08:25:47,12,15.018,5496.0457063853,94.816276,0.31540854,2.4135171376,88.8, -3.8, -0.5,0,0,1024,1024,1417,1024,89.5,-36.3,52,3.788,3.798,3.797,3.791,0,0,103.91,6,GPS_Atti,
0.339222274844043,36.9100315835284,5496.7018743853,95.472444,0,1.88877302632,16000,2017-11-08 08:25:47,12,15.018,5496.7018743853,95.472444,0.31540854,2.4135171376,88.7, -4, -0.4,0,0,1024,1024,1415,1024,89.5,-36.5,52,3.788,3.798,3.797,3.791,0,0,103.91,6,GPS_Atti,
0.339222349365711,36.9100315790243,5497.6861263853,96.456696,0,1.91539376208,16100,2017-11-08 08:25:47,12,15.018,5497.6861263853,96.456696,0.31540854,2.4135171376,88.7, -4.4, -0.6,0,0,1024,1024,1415,1024,89.5,-36.7,52,3.788,3.798,3.797,3.791,0,0,103.91,6,GPS_Atti,
0.339222416023624,36.9100315881973,5498.3422943853,97.112864,0,1.93994100696,16200,2017-11-08 08:25:47,12,15.018,5498.3422943853,97.112864,0.31540854,2.4135171376,88.7, -4.4, -0.4,0,0,1024,1024,1418,1024,89.5,-36.9,52,3.788,3.798,3.797,3.791,0,0,103.91,6,GPS_Atti,
0.339222429426532,36.9100315913814,5499.3265463853,98.097116,0,1.9449475688,16300,2017-11-08 08:25:48,12,15.018,5499.3265463853,98.097116,0.31540854,2.4135171376,88.7, -4.3, 0,0,0,1024,1024,1419,1024,89.5,-37.1,52,3.788,3.798,3.797,3.791,0,0,103.91,6,GPS_Atti,
0.33922241986553,36.9100316051152,5499.9827143853,98.753284,0,1.94226384168,16400,2017-11-08 08:25:48,12,15.018,5499.9827143853,98.753284,0.31540854,2.4135171376,88.8, -4.6, 0,0,0,1024,1024,1412,1024,89.5,-37.3,52,3.788,3.798,3.797,3.791,0,0,103.91,6,GPS_Atti,
0.339222373083184,36.9100315779055,5500.6388823853,99.409452,0,1.923884576,16500,2017-11-08 08:25:48,12,15.018,5500.6388823853,99.409452,0.31540854,2.4135171376,88.8, -4.4, -1.2,0,0,1024,1024,1409,1024,89.4,-37.5,52,3.788,3.798,3.797,3.791,0,0,103.91,6,GPS_Atti,
0.339222316891688,36.9100315866139,5501.6231343853,100.393704,0,1.90410439164,16600,2017-11-08 08:25:48,12,15.018,5501.6231343853,100.393704,0.31540854,2.4135171376,88.8, -3.9, -2.1,0,0,1024,1024,1418,1024,89.4,-37.7,52,3.788,3.798,3.797,3.791,0,0,103.91,6,GPS_Atti,
0.339222227920836,36.9100316269258,5502.6073863853,101.377956,0,1.87438326208,16700,2017-11-08 08:25:48,12,15.018,5502.6073863853,101.377956,0.31540854,2.4135171376,88.8, -3.5, -3.3,0,0,1024,1024,1429,1024,89.4,-37.9,52,3.788,3.798,3.797,3.791,0,0,103.91,6,GPS_Atti,
0.339222191954208,36.9100316753176,5503.2635543853,102.034124,0,1.86442919352,16800,2017-11-08 08:25:48,12,15.018,5503.2635543853,102.034124,0.31540854,2.4135171376,88.8, -2.5, -3.7,0,0,1024,1024,1436,1024,89.4,-38.1,52,3.788,3.798,3.797,3.791,0,0,103.91,6,GPS_Atti,
0.339222262494738,36.9100316723402,5503.9197223853,102.690292,0,1.88959323632,16900,2017-11-08 08:25:48,12,15.018,5503.9197223853,102.690292,0.31540854,2.4135171376,88.8, -2.2, -1.6,0,0,1024,1024,1446,1024,89.4,-38.3,52,3.788,3.798,3.797,3.791,0,0,103.91,6,GPS_Atti,
0.339222367842444,36.9100316447558,5504.9039743853,103.674544,0,1.92581042908,17000,2017-11-08 08:25:48,12,15.018,5504.9039743853,103.674544,0.31540854,2.4135171376,88.8, -3, 0.4,0,0,1024,1024,1460,1024,89.4,-38.5,52,3.788,3.798,3.797,3.791,0,0,103.91,6,GPS_Atti,
0.339222488763367,36.9100315612221,5505.5601423853,104.330712,0,1.96473759568,17100,2017-11-08 08:25:48,12,15.018,5505.5601423853,104.330712,0.31540854,2.4135171376,88.7, -3.8, 0.4,0,0,1024,1024,1476,1024,89.4,-38.7,52,3.788,3.798,3.797,3.791,0,0,103.91,6,GPS_Atti,
0.339222562313669,36.9100314900669,5506.5443943853,105.314964,0,1.987778935,17200,2017-11-08 08:25:48,12,15.018,5506.5443943853,105.314964,0.31540854,2.4135171376,88.7, -4, -0.1,0,0,1024,1024,1476,1024,89.4,-38.7,52,3.788,3.798,3.797,3.791,0,0,103.91,6,GPS_Atti,
0.339222586003865,36.9100313859388,5507.2005623853,105.971132,0,1.99181764904,17300,2017-11-08 08:25:49,12,15.018,5507.2005623853,105.971132,0.31540854,2.4135171376,88.8, -4.2, -0.9,0,0,1024,1024,1509,1024,89.4,-38.9,52,3.788,3.798,3.797,3.791,0,0,103.91,6,GPS_Atti,
0.339222603747391,36.9100312976912,5508.1848143853,106.955384,0,1.99498365964,17400,2017-11-08 08:25:49,12,15.071,5508.1848143853,106.955384,0.31540854,2.4135171376,88.8, -4.4, -1,0,0,1024,1024,1509,1024,89.4,-39.1,52,3.783,3.794,3.792,3.785,0,0,105.71,6,GPS_Atti,
0.339222619636119,36.9100312233401,5509.1690663853,107.939636,0,1.9984088566,17500,2017-11-08 08:25:49,12,15.071,5509.1690663853,107.939636,0.31540854,2.4135171376,88.9, -4.8, -1.1,0,0,1024,1024,1520,1024,89.4,-39.3,52,3.783,3.794,3.792,3.785,0,0,105.71,6,GPS_Atti,
0.339222641899391,36.9100311726529,5510.1533183853,108.923888,0,2.00512145524,17600,2017-11-08 08:25:49,12,15.071,5510.1533183853,108.923888,0.31540854,2.4135171376,88.9, -4.5, -1,0,0,1024,1024,1530,1024,89.4,-39.5,52,3.783,3.794,3.792,3.785,0,0,105.71,6,GPS_Atti,
0.339222647912827,36.9100311382883,5511.1375703853,109.90814,0,2.00646659964,17700,2017-11-08 08:25:49,12,15.071,5511.1375703853,109.90814,0.31540854,2.4135171376,88.9, -3.6, -0.5,0,0,1024,1024,1532,1024,89.4,-39.7,52,3.783,3.794,3.792,3.785,0,0,105.71,6,GPS_Atti,
0.339222645012569,36.9100310957859,5512.1218223853,110.892392,0,2.0044784106,17800,2017-11-08 08:25:49,12,15.071,5512.1218223853,110.892392,0.31540854,2.4135171376,88.8, -4.2, -0.7,0,0,1024,1024,1535,1024,89.4,-39.9,52,3.783,3.794,3.792,3.785,0,0,105.71,6,GPS_Atti,
0.339222603179064,36.910031025242,5513.4341583853,112.204728,0,1.98794625784,17900,2017-11-08 08:25:49,12,15.071,5513.4341583853,112.204728,0.31540854,2.4135171376,88.8, -5.1, -1.8,0,0,1024,1024,1536,1024,89.3,-40.1,52,3.783,3.794,3.792,3.785,0,0,105.71,6,GPS_Atti,
0.33922258102449,36.9100309726245,5514.4184103853,113.18898,0,1.9791175174,18000,2017-11-08 08:25:49,12,15.071,5514.4184103853,113.18898,0.31540854,2.4135171376,88.8, -5.5, -1.5,0,0,1024,1024,1536,1024,89.3,-40.3,52,3.783,3.794,3.792,3.785,0,0,105.71,6,GPS_Atti,
0.339222568952428,36.9100309269777,5515.7307463853,114.501316,0,1.9742126616,18100,2017-11-08 08:25:49,12,15.071,5515.7307463853,114.501316,0.31540854,2.4135171376,88.8, -5.4, -0.9,0,0,1024,1024,1536,1024,89.3,-40.5,52,3.783,3.794,3.792,3.785,0,0,105.71,6,GPS_Atti,
0.339222555915512,36.9100309056285,5517.0430823853,115.813652,0,1.96926843572,18200,2017-11-08 08:25:49,12,15.071,5517.0430823853,115.813652,0.31540854,2.4135171376,88.8, -4.9, -1.1,0,0,1024,1024,1537,1024,89.3,-40.7,52,3.783,3.794,3.792,3.785,0,0,105.71,6,GPS_Atti,
0.339222553177284,36.9100308900254,5518.0273343853,116.797904,0,1.96815295012,18300,2017-11-08 08:25:50,12,15.071,5518.0273343853,116.797904,0.31540854,2.4135171376,88.8, -4.5, -1.1,0,0,1024,1024,1537,1024,89.3,-40.9,52,3.783,3.794,3.792,3.785,0,0,105.71,6,GPS_Atti,
0.339222555969251,36.9100308839539,5519.3396703853,118.11024,0,1.96913064044,18400,2017-11-08 08:25:50,12,15.018,5519.3396703853,118.11024,0.31540854,2.4135171376,88.7, -4.1, -1.3,0,0,1024,1024,1537,1024,89.3,-41.1,52,3.781,3.791,3.789,3.785,0,0,105.71,6,GPS_Atti,
0.339222567622396,36.9100308869816,5520.3239223853,119.094492,0,1.97340229412,18500,2017-11-08 08:25:50,12,15.018,5520.3239223853,119.094492,0.31540854,2.4135171376,88.8, -3.9, -1.1,0,0,1024,1024,1536,1024,89.3,-41.2,52,3.781,3.791,3.789,3.785,0,0,105.71,6,GPS_Atti,
0.339222592205794,36.9100308837944,5521.6362583853,120.406828,0,1.9823491448,18600,2017-11-08 08:25:50,12,15.018,5521.6362583853,120.406828,0.31540854,2.4135171376,88.8, -3.5, -0.7,0,0,1024,1024,1536,1024,89.3,-41.5,52,3.781,3.791,3.789,3.785,0,0,105.71,6,GPS_Atti,
0.339222622097105,36.9100308723988,5522.6205103853,121.39108,0,1.99318247848,18700,2017-11-08 08:25:50,12,15.018,5522.6205103853,121.39108,0.31540854,2.4135171376,88.8, -3, 0,0,0,1024,1024,1532,1024,89.3,-41.5,52,3.781,3.791,3.789,3.785,0,0,105.71,6,GPS_Atti,
0.339222647513859,36.9100308449974,5523.9328463853,122.703416,0,2.00232289872,18800,2017-11-08 08:25:50,12,15.018,5523.9328463853,122.703416,0.31540854,2.4135171376,88.8, -3.6, -0.1,0,0,1024,1024,1532,1024,89.3,-41.6,52,3.781,3.791,3.789,3.785,0,0,105.71,6,GPS_Atti,
0.339222647105933,36.9100307292842,5524.9170983853,123.687668,0,2.0021654184,18900,2017-11-08 08:25:50,12,15.018,5524.9170983853,123.687668,0.31540854,2.4135171376,88.9, -3.5, -0.7,0,0,1024,1024,1526,1024,89.3,-41.9,52,3.781,3.791,3.789,3.785,0,0,105.71,6,GPS_Atti,
0.339222662596507,36.9100306245192,5525.9013503853,124.67192,0,2.00857617976,19000,2017-11-08 08:25:50,12,15.018,5525.9013503853,124.67192,0.31540854,2.4135171376,88.9, -3.9, -0.5,0,0,1024,1024,1526,1024,89.3,-42.1,52,3.781,3.791,3.789,3.785,0,0,105.71,6,GPS_Atti,
0.339222670215589,36.910030500499,5527.2136863853,125.984256,0,2.01319232164,19100,2017-11-08 08:25:50,12,15.018,5527.2136863853,125.984256,0.31540854,2.4135171376,88.9, -4.4, 0.2,0,0,1024,1024,1526,1024,89.3,-42.3,52,3.781,3.791,3.789,3.785,0,0,105.71,6,GPS_Atti,
0.339222677495141,36.9100303960337,5528.1979383853,126.968508,0,2.01817263676,19200,2017-11-08 08:25:50,12,15.018,5528.1979383853,126.968508,0.31540854,2.4135171376,88.9, -4.5, 0.6,0,0,1024,1024,1520,1024,89.3,-42.5,52,3.781,3.791,3.789,3.785,0,0,105.71,6,GPS_Atti,
0.339222686570459,36.9100302758454,5529.5102743853,128.280844,0,2.02503615404,19300,2017-11-08 08:25:51,12,15.018,5529.5102743853,128.280844,0.31540854,2.4135171376,88.8, -4.2, 0.5,0,0,1024,1024,1518,1024,89.3,-42.7,52,3.781,3.791,3.789,3.785,0,0,105.71,6,GPS_Atti,
0.339222669389561,36.9100301677582,5530.4945263853,129.265096,0,2.02281502536,19400,2017-11-08 08:25:51,12,14.964,5530.4945263853,129.265096,0.31540854,2.4135171376,88.8, -4.6, -0.2,0,0,1024,1024,1516,1024,89.3,-42.8,52,3.773,3.785,3.783,3.777,0,0,105.71,6,GPS_Atti,
0.339222582188421,36.9100300482239,5531.8068623853,130.577432,0,1.99661423712,19500,2017-11-08 08:25:51,12,14.964,5531.8068623853,130.577432,0.31540854,2.4135171376,88.8, -4.8, -1,0,0,1024,1024,1514,1024,89.3,-42.8,52,3.773,3.785,3.783,3.777,0,0,105.71,6,GPS_Atti,
0.339222510698101,36.9100299536993,5532.7911143853,131.561684,0,1.97577762228,19600,2017-11-08 08:25:51,12,14.964,5532.7911143853,131.561684,0.31540854,2.4135171376,88.8, -4.7, -1.1,0,0,1024,1024,1514,1024,89.3,-42.8,52,3.773,3.785,3.783,3.777,0,0,105.71,6,GPS_Atti,
0.339222432249032,36.9100298233411,5534.1034503853,132.87402,0,1.95548562688,19700,2017-11-08 08:25:51,12,14.964,5534.1034503853,132.87402,0.31540854,2.4135171376,88.8, -4.6, -0.8,0,0,1024,1024,1513,1024,89.3,-42.8,52,3.773,3.785,3.783,3.777,0,0,105.71,6,GPS_Atti,
0.339222363856013,36.9100297108184,5535.0877023853,133.858272,0,1.93883208304,19800,2017-11-08 08:25:51,12,14.964,5535.0877023853,133.858272,0.31540854,2.4135171376,88.8, -4.5, -1,0,0,1024,1024,1504,1024,89.3,-42.8,52,3.773,3.785,3.783,3.777,0,0,105.71,6,GPS_Atti,
0.339222288524194,36.9100295838348,5536.0719543853,134.842524,0,1.9219652846,19900,2017-11-08 08:25:51,12,14.964,5536.0719543853,134.842524,0.31540854,2.4135171376,88.8, -4.5, -1.1,0,0,1024,1024,1503,1024,89.2,-42.9,52,3.773,3.785,3.783,3.777,0,0,105.71,6,GPS_Atti,
0.339222230872391,36.9100294813919,5537.0562063853,135.826776,0,1.91046265956,20000,2017-11-08 08:25:51,12,14.964,5537.0562063853,135.826776,0.31540854,2.4135171376,88.8, -4.7, -1.1,0,0,1024,1024,1504,1024,89.2,-42.8,52,3.773,3.785,3.783,3.777,0,0,105.71,6,GPS_Atti,
0.339222133859875,36.9100293365119,5538.3685423853,137.139112,0,1.89030845944,20100,2017-11-08 08:25:51,12,14.964,5538.3685423853,137.139112,0.31540854,2.4135171376,88.8, -4.7, -1.1,0,0,1024,1024,1502,1024,89.2,-42.8,52,3.773,3.785,3.783,3.777,0,0,105.71,6,GPS_Atti,
0.339222047536466,36.9100292150859,5539.3527943853,138.123364,0,1.87317263212,20200,2017-11-08 08:25:51,12,14.964,5539.3527943853,138.123364,0.31540854,2.4135171376,88.8, -4.9, -1.2,0,0,1024,1024,1502,1024,89.2,-42.8,52,3.773,3.785,3.783,3.777,0,0,105.71,6,GPS_Atti,
0.339221958146697,36.910029081821,5540.3370463853,139.107616,0,1.85785439016,20300,2017-11-08 08:25:52,12,14.964,5540.3370463853,139.107616,0.31540854,2.4135171376,88.8, -5.3, -1.6,0,0,1024,1024,1503,1024,89.2,-42.7,52,3.773,3.785,3.783,3.777,0,0,105.71,6,GPS_Atti,
0.339221883856675,36.9100289814701,5541.6493823853,140.419952,0,1.84508208004,20400,2017-11-08 08:25:52,12,15.045,5541.6493823853,140.419952,0.31540854,2.4135171376,88.9, -5.4, -2.1,0,0,1024,1024,1502,1024,89.2,-42.7,52,3.773,3.785,3.783,3.777,0,0,105.71,6,GPS_Atti,
0.339221830003217,36.9100288398052,5542.6336343853,141.404204,0,1.84600071524,20500,2017-11-08 08:25:52,12,15.045,5542.6336343853,141.404204,0.31540854,2.4135171376,88.8, -5.2, -2.2,0,0,1024,1024,1502,1024,89.2,-42.7,52,3.773,3.785,3.783,3.777,0,0,105.71,6,GPS_Atti,
0.339221799199978,36.910028738011,5543.6178863853,142.388456,0,1.85031830068,20600,2017-11-08 08:25:52,12,15.045,5543.6178863853,142.388456,0.31540854,2.4135171376,88.8, -5.1, -1.9,0,0,1024,1024,1503,1024,89.2,-42.6,52,3.773,3.785,3.783,3.777,0,0,105.71,6,GPS_Atti,
0.339221748354664,36.9100286372768,5544.9302223853,143.700792,0,1.84864835312,20700,2017-11-08 08:25:52,12,15.045,5544.9302223853,143.700792,0.31540854,2.4135171376,88.8, -5, -1.7,0,0,1024,1024,1502,1024,89.2,-42.6,52,3.773,3.785,3.783,3.777,0,0,105.71,6,GPS_Atti,
0.339221720827854,36.9100285610747,5545.9144743853,144.685044,0,1.85157814324,20800,2017-11-08 08:25:52,12,15.045,5545.9144743853,144.685044,0.31540854,2.4135171376,88.8, -5.2, -1,0,0,1024,1024,1501,1024,89.2,-42.5,52,3.773,3.785,3.783,3.777,0,0,105.71,6,GPS_Atti,
0.339221681131274,36.9100284648477,5546.8987263853,145.669296,0,1.85434061052,20900,2017-11-08 08:25:52,12,15.045,5546.8987263853,145.669296,0.31540854,2.4135171376,88.8, -5.4, -0.8,0,0,1024,1024,1500,1024,89.2,-42.5,52,3.773,3.785,3.783,3.777,0,0,105.71,6,GPS_Atti,
0.339221637919699,36.9100283955232,5547.8829783853,146.653548,0,1.85210635848,21000,2017-11-08 08:25:52,12,15.045,5547.8829783853,146.653548,0.31540854,2.4135171376,88.8, -5.7, -1.5,0,0,1024,1024,1500,1024,89.2,-42.4,52,3.773,3.785,3.783,3.777,0,0,105.71,6,GPS_Atti,
0.339221568873673,36.9100283015157,5549.1953143853,147.965884,0,1.84651580712,21100,2017-11-08 08:25:52,12,15.045,5549.1953143853,147.965884,0.31540854,2.4135171376,88.8, -5.9, -1.7,0,0,1024,1024,1506,1024,89.2,-42.4,52,3.773,3.785,3.783,3.777,0,0,105.71,6,GPS_Atti,
0.3392215223474,36.9100282501037,5550.1795663853,148.950136,0,1.84110242112,21200,2017-11-08 08:25:52,12,15.045,5550.1795663853,148.950136,0.31540854,2.4135171376,88.8, -5.6, -1.7,0,0,1024,1024,1500,1024,89.2,-42.4,52,3.773,3.785,3.783,3.777,0,0,105.71,6,GPS_Atti,
0.339221503740799,36.9100282140272,5551.1638183853,149.934388,0,1.84190622692,21300,2017-11-08 08:25:53,12,15.045,5551.1638183853,149.934388,0.31540854,2.4135171376,88.8, -5.1, -2,0,0,1024,1024,1497,1024,89.2,-42.3,52,3.773,3.785,3.783,3.777,0,0,105.71,6,GPS_Atti,
0.339221498511051,36.91002819386,5552.4761543853,151.246724,0,1.8440289304,21400,2017-11-08 08:25:53,12,15.018,5552.4761543853,151.246724,0.31540854,2.4135171376,88.8, -5.5, -1.9,0,0,1024,1024,1502,1024,89.2,-42.3,52,3.777,3.788,3.787,3.782,0,0,105.71,6,GPS_Atti,
0.339221484531673,36.9100281141558,5553.4604063853,152.230976,0,1.85477040056,21500,2017-11-08 08:25:53,12,15.018,5553.4604063853,152.230976,0.31540854,2.4135171376,88.8, -6.3, -1.5,0,0,1024,1024,1505,1024,89.2,-42.2,52,3.777,3.788,3.787,3.782,0,0,105.71,6,GPS_Atti,
0.339221481106241,36.9100280842739,5554.4446583853,153.215228,0,1.8594652826,21600,2017-11-08 08:25:53,12,15.018,5554.4446583853,153.215228,0.31540854,2.4135171376,88.8, -6.3, -1.4,0,0,1024,1024,1506,1024,89.2,-42.2,52,3.777,3.788,3.787,3.782,0,0,105.71,6,GPS_Atti,
0.339221446004724,36.9100280560717,5555.4289103853,154.19948,0,1.85412407508,21700,2017-11-08 08:25:53,12,15.018,5555.4289103853,154.19948,0.31540854,2.4135171376,88.8, -5.5, -1.4,0,0,1024,1024,1506,1024,89.2,-42.1,52,3.777,3.788,3.787,3.782,0,0,105.71,6,GPS_Atti,
0.339221424352118,36.9100280661655,5556.4131623853,155.183732,0,1.84548234252,21800,2017-11-08 08:25:53,12,15.018,5556.4131623853,155.183732,0.31540854,2.4135171376,88.8, -5.3, -1.5,0,0,1024,1024,1505,1024,89.2,-42.1,52,3.777,3.788,3.787,3.782,0,0,105.71,6,GPS_Atti,
0.339221365877951,36.9100280815545,5557.7254983853,156.496068,0,1.82448824736,21900,2017-11-08 08:25:53,12,15.018,5557.7254983853,156.496068,0.31540854,2.4135171376,88.8, -5.2, -1.5,0,0,1024,1024,1502,1024,89.2,-42.1,52,3.777,3.788,3.787,3.782,0,0,105.71,6,GPS_Atti,
0.33922132881538,36.9100281227283,5558.7097503853,157.48032,0,1.80500005776,22000,2017-11-08 08:25:53,12,15.018,5558.7097503853,157.48032,0.31540854,2.4135171376,88.8, -5.1, -1.7,0,0,1024,1024,1502,1024,89.2,-42.1,52,3.777,3.788,3.787,3.782,0,0,105.71,6,GPS_Atti,
0.339221344144331,36.9100281805244,5559.6940023853,158.464572,0,1.79848102868,22100,2017-11-08 08:25:53,12,15.018,5559.6940023853,158.464572,0.31540854,2.4135171376,88.8, -4.8, -1.8,0,0,1024,1024,1502,1024,89.1,-42,52,3.777,3.788,3.787,3.782,0,0,105.71,6,GPS_Atti,
0.339221368784724,36.9100282484314,5560.6782543853,159.448824,0,1.79319887628,22200,2017-11-08 08:25:53,12,15.018,5560.6782543853,159.448824,0.31540854,2.4135171376,88.8, -4.8, -1.7,0,0,1024,1024,1501,1024,89.1,-42,52,3.777,3.788,3.787,3.782,0,0,105.71,6,GPS_Atti,
0.339221358562981,36.9100282692035,5561.9905903853,160.76116,0,1.78609913852,22300,2017-11-08 08:25:54,12,15.018,5561.9905903853,160.76116,0.31540854,2.4135171376,88.8, -4.8, -1.4,0,0,1024,1024,1501,1024,89.1,-41.9,52,3.777,3.788,3.787,3.782,0,0,105.71,6,GPS_Atti,
0.339221357303379,36.9100283070122,5562.9748423853,161.745412,0,1.77865163172,22400,2017-11-08 08:25:54,12,15.018,5562.9748423853,161.745412,0.31540854,2.4135171376,88.8, -4.8, -1.4,0,0,1024,1024,1501,1024,89.1,-41.9,52,3.778,3.788,3.786,3.781,0,0,105.71,6,GPS_Atti,
0.339221346356165,36.9100283327734,5563.9590943853,162.729664,0,1.77044297004,22500,2017-11-08 08:25:54,12,15.018,5563.9590943853,162.729664,0.31540854,2.4135171376,88.8, -4.9, -1.4,0,0,1024,1024,1501,1024,89.1,-41.9,52,3.778,3.788,3.786,3.781,0,0,105.71,6,GPS_Atti,
0.339221342948238,36.9100283751869,5564.9433463853,163.713916,0,1.76159126372,22600,2017-11-08 08:25:54,12,15.018,5564.9433463853,163.713916,0.31540854,2.4135171376,88.7, -4.9, -1.4,0,0,1024,1024,1500,1024,89.1,-41.8,52,3.778,3.788,3.786,3.781,0,0,105.71,6,GPS_Atti,
0.339221327384792,36.910028370807,5566.2556823853,165.026252,0,1.75747380952,22700,2017-11-08 08:25:54,12,15.018,5566.2556823853,165.026252,0.31540854,2.4135171376,88.7, -4.9, -1.6,0,0,1024,1024,1499,1024,89.1,-41.8,52,3.778,3.788,3.786,3.781,0,0,105.71,6,GPS_Atti,
0.339221321925434,36.9100283911102,5567.2399343853,166.010504,0,1.75204401932,22800,2017-11-08 08:25:54,12,15.018,5567.2399343853,166.010504,0.31540854,2.4135171376,88.8, -4.8, -1.6,0,0,1024,1024,1493,1024,89.1,-41.7,52,3.778,3.788,3.786,3.781,0,0,105.71,6,GPS_Atti,
0.339221313503935,36.9100283707214,5568.2241863853,166.994756,0,1.75311029232,22900,2017-11-08 08:25:54,12,15.018,5568.2241863853,166.994756,0.31540854,2.4135171376,88.8, -4.9, -1.8,0,0,1024,1024,1488,1024,89.1,-41.7,52,3.778,3.788,3.786,3.781,0,0,105.71,6,GPS_Atti,
0.339221316941988,36.9100283776504,5569.2084383853,167.979008,0,1.75292656528,23000,2017-11-08 08:25:54,12,15.018,5569.2084383853,167.979008,0.31540854,2.4135171376,88.8, -5, -1.8,0,0,1024,1024,1495,1024,89.1,-41.7,52,3.778,3.788,3.786,3.781,0,0,105.71,6,GPS_Atti,
