latitude,longitude,altitude(feet),ascent(feet),speed(mph),distance(feet),time(millisecond),datetime(utc),satellites,voltage(v),max_altitude(feet),max_ascent(feet),max_speed(mph),max_distance(feet),compass_heading(degrees), pitch(degrees), roll(degrees),isPhoto,isVideo,rc_elevator,rc_aileron,rc_throttle,rc_rudder,gimbal_heading(degrees),gimbal_pitch(degrees),battery_percent,voltageCell1,voltageCell2,voltageCell3,voltageCell4,voltageCell5,voltageCell6,battery_temperature(f),flycStateRaw,flycState,message
0.303913810220721,36.8942110784731,5613.5156379658,0,0,0,100,2017-11-06 12:56:15,14,0,5613.5156379658,0,0,0,129.3, -4, -2.3,0,0,1024,1024,1024,1024,133.7,0,100,4.296,4.299,4.298,4.298,0,0,82.31,41,Motors_Started,
0.303913831091674,36.8942111360693,5613.5156379658,0,0,0.0223507881168,200,2017-11-06 12:56:15,14,17.156,5613.5156379658,0,0,0.0223507881168,129.3, -4.1, -2.3,0,0,1024,1024,1024,1024,133.7,0,100,4.296,4.299,4.298,4.298,0,0,82.31,41,Motors_Started,Setting new Return-To-Home altitude to 30m (98 ft). Setting new Maximum Flight Altitude to 100m (328 ft)
0.303913861263484,36.8942111973601,5613.5156379658,0,0,0.047204069752,300,2017-11-06 12:56:15,14,17.156,5613.5156379658,0,0,0.047204069752,129.3, -4, -2.3,0,0,1024,1024,1024,1024,133.7,0,100,4.296,4.299,4.298,4.298,0,0,82.31,41,Motors_Started,
0.303913893388613,36.8942112556918,5613.5156379658,0,0,0.071423558716,400,2017-11-06 12:56:15,14,17.156,5613.5156379658,0,0,0.071423558716,129.3, -4.1, -2.3,0,0,1024,1024,1024,1024,133.7,0,100,4.296,4.299,4.298,4.298,0,0,82.31,41,Motors_Started,
0.30391393607583,36.8942113146171,5613.5156379658,0,0,0.097628283964,500,2017-11-06 12:56:15,14,17.156,5613.5156379658,0,0,0.097628283964,129.3, -4.1, -2.3,0,0,1024,1024,1024,1024,133.7,0,100,4.296,4.299,4.298,4.298,0,0,82.31,41,Motors_Started,
0.303913977223353,36.894211372511,5613.5156379658,0,0,0.123374019696,600,2017-11-06 12:56:15,14,17.156,5613.5156379658,0,0,0.123374019696,129.3, -4.1, -2.3,0,0,1024,1024,1024,1024,133.7,0,100,4.296,4.299,4.298,4.298,0,0,82.31,41,Motors_Started,
0.303913986955748,36.8942114279199,5613.5156379658,0,0,0.1428723799,700,2017-11-06 12:56:15,14,17.156,5613.5156379658,0,0,0.1428723799,129.3, -4.1, -2.3,0,0,1024,1024,1024,1024,133.7,0,100,4.296,4.299,4.298,4.298,0,0,82.31,41,Motors_Started,
0.303914004932956,36.894211484551,5613.5156379658,0,0,0.164306763788,800,2017-11-06 12:56:15,14,17.156,5613.5156379658,0,0,0.164306763788,129.3, -4.1, -2.3,0,0,1024,1024,1024,1024,133.7,0,100,4.296,4.299,4.298,4.298,0,0,82.31,41,Motors_Started,
0.303913995680951,36.8942115375029,5613.5156379658,0,0,0.180627302368,900,2017-11-06 12:56:15,14,17.156,5613.5156379658,0,0,0.180627302368,129.3, -4.1, -2.3,0,0,1024,1024,1024,1024,133.7,0,100,4.296,4.299,4.298,4.298,0,0,82.31,41,Motors_Started,
0.303913998935396,36.8942115941174,5613.5156379658,0,0,0.200333339744,1000,2017-11-06 12:56:15,14,17.156,5613.5156379658,0,0,0.200333339744,129.3, -4.2, -2.3,0,0,725,691,517,1547,133.7,0,100,4.296,4.299,4.298,4.298,0,0,82.31,41,Motors_Started,
0.303914022019404,36.8942116457637,5613.5156379658,0,0,0.220927828592,1100,2017-11-06 12:56:16,14,17.156,5613.5156379658,0,0,0.220927828592,129.3, -4.2, -2.3,0,0,1011,1024,875,1205,133.6,0,100,4.296,4.299,4.298,4.298,0,0,82.31,41,Motors_Started,
0.303914045819113,36.8942116968699,5613.5156379658,0,0,0.241438327936,1200,2017-11-06 12:56:16,14,17.156,5613.5156379658,0,0,0.241438327936,129.3, -4.1, -2.3,0,0,1024,1024,1024,1070,132.5,0,100,4.296,4.299,4.298,4.298,0,0,82.31,41,Motors_Started,
0.303914088950895,36.8942117451492,5613.5156379658,0,0,0.263636163292,1300,2017-11-06 12:56:16,14,17.156,5613.5156379658,0,0,0.263636163292,129.3, -4.2, -2.3,0,0,1024,1024,1024,1024,131.4,0,100,4.296,4.299,4.298,4.298,0,0,82.31,41,Motors_Started,
0.303914124705012,36.8942118002836,5613.5156379658,0,0,0.287258539376,1400,2017-11-06 12:56:16,14,17.156,5613.5156379658,0,0,0.287258539376,129.3, -4.2, -2.3,0,0,1024,1024,1024,1024,130.7,0,100,4.296,4.299,4.298,4.298,0,0,82.31,41,Motors_Started,
0.30391414120522,36.8942118474237,5613.5156379658,0,0,0.305433408724,1500,2017-11-06 12:56:16,14,17.156,5613.5156379658,0,0,0.305433408724,129.3, -4.2, -2.3,0,0,1024,1024,1024,1024,130.3,0,100,4.296,4.299,4.298,4.298,0,0,82.31,10,Assisted_Takeoff,
0.303914162693353,36.8942118926909,5613.5156379658,0,0,0.323703750516,1600,2017-11-06 12:56:16,14,17.156,5613.5156379658,0,0,0.323703750516,129.3, -4, -2.2,0,0,1024,1024,1024,1024,130.1,0,100,4.296,4.299,4.298,4.298,0,0,82.31,10,Assisted_Takeoff,
0.303914198020003,36.8942119429968,5613.5156379658,0,0,0.34569882996,1700,2017-11-06 12:56:16,14,17.156,5613.5156379658,0,0,0.34569882996,129.3, -4.1, -2.3,0,0,1024,1024,1024,1024,129.9,0,100,4.296,4.299,4.298,4.298,0,0,82.31,10,Assisted_Takeoff,
0.30391423270586,36.8942119940431,5613.5156379658,0,0,0.36789043172,1800,2017-11-06 12:56:16,14,17.156,5613.5156379658,0,0,0.36789043172,129.2, -4, -2.2,0,0,1024,1024,1024,1024,129.8,0,100,4.296,4.299,4.298,4.298,0,0,82.31,10,Assisted_Takeoff,
0.303914244144051,36.8942120434305,5613.5156379658,0,0,0.38601707272,1900,2017-11-06 12:56:16,14,17.156,5613.5156379658,0,0,0.38601707272,129.3, -4.1, -2.3,0,0,1024,1024,1024,1024,129.8,0,100,4.296,4.299,4.298,4.298,0,0,82.31,10,Assisted_Takeoff,
0.303914259878077,36.8942120948225,5613.5156379658,0,0,0.4054790156,2000,2017-11-06 12:56:16,14,17.156,5613.5156379658,0,0,0.4054790156,129.3, -4, -2.2,0,0,1024,1024,1024,1024,129.8,0,100,4.296,4.299,4.298,4.298,0,0,82.31,10,Assisted_Takeoff,
0.30391429692762,36.8942121025769,5613.5156379658,0,0,0.41368767728,2100,2017-11-06 12:56:17,14,17.156,5613.5156379658,0,0,0.41368767728,129.2, -4.1, -2.3,0,0,1024,1024,1024,1024,129.7,0,100,4.296,4.299,4.298,4.298,0,0,82.31,10,Assisted_Takeoff,
0.303914330290367,36.8942121236474,5613.5156379658,0,0,0.42592521048,2200,2017-11-06 12:56:17,14,17.156,5613.5156379658,0,0,0.42592521048,129.2, -4.1, -2.2,0,0,1024,1024,1024,1024,129.7,0,100,4.276,4.293,4.293,4.291,0,0,82.31,10,Assisted_Takeoff,
0.303914340463256,36.8942121075295,5613.5156379658,0,0,0.42235565656,2300,2017-11-06 12:56:17,14,17.156,5613.5156379658,0,0,0.42592521048,129.2, -4.1, -2.2,0,0,1024,1024,1024,1024,129.6,0,100,4.276,4.293,4.293,4.291,0,0,82.31,10,Assisted_Takeoff,
0.303914354699114,36.8942121097992,5613.5156379658,0,0,0.4254921396,2400,2017-11-06 12:56:17,14,17.156,5613.5156379658,0,0,0.42592521048,129.2, -4.1, -2.2,0,0,1024,1024,1024,1024,129.6,0,100,4.276,4.293,4.293,4.291,0,0,82.31,10,Assisted_Takeoff,
0.30391434875855,36.8942121249128,5613.5156379658,0,0,0.429379935,2500,2017-11-06 12:56:17,14,17.156,5613.5156379658,0,0,0.429379935,129.2, -4.1, -2.3,0,0,1024,1024,1024,1024,129.6,0,100,4.276,4.293,4.293,4.291,0,0,82.31,10,Assisted_Takeoff,
0.30391435087227,36.8942121471396,5613.5156379658,0,0,0.43695539456,2600,2017-11-06 12:56:17,14,17.156,5613.5156379658,0,0,0.43695539456,129.2, -4.1, -2.2,0,0,1024,1024,1033,1024,129.5,0,100,4.276,4.293,4.293,4.291,0,0,82.31,10,Assisted_Takeoff,
0.303914379280476,36.8942121424268,5613.5156379658,0,0,0.44021326868,2700,2017-11-06 12:56:17,14,17.156,5613.5156379658,0,0,0.44021326868,129.2, -4.1, -2.3,0,0,1024,1024,1194,1024,129.5,0,100,4.276,4.293,4.293,4.291,0,0,82.31,10,Assisted_Takeoff,
0.303914404640234,36.894212150474,5613.5156379658,0,0,0.44721786208,2800,2017-11-06 12:56:17,14,17.156,5613.5156379658,0,0,0.44721786208,129.2, -4.1, -2.2,0,0,1024,1024,1459,1024,129.5,0,100,4.276,4.293,4.293,4.291,0,0,82.31,10,Assisted_Takeoff,
0.30391445325743,36.8942121778171,5613.5156379658,0,0,0.4646653692,2900,2017-11-06 12:56:17,14,17.156,5613.5156379658,0,0,0.4646653692,129.2, -4.1, -2.2,0,0,1024,1024,1670,1022,129.5,0,100,4.276,4.293,4.293,4.291,0,0,82.31,10,Assisted_Takeoff,
0.303914493813828,36.894212197718,5613.5156379658,0,0,0.47849082896,3000,2017-11-06 12:56:17,14,17.156,5613.5156379658,0,0,0.47849082896,129.2, -4.1, -2.2,0,0,1024,1024,1684,1024,129.5,0,100,4.276,4.293,4.293,4.291,0,0,82.31,10,Assisted_Takeoff,
0.303914515816549,36.8942122145939,5613.5156379658,0,0,0.487942929,3100,2017-11-06 12:56:18,14,17.156,5613.5156379658,0,0,0.487942929,129.3, -4.2, -2.2,0,0,1024,1024,1684,1024,129.5,0,100,4.276,4.293,4.293,4.291,0,0,82.31,10,Assisted_Takeoff,
0.303914526007351,36.8942122229366,5613.5156379658,0,0,0.49249345408,3200,2017-11-06 12:56:18,14,17.156,5613.5156379658,0,0,0.49249345408,128.7, -3.9, -1.3,0,0,1024,1024,1684,1024,129.4,0,100,4.276,4.293,4.293,4.291,0,0,82.31,10,Assisted_Takeoff,
0.30391450390041,36.894212257404,5613.5156379658,0,0,0.49906169576,3300,2017-11-06 12:56:18,14,17.156,5613.5156379658,0,0,0.49906169576,128.3, -0.9, -0.2,0,0,1024,1024,1684,1023,129.4,0,100,4.276,4.293,4.293,4.291,0,0,82.31,10,Assisted_Takeoff,
0.303914450387297,36.8942123159022,5613.5156379658,0,0,0.50830710288,3400,2017-11-06 12:56:18,14,17.156,5613.5156379658,0,0,0.50830710288,128.5, 2.5, -0.1,0,0,1024,1024,1684,1023,129.3,0,100,4.276,4.293,4.293,4.291,0,0,82.31,10,Assisted_Takeoff,
0.303914425537242,36.894212356273,5613.5156379658,0,0,0.51743439976,3500,2017-11-06 12:56:18,14,17.156,5613.5156379658,0,0,0.51743439976,128.5, 2.5, 0,0,0,1024,1024,1684,1023,129.3,0,100,4.276,4.293,4.293,4.291,0,0,82.31,6,GPS_Atti,Obstacle Avoided. Revise Flight Route
0.303914441145063,36.8942123531249,5613.5156379658,0,0,0.51890093524,3600,2017-11-06 12:56:18,14,17.156,5613.5156379658,0,0,0.51890093524,128.5, 1.2, 0.1,0,0,1024,1024,1684,1023,129.3,0,100,4.276,4.293,4.293,4.291,0,0,82.31,6,GPS_Atti,
0.303914484324884,36.8942123528577,5613.8437219658,0.328084,0,0.52599411132,3700,2017-11-06 12:56:18,14,17.156,5613.8437219658,0.328084,0,0.52599411132,128.5, 0.3, 0.1,0,0,1024,1024,1684,1023,129.3,0,100,4.276,4.293,4.293,4.291,0,0,82.31,6,GPS_Atti,
0.30391452281153,36.8942123587921,5614.1718059658,0.656168,0,0.5345964738,3800,2017-11-06 12:56:18,14,17.156,5614.1718059658,0.656168,0,0.5345964738,128.6, 0, 0,0,0,1024,1024,1684,1023,129.2,0,100,4.276,4.293,4.293,4.291,0,0,82.31,6,GPS_Atti,
0.30391455781819,36.894212390104,5614.8279739658,1.312336,0,0.55081694676,3900,2017-11-06 12:56:18,14,17.156,5614.8279739658,1.312336,0,0.55081694676,128.6, 0.4, 0.1,0,0,1024,1024,1684,1023,129.2,0,100,4.276,4.293,4.293,4.291,0,0,82.31,6,GPS_Atti,
0.303914600459811,36.8942124236882,5615.4841419658,1.968504,0,0.56921589748,4000,2017-11-06 12:56:18,14,17.156,5615.4841419658,1.968504,0,0.56921589748,128.6, 0.5, 0.3,0,0,1024,1024,1684,1024,129.2,0,100,4.276,4.293,4.293,4.291,0,0,82.31,6,GPS_Atti,
0.303914580378653,36.8942124704767,5616.4683939658,2.952756,0,0.58041668524,4100,2017-11-06 12:56:19,14,17.156,5616.4683939658,2.952756,0,0.58041668524,128.6, 0.2, 0.4,0,0,1024,1024,1684,1024,129.2,0,100,4.276,4.293,4.293,4.291,0,0,82.31,6,GPS_Atti,
0.303914566996915,36.8942125296381,5617.1245619658,3.608924,0,0.59711944168,4200,2017-11-06 12:56:19,14,16.915,5617.1245619658,3.608924,0,0.59711944168,128.6, 0.6, 0.7,0,0,1024,1024,1684,1024,129.2,0,100,4.268,4.272,4.27,4.267,0,0,82.31,6,GPS_Atti,
0.303914572923637,36.8942125936895,5618.4368979658,4.92126,0,0.61890421928,4300,2017-11-06 12:56:19,14,16.915,5618.4368979658,4.92126,0,0.61890421928,128.5, 0.6, 0.8,0,0,1024,1024,1684,1024,129.2,0,100,4.268,4.272,4.27,4.267,0,0,82.31,6,GPS_Atti,Home Point Recorded. RTH Altitude:  30m.
0.303914552970313,36.8942126658501,5619.7492339658,6.233596,0,0.63940946928,4400,2017-11-06 12:56:19,14,16.915,5619.7492339658,6.233596,0,0.63940946928,128.3, 0.4, 0.2,0,0,1024,1024,1684,1024,129.2,0,100,4.268,4.272,4.27,4.267,0,0,82.31,6,GPS_Atti,
0.303914549560351,36.8942127226204,5621.0615699658,7.545932,0,0.65771655648,4500,2017-11-06 12:56:19,14,16.915,5621.0615699658,7.545932,0,0.65771655648,128.5, -0.5, 0.6,0,0,1024,1024,1570,1024,129.2,0,100,4.268,4.272,4.27,4.267,0,0,82.31,6,GPS_Atti,
0.303914570223677,36.894212769767,5622.7019899658,9.186352,0,0.67649936548,4600,2017-11-06 12:56:19,14,16.915,5622.7019899658,9.186352,0,0.67649936548,128.6, -1.7, 0.8,0,0,1024,1024,1354,1024,129.2,0,100,4.268,4.272,4.27,4.267,0,0,82.31,6,GPS_Atti,
0.303914511087547,36.8942129308656,5624.6704939658,11.154856,0,0.72259188664,4700,2017-11-06 12:56:19,14,16.915,5624.6704939658,11.154856,0,0.72259188664,128.5, -2.7, 0.8,0,0,1024,1024,1229,1024,129.2,0,100,4.268,4.272,4.27,4.267,0,0,82.31,6,GPS_Atti,
0.303914487433584,36.8942130778581,5626.3109139658,12.795276,0,0.77017390916,4800,2017-11-06 12:56:19,14,16.915,5626.3109139658,12.795276,0,0.77017390916,128.4, -3.2, 1.6,0,0,1024,1024,1091,1024,129.1,0,100,4.268,4.272,4.27,4.267,0,0,82.31,6,GPS_Atti,
0.30391438561838,36.8942133081947,5627.6232499658,14.107612,0,0.84015094552,4900,2017-11-06 12:56:19,14,16.915,5627.6232499658,14.107612,0,0.84015094552,128.3, -2.7, 1.8,0,0,1024,1024,1024,1024,129.1,0,100,4.268,4.272,4.27,4.267,0,0,82.31,6,GPS_Atti,
0.303914337010141,36.8942135185946,5629.2636699658,15.748032,0,0.91077430736,5000,2017-11-06 12:56:19,14,16.915,5629.2636699658,15.748032,0,0.91077430736,128.3, -2.1, 2.1,0,0,1024,1024,1024,1024,129.1,0,100,4.268,4.272,4.27,4.267,0,0,82.31,6,GPS_Atti,
0.303914420506164,36.8942136660217,5630.2479219658,16.732284,0.223694,0.96995409928,5100,2017-11-06 12:56:20,14,16.915,5630.2479219658,16.732284,0.223694,0.96995409928,128.3, -1.5, 2.4,0,0,1024,1024,1024,1024,129.1,0,100,4.268,4.272,4.27,4.267,0,0,82.31,6,GPS_Atti,
0.303914524615031,36.8942138090551,5631.2321739658,17.716536,0.223694,1.02977037416,5200,2017-11-06 12:56:20,14,16.407,5631.2321739658,17.716536,0.223694,1.02977037416,128.2, -2.2, 2.8,0,0,1024,1024,1024,1024,129.1,0,100,4.14,4.154,4.152,4.147,0,0,82.31,6,GPS_Atti,
0.303914752576021,36.8942139198666,5631.8883419658,18.372704,0.447388,1.09219491684,5300,2017-11-06 12:56:20,14,16.407,5631.8883419658,18.372704,0.447388,1.09219491684,128.3, -3.3, 3.6,0,0,1024,1024,1024,1024,129.1,0,100,4.14,4.154,4.152,4.147,0,0,82.31,6,GPS_Atti,
0.303914968068015,36.8942140412535,5632.5445099658,19.028872,0.447388,1.16056762244,5400,2017-11-06 12:56:20,14,16.407,5632.5445099658,19.028872,0.447388,1.16056762244,128.3, -3.2, 4,0,0,1024,1024,1024,1024,129.1,0,100,4.14,4.154,4.152,4.147,0,0,82.31,6,GPS_Atti,
0.303915233914755,36.8942141314667,5632.8725939658,19.356956,0.447388,1.22902891072,5500,2017-11-06 12:56:20,14,16.407,5632.8725939658,19.356956,0.447388,1.22902891072,128.3, -2.6, 4,0,0,1024,1024,1024,1024,129.1,0,100,4.14,4.154,4.152,4.147,0,0,82.31,6,GPS_Atti,
0.303915498725804,36.8942142138194,5632.8725939658,19.356956,0.447388,1.29925201008,5600,2017-11-06 12:56:20,14,16.407,5632.8725939658,19.356956,0.447388,1.29925201008,128.3, -2.6, 4.2,0,0,1024,1024,1024,1024,129.1,0,100,4.14,4.154,4.152,4.147,0,0,82.31,6,GPS_Atti,
0.303915741498306,36.8942142959891,5633.2006779658,19.68504,0.671082,1.36913062124,5700,2017-11-06 12:56:20,14,16.407,5633.2006779658,19.68504,0.671082,1.36913062124,128.3, -3.3, 4.6,0,0,1024,1024,1024,1024,129.1,0,100,4.14,4.154,4.152,4.147,0,0,82.31,6,GPS_Atti,
0.303915989902782,36.8942143722952,5633.2006779658,19.68504,0.447388,1.44104007236,5800,2017-11-06 12:56:20,14,16.407,5633.2006779658,19.68504,0.671082,1.44104007236,128.4, -3.7, 5.1,0,0,1024,1024,1024,1024,129.1,0,100,4.14,4.154,4.152,4.147,0,0,82.31,6,GPS_Atti,
0.303916227306304,36.8942144291698,5633.2006779658,19.68504,0.447388,1.50736881464,5900,2017-11-06 12:56:20,14,16.407,5633.2006779658,19.68504,0.671082,1.50736881464,128.4, -3.5, 5.2,0,0,1024,1024,1024,1024,129.1,0,100,4.14,4.154,4.152,4.147,0,0,82.31,6,GPS_Atti,
0.303916444372189,36.894214488389,5633.2006779658,19.68504,0.447388,1.57207026028,6000,2017-11-06 12:56:20,14,16.407,5633.2006779658,19.68504,0.671082,1.57207026028,128.5, -3.6, 5.4,0,0,1024,1024,1024,1024,129.1,0,100,4.14,4.154,4.152,4.147,0,0,82.31,6,GPS_Atti,
0.303916671751825,36.8942144971851,5633.2006779658,19.68504,0.447388,1.6265748552,6100,2017-11-06 12:56:21,14,16.407,5633.2006779658,19.68504,0.671082,1.6265748552,128.5, -3.5, 6.8,0,0,1024,1024,1024,1024,129.1,0,100,4.14,4.154,4.152,4.147,0,0,82.31,6,GPS_Atti,
0.303916862825301,36.8942144970887,5633.2006779658,19.68504,0.223694,1.67214900364,6200,2017-11-06 12:56:21,14,16.915,5633.2006779658,19.68504,0.671082,1.67214900364,128.5, -4.4, 6.5,0,0,1024,1024,1024,1024,129.1,0,100,4.222,4.229,4.227,4.223,0,0,82.31,6,GPS_Atti,
0.303916995443337,36.8942144589057,5633.2006779658,19.68504,0.223694,1.69459323008,6300,2017-11-06 12:56:21,14,16.915,5633.2006779658,19.68504,0.671082,1.69459323008,128.4, -5, 5.6,0,0,1024,1024,1024,1024,129.1,0,100,4.222,4.229,4.227,4.223,0,0,82.31,6,GPS_Atti,
0.303917100797964,36.8942144361148,5633.2006779658,19.68504,0.223694,1.71523299452,6400,2017-11-06 12:56:21,14,16.915,5633.2006779658,19.68504,0.671082,1.71523299452,128.4, -5.3, 5.6,0,0,1024,1024,1024,1024,129.1,0,100,4.222,4.229,4.227,4.223,0,0,82.31,6,GPS_Atti,
0.303917159088931,36.8942143994574,5633.2006779658,19.68504,0.223694,1.72074152488,6500,2017-11-06 12:56:21,14,16.915,5633.2006779658,19.68504,0.671082,1.72074152488,128.3, -5.2, 5.7,0,0,1024,1024,1023,1024,129.1,0,100,4.222,4.229,4.227,4.223,0,0,82.31,6,GPS_Atti,
0.30391719166921,36.8942143880469,5633.2006779658,19.68504,0,1.72628942532,6600,2017-11-06 12:56:21,14,16.915,5633.2006779658,19.68504,0.671082,1.72628942532,128.3, -4.7, 5.7,0,0,1024,1024,1024,1024,129.1,0,100,4.222,4.229,4.227,4.223,0,0,82.31,6,GPS_Atti,
0.303917188843046,36.8942143378882,5633.2006779658,19.68504,0,1.7127953304,6700,2017-11-06 12:56:21,14,16.915,5633.2006779658,19.68504,0.671082,1.72628942532,128.3, -4.4, 5.7,0,0,1024,1024,1024,1024,129.1,0,100,4.222,4.229,4.227,4.223,0,0,82.31,6,GPS_Atti,
0.303917165968293,36.8942142937923,5633.2006779658,19.68504,0,1.69562997552,6800,2017-11-06 12:56:21,14,16.915,5633.2006779658,19.68504,0.671082,1.72628942532,128.3, -5.8, 4.6,0,0,1024,1024,1024,1024,129.1,0,100,4.222,4.229,4.227,4.223,0,0,82.31,6,GPS_Atti,
0.30391713292635,36.8942142771359,5633.2006779658,19.68504,0,1.68272315096,6900,2017-11-06 12:56:21,14,16.915,5633.2006779658,19.68504,0.671082,1.72628942532,128.3, -5.8, 4.8,0,0,1024,1024,1024,1024,129.1,0,100,4.222,4.229,4.227,4.223,0,0,82.31,6,GPS_Atti,
0.303917067857799,36.8942143348402,5633.2006779658,19.68504,0,1.68051842648,7000,2017-11-06 12:56:21,14,16.915,5633.2006779658,19.68504,0.671082,1.72628942532,128.4, -4.3, 5.6,0,0,1024,1024,1024,1024,129.1,0,100,4.222,4.229,4.227,4.223,0,0,82.31,6,GPS_Atti,
0.303917011284026,36.8942144107372,5633.2006779658,19.68504,0,1.6858432298,7100,2017-11-06 12:56:22,14,16.915,5633.2006779658,19.68504,0.671082,1.72628942532,128.4, -3.6, 5.1,0,0,1024,1024,1024,1024,129.1,0,100,4.222,4.229,4.227,4.223,0,0,82.31,6,GPS_Atti,
0.30391692266329,36.8942144975469,5633.2006779658,19.68504,0,1.6868930986,7200,2017-11-06 12:56:22,14,16.782,5633.2006779658,19.68504,0.671082,1.72628942532,128.3, -3.7, 4.9,0,0,1024,1024,1024,1024,129.1,0,100,4.222,4.229,4.227,4.223,0,0,82.31,6,GPS_Atti,
0.303916811587125,36.8942146140337,5633.2006779658,19.68504,0,1.69205385992,7300,2017-11-06 12:56:22,14,16.782,5633.2006779658,19.68504,0.671082,1.72628942532,128.2, -3, 4.4,0,0,1024,1024,1024,1024,129.1,0,100,4.222,4.229,4.227,4.223,0,0,82.31,6,GPS_Atti,
0.303916679702702,36.8942147776986,5633.2006779658,19.68504,0.31540854,1.70809716752,7400,2017-11-06 12:56:22,14,16.782,5633.2006779658,19.68504,0.671082,1.72628942532,128.3, -2, 4.7,0,0,1024,1024,1024,1024,129.1,0,100,4.222,4.229,4.227,4.223,0,0,82.31,6,GPS_Atti,
0.303916550422162,36.8942149747192,5633.2006779658,19.68504,0.31540854,1.73788719472,7500,2017-11-06 12:56:22,14,16.782,5633.2006779658,19.68504,0.671082,1.73788719472,128.2, -0.9, 5.8,0,0,1024,1024,1024,1024,129,0,100,4.222,4.229,4.227,4.223,0,0,82.31,6,GPS_Atti,
0.303916414338797,36.8942151761089,5633.2006779658,19.68504,0.31540854,1.77136488608,7600,2017-11-06 12:56:22,14,16.782,5633.2006779658,19.68504,0.671082,1.77136488608,128.3, 0, 5.9,0,0,1024,1024,1024,1024,129,0,100,4.222,4.229,4.227,4.223,0,0,82.31,6,GPS_Atti,
0.303916298588997,36.8942153412395,5633.2006779658,19.68504,0.31540854,1.80084323348,7700,2017-11-06 12:56:22,14,16.782,5633.2006779658,19.68504,0.671082,1.80084323348,128.3, -0.3, 5.1,0,0,1024,1024,1024,1024,129,0,100,4.222,4.229,4.227,4.223,0,0,82.31,6,GPS_Atti,
0.303916170349033,36.8942154864473,5633.2006779658,19.68504,0.31540854,1.82424218436,7800,2017-11-06 12:56:22,14,16.782,5633.2006779658,19.68504,0.671082,1.82424218436,128.2, 0.3, 4.1,0,0,1024,1024,1024,1024,129,0,100,4.222,4.229,4.227,4.223,0,0,82.31,6,GPS_Atti,
0.303916059973913,36.8942156269765,5633.2006779658,19.68504,0.31540854,1.85139769704,7900,2017-11-06 12:56:22,14,16.782,5633.2006779658,19.68504,0.671082,1.85139769704,128.2, 0.3, 4.6,0,0,1024,1024,1024,1024,129,0,100,4.222,4.229,4.227,4.223,0,0,82.31,6,GPS_Atti,
0.303915982587811,36.8942157550354,5633.2006779658,19.68504,0.223694,1.88132223868,8000,2017-11-06 12:56:22,14,16.782,5633.2006779658,19.68504,0.671082,1.88132223868,128.3, -0.1, 5.6,0,0,1024,1024,1306,1024,129,0,100,4.222,4.229,4.227,4.223,0,0,82.31,6,GPS_Atti,
0.303915909125446,36.8942158541259,5633.2006779658,19.68504,0.31540854,1.90322840736,8100,2017-11-06 12:56:23,14,16.782,5633.2006779658,19.68504,0.671082,1.90322840736,128.3, 0.1, 6.1,0,0,1024,1024,1429,1024,129,0,100,4.222,4.229,4.227,4.223,0,0,82.31,6,GPS_Atti,
0.303915828769877,36.8942159031413,5633.2006779658,19.68504,0.223694,1.90810701644,8200,2017-11-06 12:56:23,14,16.755,5633.2006779658,19.68504,0.671082,1.90810701644,128.1, 0, 5.8,0,0,1024,1024,1477,1024,129,0,100,4.201,4.21,4.209,4.206,0,0,82.31,6,GPS_Atti,
0.303915724904462,36.894215880073,5633.2006779658,19.68504,0.447388,1.88598431232,8300,2017-11-06 12:56:23,14,16.755,5633.2006779658,19.68504,0.671082,1.90810701644,128, 1.6, 4,0,0,1024,1024,1504,1024,129,0,100,4.201,4.21,4.209,4.206,0,0,82.31,6,GPS_Atti,
0.303915638042445,36.8942155345312,5633.8568459658,20.341208,0.447388,1.75722774652,8500,2017-11-06 12:56:23,14,16.755,5633.8568459658,20.341208,0.671082,1.90810701644,128.5, -0.8, 1.6,0,0,1024,1024,1507,1024,129,0,100,4.201,4.21,4.209,4.206,0,0,82.31,6,GPS_Atti,
0.303915731012755,36.8942152747916,5634.5130139658,20.997376,0.50107456,1.68377301976,8600,2017-11-06 12:56:23,14,16.755,5634.5130139658,20.997376,0.671082,1.90810701644,128.5, -4.3, 2.3,0,0,1024,1024,1501,1024,129,0,100,4.201,4.21,4.209,4.206,0,0,82.31,6,GPS_Atti,
0.303915865124075,36.8942150075299,5635.4972659658,21.981628,0.31540854,1.61771330636,8700,2017-11-06 12:56:23,14,16.755,5635.4972659658,21.981628,0.671082,1.90810701644,128.4, -5.5, 2.7,0,0,1024,1024,1499,1024,129,0,100,4.201,4.21,4.209,4.206,0,0,82.31,6,GPS_Atti,
0.303916022118289,36.8942148290693,5636.4815179658,22.96588,0.223694,1.58862865976,8800,2017-11-06 12:56:23,14,16.755,5636.4815179658,22.96588,0.671082,1.90810701644,128.2, -6.1, 4.2,0,0,1024,1024,1498,1024,129,0,100,4.201,4.21,4.209,4.206,0,0,82.31,6,GPS_Atti,
0.303916187977753,36.8942147708907,5637.4657699658,23.950132,0,1.60231960508,8900,2017-11-06 12:56:23,14,16.755,5637.4657699658,23.950132,0.671082,1.90810701644,128.1, -5.4, 6,0,0,1024,1024,1499,1024,129,0,100,4.201,4.21,4.209,4.206,0,0,82.31,6,GPS_Atti,
0.30391633438871,36.8942147675846,5638.4500219658,24.934384,0,1.63086291308,9000,2017-11-06 12:56:23,13,16.755,5638.4500219658,24.934384,0.671082,1.90810701644,128.1, -4.4, 6.8,0,0,1024,1024,1499,1024,129,0,100,4.201,4.21,4.209,4.206,0,0,82.31,6,GPS_Atti,
0.30391642318939,36.894214806061,5639.4342739658,25.918636,0,1.66084979068,9100,2017-11-06 12:56:24,13,16.755,5639.4342739658,25.918636,0.671082,1.90810701644,128.1, -3.9, 7.6,0,0,1024,1024,1500,1024,129,0,100,4.201,4.21,4.209,4.206,0,0,82.31,6,GPS_Atti,
0.303916523606575,36.8942148338195,5640.4185259658,26.902888,0.223694,1.69034782312,9200,2017-11-06 12:56:24,14,16.755,5640.4185259658,26.902888,0.671082,1.90810701644,128.1, -4, 7.5,0,0,1024,1024,1500,1024,129,0,100,4.201,4.21,4.209,4.206,0,0,82.31,6,GPS_Atti,
0.303916648794835,36.8942148436476,5641.7308619658,28.215224,0.223694,1.7203576666,9300,2017-11-06 12:56:24,14,16.755,5641.7308619658,28.215224,0.671082,1.90810701644,128.1, -4, 7.3,0,0,1024,1024,1542,1024,129,0,100,4.201,4.21,4.209,4.206,0,0,82.31,6,GPS_Atti,
0.303916789222075,36.8942148502607,5642.7151139658,29.199476,0.223694,1.75357289076,9400,2017-11-06 12:56:24,14,16.755,5642.7151139658,29.199476,0.671082,1.90810701644,128.2, -3.9, 7.4,0,0,1024,1024,1546,1024,129,0,100,4.201,4.21,4.209,4.206,0,0,82.31,6,GPS_Atti,
0.303916917540205,36.8942148597912,5643.6993659658,30.183728,0.223694,1.78565294428,9500,2017-11-06 12:56:24,14,16.755,5643.6993659658,30.183728,0.671082,1.90810701644,128.2, -3.3, 7,0,0,1024,1024,1537,1024,129,0,100,4.201,4.21,4.209,4.206,0,0,82.31,6,GPS_Atti,
0.303917041590998,36.8942148676355,5645.0117019658,31.496064,0.223694,1.81690294528,9600,2017-11-06 12:56:24,14,16.755,5645.0117019658,31.496064,0.671082,1.90810701644,128.2, -4.1, 7.4,0,0,1024,1024,1528,1024,129,0,100,4.201,4.21,4.209,4.206,0,0,82.31,6,GPS_Atti,
0.303917206106995,36.8942148195163,5645.9959539658,32.480316,0.223694,1.84337604324,9700,2017-11-06 12:56:24,14,16.755,5645.9959539658,32.480316,0.671082,1.90810701644,128, -5.1, 8.1,0,0,1024,1024,1525,1024,129,0,100,4.201,4.21,4.209,4.206,0,0,82.31,6,GPS_Atti,
0.303917325362834,36.8942148152671,5647.3082899658,33.792652,0.223694,1.8717684326,9800,2017-11-06 12:56:24,14,16.755,5647.3082899658,33.792652,0.671082,1.90810701644,127.9, -5.2, 8.4,0,0,1024,1024,1522,1024,129,0,100,4.201,4.21,4.209,4.206,0,0,82.31,6,GPS_Atti,
0.303917443817479,36.8942148199799,5648.2925419658,34.776904,0,1.90287407664,9900,2017-11-06 12:56:24,14,16.755,5648.2925419658,34.776904,0.671082,1.90810701644,128, -4.6, 8.2,0,0,1024,1024,1529,1024,129,0,100,4.201,4.21,4.209,4.206,0,0,82.31,6,GPS_Atti,
0.303917510504703,36.8942148550078,5649.6048779658,36.08924,0,1.92901252892,10000,2017-11-06 12:56:24,14,16.755,5649.6048779658,36.08924,0.671082,1.92901252892,128.1, -4.3, 7.5,0,0,1024,1024,1545,1024,129,0,100,4.201,4.21,4.209,4.206,0,0,82.31,6,GPS_Atti,
0.303917523238321,36.8942149154871,5650.5891299658,37.073492,0,1.94806108596,10100,2017-11-06 12:56:25,14,16.755,5650.5891299658,37.073492,0.671082,1.94806108596,128.3, -3.6, 7.6,0,0,1024,1024,1545,1024,129,0,100,4.201,4.21,4.209,4.206,0,0,82.31,6,GPS_Atti,
0.303917519637017,36.8942149747192,5651.9014659658,38.385828,0,1.96274284496,10200,2017-11-06 12:56:25,14,16.434,5651.9014659658,38.385828,0.671082,1.96274284496,128.3, -3.4, 7.7,0,0,1024,1024,1555,1024,129,0,100,4.139,4.155,4.152,4.148,0,0,82.31,6,GPS_Atti,
0.303917552184727,36.8942150002487,5652.8857179658,39.37008,0,1.97767722864,10300,2017-11-06 12:56:25,14,16.434,5652.8857179658,39.37008,0.671082,1.97767722864,128.2, -4.1, 7.2,0,0,1024,1024,1562,1024,129,-0.5,100,4.139,4.155,4.152,4.148,0,0,82.31,6,GPS_Atti,
0.303917549834883,36.8942150264539,5654.1980539658,40.682416,0,1.98401581152,10400,2017-11-06 12:56:25,14,16.434,5654.1980539658,40.682416,0.671082,1.98401581152,128.1, -4.7, 6.6,0,0,1024,1024,1558,1024,129,-1,100,4.139,4.155,4.152,4.148,0,0,82.31,6,GPS_Atti,
0.30391748295713,36.894215070507,5656.4946419658,42.979004,0,1.97911423656,10600,2017-11-06 12:56:25,14,16.434,5656.4946419658,42.979004,0.671082,1.98401581152,128, -4.7, 7.2,0,0,1024,1024,1559,1024,128.9,-2.3,100,4.139,4.155,4.152,4.148,0,0,82.31,6,GPS_Atti,
0.303917483259207,36.8942151135087,5657.8069779658,44.29134,0.223694,1.9907644994,10700,2017-11-06 12:56:25,14,16.434,5657.8069779658,44.29134,0.671082,1.9907644994,128.1, -3.8, 7.6,0,0,1024,1024,1559,1024,128.9,-2.3,100,4.139,4.155,4.152,4.148,0,0,82.31,6,GPS_Atti,
0.303917455424214,36.8942151771966,5659.1193139658,45.603676,0,2.00124350236,10800,2017-11-06 12:56:25,14,16.434,5659.1193139658,45.603676,0.671082,2.00124350236,128.2, -3, 7.2,0,0,1024,1024,1558,1024,129,-2.9,100,4.139,4.155,4.152,4.148,0,0,82.31,6,GPS_Atti,
0.303917409145464,36.894215265123,5660.4316499658,46.916012,0,2.01427827968,10900,2017-11-06 12:56:25,14,16.434,5660.4316499658,46.916012,0.671082,2.01427827968,128.3, -3, 7.5,0,0,1024,1024,1559,1024,128.9,-3.5,100,4.139,4.155,4.152,4.148,0,0,82.31,6,GPS_Atti,
0.303917379068917,36.8942153456279,5661.4159019658,47.900264,0,2.02958667912,11000,2017-11-06 12:56:25,14,16.434,5661.4159019658,47.900264,0.671082,2.02958667912,128.2, -3.5, 7.9,0,0,1024,1024,1559,1024,128.9,-4.1,100,4.139,4.155,4.152,4.148,0,0,82.31,6,GPS_Atti,
0.303917364894126,36.8942153873192,5662.7282379658,49.2126,0,2.03798234868,11100,2017-11-06 12:56:26,14,16.594,5662.7282379658,49.2126,0.671082,2.03798234868,128.2, -3.3, 8.3,0,0,1024,1024,1558,1024,128.9,-5.3,100,4.155,4.168,4.166,4.162,0,0,82.31,6,GPS_Atti,
0.303917334155618,36.8942154361997,5665.3529099658,51.837272,0,2.04469822816,11300,2017-11-06 12:56:26,14,16.594,5665.3529099658,51.837272,0.671082,2.04469822816,128.3, -2.8, 7.3,0,0,1024,1024,1557,1024,128.9,-5.9,100,4.155,4.168,4.166,4.162,0,0,82.31,6,GPS_Atti,
0.30391733746543,36.8942154372724,5666.6652459658,53.149608,0,2.04576450116,11400,2017-11-06 12:56:26,14,16.594,5666.6652459658,53.149608,0.671082,2.04576450116,128.3, -3.4, 7.6,0,0,1024,1024,1559,1024,128.9,-6.6,100,4.155,4.168,4.166,4.162,0,0,82.31,6,GPS_Atti,
0.303917382266367,36.8942154231341,5667.9775819658,54.461944,0,2.05209652236,11500,2017-11-06 12:56:26,14,16.594,5667.9775819658,54.461944,0.671082,2.05209652236,128.2, -4, 8,0,0,1024,1024,1557,1024,128.9,-7.2,100,4.155,4.168,4.166,4.162,0,0,82.31,6,GPS_Atti,
0.303917402506297,36.8942154137706,5669.2899179658,55.77428,0,2.05416345156,11600,2017-11-06 12:56:26,14,16.594,5669.2899179658,55.77428,0.671082,2.05416345156,128.1, -4.3, 7.9,0,0,1024,1024,1558,1024,128.9,-7.8,100,4.155,4.168,4.166,4.162,0,0,82.31,6,GPS_Atti,
0.303917427046134,36.8942153848012,5670.6022539658,57.086616,0,2.05178156172,11700,2017-11-06 12:56:26,14,16.594,5670.6022539658,57.086616,0.671082,2.05416345156,128, -4.4, 7.5,0,0,1024,1024,1565,1024,128.9,-8.4,100,4.155,4.168,4.166,4.162,0,0,82.31,6,GPS_Atti,
0.303917463047774,36.8942153880911,5672.8988419658,59.383204,0,2.0611713258,11900,2017-11-06 12:56:26,14,16.594,5672.8988419658,59.383204,0.671082,2.0611713258,128.1, -4.1, 7.6,0,0,1024,1024,1564,1024,128.9,-9,100,4.155,4.168,4.166,4.162,0,0,82.31,6,GPS_Atti,
0.30391747779252,36.8942154146988,5674.5392619658,61.023624,0,2.07205715292,12000,2017-11-06 12:56:26,14,16.594,5674.5392619658,61.023624,0.671082,2.07205715292,128.1, -3.8, 7.3,0,0,1024,1024,1570,1024,128.9,-10.2,100,4.155,4.168,4.166,4.162,0,0,82.31,6,GPS_Atti,
0.303917525258406,36.8942154896205,5675.8515979658,62.33596,0,2.10411424056,12100,2017-11-06 12:56:27,14,16.594,5675.8515979658,62.33596,0.671082,2.10411424056,128.1, -4.3, 8.6,0,0,1024,1024,1564,1024,128.9,-10.2,100,4.155,4.168,4.166,4.162,0,0,82.31,6,GPS_Atti,
0.303917561709496,36.8942155680752,5677.1639339658,63.648296,0,2.13458996332,12200,2017-11-06 12:56:27,14,16.514,5677.1639339658,63.648296,0.671082,2.13458996332,128, -4.4, 9,0,0,1024,1024,1565,1024,128.9,-10.9,100,4.155,4.168,4.166,4.162,0,0,82.31,6,GPS_Atti,
0.303917609280417,36.8942156163572,5678.4762699658,64.960632,0,2.15923891424,12300,2017-11-06 12:56:27,14,16.514,5678.4762699658,64.960632,0.671082,2.15923891424,128.1, -4.1, 9.1,0,0,1024,1024,1562,1024,128.9,-11.5,100,4.155,4.168,4.166,4.162,0,0,82.31,6,GPS_Atti,
0.303917631279881,36.8942156663222,5679.7886059658,66.272968,0,2.17837605396,12400,2017-11-06 12:56:27,14,16.514,5679.7886059658,66.272968,0.671082,2.17837605396,128.1, -4.2, 9.2,0,0,1024,1024,1562,1024,128.9,-12.1,100,4.155,4.168,4.166,4.162,0,0,82.31,6,GPS_Atti,
0.303917616049044,36.8942157045062,5680.7728579658,67.25722,0,2.1855643744,12500,2017-11-06 12:56:27,14,16.514,5680.7728579658,67.25722,0.671082,2.1855643744,128, -4.2, 9.2,0,0,1024,1024,1559,1024,128.9,-12.7,100,4.155,4.168,4.166,4.162,0,0,82.31,6,GPS_Atti,
0.303917571897042,36.8942157467607,5682.0851939658,68.569556,0,2.18734915136,12600,2017-11-06 12:56:27,14,16.514,5682.0851939658,68.569556,0.671082,2.18734915136,128.1, -3.7, 8.8,0,0,1024,1024,1558,1024,128.9,-13.3,100,4.155,4.168,4.166,4.162,0,0,82.31,6,GPS_Atti,
0.303917554629836,36.8942157748329,5683.3975299658,69.881892,0,2.19139770792,12700,2017-11-06 12:56:27,14,16.514,5683.3975299658,69.881892,0.671082,2.19139770792,128.1, -3.5, 8.1,0,0,1024,1024,1559,1024,128.9,-13.9,100,4.155,4.168,4.166,4.162,0,0,82.31,6,GPS_Atti,
0.303917525676916,36.8942158074606,5684.7098659658,71.194228,0,2.1941765794,12800,2017-11-06 12:56:27,14,16.514,5684.7098659658,71.194228,0.671082,2.1941765794,128.1, -3.7, 8.2,0,0,1024,1024,1559,1024,128.9,-14.5,100,4.155,4.168,4.166,4.162,0,0,82.31,6,GPS_Atti,
0.303917486730235,36.8942158009503,5686.0222019658,72.506564,0,2.18355321948,12900,2017-11-06 12:56:27,14,16.514,5686.0222019658,72.506564,0.671082,2.1941765794,128.2, -3.6, 8.4,0,0,1024,1024,1559,1024,128.9,-15.2,100,4.155,4.168,4.166,4.162,0,0,82.31,6,GPS_Atti,
0.303917439766725,36.8942157995124,5687.3345379658,73.8189,0,2.172654269,13000,2017-11-06 12:56:27,14,16.514,5687.3345379658,73.8189,0.671082,2.1941765794,128.2, -3.6, 8.4,0,0,1024,1024,1556,1024,128.9,-15.8,100,4.155,4.168,4.166,4.162,0,0,82.31,6,GPS_Atti,
0.303917432266926,36.894215797049,5688.6468739658,75.131236,0,2.17027237916,13100,2017-11-06 12:56:28,14,16.514,5688.6468739658,75.131236,0.671082,2.1941765794,128.2, -4.1, 8.2,0,0,1024,1024,1557,1024,128.9,-16.4,100,4.155,4.168,4.166,4.162,0,0,82.31,6,GPS_Atti,
0.303917406377109,36.8942157958703,5689.9592099658,76.443572,0,2.16419298264,13200,2017-11-06 12:56:28,14,16.568,5689.9592099658,76.443572,0.671082,2.1941765794,128.1, -4.4, 8,0,0,1024,1024,1557,1024,128.9,-16.4,99,4.151,4.164,4.164,4.165,0,0,82.31,6,GPS_Atti,
0.303917411840538,36.8942157821591,5691.2715459658,77.755908,0,2.16142723452,13300,2017-11-06 12:56:28,14,16.568,5691.2715459658,77.755908,0.671082,2.1941765794,128.1, -4.5, 7.9,0,0,1024,1024,1557,1024,128.9,-17,99,4.151,4.164,4.164,4.165,0,0,82.31,6,GPS_Atti,
0.303917394092942,36.8942157903802,5692.5838819658,79.068244,0,2.15988195888,13400,2017-11-06 12:56:28,14,16.568,5692.5838819658,79.068244,0.671082,2.1941765794,128, -4.5, 8.1,0,0,1024,1024,1557,1024,128.9,-17.6,99,4.151,4.164,4.164,4.165,0,0,82.31,6,GPS_Atti,
0.303917362390394,36.8942157625114,5693.8962179658,80.38058,0,2.14479009488,13500,2017-11-06 12:56:28,14,16.568,5693.8962179658,80.38058,0.671082,2.1941765794,128.1, -4.3, 8,0,0,1024,1024,1557,1024,128.9,-18.2,99,4.151,4.164,4.164,4.165,0,0,82.31,6,GPS_Atti,
0.303917311841049,36.8942157584495,5694.8804699658,81.364832,0,2.13250991076,13600,2017-11-06 12:56:28,14,16.568,5694.8804699658,81.364832,0.671082,2.1941765794,128.1, -4.2, 8.3,0,0,1024,1024,1559,1024,128.9,-18.8,99,4.151,4.164,4.164,4.165,0,0,82.31,6,GPS_Atti,
0.303917283075401,36.894215747675,5696.1928059658,82.677168,0,2.12308405744,13700,2017-11-06 12:56:28,14,16.568,5696.1928059658,82.677168,0.671082,2.1941765794,128.1, -3.6, 8.1,0,0,1024,1024,1559,1024,128.9,-19.5,99,4.151,4.164,4.164,4.165,0,0,82.31,6,GPS_Atti,
0.303917226752408,36.8942157431678,5697.5051419658,83.989504,0,2.10955715412,13800,2017-11-06 12:56:28,14,16.568,5697.5051419658,83.989504,0.671082,2.1941765794,128.1, -4.1, 7.2,0,0,1024,1024,1559,1024,128.9,-20.1,99,4.151,4.164,4.164,4.165,0,0,82.31,6,GPS_Atti,
0.303917182887826,36.8942157397055,5698.8174779658,85.30184,0,2.09911752124,13900,2017-11-06 12:56:28,14,16.568,5698.8174779658,85.30184,0.671082,2.1941765794,128, -4.3, 7.9,0,0,1024,1024,1558,1024,128.9,-20.7,99,4.151,4.164,4.164,4.165,0,0,82.31,6,GPS_Atti,
0.30391711967733,36.8942157681385,5700.1298139658,86.614176,0,2.09414704864,14000,2017-11-06 12:56:28,14,16.568,5700.1298139658,86.614176,0.671082,2.1941765794,128.1, -3.4, 8,0,0,1024,1024,1555,1024,128.9,-21.3,99,4.151,4.164,4.164,4.165,0,0,82.31,6,GPS_Atti,
0.303917076212531,36.8942157789077,5701.4421499658,87.926512,0,2.0882710642,14100,2017-11-06 12:56:29,14,16.568,5701.4421499658,87.926512,0.671082,2.1941765794,128.2, -3.3, 8,0,0,1024,1024,1487,1024,128.9,-21.9,99,4.151,4.164,4.164,4.165,0,0,82.31,6,GPS_Atti,
0.3039170286009,36.8942157855283,5702.7544859658,89.238848,0,2.08040032904,14200,2017-11-06 12:56:29,14,16.434,5702.7544859658,89.238848,0.671082,2.1941765794,128.1, -3.8, 8,0,0,1024,1024,1266,1024,128.9,-22.5,99,4.154,4.167,4.164,4.159,0,0,82.31,6,GPS_Atti,
0.303917015623015,36.8942157593949,5704.0668219658,90.551184,0,2.06985899012,14300,2017-11-06 12:56:29,14,16.434,5704.0668219658,90.551184,0.671082,2.1941765794,127.8, -5.4, 9.9,0,0,1024,1024,1161,1024,128.9,-22.6,99,4.154,4.167,4.164,4.159,0,0,82.31,6,GPS_Atti,
0.303917014224996,36.8942157584131,5705.0510739658,91.535436,0,2.0692750006,14400,2017-11-06 12:56:29,14,16.434,5705.0510739658,91.535436,0.671082,2.1941765794,127.6, -6.6, 11.7,0,0,1024,1024,1106,1024,128.9,-22.6,99,4.154,4.167,4.164,4.159,0,0,82.31,6,GPS_Atti,
0.303917022937986,36.8942157429301,5705.7072419658,92.191604,0,2.06641738896,14500,2017-11-06 12:56:29,14,16.434,5705.7072419658,92.191604,0.671082,2.1941765794,127.7, -6.2, 11,0,0,1024,1024,1047,1024,128.9,-22.6,99,4.154,4.167,4.164,4.159,0,0,82.31,6,GPS_Atti,
0.303917023056048,36.8942157415522,5706.0353259658,92.519688,0,2.066026969,14600,2017-11-06 12:56:29,14,16.434,5706.0353259658,92.519688,0.671082,2.1941765794,127.7, -5.7, 10.1,0,0,1024,1024,1025,1024,128.9,-22.6,99,4.154,4.167,4.164,4.159,0,0,82.31,6,GPS_Atti,
0.303917062961068,36.8942156904492,5706.3634099658,92.847772,0,2.05905846484,14700,2017-11-06 12:56:29,14,16.434,5706.3634099658,92.847772,0.671082,2.1941765794,127.9, -4.8, 9.4,0,0,1024,1024,1024,1024,128.9,-22.6,99,4.154,4.167,4.164,4.159,0,0,82.31,6,GPS_Atti,
0.303917086641086,36.8942156625451,5706.6914939658,93.175856,0,2.0557579398,14800,2017-11-06 12:56:29,14,16.434,5706.6914939658,93.175856,0.671082,2.1941765794,128.1, -3.9, 8.2,0,0,1036,1024,1024,1024,128.9,-22.6,99,4.154,4.167,4.164,4.159,0,0,82.31,6,GPS_Atti,
0.303917166496723,36.8942156254745,5706.6914939658,93.175856,0,2.06193904236,14900,2017-11-06 12:56:29,14,16.434,5706.6914939658,93.175856,0.671082,2.1941765794,128.2, -3.5, 8.1,0,0,1097,1024,1024,1024,128.9,-22.6,99,4.154,4.167,4.164,4.159,0,0,82.31,6,GPS_Atti,
0.303917243398363,36.8942155962428,5707.0195779658,93.50394,0,2.07022316336,15000,2017-11-06 12:56:29,14,16.434,5707.0195779658,93.50394,0.671082,2.1941765794,128.3, -3.5, 8.4,0,0,1187,1024,1024,1024,128.9,-22.6,99,4.154,4.167,4.164,4.159,0,0,82.31,6,GPS_Atti,
0.303917345386996,36.8942155462243,5707.0195779658,93.50394,0,2.07860570956,15100,2017-11-06 12:56:30,14,16.434,5707.0195779658,93.50394,0.671082,2.1941765794,128.3, -4, 6.4,0,0,1272,1024,1024,1024,128.9,-22.6,99,4.154,4.167,4.164,4.159,0,0,82.31,6,GPS_Atti,
0.303917444983445,36.8942155103024,5707.0195779658,93.50394,0.223694,2.09119757348,15200,2017-11-06 12:56:30,14,16.488,5707.0195779658,93.50394,0.671082,2.1941765794,128.2, -5.4, 5.4,0,0,1305,1024,1024,1024,128.9,-22.6,99,4.154,4.167,4.164,4.159,0,0,82.31,6,GPS_Atti,
0.303917500366825,36.8942154778503,5707.0195779658,93.50394,0.31540854,2.09498366284,15300,2017-11-06 12:56:30,14,16.488,5707.0195779658,93.50394,0.671082,2.1941765794,128.1, -8.7, 6,0,0,1247,1024,1024,1024,128.9,-22.6,99,4.154,4.167,4.164,4.159,0,0,82.31,6,GPS_Atti,
0.303917546051193,36.8942155226946,5707.0195779658,93.50394,0.447388,2.11823169508,15400,2017-11-06 12:56:30,14,16.488,5707.0195779658,93.50394,0.671082,2.1941765794,127.8, -12.3, 6.6,0,0,1024,1024,1024,1024,128.9,-22.6,99,4.154,4.167,4.164,4.159,0,0,82.31,6,GPS_Atti,
0.303917523717898,36.8942156427893,5707.0195779658,93.50394,0.671082,2.14680453064,15500,2017-11-06 12:56:30,14,16.488,5707.0195779658,93.50394,0.671082,2.1941765794,127.7, -13.4, 6.6,0,0,1024,1024,1024,1024,128.9,-22.6,99,4.154,4.167,4.164,4.159,0,0,82.31,6,GPS_Atti,
0.303917424023742,36.8942159113057,5707.3476619658,93.832024,1.11847,2.20168314132,15600,2017-11-06 12:56:30,14,16.488,5707.3476619658,93.832024,1.11847,2.20168314132,127.9, -10, 6.6,0,0,1024,1024,1024,1024,128.9,-22.6,99,4.154,4.167,4.164,4.159,0,0,82.31,6,GPS_Atti,
0.303917235455627,36.8942162986781,5707.3476619658,93.832024,1.1408394,2.27795939048,15700,2017-11-06 12:56:30,14,16.488,5707.3476619658,93.832024,1.1408394,2.27795939048,128.2, -5, 7.4,0,0,1024,1024,1024,1024,128.9,-22.6,99,4.154,4.167,4.164,4.159,0,0,82.31,6,GPS_Atti,
0.303917040420146,36.8942167142919,5707.3476619658,93.832024,1.1408394,2.369996795,15800,2017-11-06 12:56:30,14,16.488,5707.3476619658,93.832024,1.1408394,2.369996795,128.5, -1.8, 7.7,0,0,1024,1024,1150,1024,128.9,-22.6,99,4.154,4.167,4.164,4.159,0,0,82.31,6,GPS_Atti,
0.303916878009727,36.894217076837,5707.3476619658,93.832024,1.11847,2.45808406816,15900,2017-11-06 12:56:30,14,16.488,5707.3476619658,93.832024,1.1408394,2.45808406816,128.5, 0, 7.6,0,0,1024,1024,1309,1024,128.9,-22.6,99,4.154,4.167,4.164,4.159,0,0,82.31,6,GPS_Atti,
0.303916747256259,36.8942173936793,5707.3476619658,93.832024,0.894776,2.54106307344,16000,2017-11-06 12:56:30,14,16.488,5707.3476619658,93.832024,1.1408394,2.54106307344,128.8, 2.3, 7.1,0,0,1024,1024,1409,1024,128.9,-22.6,99,4.154,4.167,4.164,4.159,0,0,82.31,6,GPS_Atti,
0.303916661415276,36.8942175444017,5707.3476619658,93.832024,0.447388,2.5782317098,16100,2017-11-06 12:56:31,15,16.488,5707.3476619658,93.832024,1.1408394,2.5782317098,128.9, 3.8, 6.4,0,0,1024,1024,1445,1024,128.9,-22.6,99,4.154,4.167,4.164,4.159,0,0,82.31,6,GPS_Atti,
0.303916674182277,36.8942175754277,5707.6757459658,94.160108,0.223694,2.590469243,16200,2017-11-06 12:56:31,15,16.835,5707.6757459658,94.160108,1.1408394,2.590469243,128.8, 2, 6.2,0,0,1024,1024,1469,1024,128.9,-22.6,99,4.147,4.158,4.161,4.161,0,0,82.31,6,GPS_Atti,
0.303916845401764,36.8942173586417,5708.3319139658,94.816276,0.447388,2.54485244364,16300,2017-11-06 12:56:31,15,16.835,5708.3319139658,94.816276,1.1408394,2.590469243,128.2, -3.3, 6.4,0,0,1024,1024,1487,1024,128.9,-22.6,99,4.147,4.158,4.161,4.161,0,0,82.31,6,GPS_Atti,
0.30391702589524,36.8942171715574,5708.9880819658,95.472444,0.223694,2.51362868936,16400,2017-11-06 12:56:31,15,16.835,5708.9880819658,95.472444,1.1408394,2.590469243,127.8, -6, 7.2,0,0,1024,1024,1492,1024,128.9,-22.6,99,4.147,4.158,4.161,4.161,0,0,82.31,6,GPS_Atti,
0.303917303578325,36.8942169832151,5709.9723339658,96.456696,0.223694,2.50310375464,16500,2017-11-06 12:56:31,15,16.835,5709.9723339658,96.456696,1.1408394,2.590469243,127.9, -5.3, 8.5,0,0,1024,1024,1499,1024,128.9,-22.6,99,4.147,4.158,4.161,4.161,0,0,82.31,6,GPS_Atti,
0.303917484945461,36.8942168583348,5710.9565859658,97.440948,0,2.49887147104,16600,2017-11-06 12:56:31,15,16.835,5710.9565859658,97.440948,1.1408394,2.590469243,128, -4.9, 9.3,0,0,1024,1024,1514,1024,128.9,-22.6,99,4.147,4.158,4.161,4.161,0,0,82.31,6,GPS_Atti,
0.303917616346235,36.8942167905197,5711.9408379658,98.4252,0,2.50429141872,16700,2017-11-06 12:56:31,14,16.835,5711.9408379658,98.4252,1.1408394,2.590469243,128.1, -4.1, 8.8,0,0,1024,1024,1516,1024,128.9,-22.6,99,4.147,4.158,4.161,4.161,0,0,82.31,6,GPS_Atti,
0.303917683209331,36.8942167047689,5712.9250899658,99.409452,0,2.49206700888,16800,2017-11-06 12:56:31,14,16.835,5712.9250899658,99.409452,1.1408394,2.590469243,128.2, -4, 7.6,0,0,1024,1024,1520,1024,128.9,-22.6,99,4.147,4.158,4.161,4.161,0,0,82.31,6,GPS_Atti,
0.303917743508984,36.8942166385682,5713.9093419658,100.393704,0,2.48484916088,16900,2017-11-06 12:56:31,14,16.835,5713.9093419658,100.393704,1.1408394,2.590469243,128.2, -4.7, 6.9,0,0,1024,1024,1524,1024,128.9,-22.6,99,4.147,4.158,4.161,4.161,0,0,82.31,6,GPS_Atti,
0.303917792409529,36.8942165726278,5714.8935939658,101.377956,0,2.47567921308,17000,2017-11-06 12:56:31,14,16.835,5714.8935939658,101.377956,1.1408394,2.590469243,128.2, -4.8, 6.6,0,0,1024,1024,1524,1024,128.9,-22.6,99,4.147,4.158,4.161,4.161,0,0,82.31,6,GPS_Atti,
0.303917856365038,36.8942165379596,5715.8778459658,102.362208,0,2.47927173288,17100,2017-11-06 12:56:32,15,16.835,5715.8778459658,102.362208,1.1408394,2.590469243,128.2, -4.8, 6.4,0,0,1024,1024,1534,1024,128.9,-22.6,99,4.147,4.158,4.161,4.161,0,0,82.31,6,GPS_Atti,
0.303917916939898,36.8942165064593,5717.1901819658,103.674544,0,2.4833170086,17200,2017-11-06 12:56:32,15,16.728,5717.1901819658,103.674544,1.1408394,2.590469243,128.2, -4.9, 6.3,0,0,1024,1024,1542,1024,128.9,-22.6,99,4.184,4.193,4.193,4.193,0,0,82.31,6,GPS_Atti,
0.30391803781034,36.8942165527114,5718.1744339658,104.658796,0,2.5235072986,17300,2017-11-06 12:56:32,15,16.728,5718.1744339658,104.658796,1.1408394,2.590469243,128.2, -4.8, 6,0,0,1024,1024,1550,1024,128.9,-22.6,99,4.184,4.193,4.193,4.193,0,0,82.31,6,GPS_Atti,
0.3039181374418,36.8942165959969,5719.1586859658,105.643048,0,2.55829732596,17400,2017-11-06 12:56:32,15,16.728,5719.1586859658,105.643048,1.1408394,2.590469243,128.2, -4.7, 5.5,0,0,1024,1024,1551,1024,128.9,-22.6,99,4.184,4.193,4.193,4.193,0,0,82.31,6,GPS_Atti,
0.303918245524885,36.8942167344973,5720.4710219658,106.955384,0,2.6223918162,17500,2017-11-06 12:56:32,15,16.728,5720.4710219658,106.955384,1.1408394,2.6223918162,128.2, -4.6, 5.8,0,0,1024,1024,1560,1024,128.9,-22.6,99,4.184,4.193,4.193,4.193,0,0,82.31,6,GPS_Atti,
0.303918354008568,36.8942168608015,5721.4552739658,107.939636,0,2.68308079452,17600,2017-11-06 12:56:32,15,16.728,5721.4552739658,107.939636,1.1408394,2.68308079452,128.2, -4.7, 6.2,0,0,1024,1024,1570,1024,128.9,-22.6,99,4.184,4.193,4.193,4.193,0,0,82.31,6,GPS_Atti,
0.303918499186793,36.8942170228648,5722.7676099658,109.251972,0,2.762303238,17700,2017-11-06 12:56:32,15,16.728,5722.7676099658,109.251972,1.1408394,2.762303238,128.2, -4.9, 6.6,0,0,1024,1024,1571,1024,128.9,-22.6,99,4.184,4.193,4.193,4.193,0,0,82.31,6,GPS_Atti,
0.303918634652978,36.8942171702063,5724.0799459658,110.564308,0,2.83512476264,17800,2017-11-06 12:56:32,15,16.728,5724.0799459658,110.564308,1.1408394,2.83512476264,128.1, -4.7, 6.7,0,0,1024,1024,1576,1024,128.9,-22.6,99,4.184,4.193,4.193,4.193,0,0,82.31,6,GPS_Atti,
0.303918777571736,36.8942173473201,5725.3922819658,111.876644,0,2.91815626136,17900,2017-11-06 12:56:32,15,16.728,5725.3922819658,111.876644,1.1408394,2.91815626136,128.1, -5, 6.8,0,0,1024,1024,1578,1024,128.9,-22.6,99,4.184,4.193,4.193,4.193,0,0,82.31,6,GPS_Atti,
0.303918910271195,36.8942175091682,5726.7046179658,113.18898,0,2.994504689,18000,2017-11-06 12:56:32,15,16.728,5726.7046179658,113.18898,1.1408394,2.994504689,128.1, -5.2, 7.2,0,0,1024,1024,1579,1024,128.9,-22.6,99,4.184,4.193,4.193,4.193,0,0,82.31,6,GPS_Atti,
0.303919022494599,36.8942177129197,5727.6888699658,114.173232,0,3.07822188328,18100,2017-11-06 12:56:33,15,16.728,5727.6888699658,114.173232,1.1408394,3.07822188328,128, -5.1, 7.4,0,0,1024,1024,1582,1024,128.9,-22.6,99,4.184,4.193,4.193,4.193,0,0,82.31,6,GPS_Atti,
0.303919117384031,36.8942179097454,5729.0012059658,115.485568,0,3.15612542908,18200,2017-11-06 12:56:33,15,16.434,5729.0012059658,115.485568,1.1408394,3.15612542908,128.1, -4.8, 7.6,0,0,1024,1024,1583,1024,128.9,-22.6,99,4.137,4.147,4.147,4.151,0,0,84.11,6,GPS_Atti,
0.30391919127142,36.8942181245016,5730.3135419658,116.797904,0,3.23464905364,18300,2017-11-06 12:56:33,15,16.434,5730.3135419658,116.797904,1.1408394,3.23464905364,128.1, -4.5, 7.4,0,0,1024,1024,1583,1024,128.9,-22.6,99,4.137,4.147,4.147,4.151,0,0,84.11,6,GPS_Atti,
0.303919262064766,36.8942183177558,5731.6258779658,118.11024,0,3.306430552,18400,2017-11-06 12:56:33,15,16.434,5731.6258779658,118.11024,1.1408394,3.306430552,128, -4.7, 8,0,0,1024,1024,1584,1024,128.9,-22.6,99,4.137,4.147,4.147,4.151,0,0,84.11,6,GPS_Atti,
0.303919322501208,36.894218491691,5732.9382139658,119.422576,0,3.3704725488,18500,2017-11-06 12:56:33,15,16.434,5732.9382139658,119.422576,1.1408394,3.3704725488,128, -4.9, 7.8,0,0,1024,1024,1589,1024,128.9,-22.6,99,4.137,4.147,4.147,4.151,0,0,84.11,6,GPS_Atti,
0.303919360043356,36.8942186674312,5734.2505499658,120.734912,0,3.4301838368,18600,2017-11-06 12:56:33,15,16.434,5734.2505499658,120.734912,1.1408394,3.4301838368,128, -4.5, 7.3,0,0,1024,1024,1590,1024,128.9,-22.6,99,4.137,4.147,4.147,4.151,0,0,84.11,6,GPS_Atti,
0.30391940954154,36.8942188856593,5735.5628859658,122.047248,0,3.5052822644,18700,2017-11-06 12:56:33,15,16.434,5735.5628859658,122.047248,1.1408394,3.5052822644,128.1, -4, 7.3,0,0,1024,1024,1593,1024,128.9,-22.6,99,4.137,4.147,4.147,4.151,0,0,84.11,6,GPS_Atti,
0.303919445320083,36.8942190976384,5736.8752219658,123.359584,0.223694,3.5758859412,18800,2017-11-06 12:56:33,15,16.434,5736.8752219658,123.359584,1.1408394,3.5758859412,128.1, -3.4, 7.6,0,0,1024,1024,1595,1024,128.9,-22.6,99,4.137,4.147,4.147,4.151,0,0,84.11,6,GPS_Atti,
0.303919474148427,36.8942193185526,5738.1875579658,124.67192,0,3.6480644212,18900,2017-11-06 12:56:33,15,16.434,5738.1875579658,124.67192,1.1408394,3.6480644212,128.1, -3.1, 7.4,0,0,1024,1024,1599,1024,128.9,-22.6,99,4.137,4.147,4.147,4.151,0,0,84.11,6,GPS_Atti,
0.303919493595305,36.8942195157713,5739.4998939658,125.984256,0,3.7115486752,19000,2017-11-06 12:56:33,15,16.434,5739.4998939658,125.984256,1.1408394,3.7115486752,128.1, -3.1, 7.3,0,0,1024,1024,1601,1024,128.9,-22.6,99,4.137,4.147,4.147,4.151,0,0,84.11,6,GPS_Atti,
0.303919493831429,36.8942197120745,5740.8122299658,127.296592,0,3.7712271548,19100,2017-11-06 12:56:34,15,16.434,5740.8122299658,127.296592,1.1408394,3.7712271548,128.1, -3, 7.4,0,0,1024,1024,1602,1024,128.9,-22.6,99,4.137,4.147,4.147,4.151,0,0,84.11,6,GPS_Atti,
0.303919498679307,36.8942198921657,5742.1245659658,128.608928,0,3.8272310936,19200,2017-11-06 12:56:34,15,16.514,5742.1245659658,128.608928,1.1408394,3.8272310936,128.1, -3, 7.3,0,0,1024,1024,1607,1024,128.9,-22.6,99,4.137,4.147,4.147,4.151,0,0,84.11,6,GPS_Atti,
0.303919536648107,36.8942200383531,5743.4369019658,129.921264,0,3.8795933,19300,2017-11-06 12:56:34,15,16.514,5743.4369019658,129.921264,1.1408394,3.8795933,128.2, -3.2, 7.6,0,0,1024,1024,1615,1024,128.9,-22.6,99,4.137,4.147,4.147,4.151,0,0,84.11,6,GPS_Atti,
0.303919574937711,36.8942201782753,5744.7492379658,131.2336,0,3.9301510444,19400,2017-11-06 12:56:34,15,16.514,5744.7492379658,131.2336,1.1408394,3.9301510444,128.1, -2.9, 8.3,0,0,1024,1024,1617,1024,128.9,-22.6,99,4.137,4.147,4.147,4.151,0,0,84.11,6,GPS_Atti,
0.303919628458152,36.8942203268426,5746.3896579658,132.87402,0,3.9864174504,19500,2017-11-06 12:56:34,15,16.514,5746.3896579658,132.87402,1.1408394,3.9864174504,128.2, -2.6, 8.3,0,0,1024,1024,1617,1024,128.9,-22.6,99,4.137,4.147,4.147,4.151,0,0,84.11,6,GPS_Atti,
0.303919661596987,36.8942204363062,5747.7019939658,134.186356,0,4.0266733572,19600,2017-11-06 12:56:34,15,16.514,5747.7019939658,134.186356,1.1408394,4.0266733572,128.2, -2.6, 7.8,0,0,1024,1024,1617,1024,128.9,-22.6,99,4.137,4.147,4.147,4.151,0,0,84.11,6,GPS_Atti,
0.30391971057244,36.894220518553,5749.0143299658,135.498692,0,4.0615814948,19700,2017-11-06 12:56:34,15,16.514,5749.0143299658,135.498692,1.1408394,4.0615814948,128.2, -3.1, 7.6,0,0,1024,1024,1617,1024,128.9,-22.6,99,4.137,4.147,4.147,4.151,0,0,84.11,6,GPS_Atti,
0.303919746805319,36.8942205703444,5750.6547499658,137.139112,0,4.0846129916,19800,2017-11-06 12:56:34,15,16.514,5750.6547499658,137.139112,1.1408394,4.0846129916,128.1, -3.7, 7.3,0,0,1024,1024,1627,1024,128.9,-22.7,99,4.137,4.147,4.147,4.151,0,0,84.11,6,GPS_Atti,
0.303919762483978,36.8942205677289,5751.9670859658,138.451448,0,4.0868439628,19900,2017-11-06 12:56:34,15,16.514,5751.9670859658,138.451448,1.1408394,4.0868439628,128.1, -4.1, 7.1,0,0,1024,1024,1620,1024,128.9,-22.7,99,4.137,4.147,4.147,4.151,0,0,84.11,6,GPS_Atti,
0.303919767624975,36.8942205710853,5753.2794219658,139.763784,0,4.0888780836,20000,2017-11-06 12:56:34,15,16.514,5753.2794219658,139.763784,1.1408394,4.0888780836,128.1, -4, 7,0,0,1024,1024,1622,1024,128.9,-22.7,99,4.137,4.147,4.147,4.151,0,0,84.11,6,GPS_Atti,
0.303919790423191,36.8942206192891,5754.9198419658,141.404204,0,4.1082022312,20100,2017-11-06 12:56:35,15,16.514,5754.9198419658,141.404204,1.1408394,4.1082022312,128.1, -3.8, 6.8,0,0,1024,1024,1622,1024,128.9,-22.7,99,4.137,4.147,4.147,4.151,0,0,84.11,6,GPS_Atti,
0.303919810770599,36.8942206619964,5756.2321779658,142.71654,0,4.1253610244,20200,2017-11-06 12:56:35,15,16.434,5756.2321779658,142.71654,1.1408394,4.1253610244,128.2, -3.8, 7.1,0,0,1024,1024,1624,1024,128.9,-22.7,99,4.136,4.145,4.142,4.144,0,0,84.11,6,GPS_Atti,
0.303919870501925,36.89422068002,5757.5445139658,144.028876,0,4.1425198176,20300,2017-11-06 12:56:35,15,16.434,5757.5445139658,144.028876,1.1408394,4.1425198176,128.1, -4.1, 7.6,0,0,1024,1024,1623,1024,128.9,-22.8,99,4.136,4.145,4.142,4.144,0,0,84.11,6,GPS_Atti,
0.30391990746109,36.8942206850037,5759.1849339658,145.669296,0,4.151246852,20400,2017-11-06 12:56:35,15,16.434,5759.1849339658,145.669296,1.1408394,4.151246852,128.1, -4, 7.2,0,0,1024,1024,1624,1024,128.9,-22.8,99,4.136,4.145,4.142,4.144,0,0,84.11,6,GPS_Atti,
0.303919973100411,36.8942206651322,5760.4972699658,146.981632,0,4.1580381908,20500,2017-11-06 12:56:35,15,16.434,5760.4972699658,146.981632,1.1408394,4.1580381908,128.1, -4, 6.9,0,0,1024,1024,1627,1024,128.9,-22.8,99,4.136,4.145,4.142,4.144,0,0,84.11,6,GPS_Atti,
0.303920032988067,36.8942206513568,5762.1376899658,148.622052,0,4.165682548,20600,2017-11-06 12:56:35,15,16.434,5762.1376899658,148.622052,1.1408394,4.165682548,128.1, -4.2, 7,0,0,1024,1024,1628,1024,128.9,-22.8,99,4.136,4.145,4.142,4.144,0,0,84.11,6,GPS_Atti,
0.303920085818047,36.8942206365879,5763.4500259658,149.934388,0,4.1717192936,20700,2017-11-06 12:56:35,15,16.434,5763.4500259658,149.934388,1.1408394,4.1717192936,128.1, -4.4, 7.4,0,0,1024,1024,1629,1024,128.9,-22.9,99,4.136,4.145,4.142,4.144,0,0,84.11,6,GPS_Atti,
0.303920129370782,36.8942206292607,5765.0904459658,151.574808,0,4.1782153568,20800,2017-11-06 12:56:35,15,16.434,5765.0904459658,151.574808,1.1408394,4.1782153568,128.1, -4.5, 7.6,0,0,1024,1024,1632,1024,128.9,-22.9,99,4.136,4.145,4.142,4.144,0,0,84.11,6,GPS_Atti,
0.303920181725256,36.8942205918271,5766.4027819658,152.887144,0,4.1774607636,20900,2017-11-06 12:56:35,15,16.434,5766.4027819658,152.887144,1.1408394,4.1782153568,128.1, -4.3, 7.9,0,0,1024,1024,1634,1024,128.9,-22.9,99,4.136,4.145,4.142,4.144,0,0,84.11,6,GPS_Atti,
0.303920217852286,36.8942205626125,5768.0432019658,154.527564,0,4.1759515772,21000,2017-11-06 12:56:35,15,16.434,5768.0432019658,154.527564,1.1408394,4.1782153568,128.1, -4.2, 7.6,0,0,1024,1024,1632,1024,128.9,-22.9,99,4.136,4.145,4.142,4.144,0,0,84.11,6,GPS_Atti,
0.303920294722985,36.8942204923597,5769.3555379658,155.8399,0,4.170603808,21100,2017-11-06 12:56:36,15,16.434,5769.3555379658,155.8399,1.1408394,4.1782153568,128.1, -4.3, 7.4,0,0,1024,1024,1629,1024,128.9,-23,99,4.136,4.145,4.142,4.144,0,0,84.11,6,GPS_Atti,
0.303920354648096,36.8942204377997,5770.9959579658,157.48032,0,4.1666996084,21200,2017-11-06 12:56:36,15,16.381,5770.9959579658,157.48032,1.1408394,4.1782153568,128.1, -4.5, 7.4,0,0,1024,1024,1631,1024,128.9,-23,99,4.128,4.139,4.136,4.138,0,0,84.11,6,GPS_Atti,
0.303920424672816,36.8942203594007,5772.3082939658,158.792656,0,4.1580709992,21300,2017-11-06 12:56:36,15,16.381,5772.3082939658,158.792656,1.1408394,4.1782153568,128.1, -4.7, 7.3,0,0,1024,1024,1631,1024,128.9,-23,99,4.128,4.139,4.136,4.138,0,0,84.11,6,GPS_Atti,
0.303920475911807,36.8942203047111,5773.9487139658,160.433076,0,4.1527560384,21400,2017-11-06 12:56:36,15,16.381,5773.9487139658,160.433076,1.1408394,4.1782153568,128.1, -5, 7.6,0,0,1024,1024,1631,1024,128.9,-23,99,4.128,4.139,4.136,4.138,0,0,84.11,6,GPS_Atti,
0.303920531358696,36.8942202437265,5775.2610499658,161.745412,0,4.1466864844,21500,2017-11-06 12:56:36,15,16.381,5775.2610499658,161.745412,1.1408394,4.1782153568,128, -5, 7.7,0,0,1024,1024,1627,1024,128.9,-23.1,99,4.128,4.139,4.136,4.138,0,0,84.11,6,GPS_Atti,
0.30392055974736,36.8942202080305,5776.5733859658,163.057748,0,4.1423229672,21600,2017-11-06 12:56:36,15,16.381,5776.5733859658,163.057748,1.1408394,4.1782153568,128, -4.7, 7.3,0,0,1024,1024,1627,1024,128.9,-23.1,99,4.128,4.139,4.136,4.138,0,0,84.11,6,GPS_Atti,
0.303920598357768,36.8942201238438,5778.2138059658,164.698168,0,4.1261156176,21700,2017-11-06 12:56:36,15,16.381,5778.2138059658,164.698168,1.1408394,4.1782153568,128.1, -4.5, 7.3,0,0,1024,1024,1628,1024,128.9,-23.1,99,4.128,4.139,4.136,4.138,0,0,84.11,6,GPS_Atti,
0.303920626744803,36.8942200718661,5779.5261419658,166.010504,0,4.1171917328,21800,2017-11-06 12:56:36,15,16.381,5779.5261419658,166.010504,1.1408394,4.1782153568,128.1, -4.4, 7.5,0,0,1024,1024,1628,1024,128.9,-23.1,99,4.128,4.139,4.136,4.138,0,0,84.11,6,GPS_Atti,
0.303920678358336,36.8942199690723,5781.1665619658,167.650924,0,4.0988518372,21900,2017-11-06 12:56:36,15,16.381,5781.1665619658,167.650924,1.1408394,4.1782153568,128.1, -4.4, 7.5,0,0,1024,1024,1627,1024,128.9,-23.2,99,4.128,4.139,4.136,4.138,0,0,84.11,6,GPS_Atti,
0.303920723679561,36.8942198901016,5782.4788979658,168.96326,0,4.08628622,22000,2017-11-06 12:56:36,15,16.381,5782.4788979658,168.96326,1.1408394,4.1782153568,128.1, -4.8, 7.6,0,0,1024,1024,1629,1024,128.9,-23.2,99,4.128,4.139,4.136,4.138,0,0,84.11,6,GPS_Atti,
0.303920793930635,36.8942197579145,5784.1193179658,170.60368,0,4.064468634,22100,2017-11-06 12:56:37,15,16.381,5784.1193179658,170.60368,1.1408394,4.1782153568,128, -4.9, 7.6,0,0,1024,1024,1629,1024,128.9,-23.2,99,4.128,4.139,4.136,4.138,0,0,84.11,6,GPS_Atti,
0.303920841785718,36.8942196711294,5785.4316539658,171.916016,0,4.0508859564,22200,2017-11-06 12:56:37,15,16.514,5785.4316539658,171.916016,1.1408394,4.1782153568,128.1, -4.7, 7.7,0,0,1024,1024,1629,1024,128.9,-23.3,99,4.122,4.137,4.137,4.137,0,0,84.11,6,GPS_Atti,
0.303920941068692,36.8942195368525,5786.7439899658,173.228352,0,4.0363518352,22300,2017-11-06 12:56:37,15,16.514,5786.7439899658,173.228352,1.1408394,4.1782153568,128.1, -4.9, 7.9,0,0,1024,1024,1630,1024,128.9,-23.3,99,4.122,4.137,4.137,4.137,0,0,84.11,6,GPS_Atti,
0.303921009645726,36.89421943476,5788.3844099658,174.868772,0,4.0242455356,22400,2017-11-06 12:56:37,15,16.514,5788.3844099658,174.868772,1.1408394,4.1782153568,128.1, -5.2, 7.9,0,0,1024,1024,1630,1024,128.9,-23.3,99,4.122,4.137,4.137,4.137,0,0,84.11,6,GPS_Atti,
0.303921075031009,36.8942192401375,5789.6967459658,176.181108,0,3.9865158756,22500,2017-11-06 12:56:37,15,16.514,5789.6967459658,176.181108,1.1408394,4.1782153568,128.1, -5.1, 7.6,0,0,1024,1024,1629,1024,128.9,-23.4,99,4.122,4.137,4.137,4.137,0,0,84.11,6,GPS_Atti,
0.303921097326036,36.8942190922308,5791.0090819658,177.493444,0,3.9518373968,22600,2017-11-06 12:56:37,15,16.514,5791.0090819658,177.493444,1.1408394,4.1782153568,128.1, -5.1, 6.9,0,0,1024,1024,1629,1024,128.9,-23.4,99,4.122,4.137,4.137,4.137,0,0,84.11,6,GPS_Atti,
0.303921129364043,36.8942189248605,5792.6495019658,179.133864,0,3.91486233,22700,2017-11-06 12:56:37,15,16.514,5792.6495019658,179.133864,1.1408394,4.1782153568,128.1, -5.3, 6.5,0,0,1024,1024,1629,1024,128.9,-23.4,99,4.122,4.137,4.137,4.137,0,0,84.11,6,GPS_Atti,
0.303921151615102,36.8942187957995,5793.9618379658,180.4462,0,3.88615498,22800,2017-11-06 12:56:37,15,16.514,5793.9618379658,180.4462,1.1408394,4.1782153568,128.1, -5.6, 6.7,0,0,1024,1024,1630,1024,128.9,-23.4,99,4.122,4.137,4.137,4.137,0,0,84.11,6,GPS_Atti,
0.303921206555545,36.8942185831771,5795.6022579658,182.08662,0,3.8443570784,22900,2017-11-06 12:56:37,15,16.514,5795.6022579658,182.08662,1.1408394,4.1782153568,128.1, -5.7, 6.7,0,0,1024,1024,1629,1024,128.9,-23.4,99,4.122,4.137,4.137,4.137,0,0,84.11,6,GPS_Atti,
0.303921234997948,36.8942184306325,5796.9145939658,183.398956,0,3.8122704632,23000,2017-11-06 12:56:37,15,16.514,5796.9145939658,183.398956,1.1408394,4.1782153568,128, -5.8, 6.8,0,0,1024,1024,1627,1024,128.9,-23.5,99,4.122,4.137,4.137,4.137,0,0,84.11,6,GPS_Atti,
0.303921287582033,36.8942182485896,5798.5550139658,185.039376,0,3.7796589136,23100,2017-11-06 12:56:38,15,16.514,5798.5550139658,185.039376,1.1408394,4.1782153568,128, -5.9, 6.8,0,0,1024,1024,1627,1024,128.9,-23.5,99,4.122,4.137,4.137,4.137,0,0,84.11,6,GPS_Atti,
0.303921311549472,36.8942181288664,5799.8673499658,186.351712,0,3.7559384404,23200,2017-11-06 12:56:38,15,16.354,5799.8673499658,186.351712,1.1408394,4.1782153568,128, -5.9, 7.1,0,0,1024,1024,1627,1024,128.9,-23.5,99,4.122,4.137,4.137,4.137,0,0,84.11,6,GPS_Atti,
