latitude,longitude,altitude(feet),ascent(feet),speed(mph),distance(feet),time(millisecond),datetime(utc),satellites,gpslevel,voltage(v),max_altitude(feet),max_ascent(feet),max_speed(mph),max_distance(feet), xSpeed(mph), ySpeed(mph), zSpeed(mph), compass_heading(degrees), pitch(degrees), roll(degrees),isPhoto,isVideo,rc_elevator,rc_aileron,rc_throttle,rc_rudder,gimbal_heading(degrees),gimbal_pitch(degrees),battery_percent,voltageCell1,voltageCell2,voltageCell3,voltageCell4,voltageCell5,voltageCell6,current(A),battery_temperature(f),flycStateRaw,flycState,message
0.353886341316019,36.8971847364538,5805.7135089456,0,0,0,0,2018-04-15 06:21:03,14,0,0,5805.7135089456,0,0,0,0,0,0,249.7, -0.4, -2.1,0,0,364,364,364,1684,254.3,0,99,4.295,4.293,4.296,4.295,0,0,0,82.31,41,Motors_Started,
0.35388635570607,36.8971847295593,5805.7135089456,0,0,0.0058216537296,100,2018-04-15 06:21:03,14,0,0,5805.7135089456,0,0,0.0058216537296,0,0,0,249.7, -0.4, -2.1,0,0,364,364,364,1684,254.2,0,99,4.295,4.293,4.296,4.295,0,0,0,82.31,41,Motors_Started,
0.353886416239506,36.8971847601095,5805.7135089456,0,0,0.0286658801824,200,2018-04-15 06:21:03,14,0,0,5805.7135089456,0,0,0.0286658801824,0,0,0,249.7, -0.4, -2.1,0,0,364,364,364,1684,254.2,0,99,4.295,4.293,4.296,4.295,0,0,0,82.31,41,Motors_Started,
0.353886457011062,36.8971847823401,5805.7135089456,0,0,0.045409778356,300,2018-04-15 06:21:03,14,0,0,5805.7135089456,0,0,0.045409778356,0,0,0,249.7, -0.4, -2.1,0,0,364,364,364,1684,254.2,0,99,4.295,4.293,4.296,4.295,0,0,0,82.31,41,Motors_Started,
0.353886492477911,36.8971847568921,5805.7135089456,0,0,0.055653217004,400,2018-04-15 06:21:03,14,0,0,5805.7135089456,0,0,0.055653217004,0,0,0,249.7, -0.3, -2.1,0,0,364,364,364,1684,254.2,0,99,4.295,4.293,4.296,4.295,0,0,0,82.31,41,Motors_Started,
0.353886519980243,36.8971847397697,5805.7135089456,0,0,0.06519685248,500,2018-04-15 06:21:03,14,0,17.151,5805.7135089456,0,0,0.06519685248,0,0,0,249.7, -0.3, -2.1,0,0,364,364,364,1684,254.2,0,99,4.295,4.293,4.296,4.295,0,0,1.456,82.31,41,Motors_Started,Setting new Return-To-Home altitude to 30m (98 ft). Setting new Maximum Flight Altitude to 150m (492 ft)
0.353886537092696,36.8971847213686,5805.7135089456,0,0,0.071640750324,600,2018-04-15 06:21:03,14,0,17.151,5805.7135089456,0,0,0.071640750324,0,0,0,249.7, -0.4, -2.1,0,0,364,364,364,1684,254.2,0,99,4.295,4.293,4.296,4.295,0,0,1.456,82.31,41,Motors_Started,
0.353886552644845,36.8971847075367,5805.7135089456,0,0,0.0778215248,700,2018-04-15 06:21:03,14,0,17.151,5805.7135089456,0,0,0.0778215248,0,0,0,249.7, -0.4, -2.1,0,0,364,364,364,1684,254.2,0,99,4.295,4.293,4.296,4.295,0,0,1.456,82.31,41,Motors_Started,
0.353886556890301,36.8971846536408,5805.7135089456,0,0,0.084255580124,800,2018-04-15 06:21:03,14,0,17.151,5805.7135089456,0,0,0.084255580124,0,0,0,249.7, -0.3, -2.1,0,0,364,364,364,1684,254.2,0,99,4.295,4.293,4.296,4.295,0,0,1.456,82.31,41,Motors_Started,
0.353886559975642,36.8971846083517,5805.7135089456,0,0,0.092459976712,900,2018-04-15 06:21:03,14,0,17.151,5805.7135089456,0,0,0.092459976712,0,0,0,249.7, -0.3, -2,0,0,364,364,364,1684,254.2,0,99,4.295,4.293,4.296,4.295,0,0,1.456,82.31,41,Motors_Started,
0.353886562244574,36.8971845831907,5805.7135089456,0,0,0.098101709176,1000,2018-04-15 06:21:04,14,0,17.151,5805.7135089456,0,0,0.098101709176,0,0,0,249.7, -0.2, -2,0,0,364,364,364,1684,254.3,0,99,4.295,4.293,4.296,4.295,0,0,1.456,82.31,41,Motors_Started,
0.353886563270799,36.897184547499,5805.7135089456,0,0,0.10635006902,1100,2018-04-15 06:21:04,13,0,17.151,5805.7135089456,0,0,0.10635006902,0,0,0,249.7, 0, -1.7,0,0,364,364,364,1684,254.3,0,99,4.295,4.293,4.296,4.295,0,0,1.456,82.31,41,Motors_Started,
0.353886565630719,36.8971845076399,5805.7135089456,0,0,0.11690617172,1200,2018-04-15 06:21:04,13,0,17.151,5805.7135089456,0,0,0.11690617172,0,0,0,249.7, 0, -1.7,0,0,364,364,364,1684,254.2,0,99,4.295,4.293,4.296,4.295,0,0,1.456,82.31,41,Motors_Started,
0.353886561976287,36.8971844601087,5805.7135089456,0,0,0.129021985756,1300,2018-04-15 06:21:04,13,0,17.151,5805.7135089456,0,0,0.129021985756,0,0,0,249.7, -0.3, -2,0,0,364,364,364,1684,254.2,0,99,4.295,4.293,4.296,4.295,0,0,1.456,82.31,41,Motors_Started,
0.353886543759342,36.8971843861989,5805.7135089456,0,0,0.147598101836,1400,2018-04-15 06:21:04,13,0,17.151,5805.7135089456,0,0,0.147598101836,0,0,0,249.8, -0.4, -2.1,0,0,368,364,408,1668,254.2,0,99,4.295,4.293,4.296,4.295,0,0,1.456,82.31,41,Motors_Started,
0.353886525785697,36.8971843193763,5805.7135089456,0,0,0.166387472516,1500,2018-04-15 06:21:04,13,0,17.124,5805.7135089456,0,0,0.166387472516,0,0,0,249.7, 0, -1.7,0,0,406,364,444,1639,254.2,0,99,4.295,4.293,4.296,4.295,0,0,1.456,82.31,41,Motors_Started,
0.353886503964904,36.8971842651212,5805.7135089456,0,0,0.181913391648,1600,2018-04-15 06:21:04,13,0,17.124,5805.7135089456,0,0,0.181913391648,0,0,0,249.7, 0.6, -1.4,0,0,491,382,519,1569,254.2,0,99,4.295,4.293,4.296,4.295,0,0,1.456,82.31,10,Assisted_Takeoff,
0.353886479806835,36.8971842105112,5805.7135089456,0,0,0.198427499788,1700,2018-04-15 06:21:04,13,0,17.124,5805.7135089456,0,0,0.198427499788,0,0,0,249.7, 0, -1.7,0,0,753,570,792,1325,254.2,0,99,4.295,4.293,4.296,4.295,0,0,1.456,82.31,10,Assisted_Takeoff,
0.353886471636423,36.8971841688699,5805.7135089456,0,0,0.2124671984,1800,2018-04-15 06:21:04,13,0,17.124,5805.7135089456,0,0,0.2124671984,0,0,0,249.7, -0.6, -2.2,0,0,1024,1024,1024,1024,253.8,0,99,4.295,4.293,4.296,4.295,0,0,1.456,82.31,10,Assisted_Takeoff,
0.353886465457496,36.8971841311429,5805.7135089456,0,0,0.225439967844,1900,2018-04-15 06:21:05,13,0,17.124,5805.7135089456,0,0,0.225439967844,0,0,0,249.7, -0.1, -1.9,0,0,1024,1024,1061,1024,252.7,0,99,4.295,4.293,4.296,4.295,0,0,1.456,82.31,10,Assisted_Takeoff,
0.353886448104084,36.8971840932076,5805.7135089456,0,0,0.237895676904,2000,2018-04-15 06:21:05,13,0,17.124,5805.7135089456,0,0,0.237895676904,0,0,0,249.6, 0.2, -1.6,0,0,1024,1024,1024,1024,251.6,0,99,4.295,4.293,4.296,4.295,0,0,1.456,82.31,10,Assisted_Takeoff,
0.353886430282342,36.8971840587026,5805.7135089456,0,0,0.249393708768,2100,2018-04-15 06:21:05,13,0,17.124,5805.7135089456,0,0,0.249393708768,0,0,0,249.7, -0.2, -2,0,0,1024,1024,1024,1024,251.1,0,99,4.295,4.293,4.296,4.295,0,0,1.456,82.31,10,Assisted_Takeoff,
0.353886433525236,36.8971840334319,5805.7135089456,0,0,0.25868931274,2200,2018-04-15 06:21:05,13,0,17.124,5805.7135089456,0,0,0.25868931274,0,0,0,249.7, -0.5, -2.2,0,0,1024,1024,1024,1024,250.8,0,99,4.295,4.293,4.296,4.295,0,0,1.456,82.31,10,Assisted_Takeoff,
0.353886445941154,36.8971840194424,5805.7135089456,0,0,0.264366478276,2300,2018-04-15 06:21:05,13,0,17.124,5805.7135089456,0,0,0.264366478276,0,0,0,249.6, 0, -1.8,0,0,1024,1024,1024,1024,250.6,0,99,4.295,4.293,4.296,4.295,0,0,1.456,82.31,10,Assisted_Takeoff,
0.35388642920818,36.8971839881509,5805.7135089456,0,0,0.274889444492,2400,2018-04-15 06:21:05,13,0,17.124,5805.7135089456,0,0,0.274889444492,0,0,0,249.6, -0.1, -1.9,0,0,1024,1024,1024,1024,250.5,0,99,4.295,4.293,4.296,4.295,0,0,1.456,82.31,10,Assisted_Takeoff,
0.353886413864828,36.8971839603377,5805.7135089456,0,0,0.28439469414,2500,2018-04-15 06:21:05,13,0,17.151,5805.7135089456,0,0,0.28439469414,0,0,0,249.7, -0.5, -2.2,0,0,1024,1024,1025,1024,250.4,0,99,4.281,4.276,4.276,4.269,0,0,3.076,82.31,10,Assisted_Takeoff,
0.353886429199783,36.8971839465515,5805.7135089456,0,0,0.289968185132,2600,2018-04-15 06:21:05,13,0,17.151,5805.7135089456,0,0,0.289968185132,0,0,0,249.6, -0.2, -2,0,0,1024,1024,1067,1024,250.3,0,99,4.281,4.276,4.276,4.269,0,0,3.076,82.31,10,Assisted_Takeoff,
0.353886458011232,36.8971839495444,5805.7135089456,0,0,0.29023787018,2700,2018-04-15 06:21:05,13,0,17.151,5805.7135089456,0,0,0.29023787018,0,0,0,249.6, -0.1, -1.9,0,0,1024,1024,1171,1024,250.3,0,99,4.281,4.276,4.276,4.269,0,0,3.076,82.31,10,Assisted_Takeoff,
0.353886470123904,36.8971839484431,5805.7135089456,0,0,0.291315298036,2800,2018-04-15 06:21:05,13,0,17.151,5805.7135089456,0,0,0.291315298036,0,0,0,249.7, -0.4, -2.1,0,0,1024,1024,1245,1022,250.2,0,99,4.281,4.276,4.276,4.269,0,0,3.076,82.31,10,Assisted_Takeoff,
0.353886482399369,36.8971839579088,5805.7135089456,0,0,0.288672581416,2900,2018-04-15 06:21:05,13,0,17.151,5805.7135089456,0,0,0.291315298036,0,0,0,249.6, -0.3, -2,0,0,1024,1024,1271,1023,250.2,0,99,4.281,4.276,4.276,4.269,0,0,3.076,82.31,10,Assisted_Takeoff,
0.353886494935385,36.8971839656771,5805.7135089456,0,0,0.286743119412,3000,2018-04-15 06:21:06,13,0,17.151,5805.7135089456,0,0,0.291315298036,0,0,0,249.7, 0, -1.7,0,0,1024,1024,1276,1024,250.2,0,99,4.281,4.276,4.276,4.269,0,0,3.076,82.31,10,Assisted_Takeoff,
0.353886525548657,36.8971839738003,5805.7135089456,0,0,0.286252305748,3100,2018-04-15 06:21:06,13,0,17.151,5805.7135089456,0,0,0.291315298036,0,0,0,249.7, 0.5, -1.3,0,0,1024,1024,1278,1024,250.2,0,99,4.281,4.276,4.276,4.269,0,0,3.076,82.31,10,Assisted_Takeoff,
0.353886570258859,36.8971839594284,5805.7135089456,0,0,0.295541676124,3200,2018-04-15 06:21:06,13,0,17.151,5805.7135089456,0,0,0.295541676124,0,0,0,249.7, 1.1, -1,0,0,1024,1024,1282,1024,250.1,0,99,4.281,4.276,4.276,4.269,0,0,3.076,82.31,10,Assisted_Takeoff,
0.353886617187612,36.8971839583309,5805.7135089456,0,0,0.301206702552,3300,2018-04-15 06:21:06,13,0,17.151,5805.7135089456,0,0,0.301206702552,0,0,0,249.6, 2.3, 0.3,0,0,1024,1024,1287,1024,250.1,0,99,4.281,4.276,4.276,4.269,0,0,3.076,82.31,10,Assisted_Takeoff,
0.353886650776204,36.8971839866954,5805.7135089456,0,0,0.295929143328,3400,2018-04-15 06:21:06,13,0,17.151,5805.7135089456,0,0,0.301206702552,0,0,-0.223694,249.5, 3.2, 2,0,0,1024,1024,1291,1024,250.1,0,99,4.281,4.276,4.276,4.269,0,0,3.076,82.31,10,Assisted_Takeoff,
0.353886749044606,36.8971840540815,5805.7135089456,0,0.3131716,0.290016741564,3500,2018-04-15 06:21:06,13,0,17.124,5805.7135089456,0,0.3131716,0.301206702552,0.223694,0.223694,-0.671082,249.4, 1.7, 1.1,0,0,1024,1024,1292,1024,250.1,0,99,4.289,4.287,4.291,4.29,0,0,1.948,82.31,6,P-GPS,Obstacle Avoided. Revise Flight Route
0.353886894443663,36.8971841363744,5805.7135089456,0,0.3131716,0.297756243124,3600,2018-04-15 06:21:06,13,0,17.124,5805.7135089456,0,0.3131716,0.301206702552,0.223694,0.223694,-1.11847,249.4, 0.6, 0.1,0,0,1024,1024,1291,1024,250,0,99,4.289,4.287,4.291,4.29,0,0,1.948,82.31,6,P-GPS,Home Point Recorded. RTH Altitude:  30m.
0.353887056579244,36.8971842164455,5806.0415929456,0.328084,0.3131716,0.322639117936,3700,2018-04-15 06:21:06,13,0,17.124,5806.0415929456,0.328084,0.3131716,0.322639117936,0.223694,0.223694,-1.565858,249.4, 0.3, -0.5,0,0,1024,1024,1291,1024,250,0,99,4.289,4.287,4.291,4.29,0,0,1.948,82.31,6,P-GPS,
0.353887213849995,36.897184295215,5806.3696769456,0.656168,0.3131716,0.35673229488,3800,2018-04-15 06:21:06,13,0,17.124,5806.3696769456,0.656168,0.3131716,0.35673229488,0.223694,0.223694,-1.789552,249.4, -0.3, -0.9,0,0,1024,1024,1287,1024,250,0,99,4.289,4.287,4.291,4.29,0,0,1.948,82.31,6,P-GPS,
0.35388735112605,36.8971843716367,5806.3696769456,0.656168,0.223694,0.391732296,3900,2018-04-15 06:21:07,13,0,17.124,5806.3696769456,0.656168,0.3131716,0.391732296,0,0.223694,-2.013246,249.4, -0.8, -0.8,0,0,1024,1024,1279,1024,250,0,99,4.289,4.287,4.291,4.29,0,0,1.948,82.31,6,P-GPS,
0.353887478596346,36.8971844625857,5806.6977609456,0.984252,0.223694,0.42679791392,4000,2018-04-15 06:21:07,13,0,17.124,5806.6977609456,0.984252,0.3131716,0.42679791392,0,0.223694,-2.23694,249.3, -1.1, -0.7,0,0,1024,1024,1270,1024,250,0,99,4.289,4.287,4.291,4.29,0,0,1.948,82.31,6,P-GPS,
0.353887589517554,36.8971845422974,5807.0258449456,1.312336,0,0.46088256068,4100,2018-04-15 06:21:07,13,0,17.124,5807.0258449456,1.312336,0.3131716,0.46088256068,0,0,-2.23694,249.3, -1.7, -0.6,0,0,1024,1024,1270,1024,249.9,0,99,4.289,4.287,4.291,4.29,0,0,1.948,82.31,6,P-GPS,
0.35388758660442,36.8971845073809,5807.6820129456,1.968504,0,0.46196523788,4200,2018-04-15 06:21:07,13,0,17.124,5807.6820129456,1.968504,0.3131716,0.46196523788,0,0,-2.460634,249.3, -2.2, -0.4,0,0,1024,1024,1269,1024,249.9,0,99,4.289,4.287,4.291,4.29,0,0,1.948,82.31,6,P-GPS,
0.353887597441359,36.8971844767171,5808.0100969456,2.296588,0,0.46799214096,4300,2018-04-15 06:21:07,13,0,17.124,5808.0100969456,2.296588,0.3131716,0.46799214096,0,0,-2.460634,249.4, -1.5, -0.8,0,0,1024,1024,1256,1024,249.9,0,99,4.289,4.287,4.291,4.29,0,0,1.948,82.31,6,P-GPS,
0.35388760347683,36.8971844820022,5808.3381809456,2.624672,0,0.46976379456,4400,2018-04-15 06:21:07,13,0,17.124,5808.3381809456,2.624672,0.3131716,0.46976379456,0,0,-2.460634,249.3, -1, -0.6,0,0,1024,1024,1245,1024,249.9,0,99,4.289,4.287,4.291,4.29,0,0,1.948,82.31,6,P-GPS,
0.353887605088914,36.897184505174,5808.6662649456,2.952756,0,0.46874345332,4500,2018-04-15 06:21:07,14,0,16.749,5808.6662649456,2.952756,0.3131716,0.46976379456,0,0,-2.684328,249.4, -1.5, 0,0,0,1024,1024,1241,1024,249.9,0,99,4.208,4.21,4.217,4.204,0,0,13.406,82.31,6,P-GPS,
0.353887600664431,36.8971845561465,5808.9943489456,3.28084,0,0.464156839,4600,2018-04-15 06:21:07,14,0,16.749,5808.9943489456,3.28084,0.3131716,0.46976379456,0,0,-2.460634,249.4, -1.8, 0.6,0,0,1024,1024,1231,1024,249.9,0,99,4.208,4.21,4.217,4.204,0,0,13.406,82.31,6,P-GPS,
0.353887619450009,36.8971845965124,5809.3224329456,3.608924,0,0.46911418824,4700,2018-04-15 06:21:07,14,0,16.749,5809.3224329456,3.608924,0.3131716,0.46976379456,0,0,-2.460634,249.4, -1.8, 0,0,0,1024,1024,1230,1024,249.9,0,99,4.208,4.21,4.217,4.204,0,0,13.406,82.31,6,P-GPS,
0.353887635840857,36.8971846960939,5809.9786009456,4.265092,0,0.47253610436,4800,2018-04-15 06:21:07,14,0,16.749,5809.9786009456,4.265092,0.3131716,0.47253610436,0,0,-2.23694,249.4, -2.1, -0.5,0,0,1024,1024,1216,1024,249.9,0,99,4.208,4.21,4.217,4.204,0,0,13.406,82.31,6,P-GPS,
0.353887663163399,36.8971847809616,5810.3066849456,4.593176,0,0.48254922804,4900,2018-04-15 06:21:07,14,0,16.749,5810.3066849456,4.593176,0.3131716,0.48254922804,0,0,-2.23694,249.4, -2.9, -0.6,0,0,1024,1024,1207,1024,249.9,0,99,4.208,4.21,4.217,4.204,0,0,13.406,82.31,6,P-GPS,
0.353887707015666,36.8971849015916,5810.6347689456,4.92126,0,0.5019029032,5000,2018-04-15 06:21:08,14,0,16.749,5810.6347689456,4.92126,0.3131716,0.5019029032,0,0,-2.013246,249.4, -2.8, -0.7,0,0,1024,1024,1233,1024,249.9,0,99,4.208,4.21,4.217,4.204,0,0,13.406,82.31,6,P-GPS,
0.353887743142544,36.8971849813272,5810.9628529456,5.249344,0,0.51919949168,5100,2018-04-15 06:21:08,14,0,16.749,5810.9628529456,5.249344,0.3131716,0.51919949168,0,0,-1.789552,249.4, -2.5, -0.9,0,0,1024,1024,1259,1024,249.9,0,99,4.208,4.21,4.217,4.204,0,0,13.406,82.31,6,P-GPS,
0.353887818544793,36.8971850475715,5810.9628529456,5.249344,0,0.55079070004,5200,2018-04-15 06:21:08,14,0,16.749,5810.9628529456,5.249344,0.3131716,0.55079070004,0,0,-1.789552,249.4, -2.3, -0.9,0,0,1024,1024,1290,1024,249.9,0,99,4.208,4.21,4.217,4.204,0,0,13.406,82.31,6,P-GPS,
0.353887871081399,36.8971850986418,5811.2909369456,5.577428,0,0.57356301048,5300,2018-04-15 06:21:08,14,0,16.749,5811.2909369456,5.577428,0.3131716,0.57356301048,0,0,-1.789552,249.4, -2, -0.5,0,0,1024,1024,1306,1024,249.9,0,99,4.208,4.21,4.217,4.204,0,0,13.406,82.31,6,P-GPS,
0.353887883752423,36.8971852317212,5811.6190209456,5.905512,0,0.59105644936,5400,2018-04-15 06:21:08,14,0,16.749,5811.6190209456,5.905512,0.3131716,0.59105644936,0,0,-2.013246,249.3, -2, -0.2,0,0,1024,1024,1307,1024,249.9,0,99,4.208,4.21,4.217,4.204,0,0,13.406,82.31,6,P-GPS,
0.353887907260386,36.8971853338923,5811.9471049456,6.233596,0,0.61150264424,5500,2018-04-15 06:21:08,14,0,16.802,5811.9471049456,6.233596,0.3131716,0.61150264424,0,0,-2.23694,249.3, -2.1, -0.4,0,0,1024,1024,1307,1024,249.9,0,99,4.208,4.21,4.217,4.204,0,0,13.406,82.31,6,P-GPS,
0.353887954138862,36.8971854712136,5812.2751889456,6.56168,0,0.64662403644,5600,2018-04-15 06:21:08,14,0,16.802,5812.2751889456,6.56168,0.3131716,0.64662403644,0,0,-2.684328,249.3, -2.3, -0.9,0,0,1024,1024,1320,1024,249.8,0,99,4.208,4.21,4.217,4.204,0,0,13.406,82.31,6,P-GPS,
0.353887989128983,36.8971855770415,5812.6032729456,6.889764,0,0.67490815808,5700,2018-04-15 06:21:08,14,0,16.802,5812.6032729456,6.889764,0.3131716,0.67490815808,0,0,-2.908022,249.4, -2.3, -0.9,0,0,1024,1024,1327,1024,249.8,0,99,4.208,4.21,4.217,4.204,0,0,13.406,82.31,6,P-GPS,
0.353887991969499,36.8971856307393,5813.2594409456,7.545932,0,0.68494424764,5800,2018-04-15 06:21:08,14,0,16.802,5813.2594409456,7.545932,0.3131716,0.68494424764,0,0,-3.131716,249.4, -2.4, -0.5,0,0,1024,1024,1331,1024,249.8,0,99,4.208,4.21,4.217,4.204,0,0,13.406,82.31,6,P-GPS,
0.353888003264437,36.8971856747022,5813.5875249456,7.874016,0,0.69631235824,5900,2018-04-15 06:21:09,14,0,16.802,5813.5875249456,7.874016,0.3131716,0.69631235824,0,0,-3.35541,249.5, -2.3, -1,0,0,1024,1024,1336,1024,249.8,0,99,4.208,4.21,4.217,4.204,0,0,13.406,82.31,6,P-GPS,
0.35388803949813,36.8971856751338,5814.2436929456,8.530184,0,0.70792981268,6000,2018-04-15 06:21:09,14,0,16.802,5814.2436929456,8.530184,0.3131716,0.70792981268,0,0,-3.579104,249.5, -2.6, -1.4,0,0,1024,1024,1363,1024,249.8,0,99,4.208,4.21,4.217,4.204,0,0,13.406,82.31,6,P-GPS,
0.353888063253108,36.897185685567,5814.8998609456,9.186352,0,0.71735894684,6100,2018-04-15 06:21:09,14,0,16.802,5814.8998609456,9.186352,0.3131716,0.71735894684,0,0,-3.579104,249.5, -3.1, -0.7,0,0,1024,1024,1379,1024,249.8,0,99,4.208,4.21,4.217,4.204,0,0,13.406,82.31,6,P-GPS,
0.35388815225027,36.8971856753202,5815.8841129456,10.170604,0,0.74423230728,6300,2018-04-15 06:21:09,14,0,16.802,5815.8841129456,10.170604,0.3131716,0.74423230728,0,0,-4.026492,249.4, -2.8, -1.4,0,0,1024,1024,1414,1024,249.8,0,99,4.208,4.21,4.217,4.204,0,0,13.406,82.31,6,P-GPS,
0.353888180925743,36.8971856602501,5816.5402809456,10.826772,0,0.75105317364,6400,2018-04-15 06:21:09,14,0,16.802,5816.5402809456,10.826772,0.3131716,0.75105317364,0,0,-4.250186,249.5, -2.2, -2.1,0,0,1024,1024,1445,1024,249.8,0,99,4.208,4.21,4.217,4.204,0,0,13.406,82.31,6,P-GPS,
0.353888186584485,36.897185644219,5817.1964489456,11.48294,0,0.75029858044,6500,2018-04-15 06:21:09,14,0,16.722,5817.1964489456,11.48294,0.3131716,0.75105317364,0,0,-4.47388,249.5, -1.9, -1.7,0,0,1024,1024,1467,1024,249.8,0,99,4.206,4.207,4.212,4.196,0,0,12.754,82.31,6,P-GPS,
0.353888195929616,36.8971856001639,5817.8526169456,12.139108,0,0.74643375092,6600,2018-04-15 06:21:09,14,0,16.722,5817.8526169456,12.139108,0.3131716,0.75105317364,0,0,-4.921268,249.4, -1.9, -1.4,0,0,1024,1024,1482,1024,249.8,0,99,4.206,4.207,4.212,4.196,0,0,12.754,82.31,6,P-GPS,
0.353888197603147,36.8971855683864,5818.5087849456,12.795276,0,0.74216865892,6700,2018-04-15 06:21:09,14,0,16.722,5818.5087849456,12.795276,0.3131716,0.75105317364,0,0,-5.368656,249.5, -2.3, -1.1,0,0,1024,1024,1482,1024,249.8,0,99,4.206,4.207,4.212,4.196,0,0,12.754,82.31,6,P-GPS,
0.353888189642702,36.8971855117835,5819.4930369456,13.779528,0,0.73128611264,6800,2018-04-15 06:21:09,14,0,16.722,5819.4930369456,13.779528,0.3131716,0.75105317364,0,0,-5.816044,249.5, -2.4, -1.2,0,0,1024,1024,1500,1024,249.8,0,99,4.206,4.207,4.212,4.196,0,0,12.754,82.31,6,P-GPS,
0.353888188638461,36.897185454508,5820.4772889456,14.76378,0,0.72312010188,6900,2018-04-15 06:21:09,14,0,16.722,5820.4772889456,14.76378,0.3131716,0.75105317364,0,0,-6.263432,249.5, -2.3, -1.8,0,0,1024,1024,1519,1024,249.8,0,99,4.206,4.207,4.212,4.196,0,0,12.754,82.31,6,P-GPS,
0.353888188753979,36.8971854144797,5821.1334569456,15.419948,0,0.7179954298,7000,2018-04-15 06:21:10,14,0,16.722,5821.1334569456,15.419948,0.3131716,0.75105317364,0,0,-6.487126,249.5, -2.3, -2.1,0,0,1024,1024,1537,1024,249.8,0,99,4.206,4.207,4.212,4.196,0,0,12.754,82.31,6,P-GPS,
0.35388817683957,36.8971853748231,5822.4457929456,16.732284,0,0.70903217492,7100,2018-04-15 06:21:10,14,0,16.722,5822.4457929456,16.732284,0.3131716,0.75105317364,0,0,-6.934514,249.5, -2.4, -1.9,0,0,1024,1024,1547,1024,249.8,0,99,4.206,4.207,4.212,4.196,0,0,12.754,82.31,6,P-GPS,
0.353888191578413,36.8971853475574,5823.4300449456,17.716536,0,0.71093178128,7200,2018-04-15 06:21:10,14,0,16.722,5823.4300449456,17.716536,0.3131716,0.75105317364,0,0,-7.158208,249.5, -1.8, -1.8,0,0,1024,1024,1562,1024,249.8,0,99,4.206,4.207,4.212,4.196,0,0,12.754,82.31,6,P-GPS,
0.353888186506421,36.8971853007926,5824.4142969456,18.700788,0,0.70399936636,7300,2018-04-15 06:21:10,14,0,16.722,5824.4142969456,18.700788,0.3131716,0.75105317364,0,0,-7.381902,249.5, -1.3, -1.9,0,0,1024,1024,1584,1024,249.8,0,99,4.206,4.207,4.212,4.196,0,0,12.754,82.31,6,P-GPS,
0.353888177690534,36.8971852856288,5825.3985489456,19.68504,0,0.69931760768,7400,2018-04-15 06:21:10,14,0,16.722,5825.3985489456,19.68504,0.3131716,0.75105317364,0,0,-7.82929,249.6, -1.3, -2,0,0,1024,1024,1596,1024,249.8,0,99,4.206,4.207,4.212,4.196,0,0,12.754,82.31,6,P-GPS,
0.353888146916505,36.8971852592164,5826.7108849456,20.997376,0,0.6858267936,7500,2018-04-15 06:21:10,14,0,16.695,5826.7108849456,20.997376,0.3131716,0.75105317364,0,0,-8.052984,249.6, -1.4, -2.1,0,0,1024,1024,1611,1024,249.8,0,99,4.172,4.167,4.179,4.174,0,0,15.816,84.11,6,P-GPS,
0.353888156821617,36.8971853115798,5828.0232209456,22.309712,0,0.69482613772,7600,2018-04-15 06:21:10,14,0,16.695,5828.0232209456,22.309712,0.3131716,0.75105317364,0,0,-8.500372,249.6, -1.5, -1.8,0,0,1024,1024,1619,1024,249.8,0,99,4.172,4.167,4.179,4.174,0,0,15.816,84.11,6,P-GPS,
0.353888128452901,36.8971853304313,5829.3355569456,23.622048,0,0.6871063212,7700,2018-04-15 06:21:10,14,0,16.695,5829.3355569456,23.622048,0.3131716,0.75105317364,0,0,-8.724066,249.5, -1.4, -1.7,0,0,1024,1024,1627,1024,249.8,0,99,4.172,4.167,4.179,4.174,0,0,15.816,84.11,6,P-GPS,
0.35388807237957,36.8971852853059,5830.6478929456,24.934384,0,0.66256235716,7800,2018-04-15 06:21:10,14,0,16.695,5830.6478929456,24.934384,0.3131716,0.75105317364,0,0,-9.171454,249.5, -1.3, -1.6,0,0,1024,1024,1644,1024,249.8,0,99,4.172,4.167,4.179,4.174,0,0,15.816,84.11,6,P-GPS,
0.353887995275444,36.897185230051,5831.9602289456,26.24672,0,0.62974411464,7900,2018-04-15 06:21:10,14,0,16.695,5831.9602289456,26.24672,0.3131716,0.75105317364,0,0,-9.395148,249.5, -1, -1.5,0,0,1024,1024,1660,1024,249.8,0,99,4.172,4.167,4.179,4.174,0,0,15.816,84.11,6,P-GPS,
0.353887921336097,36.8971851590566,5833.2725649456,27.559056,0,0.59673230256,8000,2018-04-15 06:21:11,14,0,16.695,5833.2725649456,27.559056,0.3131716,0.75105317364,0,0,-9.618842,249.5, -0.6, -1.6,0,0,1024,1024,1670,1024,249.8,0,99,4.172,4.167,4.179,4.174,0,0,15.816,84.11,6,P-GPS,
0.353887832030396,36.8971850918683,5834.9129849456,29.199476,0,0.55913059532,8100,2018-04-15 06:21:11,14,0,16.695,5834.9129849456,29.199476,0.3131716,0.75105317364,0,0,-10.06623,249.5, -0.1, -1.1,0,0,1024,1024,1676,1024,249.8,0,99,4.172,4.167,4.179,4.174,0,0,15.816,84.11,6,P-GPS,
0.353887775152307,36.8971850418154,5836.2253209456,30.511812,0,0.53486550268,8200,2018-04-15 06:21:11,14,0,16.695,5836.2253209456,30.511812,0.3131716,0.75105317364,0,0,-10.289924,249.5, -0.4, -0.9,0,0,1024,1024,1684,1024,249.8,0,99,4.172,4.167,4.179,4.174,0,0,15.816,84.11,6,P-GPS,
0.353887722201619,36.8971849985205,5837.8657409456,32.152232,0,0.51280841536,8300,2018-04-15 06:21:11,14,0,16.695,5837.8657409456,32.152232,0.3131716,0.75105317364,0,0,-10.513618,249.5, -1.5, -1.4,0,0,1024,1024,1684,1024,249.8,0,99,4.172,4.167,4.179,4.174,0,0,15.816,84.11,6,P-GPS,
0.353887660210318,36.897184948496,5839.5061609456,33.792652,0,0.48737534368,8400,2018-04-15 06:21:11,14,0,16.695,5839.5061609456,33.792652,0.3131716,0.75105317364,0,0,-10.737312,249.5, -1, -1.9,0,0,1024,1024,1684,1024,249.8,0,99,4.172,4.167,4.179,4.174,0,0,15.816,84.11,6,P-GPS,
0.353887578278619,36.8971848825093,5841.1465809456,35.433072,0,0.45443899092,8500,2018-04-15 06:21:11,14,0,16.481,5841.1465809456,35.433072,0.3131716,0.75105317364,0,0,-10.737312,249.5, -0.1, -2.1,0,0,1024,1024,1684,1024,249.8,0,99,4.157,4.151,4.166,4.148,0,0,18.344,84.11,6,P-GPS,
0.353887464889071,36.8971847877473,5842.7870009456,37.073492,0,0.41036090552,8600,2018-04-15 06:21:11,14,0,16.481,5842.7870009456,37.073492,0.3131716,0.75105317364,0,0,-10.961006,249.5, 0, -1,0,0,1024,1024,1684,1024,249.8,0,99,4.157,4.151,4.166,4.148,0,0,18.344,84.11,6,P-GPS,
0.353887363119018,36.8971847230067,5844.4274209456,38.713912,0,0.37283793844,8700,2018-04-15 06:21:11,14,0,16.481,5844.4274209456,38.713912,0.3131716,0.75105317364,0,0,-10.961006,249.4, -0.7, -0.9,0,0,1024,1024,1684,1024,249.8,0,99,4.157,4.151,4.166,4.148,0,0,18.344,84.11,6,P-GPS,
0.353887233662881,36.8971847124844,5845.7397569456,40.026248,0,0.325689642968,8800,2018-04-15 06:21:11,14,0,16.481,5845.7397569456,40.026248,0.3131716,0.75105317364,0,0,-10.961006,249.5, -1.1, -1.7,0,0,1024,1024,1684,1024,249.8,0,99,4.157,4.151,4.166,4.148,0,0,18.344,84.11,6,P-GPS,
0.353887119770893,36.8971846837067,5847.3801769456,41.666668,0,0.284669956616,8900,2018-04-15 06:21:11,14,0,16.481,5847.3801769456,41.666668,0.3131716,0.75105317364,0,0,-10.961006,249.5, -1.1, -2.1,0,0,1024,1024,1684,1024,249.8,0,99,4.157,4.151,4.166,4.148,0,0,18.344,84.11,6,P-GPS,
0.353887039353945,36.8971846795992,5849.0205969456,43.307088,0,0.255521989804,9000,2018-04-15 06:21:12,14,0,16.481,5849.0205969456,43.307088,0.3131716,0.75105317364,0,0,-10.961006,249.5, -0.8, -2.2,0,0,1024,1024,1684,1024,249.8,0,99,4.157,4.151,4.166,4.148,0,0,18.344,84.11,6,P-GPS,
0.353886931352779,36.8971846561744,5850.6610169456,44.947508,0,0.217257880968,9100,2018-04-15 06:21:12,14,0,16.481,5850.6610169456,44.947508,0.3131716,0.75105317364,0,0,-10.961006,249.6, -0.6, -2.2,0,0,1024,1024,1684,1024,249.8,0,99,4.157,4.151,4.166,4.148,0,0,18.344,84.11,6,P-GPS,
0.353886786190686,36.8971846257989,5852.3014369456,46.587928,0,0.167257551284,9200,2018-04-15 06:21:12,14,0,16.481,5852.3014369456,46.587928,0.3131716,0.75105317364,0,0,-10.961006,249.5, -0.2, -1.3,0,0,1024,1024,1684,1024,249.8,0,99,4.157,4.151,4.166,4.148,0,0,18.344,84.11,6,P-GPS,
0.353886629645871,36.8971845997534,5853.9418569456,48.228348,0,0.116420935484,9300,2018-04-15 06:21:12,14,0,16.481,5853.9418569456,48.228348,0.3131716,0.75105317364,0,0,-10.961006,249.5, -0.2, -0.5,0,0,1024,1024,1684,1024,249.8,0,99,4.157,4.151,4.166,4.148,0,0,18.344,84.11,6,P-GPS,
0.353886470836043,36.8971846135508,5855.5822769456,49.868768,0,0.065143702872,9400,2018-04-15 06:21:12,14,0,16.481,5855.5822769456,49.868768,0.3131716,0.75105317364,0,0,-10.961006,249.5, -0.3, -1,0,0,1024,1024,1684,1024,249.8,0,99,4.157,4.151,4.166,4.148,0,0,18.344,84.11,6,P-GPS,
0.353886328845802,36.8971846145546,5857.2226969456,51.509188,0,0.044706038176,9500,2018-04-15 06:21:12,14,0,16.534,5857.2226969456,51.509188,0.3131716,0.75105317364,0,0,-11.1847,249.5, 0, -1.1,0,0,1024,1024,1684,1024,249.8,0,99,4.157,4.151,4.166,4.148,0,0,18.344,84.11,6,P-GPS,
0.353886193322215,36.8971846439313,5858.8631169456,53.149608,0,0.063678807812,9600,2018-04-15 06:21:12,14,0,16.534,5858.8631169456,53.149608,0.3131716,0.75105317364,0,0,-10.961006,249.5, 0.1, -1.4,0,0,1024,1024,1684,1024,249.8,-0.2,99,4.157,4.151,4.166,4.148,0,0,18.344,84.11,6,P-GPS,
0.353886065366617,36.8971846684952,5860.5035369456,54.790028,0,0.103687995444,9700,2018-04-15 06:21:12,14,0,16.534,5860.5035369456,54.790028,0.3131716,0.75105317364,0,0,-10.961006,249.5, 0.3, -1.6,0,0,1024,1024,1684,1024,249.8,-1,99,4.157,4.151,4.166,4.148,0,0,18.344,84.11,6,P-GPS,
0.353885963819292,36.897184725053,5862.1439569456,56.430448,0,0.137792327244,9800,2018-04-15 06:21:12,14,0,16.534,5862.1439569456,56.430448,0.3131716,0.75105317364,0,0,-11.1847,249.5, 0.3, -1.2,0,0,1024,1024,1684,1024,249.8,-2.4,99,4.157,4.151,4.166,4.148,0,0,18.344,84.11,6,P-GPS,
0.353885867930606,36.8971847858979,5864.1124609456,58.398952,0,0.173653876948,9900,2018-04-15 06:21:12,14,0,16.534,5864.1124609456,58.398952,0.3131716,0.75105317364,0,0,-11.1847,249.5, 0.4, -1,0,0,1024,1024,1684,1024,249.8,-3.8,99,4.157,4.151,4.166,4.148,0,0,18.344,84.11,6,P-GPS,
0.353885805155719,36.8971848648729,5865.7528809456,60.039372,0,0.201150268904,10000,2018-04-15 06:21:13,14,0,16.534,5865.7528809456,60.039372,0.3131716,0.75105317364,0,0,-11.1847,249.5, -0.1, -1.1,0,0,1024,1024,1684,1024,249.8,-5.2,99,4.157,4.151,4.166,4.148,0,0,18.344,84.11,6,P-GPS,
0.353885747249573,36.897184952182,5867.3933009456,61.679792,0,0.230592855148,10100,2018-04-15 06:21:13,14,0,16.534,5867.3933009456,61.679792,0.3131716,0.75105317364,0,0,-11.1847,249.5, -0.7, -1.3,0,0,1024,1024,1684,1024,249.8,-6.6,99,4.157,4.151,4.166,4.148,0,0,18.344,84.11,6,P-GPS,
0.353885689122977,36.8971850513099,5869.0337209456,63.320212,0,0.26422901108,10200,2018-04-15 06:21:13,14,0,16.534,5869.0337209456,63.320212,0.3131716,0.75105317364,0,0,-11.1847,249.5, -1, -1.1,0,0,1024,1024,1684,1024,249.8,-8.1,99,4.157,4.151,4.166,4.148,0,0,18.344,84.11,6,P-GPS,
0.353885624709875,36.8971851437023,5870.6741409456,64.960632,0,0.300723106736,10300,2018-04-15 06:21:13,14,0,16.534,5870.6741409456,64.960632,0.3131716,0.75105317364,0,0,-10.961006,249.4, -1, -0.7,0,0,1024,1024,1684,1024,249.8,-9.5,99,4.157,4.151,4.166,4.148,0,0,18.344,84.11,6,P-GPS,
0.3538855498787,36.8971852498631,5872.3145609456,66.601052,0,0.34418964356,10400,2018-04-15 06:21:13,14,0,16.534,5872.3145609456,66.601052,0.3131716,0.75105317364,0,0,-10.961006,249.5, -1.1, -0.9,0,0,1024,1024,1684,1024,249.8,-10.8,99,4.157,4.151,4.166,4.148,0,0,18.344,84.11,6,P-GPS,
0.353885485442698,36.8971853412039,5873.9549809456,68.241472,0,0.3823490936,10500,2018-04-15 06:21:13,14,0,16.481,5873.9549809456,68.241472,0.3131716,0.75105317364,0,0,-11.1847,249.5, -1, -1.1,0,0,1024,1024,1684,1024,249.8,-12.1,99,4.157,4.157,4.168,4.151,0,0,16.978,84.11,6,P-GPS,
0.353885399816059,36.8971854021198,5875.5954009456,69.881892,0,0.42068898984,10600,2018-04-15 06:21:13,14,0,16.481,5875.5954009456,69.881892,0.3131716,0.75105317364,0,0,-10.961006,249.4, -0.8, -0.8,0,0,1024,1024,1684,1024,249.8,-12.1,99,4.157,4.157,4.168,4.151,0,0,16.978,84.11,6,P-GPS,
0.353885328432606,36.8971854565602,5877.2358209456,71.522312,0,0.45342193052,10700,2018-04-15 06:21:13,14,0,16.481,5877.2358209456,71.522312,0.3131716,0.75105317364,0,0,-11.408394,249.4, -0.5, -0.5,0,0,1024,1024,1684,1024,249.8,-13.4,99,4.157,4.157,4.168,4.151,0,0,16.978,84.11,6,P-GPS,
0.35388528892574,36.8971854888412,5878.8762409456,73.162732,0,0.47199476576,10800,2018-04-15 06:21:13,14,0,16.481,5878.8762409456,73.162732,0.3131716,0.75105317364,0,0,-11.1847,249.5, -0.4, -1,0,0,1024,1024,1684,1024,249.8,-14.7,99,4.157,4.157,4.168,4.151,0,0,16.978,84.11,6,P-GPS,
0.353885263222991,36.897185528087,5880.8447449456,75.131236,0,0.4879921416,10900,2018-04-15 06:21:14,14,0,16.481,5880.8447449456,75.131236,0.3131716,0.75105317364,0,0,-11.1847,249.5, -0.4, -1.4,0,0,1024,1024,1684,1024,249.7,-15.9,99,4.157,4.157,4.168,4.151,0,0,16.978,84.11,6,P-GPS,
0.353885238362147,36.8971856152604,5882.4851649456,76.771656,0,0.51452429468,11000,2018-04-15 06:21:14,14,0,16.481,5882.4851649456,76.771656,0.3131716,0.75105317364,0,0,-11.1847,249.5, -0.7, -1,0,0,1024,1024,1684,1024,249.7,-17.1,99,4.157,4.157,4.168,4.151,0,0,16.978,84.11,6,P-GPS,
0.353885210685317,36.8971857025394,5884.1255849456,78.412076,0,0.5425853192,11100,2018-04-15 06:21:14,14,0,16.481,5884.1255849456,78.412076,0.3131716,0.75105317364,0,0,-11.1847,249.5, -0.6, -0.5,0,0,1024,1024,1684,1024,249.7,-18.3,99,4.157,4.157,4.168,4.151,0,0,16.978,84.11,6,P-GPS,
0.353885216113938,36.8971857833933,5885.7660049456,80.052496,0,0.5607447686,11200,2018-04-15 06:21:14,14,0,16.481,5885.7660049456,80.052496,0.3131716,0.75105317364,0,0,-11.1847,249.5, -0.7, -0.4,0,0,1024,1024,1684,1024,249.7,-19.5,99,4.157,4.157,4.168,4.151,0,0,16.978,84.11,6,P-GPS,
0.35388524268017,36.8971858630163,5887.7345089456,82.021,0,0.5741141916,11300,2018-04-15 06:21:14,14,0,16.481,5887.7345089456,82.021,0.3131716,0.75105317364,0,0,-11.1847,249.5, -1.5, -1,0,0,1024,1024,1684,1024,249.7,-20.4,99,4.157,4.157,4.168,4.151,0,0,16.978,84.11,6,P-GPS,
0.353885297563007,36.8971859603687,5889.3749289456,83.66142,0,0.58686681668,11400,2018-04-15 06:21:14,14,0,16.481,5889.3749289456,83.66142,0.3131716,0.75105317364,0,0,-11.1847,249.5, -1.7, -1.2,0,0,1024,1024,1684,1024,249.7,-20.4,99,4.157,4.157,4.168,4.151,0,0,16.978,84.11,6,P-GPS,
0.353885343828323,36.8971860333282,5891.0153489456,85.30184,0,0.59692915296,11500,2018-04-15 06:21:14,14,0,16.561,5891.0153489456,85.30184,0.3131716,0.75105317364,0,0,-11.1847,249.5, -1.4, -1.3,0,0,1024,1024,1684,1024,249.7,-20.4,99,4.156,4.157,4.166,4.15,0,0,16.406,84.11,6,P-GPS,
0.353885382405957,36.8971861103117,5892.6557689456,86.94226,0,0.61126314292,11600,2018-04-15 06:21:14,14,0,16.561,5892.6557689456,86.94226,0.3131716,0.75105317364,0,0,-11.1847,249.5, -1.2, -1.2,0,0,1024,1024,1684,1024,249.7,-20.3,99,4.156,4.157,4.166,4.15,0,0,16.406,84.11,6,P-GPS,
0.353885423560808,36.8971861734502,5894.6242729456,88.910764,0,0.62208335324,11700,2018-04-15 06:21:14,14,0,16.561,5894.6242729456,88.910764,0.3131716,0.75105317364,0,0,-11.1847,249.4, -1, -1.3,0,0,1024,1024,1684,1024,249.7,-20.4,99,4.156,4.157,4.166,4.15,0,0,16.406,84.11,6,P-GPS,
0.353885487805163,36.897186301833,5896.2646929456,90.551184,0,0.65049542764,11800,2018-04-15 06:21:14,14,0,16.561,5896.2646929456,90.551184,0.3131716,0.75105317364,0,0,-11.1847,249.4, -1.2, -1.6,0,0,1024,1024,1684,1024,249.7,-20.4,99,4.156,4.157,4.166,4.15,0,0,16.406,84.11,6,P-GPS,
0.353885586119416,36.8971865584114,5899.5455329456,93.832024,0,0.719570233,12000,2018-04-15 06:21:15,14,0,16.561,5899.5455329456,93.832024,0.3131716,0.75105317364,0,0,-10.961006,249.5, -1.7, -1.4,0,0,1024,1024,1684,1024,249.7,-20.4,99,4.156,4.157,4.166,4.15,0,0,16.406,84.11,6,P-GPS,
0.35388562728933,36.8971866729814,5901.5140369456,95.800528,0,0.75302495848,12100,2018-04-15 06:21:15,14,0,16.561,5901.5140369456,95.800528,0.3131716,0.75302495848,0,0,-10.961006,249.5, -2, -1.4,0,0,1024,1024,1684,1024,249.7,-20.4,99,4.156,4.157,4.166,4.15,0,0,16.406,84.11,6,P-GPS,
0.353885711721709,36.8971868300529,5903.1544569456,97.440948,0,0.79762469744,12200,2018-04-15 06:21:15,14,0,16.561,5903.1544569456,97.440948,0.3131716,0.79762469744,0,0,-10.737312,249.5, -2.2, -1.5,0,0,1024,1024,1684,1024,249.7,-20.4,99,4.156,4.157,4.166,4.15,0,0,16.406,84.11,6,P-GPS,
0.353885788664466,36.897186940664,5904.7948769456,99.081368,0,0.82908139136,12300,2018-04-15 06:21:15,14,0,16.561,5904.7948769456,99.081368,0.3131716,0.82908139136,0,0,-10.961006,249.5, -2, -1.7,0,0,1024,1024,1684,1024,249.7,-20.4,99,4.156,4.157,4.166,4.15,0,0,16.406,84.11,6,P-GPS,
0.35388585520625,36.8971870440659,5906.4352969456,100.721788,0,0.86039372832,12400,2018-04-15 06:21:15,14,0,16.561,5906.4352969456,100.721788,0.3131716,0.86039372832,0,0,-10.961006,249.5, -1.7, -1.7,0,0,1024,1024,1684,1024,249.7,-20.4,99,4.156,4.157,4.166,4.15,0,0,16.406,84.11,6,P-GPS,
0.353885915332677,36.8971871195099,5908.0757169456,102.362208,0,0.88322181304,12500,2018-04-15 06:21:15,14,0,16.534,5908.0757169456,102.362208,0.3131716,0.88322181304,0,0,-11.1847,249.5, -1.6, -1.8,0,0,1024,1024,1684,1024,249.7,-20.4,99,4.156,4.157,4.166,4.15,0,0,16.658,84.11,6,P-GPS,
0.353886001531714,36.8971872127262,5909.7161369456,104.002628,0,0.91191603968,12600,2018-04-15 06:21:15,14,0,16.534,5909.7161369456,104.002628,0.3131716,0.91191603968,0,0,-11.1847,249.5, -1.6, -2,0,0,1024,1024,1684,1024,249.7,-20.4,99,4.156,4.157,4.166,4.15,0,0,16.658,84.11,6,P-GPS,
0.353886072680061,36.8971872825186,5911.6846409456,105.971132,0,0.93406827136,12700,2018-04-15 06:21:15,14,0,16.534,5911.6846409456,105.971132,0.3131716,0.93406827136,0,0,-11.1847,249.5, -1.7, -1.9,0,0,1024,1024,1684,1024,249.7,-20.4,99,4.156,4.157,4.166,4.15,0,0,16.658,84.11,6,P-GPS,
0.353886168214254,36.8971873460613,5913.3250609456,107.611552,0,0.95418638224,12800,2018-04-15 06:21:15,14,0,16.534,5913.3250609456,107.611552,0.3131716,0.95418638224,0,0,-11.1847,249.5, -1.7, -2.1,0,0,1024,1024,1684,1024,249.7,-20.4,99,4.156,4.157,4.166,4.15,0,0,16.658,84.11,6,P-GPS,
0.353886240515336,36.8971873922064,5914.9654809456,109.251972,0,0.96962929612,12900,2018-04-15 06:21:15,14,0,16.534,5914.9654809456,109.251972,0.3131716,0.96962929612,0,0,-11.1847,249.5, -1.8, -2.2,0,0,1024,1024,1684,1024,249.7,-20.4,99,4.156,4.157,4.166,4.15,0,0,16.658,84.11,6,P-GPS,
0.353886287350199,36.897187477821,5916.6059009456,110.892392,0,1.0003609244,13000,2018-04-15 06:21:16,14,0,16.534,5916.6059009456,110.892392,0.3131716,1.0003609244,0,0,-11.1847,249.5, -1.6, -1.9,0,0,1024,1024,1684,1024,249.7,-20.4,99,4.156,4.157,4.166,4.15,0,0,16.658,84.11,6,P-GPS,
0.353886314255453,36.8971875434682,5918.5744049456,112.860896,0,1.02416669944,13100,2018-04-15 06:21:16,14,0,16.534,5918.5744049456,112.860896,0.3131716,1.02416669944,0,0,-11.1847,249.5, -1.6, -1.7,0,0,1024,1024,1684,1024,249.7,-20.4,99,4.156,4.157,4.166,4.15,0,0,16.658,84.11,6,P-GPS,
0.353886340055705,36.8971876144641,5920.2148249456,114.501316,0,1.05001971864,13200,2018-04-15 06:21:16,14,0,16.534,5920.2148249456,114.501316,0.3131716,1.05001971864,0,0,-11.1847,249.6, -1.9, -1.6,0,0,1024,1024,1684,1024,249.7,-20.4,99,4.156,4.157,4.166,4.15,0,0,16.658,84.11,6,P-GPS,
0.353886354024294,36.8971876626899,5921.8552449456,116.141736,0,1.06762470608,13300,2018-04-15 06:21:16,14,0,16.534,5921.8552449456,116.141736,0.3131716,1.06762470608,0,0,-10.961006,249.5, -1.8, -1.6,0,0,1024,1024,1684,1024,249.7,-20.4,99,4.156,4.157,4.166,4.15,0,0,16.658,84.11,6,P-GPS,
0.353886384068425,36.8971876714916,5923.4956649456,117.782156,0,1.07093835448,13400,2018-04-15 06:21:16,14,0,16.534,5923.4956649456,117.782156,0.3131716,1.07093835448,0,0,-11.1847,249.5, -1.7, -1.6,0,0,1024,1024,1684,1024,249.7,-20.4,99,4.156,4.157,4.166,4.15,0,0,16.658,84.11,6,P-GPS,
0.353886401939529,36.8971876719433,5925.1360849456,119.422576,0,1.07122050672,13500,2018-04-15 06:21:16,14,0,16.534,5925.1360849456,119.422576,0.3131716,1.07122050672,0,0,-10.961006,249.5, -1.7, -1.6,0,0,1024,1024,1684,1024,249.7,-20.4,99,4.156,4.157,4.166,4.15,0,0,16.658,84.11,6,P-GPS,
0.353886444108951,36.8971877249961,5926.7765049456,121.062996,0,1.09099084856,13600,2018-04-15 06:21:16,14,0,16.534,5926.7765049456,121.062996,0.3131716,1.09099084856,0,0,-10.961006,249.5, -1.5, -1.8,0,0,1024,1024,1684,1024,249.7,-20.4,99,4.156,4.157,4.166,4.15,0,0,16.658,84.11,6,P-GPS,
0.353886468510065,36.8971877633778,5928.7450089456,123.0315,0,1.10532483852,13700,2018-04-15 06:21:16,14,0,16.534,5928.7450089456,123.0315,0.3131716,1.10532483852,0,0,-10.961006,249.5, -1.7, -1.7,0,0,1024,1024,1684,1024,249.7,-20.5,99,4.156,4.157,4.166,4.15,0,0,16.658,84.11,6,P-GPS,
0.353886559408791,36.897187825997,5930.0573449456,124.343836,0,1.13000003616,13800,2018-04-15 06:21:16,14,0,16.534,5930.0573449456,124.343836,0.3131716,1.13000003616,0,0,-10.737312,249.5, -1.7, -1.8,0,0,1024,1024,1684,1024,249.7,-20.6,99,4.156,4.157,4.166,4.15,0,0,16.658,84.11,6,P-GPS,
0.353886622929964,36.8971878668384,5931.6977649456,125.984256,0,1.14670935428,13900,2018-04-15 06:21:17,14,0,16.534,5931.6977649456,125.984256,0.3131716,1.14670935428,0,0,-10.961006,249.5, -1.9, -2,0,0,1024,1024,1684,1024,249.7,-20.7,99,4.156,4.157,4.166,4.15,0,0,16.658,84.11,6,P-GPS,
0.353886709717073,36.8971879361639,5933.3381849456,127.624676,0,1.17510174364,14000,2018-04-15 06:21:17,14,0,16.534,5933.3381849456,127.624676,0.3131716,1.17510174364,0,0,-10.961006,249.5, -2.2, -2.1,0,0,1024,1024,1684,1024,249.7,-20.9,99,4.156,4.157,4.166,4.15,0,0,16.658,84.11,6,P-GPS,
0.353886752793589,36.8971879720088,5935.3066889456,129.59318,0,1.1899770722,14100,2018-04-15 06:21:17,14,0,16.534,5935.3066889456,129.59318,0.3131716,1.1899770722,0,0,-11.1847,249.5, -1.9, -2.3,0,0,1024,1024,1684,1024,249.7,-21.2,99,4.156,4.157,4.166,4.15,0,0,16.658,84.11,6,P-GPS,
0.35388682961859,36.89718802612,5936.9471089456,131.2336,0,1.21335961888,14200,2018-04-15 06:21:17,14,0,16.534,5936.9471089456,131.2336,0.3131716,1.21335961888,0,0,-11.1847,249.5, -1.8, -1.9,0,0,1024,1024,1684,1024,249.7,-21.4,99,4.156,4.157,4.166,4.15,0,0,16.658,84.11,6,P-GPS,
0.353886863831715,36.8971880672116,5938.5875289456,132.87402,0,1.23006565616,14300,2018-04-15 06:21:17,14,0,16.534,5938.5875289456,132.87402,0.3131716,1.23006565616,0,0,-11.1847,249.5, -1.9, -1.3,0,0,1024,1024,1684,1024,249.7,-21.7,99,4.156,4.157,4.166,4.15,0,0,16.658,84.11,6,P-GPS,
0.353886921710457,36.8971881258046,5940.2279489456,134.51444,0,1.25458009264,14400,2018-04-15 06:21:17,14,0,16.534,5940.2279489456,134.51444,0.3131716,1.25458009264,0,0,-11.1847,249.5, -1.8, -1.2,0,0,1024,1024,1684,1024,249.7,-22,99,4.156,4.157,4.166,4.15,0,0,16.658,84.11,6,P-GPS,
0.353886957680367,36.8971881594144,5942.1964529456,136.482944,0,1.26892720596,14500,2018-04-15 06:21:17,14,0,16.534,5942.1964529456,136.482944,0.3131716,1.26892720596,0,0,-11.1847,249.5, -1.9, -1.1,0,0,1024,1024,1684,1024,249.7,-22.2,99,4.15,4.15,4.16,4.145,0,0,16.658,84.11,6,P-GPS,
0.353887007312491,36.8971881706819,5943.8368729456,138.123364,0,1.2762959726,14600,2018-04-15 06:21:17,14,0,16.534,5943.8368729456,138.123364,0.3131716,1.2762959726,0,0,-11.1847,249.5, -1.8, -1.2,0,0,1024,1024,1684,1024,249.7,-22.5,99,4.15,4.15,4.16,4.145,0,0,16.658,84.11,6,P-GPS,
0.353887050804896,36.8971881614148,5945.4772929456,139.763784,0,1.27610240304,14700,2018-04-15 06:21:17,14,0,16.534,5945.4772929456,139.763784,0.3131716,1.2762959726,0,0,-11.1847,249.5, -1.6, -1.5,0,0,1024,1024,1684,1024,249.7,-22.7,99,4.15,4.15,4.16,4.145,0,0,16.658,84.11,6,P-GPS,
0.353887184851433,36.8971881850694,5947.1177129456,141.404204,0,1.29529531704,14800,2018-04-15 06:21:17,14,0,16.534,5947.1177129456,141.404204,0.3131716,1.29529531704,0,0,-11.1847,249.5, -1.8, -2.1,0,0,1024,1024,1684,1024,249.7,-23,99,4.15,4.15,4.16,4.145,0,0,16.658,84.11,6,P-GPS,
0.353887288221885,36.8971881918251,5948.7581329456,143.044624,0,1.30714899196,14900,2018-04-15 06:21:17,14,0,16.534,5948.7581329456,143.044624,0.3131716,1.30714899196,0,0,-11.1847,249.5, -2.1, -2.8,0,0,1024,1024,1684,1024,249.7,-23,99,4.15,4.15,4.16,4.145,0,0,16.658,84.11,6,P-GPS,
0.353887381189327,36.8971882012408,5950.3985529456,144.685044,0,1.31980975352,15000,2018-04-15 06:21:18,14,0,16.534,5950.3985529456,144.685044,0.3131716,1.31980975352,0,0,-10.961006,249.6, -2.2, -2.7,0,0,1024,1024,1684,1024,249.7,-23.3,99,4.15,4.15,4.16,4.145,0,0,16.658,84.11,6,P-GPS,
0.353887424868966,36.8971881960746,5952.0389729456,146.325464,0,1.32267720768,15100,2018-04-15 06:21:18,14,0,16.534,5952.0389729456,146.325464,0.3131716,1.32267720768,0,0,-10.961006,249.5, -1.7, -2.3,0,0,1024,1024,1684,1024,249.7,-23.5,99,4.15,4.15,4.16,4.145,0,0,16.658,84.11,6,P-GPS,
0.353887450568585,36.897188238789,5953.6793929456,147.965884,0,1.34036093528,15200,2018-04-15 06:21:18,14,0,16.534,5953.6793929456,147.965884,0.3131716,1.34036093528,0,0,-11.1847,249.5, -1.4, -2.1,0,0,1024,1024,1684,1024,249.7,-23.7,99,4.15,4.15,4.16,4.145,0,0,16.658,84.11,6,P-GPS,
0.353887449695918,36.8971882712669,5955.3198129456,149.606304,0,1.35156500388,15300,2018-04-15 06:21:18,14,0,16.534,5955.3198129456,149.606304,0.3131716,1.35156500388,0,0,-11.1847,249.5, -1.6, -1.7,0,0,1024,1024,1684,1024,249.7,-24,99,4.15,4.15,4.16,4.145,0,0,16.658,84.11,6,P-GPS,
0.353887471596734,36.8971883141178,5957.2883169456,151.574808,0,1.36887799656,15400,2018-04-15 06:21:18,14,0,16.534,5957.2883169456,151.574808,0.3131716,1.36887799656,0,0,-11.1847,249.5, -1.7, -1.5,0,0,1024,1024,1684,1024,249.7,-24.2,99,4.15,4.15,4.16,4.145,0,0,16.658,84.11,6,P-GPS,
0.353887475695451,36.89718834072,5958.9287369456,153.215228,0,1.37858272128,15500,2018-04-15 06:21:18,14,0,16.454,5958.9287369456,153.215228,0.3131716,1.37858272128,0,0,-10.961006,249.5, -1.7, -1.6,0,0,1024,1024,1684,1024,249.7,-24.3,99,4.141,4.142,4.152,4.137,0,0,17.166,84.11,6,P-GPS,
0.353887485532601,36.8971883661007,5960.2410729456,154.527564,0,1.38849413892,15600,2018-04-15 06:21:18,14,0,16.454,5960.2410729456,154.527564,0.3131716,1.38849413892,0,0,-10.961006,249.5, -1.7, -1.5,0,0,1024,1024,1684,1024,249.7,-24.5,99,4.141,4.142,4.152,4.137,0,0,17.166,84.11,6,P-GPS,
0.353887486010651,36.897188379349,5961.8814929456,156.167984,0,1.39315621256,15700,2018-04-15 06:21:18,14,0,16.454,5961.8814929456,156.167984,0.3131716,1.39315621256,0,0,-10.961006,249.5, -1.8, -1.4,0,0,1024,1024,1684,1024,249.7,-24.5,99,4.141,4.142,4.152,4.137,0,0,17.166,84.11,6,P-GPS,
0.353887538784475,36.8971883771021,5963.5219129456,157.808404,0,1.39827104212,15800,2018-04-15 06:21:18,14,0,16.454,5963.5219129456,157.808404,0.3131716,1.39827104212,0,0,-10.961006,249.5, -1.8, -1.5,0,0,1024,1024,1684,1024,249.7,-24.5,99,4.141,4.142,4.152,4.137,0,0,17.166,84.11,6,P-GPS,
0.353887585241871,36.897188363479,5965.1623329456,159.448824,0,1.39895673768,15900,2018-04-15 06:21:19,14,0,16.454,5965.1623329456,159.448824,0.3131716,1.39895673768,0,0,-10.961006,249.4, -1.8, -1.8,0,0,1024,1024,1684,1024,249.7,-24.5,99,4.141,4.142,4.152,4.137,0,0,17.166,84.11,6,P-GPS,
0.353887641744526,36.8971883423508,5966.8027529456,161.089244,0,1.39852694764,16000,2018-04-15 06:21:19,14,0,16.454,5966.8027529456,161.089244,0.3131716,1.39895673768,0,0,-10.961006,249.4, -1.8, -2.4,0,0,1024,1024,1684,1036,249.7,-24.5,99,4.141,4.142,4.152,4.137,0,0,17.166,84.11,6,P-GPS,
0.353887665142061,36.8971883136556,5968.4431729456,162.729664,0,1.39162077944,16100,2018-04-15 06:21:19,14,0,16.454,5968.4431729456,162.729664,0.3131716,1.39895673768,0,0,-10.961006,249.5, -1.4, -2.7,0,0,1024,1024,1684,1062,249.7,-24.5,99,4.141,4.142,4.152,4.137,0,0,17.166,84.11,6,P-GPS,
0.353887657171794,36.8971883025101,5970.0835929456,164.370084,0,1.38680122548,16200,2018-04-15 06:21:19,14,0,16.454,5970.0835929456,164.370084,0.3131716,1.39895673768,0,0,-10.961006,249.5, -0.9, -2.2,0,0,1024,1024,1684,1104,249.7,-24.5,99,4.141,4.142,4.152,4.137,0,0,17.166,84.11,6,P-GPS,
0.353887627941555,36.8971883018373,5971.7240129456,166.010504,0,1.38291343008,16300,2018-04-15 06:21:19,14,0,16.454,5971.7240129456,166.010504,0.3131716,1.39895673768,0,0,-10.961006,249.6, -1.1, -1.4,0,0,1024,1024,1684,1120,249.7,-24.5,99,4.141,4.142,4.152,4.137,0,0,17.166,84.11,6,P-GPS,
0.353887640596168,36.8971883652067,5973.6925169456,167.979008,0,1.40623035996,16400,2018-04-15 06:21:19,14,0,16.454,5973.6925169456,167.979008,0.3131716,1.40623035996,0,0,-11.1847,250.1, -1.2, -1.3,0,0,1024,1024,1684,1120,250.1,-24.5,99,4.141,4.142,4.152,4.137,0,0,17.166,84.11,6,P-GPS,
0.353887651527607,36.8971884123189,5975.3329369456,169.619428,0,1.42375988808,16500,2018-04-15 06:21:19,14,0,16.427,5975.3329369456,169.619428,0.3131716,1.42375988808,0,0,-11.1847,250.9, -1.5, -1.6,0,0,1024,1024,1684,1126,250.5,-24.5,99,4.137,4.139,4.15,4.135,0,0,17.19,84.11,6,P-GPS,
0.353887686293004,36.8971884647099,5976.9733569456,171.259848,0,1.44603351084,16600,2018-04-15 06:21:19,14,0,16.427,5976.9733569456,171.259848,0.3131716,1.44603351084,0,0,-11.1847,251.9, -1.7, -1.8,0,0,1024,1024,1684,1102,251,-24.5,99,4.137,4.139,4.15,4.135,0,0,17.19,84.11,6,P-GPS,
0.353887705717491,36.8971885030206,5978.6137769456,172.900268,0,1.46158797328,16700,2018-04-15 06:21:19,14,0,16.427,5978.6137769456,172.900268,0.3131716,1.46158797328,0,0,-10.961006,252.9, -1.9, -2,0,0,1024,1024,1684,1066,251.5,-24.5,99,4.137,4.139,4.15,4.135,0,0,17.19,84.11,6,P-GPS,
0.353887728070582,36.8971885197937,5980.2541969456,174.540688,0,1.47013128064,16800,2018-04-15 06:21:19,14,0,16.427,5980.2541969456,174.540688,0.3131716,1.47013128064,0,0,-11.1847,253.9, -1.8, -2,0,0,1024,1024,1684,1066,251.9,-24.5,99,4.137,4.139,4.15,4.135,0,0,17.19,84.11,6,P-GPS,
0.353887729270898,36.8971885223631,5981.8946169456,176.181108,0,1.4711614644,16900,2018-04-15 06:21:20,14,0,16.427,5981.8946169456,176.181108,0.3131716,1.4711614644,0,0,-10.961006,254.5, -1.5, -2,0,0,1024,1024,1684,1066,252.4,-24.5,99,4.137,4.139,4.15,4.135,0,0,17.19,84.11,6,P-GPS,
0.353887697727072,36.8971885577517,5985.1754569456,179.461948,0,1.47939965364,17100,2018-04-15 06:21:20,14,0,16.427,5985.1754569456,179.461948,0.3131716,1.47939965364,0,0,-10.961006,255.1, -1.4, -1.6,0,0,1024,1024,1684,1066,252.6,-24.5,99,4.137,4.139,4.15,4.135,0,0,17.19,84.11,6,P-GPS,
0.353887681888521,36.8971886010694,5986.8158769456,181.102368,0,1.49239834172,17200,2018-04-15 06:21:20,14,0,16.427,5986.8158769456,181.102368,0.3131716,1.49239834172,0,0,-10.961006,255.4, -1.3, -1.4,0,0,1024,1024,1684,1096,252.9,-24.5,99,4.137,4.139,4.15,4.135,0,0,17.19,84.11,6,P-GPS,
0.353887661498163,36.8971886262038,5988.4562969456,182.742788,0,1.49865818444,17300,2018-04-15 06:21:20,14,0,16.427,5988.4562969456,182.742788,0.3131716,1.49865818444,0,0,-11.1847,255.7, -1.1, -1.5,0,0,1024,1024,1684,1096,253.3,-24.5,99,4.137,4.139,4.15,4.135,0,0,17.19,84.11,6,P-GPS,
0.353887668023491,36.8971886449301,5990.0967169456,184.383208,0,1.50589243664,17400,2018-04-15 06:21:20,14,0,16.427,5990.0967169456,184.383208,0.3131716,1.50589243664,0,0,-10.961006,256.2, -1, -1.7,0,0,1024,1024,1684,1099,253.8,-24.5,99,4.137,4.139,4.15,4.135,0,0,17.19,84.11,6,P-GPS,
0.353887665374368,36.8971886527573,5991.7371369456,186.023628,0,1.50828744984,17500,2018-04-15 06:21:20,14,0,16.534,5991.7371369456,186.023628,0.3131716,1.50828744984,0,0,-11.1847,256.8, -0.9, -1.8,0,0,1024,1024,1684,1100,254.4,-24.5,99,4.137,4.139,4.15,4.135,0,0,17.19,84.11,6,P-GPS,
0.353887717487324,36.8971886633862,5993.7056409456,187.992132,0,1.5181430932,17600,2018-04-15 06:21:20,14,0,16.534,5993.7056409456,187.992132,0.3131716,1.5181430932,0,0,-11.1847,257.5, -0.9, -2,0,0,1024,1024,1684,1099,254.9,-24.5,99,4.137,4.139,4.15,4.135,0,0,17.19,84.11,6,P-GPS,
0.353887741162101,36.8971886713736,5995.3460609456,189.632552,0,1.5237697338,17700,2018-04-15 06:21:20,14,0,16.534,5995.3460609456,189.632552,0.3131716,1.5237697338,0,0,-10.961006,258.2, -0.8, -1.8,0,0,1024,1024,1684,1099,255.6,-24.5,99,4.137,4.139,4.15,4.135,0,0,17.19,84.11,6,P-GPS,
0.353887766367717,36.8971887232095,5996.9864809456,191.272972,0,1.54467196544,17800,2018-04-15 06:21:20,14,0,16.534,5996.9864809456,191.272972,0.3131716,1.54467196544,0,0,-10.961006,258.9, -0.8, -1.7,0,0,1024,1024,1684,1093,255.6,-24.5,99,4.137,4.139,4.15,4.135,0,0,17.19,84.11,6,P-GPS,
0.353887777664589,36.8971887671345,5998.6269009456,192.913392,0,1.56114834392,17900,2018-04-15 06:21:21,14,0,16.534,5998.6269009456,192.913392,0.3131716,1.56114834392,0,0,-10.961006,259.6, -1, -1.9,0,0,1024,1024,1684,1092,256.2,-24.5,99,4.137,4.139,4.15,4.135,0,0,17.19,84.11,6,P-GPS,
0.35388779637363,36.897188842118,6000.2673209456,194.553812,0,1.58921264928,18000,2018-04-15 06:21:21,14,0,16.534,6000.2673209456,194.553812,0.3131716,1.58921264928,0,0,-11.1847,260.3, -0.9, -1.9,0,0,1024,1024,1684,1090,256.8,-24.5,99,4.137,4.139,4.15,4.135,0,0,17.19,84.11,6,P-GPS,
0.353887792760113,36.8971888961396,6001.9077409456,196.194232,0,1.60736881784,18100,2018-04-15 06:21:21,14,0,16.534,6001.9077409456,196.194232,0.3131716,1.60736881784,0,0,-10.961006,260.9, -0.8, -1.7,0,0,1024,1024,1684,1090,257.4,-24.5,99,4.137,4.139,4.15,4.135,0,0,17.19,84.11,6,P-GPS,
0.353887796315209,36.8971889685973,6003.5481609456,197.834652,0,1.63277236196,18200,2018-04-15 06:21:21,14,0,16.534,6003.5481609456,197.834652,0.3131716,1.63277236196,0,0,-11.1847,261.5, -0.6, -1.4,0,0,1024,1024,1684,1090,258,-24.5,99,4.137,4.139,4.15,4.135,0,0,17.19,84.11,6,P-GPS,
0.353887796869796,36.8971890228592,6005.1885809456,199.475072,0,1.65157157516,18300,2018-04-15 06:21:21,14,0,16.534,6005.1885809456,199.475072,0.3131716,1.65157157516,0,0,-10.961006,262.1, -0.6, -1.5,0,0,1024,1024,1684,1090,258.6,-24.5,99,4.137,4.139,4.15,4.135,0,0,17.19,84.11,6,P-GPS,
0.353887817029882,36.8971890954218,6006.5009169456,200.787408,0,1.67900595924,18400,2018-04-15 06:21:21,14,0,16.534,6006.5009169456,200.787408,0.3131716,1.67900595924,0,0,-10.961006,262.7, -0.6, -1.8,0,0,1024,1024,1684,1089,259.2,-24.5,99,4.137,4.139,4.15,4.135,0,0,17.19,84.11,6,P-GPS,
0.353887828619009,36.8971891557117,6008.1413369456,202.427828,0,1.701197561,18500,2018-04-15 06:21:21,14,0,16.481,6008.1413369456,202.427828,0.3131716,1.701197561,0,0,-10.961006,263.3, -0.6, -1.7,0,0,1024,1024,1684,1090,259.9,-24.5,99,4.14,4.141,4.15,4.134,0,0,16.87,84.11,6,P-GPS,
0.353887850226222,36.8971892313877,6009.7817569456,204.068248,0,1.72988194512,18600,2018-04-15 06:21:21,14,0,16.481,6009.7817569456,204.068248,0.3131716,1.72988194512,0,0,-10.961006,263.9, -0.7, -1.7,0,0,1024,1024,1684,1090,260.5,-24.5,99,4.14,4.141,4.15,4.134,0,0,16.87,84.11,6,P-GPS,
0.353887865907629,36.8971892968105,6011.4221769456,205.708668,0,1.7543307648,18700,2018-04-15 06:21:21,14,0,16.481,6011.4221769456,205.708668,0.3131716,1.7543307648,0,0,-10.961006,264.5, -0.8, -1.8,0,0,1024,1024,1684,1089,261.1,-24.5,99,4.14,4.141,4.15,4.134,0,0,16.87,84.11,6,P-GPS,
0.353887882071055,36.89718940447,6013.0625969456,207.349088,0,1.79346790516,18800,2018-04-15 06:21:21,14,0,16.481,6013.0625969456,207.349088,0.3131716,1.79346790516,0,0,-10.961006,265.1, -0.9, -2,0,0,1024,1024,1684,1089,261.7,-24.5,99,4.14,4.141,4.15,4.134,0,0,16.87,84.11,6,P-GPS,
0.353887886180688,36.8971894878144,6015.0311009456,209.317592,0,1.82283142316,18900,2018-04-15 06:21:21,14,0,16.481,6015.0311009456,209.317592,0.3131716,1.82283142316,0,0,-11.1847,265.6, -0.9, -1.8,0,0,1024,1024,1684,1089,262.4,-24.5,99,4.14,4.141,4.15,4.134,0,0,16.87,84.11,6,P-GPS,
0.35388792121035,36.8971895998191,6016.6715209456,210.958012,0,1.86564310432,19000,2018-04-15 06:21:22,14,0,16.481,6016.6715209456,210.958012,0.3131716,1.86564310432,0,0,-11.1847,266.2, -0.8, -1.8,0,0,1024,1024,1684,1088,263,-24.5,99,4.14,4.141,4.15,4.134,0,0,16.87,84.11,6,P-GPS,
0.353887943874983,36.8971896855788,6018.3119409456,212.598432,0,1.89795609748,19100,2018-04-15 06:21:22,14,0,16.481,6018.3119409456,212.598432,0.3131716,1.89795609748,0,0,-11.1847,266.7, -0.8, -2,0,0,1024,1024,1684,1089,263.6,-24.5,99,4.14,4.141,4.15,4.134,0,0,16.87,84.11,6,P-GPS,
0.353887960130569,36.8971897616969,6019.9523609456,214.238852,0,1.92620741072,19200,2018-04-15 06:21:22,14,0,16.481,6019.9523609456,214.238852,0.3131716,1.92620741072,0,0,-11.1847,267.3, -0.6, -2,0,0,1024,1024,1684,1089,263.6,-24.5,99,4.14,4.141,4.15,4.134,0,0,16.87,84.11,6,P-GPS,
0.353887962384539,36.8971898173182,6021.5927809456,215.879272,0,1.94578090216,19300,2018-04-15 06:21:22,14,0,16.481,6021.5927809456,215.879272,0.3131716,1.94578090216,0,0,-11.408394,267.9, -0.6, -2,0,0,1024,1024,1684,1089,264.2,-24.5,99,4.14,4.141,4.15,4.134,0,0,16.87,84.11,6,P-GPS,
0.353887997548395,36.8971899028147,6023.2332009456,217.519692,0,1.97939966964,19400,2018-04-15 06:21:22,14,0,16.481,6023.2332009456,217.519692,0.3131716,1.97939966964,0,0,-11.1847,268.5, -0.5, -1.8,0,0,1024,1024,1684,1086,264.8,-24.5,99,4.14,4.141,4.15,4.134,0,0,16.87,84.11,6,P-GPS,
0.353888015452017,36.8971899703273,6024.8736209456,219.160112,0,2.00484914552,19500,2018-04-15 06:21:22,14,0,16.454,6024.8736209456,219.160112,0.3131716,2.00484914552,0,0,-11.1847,269, -0.1, -1.5,0,0,1024,1024,1684,1085,265.4,-24.5,98,4.136,4.137,4.146,4.131,0,0,16.766,84.11,6,P-GPS,
0.353888076318878,36.8971900440115,6026.5140409456,220.800532,0,2.03726384472,19600,2018-04-15 06:21:22,14,0,16.454,6026.5140409456,220.800532,0.3131716,2.03726384472,0,0,-10.961006,269.6, -0.2, -1.6,0,0,1024,1024,1684,1072,266,-24.5,98,4.136,4.137,4.146,4.131,0,0,16.766,84.11,6,P-GPS,
0.353888129304374,36.8971901106494,6028.1544609456,222.440952,0,2.06640754644,19700,2018-04-15 06:21:22,14,0,16.454,6028.1544609456,222.440952,0.3131716,2.06640754644,0,0,-11.1847,270.1, -0.4, -1.8,0,0,1024,1024,1684,1068,266.5,-24.5,98,4.136,4.137,4.146,4.131,0,0,16.766,84.11,6,P-GPS,
0.35388818559093,36.8971901834463,6029.7948809456,224.081372,0,2.09812014588,19800,2018-04-15 06:21:22,14,0,16.454,6029.7948809456,224.081372,0.3131716,2.09812014588,0,0,-10.961006,270.6, -0.7, -2.1,0,0,1024,1024,1684,1068,267,-24.5,98,4.136,4.137,4.146,4.131,0,0,16.766,84.11,6,P-GPS,
0.353888230535476,36.8971902357267,6031.7633849456,226.049876,0,2.12146660332,19900,2018-04-15 06:21:23,14,0,16.454,6031.7633849456,226.049876,0.3131716,2.12146660332,0,0,-11.1847,270.9, -0.7, -2.4,0,0,1024,1024,1684,1066,267.4,-24.5,98,4.136,4.137,4.146,4.131,0,0,16.766,84.11,6,P-GPS,
0.353888298324342,36.8971903157367,6033.4038049456,227.690296,0,2.15715558084,20000,2018-04-15 06:21:23,14,0,16.454,6033.4038049456,227.690296,0.3131716,2.15715558084,0,0,-11.1847,271.2, -0.3, -2.3,0,0,1024,1024,1684,1065,267.8,-24.5,98,4.136,4.137,4.146,4.131,0,0,16.766,84.11,6,P-GPS,
0.353888348680818,36.8971903797488,6035.0442249456,229.330716,0,2.18529534552,20100,2018-04-15 06:21:23,14,0,16.454,6035.0442249456,229.330716,0.3131716,2.18529534552,0,0,-10.961006,271.5, -0.2, -2.1,0,0,1024,1024,1684,1062,268.2,-24.5,98,4.136,4.137,4.146,4.131,0,0,16.766,84.11,6,P-GPS,
0.353888413390704,36.8971904485855,6036.3565609456,230.643052,0,2.2169128006,20200,2018-04-15 06:21:23,14,0,16.454,6036.3565609456,230.643052,0.3131716,2.2169128006,0,0,-10.961006,271.8, -0.2, -2.3,0,0,1024,1024,1684,1068,268.5,-24.5,98,4.136,4.137,4.146,4.131,0,0,16.766,84.11,6,P-GPS,
0.353888460306379,36.8971905088944,6037.9969809456,232.283472,0,2.24345151536,20300,2018-04-15 06:21:23,14,0,16.454,6037.9969809456,232.283472,0.3131716,2.24345151536,0,0,-10.961006,272.1, -0.3, -2.3,0,0,1024,1024,1684,1071,268.9,-24.5,98,4.136,4.137,4.146,4.131,0,0,16.766,84.11,6,P-GPS,
0.353888511684805,36.8971906206743,6039.6374009456,233.923892,0,2.28819889212,20400,2018-04-15 06:21:23,14,0,16.454,6039.6374009456,233.923892,0.3131716,2.28819889212,0,0,-10.961006,272.4, -0.3, -2.3,0,0,1024,1024,1684,1070,269.3,-24.5,98,4.136,4.137,4.146,4.131,0,0,16.766,84.11,6,P-GPS,
0.353888543501954,36.8971907149543,6041.2778209456,235.564312,0,2.32448826336,20500,2018-04-15 06:21:23,14,0,16.481,6041.2778209456,235.564312,0.3131716,2.32448826336,0,0,-10.961006,272.8, -0.6, -2.2,0,0,1024,1024,1684,1072,269.7,-24.5,98,4.133,4.133,4.143,4.129,0,0,16.798,84.11,6,P-GPS,
0.35388858641695,36.8971908460115,6042.9182409456,237.204732,0,2.37476713636,20600,2018-04-15 06:21:23,14,0,16.481,6042.9182409456,237.204732,0.3131716,2.37476713636,0,0,-10.961006,273.2, -0.9, -2,0,0,1024,1024,1684,1075,269.7,-24.5,98,4.133,4.133,4.143,4.129,0,0,16.798,84.11,6,P-GPS,
0.353888619608913,36.8971909480345,6044.5586609456,238.845152,0,2.41388459168,20700,2018-04-15 06:21:23,14,0,16.481,6044.5586609456,238.845152,0.3131716,2.41388459168,0,0,-10.961006,273.5, -0.9, -1.9,0,0,1024,1024,1684,1075,270.1,-24.5,98,4.133,4.133,4.143,4.129,0,0,16.798,84.11,6,P-GPS,
0.353888644154755,36.8971910667771,6046.1990809456,240.485572,0,2.45764771644,20800,2018-04-15 06:21:23,14,0,16.481,6046.1990809456,240.485572,0.3131716,2.45764771644,0,0,-10.961006,273.9, -0.7, -2.4,0,0,1024,1024,1684,1065,270.5,-24.5,98,4.133,4.133,4.143,4.129,0,0,16.798,84.11,6,P-GPS,
0.353888662668026,36.8971911573191,6047.8395009456,242.125992,0,2.49100401672,20900,2018-04-15 06:21:23,14,0,16.481,6047.8395009456,242.125992,0.3131716,2.49100401672,0,0,-10.961006,274.3, -0.8, -2.5,0,0,1024,1024,1684,1056,270.9,-24.5,98,4.133,4.133,4.143,4.129,0,0,16.798,84.11,6,P-GPS,
0.353888699154535,36.8971912185407,6049.4799209456,243.766412,0,2.51654207528,21000,2018-04-15 06:21:24,14,0,16.481,6049.4799209456,243.766412,0.3131716,2.51654207528,0,0,-10.961006,274.7, -0.8, -2.6,0,0,1024,1024,1684,1056,271.3,-24.5,98,4.133,4.133,4.143,4.129,0,0,16.798,84.11,6,P-GPS,
0.353888712277656,36.8971912579365,6051.1203409456,245.406832,0,2.53168643272,21100,2018-04-15 06:21:24,14,0,16.481,6051.1203409456,245.406832,0.3131716,2.53168643272,0,0,-11.1847,274.9, -0.7, -2.3,0,0,1024,1024,1684,1059,271.5,-24.5,98,4.133,4.133,4.143,4.129,0,0,16.798,84.11,6,P-GPS,
0.353888734125675,36.8971913143944,6052.7607609456,247.047252,0,2.55376976676,21200,2018-04-15 06:21:24,14,0,16.481,6052.7607609456,247.047252,0.3131716,2.55376976676,0,0,-10.961006,275.1, -0.5, -2.1,0,0,1024,1024,1684,1059,271.8,-24.5,98,4.133,4.133,4.143,4.129,0,0,16.798,84.11,6,P-GPS,
0.353888736739633,36.897191345779,6054.4011809456,248.687672,0,2.56485572512,21300,2018-04-15 06:21:24,14,0,16.481,6054.4011809456,248.687672,0.3131716,2.56485572512,0,0,-10.961006,275.3, -0.2, -1.9,0,0,1024,1024,1684,1082,272.1,-24.5,98,4.133,4.133,4.143,4.129,0,0,16.798,84.11,6,P-GPS,
0.353888763534356,36.8971914190656,6056.0416009456,250.328092,0,2.59332685464,21400,2018-04-15 06:21:24,14,0,16.481,6056.0416009456,250.328092,0.3131716,2.59332685464,0,0,-10.961006,275.5, -0.2, -1.9,0,0,1024,1024,1684,1083,272.4,-24.5,98,4.133,4.133,4.143,4.129,0,0,16.798,84.11,6,P-GPS,
