latitude,longitude,altitude(feet),ascent(feet),speed(mph),distance(feet),time(millisecond),datetime(utc),satellites,voltage(v),max_altitude(feet),max_ascent(feet),max_speed(mph),max_distance(feet),compass_heading(degrees), pitch(degrees), roll(degrees),isPhoto,isVideo,rc_elevator,rc_aileron,rc_throttle,rc_rudder,gimbal_heading(degrees),gimbal_pitch(degrees),battery_percent,voltageCell1,voltageCell2,voltageCell3,voltageCell4,voltageCell5,voltageCell6,battery_temperature(f),flycStateRaw,flycState,message
0.359840963403469,36.8940277429413,5776.9713160967,0,0,0,200,2017-11-06 08:56:37,15,0,5776.9713160967,0,0,0,341.3, -0.2, 1.9,0,0,1024,1024,1024,1024,333.5,-27.9,99,4.28,4.279,4.28,4.281,0,0,87.71,41,Motors_Started,
0.359840962082394,36.894027690753,5776.9713160967,0,0,0.019046588536,300,2017-11-06 08:56:37,15,0,5776.9713160967,0,0,0.019046588536,341.3, -0.2, 1.9,0,0,1024,1024,1024,1024,333.4,-25.5,99,4.28,4.279,4.28,4.281,0,0,87.71,41,Motors_Started,
0.359840959643799,36.8940276341966,5776.9713160967,0,0,0.039698492084,400,2017-11-06 08:56:38,15,0,5776.9713160967,0,0,0.039698492084,341.4, -0.2, 1.9,0,0,1024,1024,1024,1024,333.3,-17.8,99,4.28,4.279,4.28,4.281,0,0,87.71,41,Motors_Started,
0.359840959844505,36.8940275791456,5776.9713160967,0,0,0.05977362396,500,2017-11-06 08:56:38,15,0,5776.9713160967,0,0,0.05977362396,341.3, -0.2, 1.9,0,0,1024,1024,1024,1024,333.2,-7.2,99,4.28,4.279,4.28,4.281,0,0,87.71,41,Motors_Started,
0.359840976013325,36.8940275214536,5776.9713160967,0,0,0.080938978968,600,2017-11-06 08:56:38,15,0,5776.9713160967,0,0,0.080938978968,341.3, -0.2, 1.9,0,0,1024,1024,1024,1024,333.2,6.5,99,4.28,4.279,4.28,4.281,0,0,87.71,41,Motors_Started,
0.3598410066411,36.8940274664871,5776.9713160967,0,0,0.10208825786,700,2017-11-06 08:56:38,15,17.108,5776.9713160967,0,0,0.10208825786,341.3, -0.2, 1.9,0,0,453,413,440,1591,333.1,22,99,4.28,4.279,4.28,4.281,0,0,87.71,41,Motors_Started,Setting new Return-To-Home altitude to 30m (98 ft). Setting new Maximum Flight Altitude to 100m (328 ft)
0.359841038595242,36.8940274096743,5776.9713160967,0,0,0.124646329448,800,2017-11-06 08:56:38,15,17.108,5776.9713160967,0,0,0.124646329448,341.3, -0.2, 1.9,0,0,1053,1297,944,1229,333.1,34.7,99,4.28,4.279,4.28,4.281,0,0,87.71,41,Motors_Started,
0.359841058512741,36.8940273561435,5776.9713160967,0,0,0.145323823548,900,2017-11-06 08:56:38,15,17.108,5776.9713160967,0,0,0.145323823548,341.3, -0.2, 2,0,0,1042,1022,1024,1024,333,47,99,4.28,4.279,4.28,4.281,0,0,87.71,41,Motors_Started,
0.359841076047826,36.8940273014414,5776.9713160967,0,0,0.166238194296,1000,2017-11-06 08:56:38,15,17.108,5776.9713160967,0,0,0.166238194296,341.3, -0.2, 2,0,0,1024,1024,1024,1024,333,47,99,4.28,4.279,4.28,4.281,0,0,87.71,41,Motors_Started,
0.359841087973328,36.8940272487591,5776.9713160967,0,0,0.185938654244,1100,2017-11-06 08:56:38,15,17.108,5776.9713160967,0,0,0.185938654244,341.3, -0.3, 2.1,0,0,1024,1024,1024,1024,333,50.6,99,4.28,4.279,4.28,4.281,0,0,87.71,41,Motors_Started,
0.359841095653884,36.8940272132052,5776.9713160967,0,0,0.199202106112,1200,2017-11-06 08:56:38,15,17.108,5776.9713160967,0,0,0.199202106112,341.3, -0.2, 1.9,0,0,1024,1024,1024,1024,333.1,50.7,99,4.28,4.279,4.28,4.281,0,0,87.71,41,Motors_Started,
0.359841101090852,36.894027190053,5776.9713160967,0,0,0.207877959408,1300,2017-11-06 08:56:38,15,17.108,5776.9713160967,0,0,0.207877959408,341.3, -0.2, 2,0,0,1024,1024,1024,1024,333,50.6,99,4.28,4.279,4.28,4.281,0,0,87.71,41,Motors_Started,
0.359841101980796,36.894027167804,5776.9713160967,0,0,0.215839573836,1400,2017-11-06 08:56:39,16,17.108,5776.9713160967,0,0,0.215839573836,341.3, -0.2, 2,0,0,1024,1024,1024,1024,332.8,50.3,99,4.28,4.279,4.28,4.281,0,0,87.71,41,Motors_Started,
0.359841104614804,36.894027139264,5776.9713160967,0,0,0.22619259254,1500,2017-11-06 08:56:39,16,17.108,5776.9713160967,0,0,0.22619259254,341.3, -0.3, 2.1,0,0,1024,1024,1024,1024,332.9,50.1,99,4.28,4.279,4.28,4.281,0,0,87.71,41,Motors_Started,
0.359841085134543,36.894027109145,5776.9713160967,0,0,0.235462277876,1600,2017-11-06 08:56:39,16,17.108,5776.9713160967,0,0,0.235462277876,341.3, -0.3, 2,0,0,1024,1024,1024,1024,332.9,50,99,4.28,4.279,4.28,4.281,0,0,87.71,10,Assisted_Takeoff,
0.359841050484105,36.894027063064,5776.9713160967,0,0,0.250074483068,1700,2017-11-06 08:56:39,16,17.108,5776.9713160967,0,0,0.250074483068,341.3, -0.3, 2,0,0,1024,1024,1024,1024,332.8,41.3,99,4.271,4.27,4.269,4.268,0,0,87.71,10,Assisted_Takeoff,
0.359841013246476,36.8940270197381,5776.9713160967,0,0,0.264480979592,1800,2017-11-06 08:56:39,16,17.108,5776.9713160967,0,0,0.264480979592,341.3, -0.2, 1.9,0,0,1024,1024,1024,1024,332.6,29.7,99,4.271,4.27,4.269,4.268,0,0,87.71,10,Assisted_Takeoff,
0.359840993519098,36.8940269702574,5776.9713160967,0,0,0.282121728188,1900,2017-11-06 08:56:39,16,17.108,5776.9713160967,0,0,0.282121728188,341.3, -0.2, 1.9,0,0,1024,1024,1024,1024,332.6,16.8,99,4.271,4.27,4.269,4.268,0,0,87.71,10,Assisted_Takeoff,
0.359840969360317,36.8940269168055,5776.9713160967,0,0,0.301417004396,2000,2017-11-06 08:56:39,16,17.108,5776.9713160967,0,0,0.301417004396,341.3, -0.2, 1.9,0,0,1024,1024,1024,1024,332.5,-1.1,99,4.271,4.27,4.269,4.268,0,0,87.71,10,Assisted_Takeoff,
0.359840958272242,36.8940268638236,5776.9713160967,0,0,0.32074476092,2100,2017-11-06 08:56:39,16,17.108,5776.9713160967,0,0,0.32074476092,341.3, -0.2, 1.9,0,0,1024,1024,1024,1024,332.4,-19.4,99,4.271,4.27,4.269,4.268,0,0,87.71,10,Assisted_Takeoff,
0.359840941776104,36.894026753577,5776.9713160967,0,0,0.36104659948,2300,2017-11-06 08:56:39,16,17.108,5776.9713160967,0,0,0.36104659948,341.3, -0.2, 1.9,0,0,1024,1024,1024,1024,332.4,-32,99,4.271,4.27,4.269,4.268,0,0,87.71,10,Assisted_Takeoff,
0.359840956513929,36.8940267157601,5776.9713160967,0,0,0.37476707236,2400,2017-11-06 08:56:40,16,17.108,5776.9713160967,0,0,0.37476707236,341.3, -0.2, 1.9,0,0,1024,1024,1024,1024,332.4,-32.1,99,4.271,4.27,4.269,4.268,0,0,87.71,10,Assisted_Takeoff,
0.359840984639193,36.8940266899978,5776.9713160967,0,0,0.3842355766,2500,2017-11-06 08:56:40,16,17.108,5776.9713160967,0,0,0.3842355766,341.3, -0.2, 1.9,0,0,1024,1024,1024,1024,332.3,-32.3,99,4.271,4.27,4.269,4.268,0,0,87.71,10,Assisted_Takeoff,
0.35984101523847,36.8940266666608,5776.9713160967,0,0,0.393126653,2600,2017-11-06 08:56:40,16,17.108,5776.9713160967,0,0,0.393126653,341.3, -0.2, 1.9,0,0,1024,1024,1024,1024,332.3,-32.6,99,4.271,4.27,4.269,4.268,0,0,87.71,10,Assisted_Takeoff,
0.359841035750758,36.8940266320494,5776.9713160967,0,0,0.40615814948,2700,2017-11-06 08:56:40,16,17.108,5776.9713160967,0,0,0.40615814948,341.3, -0.2, 1.9,0,0,1024,1024,1024,1024,332.2,-32.8,99,4.276,4.274,4.274,4.275,0,0,87.71,10,Assisted_Takeoff,
0.359841056125442,36.894026596976,5776.9713160967,0,0,0.41946195568,2800,2017-11-06 08:56:40,16,17.108,5776.9713160967,0,0,0.41946195568,341.3, -0.2, 1.9,0,0,1024,1024,1024,1024,332.1,-32.9,99,4.276,4.274,4.274,4.275,0,0,87.71,10,Assisted_Takeoff,
0.35984107045982,36.8940265547665,5776.9713160967,0,0,0.4352526386,2900,2017-11-06 08:56:40,16,17.108,5776.9713160967,0,0,0.4352526386,341.3, -0.2, 1.9,0,0,1024,1024,1024,1024,332.1,-33.4,99,4.276,4.274,4.274,4.275,0,0,87.71,10,Assisted_Takeoff,
0.359841081591863,36.8940265101845,5776.9713160967,0,0,0.45182416144,3000,2017-11-06 08:56:40,16,17.108,5776.9713160967,0,0,0.45182416144,341.3, -0.2, 1.9,0,0,1024,1024,1024,1024,332.1,-33.7,99,4.276,4.274,4.274,4.275,0,0,87.71,10,Assisted_Takeoff,
0.359841090404188,36.8940264626354,5776.9713160967,0,0,0.46940290216,3100,2017-11-06 08:56:40,16,17.108,5776.9713160967,0,0,0.46940290216,341.3, -0.3, 1.9,0,0,1024,1024,1024,1024,332.1,-33.7,99,4.276,4.274,4.274,4.275,0,0,87.71,10,Assisted_Takeoff,
0.359841094107269,36.894026430397,5776.9713160967,0,0,0.48124017288,3200,2017-11-06 08:56:40,16,17.108,5776.9713160967,0,0,0.48124017288,341.3, -0.2, 1.9,0,0,1024,1024,1024,1024,331.9,-32.6,99,4.276,4.274,4.274,4.275,0,0,87.71,10,Assisted_Takeoff,
0.359841098336746,36.8940264088645,5776.9713160967,0,0,0.48920933324,3300,2017-11-06 08:56:40,16,17.108,5776.9713160967,0,0,0.48920933324,341.2, -0.3, 1.9,0,0,1024,1024,1024,1024,331.9,-32.6,99,4.276,4.274,4.274,4.275,0,0,87.71,10,Assisted_Takeoff,
0.359841113367691,36.8940263877528,5776.9713160967,0,0,0.49744752248,3400,2017-11-06 08:56:41,16,17.108,5776.9713160967,0,0,0.49744752248,341.2, -0.2, 1.9,0,0,1024,1024,1024,1024,331.8,-30.6,99,4.276,4.274,4.274,4.275,0,0,87.71,10,Assisted_Takeoff,
0.359841144546694,36.8940263529364,5776.9713160967,0,0,0.51142062004,3500,2017-11-06 08:56:41,16,17.108,5776.9713160967,0,0,0.51142062004,341.2, -0.2, 1.9,0,0,1024,1024,1024,1024,331.6,-25.6,99,4.276,4.274,4.274,4.275,0,0,87.71,10,Assisted_Takeoff,
0.359841193095495,36.8940262697941,5776.9713160967,0,0,0.54395999116,3700,2017-11-06 08:56:41,16,17.081,5776.9713160967,0,0,0.54395999116,341.2, -0.3, 1.9,0,0,1024,1024,1024,1024,331.5,-15.5,99,4.276,4.274,4.274,4.275,0,0,87.71,10,Assisted_Takeoff,
0.359841206414945,36.8940262383703,5776.9713160967,0,0,0.55604660572,3800,2017-11-06 08:56:41,16,17.081,5776.9713160967,0,0,0.55604660572,341.2, -0.2, 1.9,0,0,1024,1024,1024,1024,331.4,-3.3,99,4.276,4.274,4.274,4.275,0,0,87.71,10,Assisted_Takeoff,
0.359841216083832,36.8940262187473,5776.9713160967,0,0,0.5636811204,3900,2017-11-06 08:56:41,16,17.081,5776.9713160967,0,0,0.5636811204,341.2, -0.3, 1.9,0,0,1024,1024,1024,1024,331.3,11.4,99,4.276,4.274,4.274,4.275,0,0,87.71,10,Assisted_Takeoff,
0.359841218852186,36.8940262158283,5776.9713160967,0,0,0.56489831204,4000,2017-11-06 08:56:41,16,17.081,5776.9713160967,0,0,0.56489831204,341.2, -0.3, 1.9,0,0,1024,1024,1024,1024,331.3,25.5,99,4.276,4.274,4.274,4.275,0,0,87.71,10,Assisted_Takeoff,
0.359841222916783,36.8940262122488,5776.9713160967,0,0,0.56643046432,4100,2017-11-06 08:56:41,16,17.081,5776.9713160967,0,0,0.56643046432,341.2, -0.3, 1.9,0,1,1024,1024,1024,1024,331.3,25.5,99,4.276,4.274,4.274,4.275,0,0,87.71,10,Assisted_Takeoff,
0.359841219035793,36.8940262082056,5776.9713160967,0,0,0.5676509368,4200,2017-11-06 08:56:41,16,17.081,5776.9713160967,0,0,0.5676509368,341.2, -0.3, 1.9,0,1,1024,1024,1024,1024,331.3,48.3,99,4.276,4.274,4.274,4.275,0,0,87.71,10,Assisted_Takeoff,
0.359841213433539,36.8940261495528,5776.9713160967,0,0,0.58844818156,4400,2017-11-06 08:56:42,16,17.081,5776.9713160967,0,0,0.58844818156,341.2, -0.3, 1.9,0,1,1024,1024,1024,1024,331.3,48.1,99,4.276,4.274,4.274,4.275,0,0,87.71,10,Assisted_Takeoff,
0.359841212342074,36.8940261082094,5776.9713160967,0,0,0.60329398256,4500,2017-11-06 08:56:42,16,17.081,5776.9713160967,0,0,0.60329398256,341.2, -0.3, 1.9,0,1,1024,1024,1024,1024,331.2,48.1,99,4.276,4.274,4.274,4.275,0,0,87.71,10,Assisted_Takeoff,
0.359841223042987,36.8940260766561,5776.9713160967,0,0,0.61526576772,4600,2017-11-06 08:56:42,16,17.081,5776.9713160967,0,0,0.61526576772,341.2, -0.3, 1.9,0,1,1024,1024,1024,1024,331.2,48,99,4.276,4.274,4.274,4.275,0,0,87.71,10,Assisted_Takeoff,
0.359841252643213,36.8940260561922,5776.9713160967,0,0,0.62437994124,4700,2017-11-06 08:56:42,16,17.108,5776.9713160967,0,0,0.62437994124,341.2, -0.3, 1.9,0,1,1024,1024,1024,1024,331.2,48,99,4.276,4.276,4.275,4.277,0,0,87.71,10,Assisted_Takeoff,
0.359841281028214,36.8940260491059,5776.9713160967,0,0,0.62875330096,4800,2017-11-06 08:56:42,16,17.108,5776.9713160967,0,0,0.62875330096,341.2, -0.3, 1.9,0,1,1024,1024,1024,1024,331.1,47.9,99,4.276,4.276,4.275,4.277,0,0,87.71,10,Assisted_Takeoff,
0.359841301159038,36.8940260413467,5776.9713160967,0,0,0.63292652944,4900,2017-11-06 08:56:42,16,17.108,5776.9713160967,0,0,0.63292652944,341.2, -0.3, 1.9,0,1,1024,1024,1024,1024,331,43.7,99,4.276,4.276,4.275,4.277,0,0,87.71,10,Assisted_Takeoff,
0.359841314487852,36.8940260485256,5776.9713160967,0,0,0.63132547952,5000,2017-11-06 08:56:42,16,17.108,5776.9713160967,0,0,0.63292652944,341.2, -0.3, 1.8,0,1,1024,1024,1024,1024,330.9,33.5,99,4.276,4.276,4.275,4.277,0,0,87.71,10,Assisted_Takeoff,
0.359841325729001,36.8940260482911,5776.9713160967,0,0,0.63225395724,5100,2017-11-06 08:56:42,16,17.108,5776.9713160967,0,0,0.63292652944,341.2, -0.3, 1.8,0,1,1024,1024,1024,1024,330.9,33.5,99,4.276,4.276,4.275,4.277,0,0,87.71,10,Assisted_Takeoff,
0.359841330239791,36.8940260565631,5776.9713160967,0,0,0.62965225112,5200,2017-11-06 08:56:42,16,17.108,5776.9713160967,0,0,0.63292652944,341.2, -0.3, 1.8,0,1,1024,1024,1024,1024,330.9,21.8,99,4.276,4.276,4.275,4.277,0,0,87.71,10,Assisted_Takeoff,
0.359841333273175,36.8940260613862,5776.9713160967,0,0,0.62816931144,5300,2017-11-06 08:56:42,16,17.108,5776.9713160967,0,0,0.63292652944,341.2, -0.3, 1.8,0,1,1024,1024,1024,1024,330.8,6.8,99,4.276,4.276,4.275,4.277,0,0,87.71,10,Assisted_Takeoff,
0.359841327052519,36.8940260777209,5776.9713160967,0,0,0.62186025612,5400,2017-11-06 08:56:43,16,17.108,5776.9713160967,0,0,0.63292652944,341.2, -0.3, 1.8,0,1,1024,1024,1024,1024,330.7,-12.6,99,4.276,4.276,4.275,4.277,0,0,87.71,10,Assisted_Takeoff,
0.359841328517305,36.8940260810258,5776.9713160967,0,0,0.62079726396,5500,2017-11-06 08:56:43,16,17.108,5776.9713160967,0,0,0.63292652944,341.2, -0.3, 1.8,0,1,1024,1024,1024,1024,330.7,-32.1,99,4.276,4.276,4.275,4.277,0,0,87.71,10,Assisted_Takeoff,
0.359841322650021,36.8940260925717,5776.9713160967,0,0,0.616223773,5600,2017-11-06 08:56:43,16,17.108,5776.9713160967,0,0,0.63292652944,341.2, -0.3, 1.8,0,1,1024,1024,1024,1024,330.7,-35.7,99,4.276,4.276,4.275,4.277,0,0,87.71,10,Assisted_Takeoff,
0.359841322720451,36.8940260951545,5776.9713160967,0,0,0.61530841864,5700,2017-11-06 08:56:43,16,17.081,5776.9713160967,0,0,0.63292652944,341.2, -0.3, 1.8,0,1,1024,1024,1024,1024,330.7,-35.9,99,4.274,4.274,4.275,4.277,0,0,87.71,10,Assisted_Takeoff,
0.359841316011669,36.8940261046507,5776.9713160967,0,0,0.61140421904,5800,2017-11-06 08:56:43,16,17.081,5776.9713160967,0,0,0.63292652944,341.2, -0.3, 1.8,0,1,1024,1024,1024,1024,330.6,-36,99,4.274,4.274,4.275,4.277,0,0,87.71,10,Assisted_Takeoff,
0.359841314874201,36.89402610652,5776.9713160967,0,0,0.61065290668,5900,2017-11-06 08:56:43,16,17.081,5776.9713160967,0,0,0.63292652944,341.2, -0.3, 1.8,0,1,1024,1024,1024,1024,330.5,-36.2,99,4.274,4.274,4.275,4.277,0,0,87.71,10,Assisted_Takeoff,
0.359841307731438,36.8940261145361,5776.9713160967,0,0,0.60724739476,6000,2017-11-06 08:56:43,16,17.081,5776.9713160967,0,0,0.63292652944,341.2, -0.3, 1.8,0,1,1024,1024,1024,1024,330.4,-36.7,99,4.274,4.274,4.275,4.277,0,0,87.71,10,Assisted_Takeoff,
0.359841300601703,36.8940261040127,5776.9713160967,0,0,0.61047574132,6200,2017-11-06 08:56:43,16,17.081,5776.9713160967,0,0,0.63292652944,341.2, -0.3, 1.8,0,1,1024,1024,1024,1024,330.4,-36.7,99,4.274,4.274,4.275,4.277,0,0,87.71,10,Assisted_Takeoff,
0.359841300745821,36.8940260735375,5776.9713160967,0,0,0.62138125348,6300,2017-11-06 08:56:43,16,17.081,5776.9713160967,0,0,0.63292652944,341.2, -0.3, 1.8,0,1,1024,1024,1024,1024,330.4,-36.9,99,4.274,4.274,4.275,4.277,0,0,87.71,10,Assisted_Takeoff,
0.359841314670645,36.8940260632849,5776.9713160967,0,0,0.626066293,6400,2017-11-06 08:56:44,16,17.081,5776.9713160967,0,0,0.63292652944,341.2, -0.3, 1.8,0,1,1024,1024,1024,1024,330.3,-37.2,99,4.274,4.274,4.275,4.277,0,0,87.71,10,Assisted_Takeoff,
0.359841346579598,36.894026072923,5776.9713160967,0,0,0.62512469192,6500,2017-11-06 08:56:44,16,17.081,5776.9713160967,0,0,0.63292652944,341.2, -0.3, 1.8,0,1,1024,1024,1024,1024,330.3,-37.4,99,4.274,4.274,4.275,4.277,0,0,87.71,10,Assisted_Takeoff,
0.359841376674058,36.8940260909513,5776.9713160967,0,0,0.62128938996,6600,2017-11-06 08:56:44,16,17.081,5776.9713160967,0,0,0.63292652944,341.2, -0.3, 1.8,0,1,1024,1024,1024,1024,330.1,-34.7,99,4.274,4.274,4.275,4.277,0,0,87.71,10,Assisted_Takeoff,
0.359841397575543,36.8940260978995,5776.9713160967,0,0,0.62073164716,6700,2017-11-06 08:56:44,16,17.081,5776.9713160967,0,0,0.63292652944,341.2, -0.3, 1.8,0,1,1024,1024,1024,1024,330,-34.1,99,4.274,4.274,4.275,4.277,0,0,87.71,10,Assisted_Takeoff,
0.359841413620195,36.8940261106697,5776.9713160967,0,0,0.61775920612,6800,2017-11-06 08:56:44,16,17.081,5776.9713160967,0,0,0.63292652944,341.2, -0.3, 1.8,0,1,1024,1024,1024,1024,329.9,-32.4,99,4.274,4.274,4.275,4.277,0,0,87.71,10,Assisted_Takeoff,
0.359841427601608,36.8940261146352,5776.9713160967,0,0,0.61774608276,6900,2017-11-06 08:56:44,16,17.081,5776.9713160967,0,0,0.63292652944,341.2, -0.3, 1.8,0,1,1024,1024,1024,1024,329.8,-25.7,99,4.274,4.274,4.275,4.277,0,0,87.71,10,Assisted_Takeoff,
0.359841433560899,36.8940261243525,5776.9713160967,0,0,0.61493768372,7000,2017-11-06 08:56:44,16,17.081,5776.9713160967,0,0,0.63292652944,341.2, -0.4, 1.8,0,1,1024,1024,1024,1024,329.7,-2.7,99,4.274,4.274,4.275,4.277,0,0,87.71,10,Assisted_Takeoff,
0.359841441519919,36.8940261159461,5776.9713160967,0,0,0.61869752636,7200,2017-11-06 08:56:44,16,17.081,5776.9713160967,0,0,0.63292652944,341.2, -0.4, 1.8,0,1,1024,1024,1024,1024,329.7,-2.7,99,4.274,4.274,4.275,4.277,0,0,87.71,10,Assisted_Takeoff,
0.359841445706648,36.8940260873129,5776.9713160967,0,0,0.62915356344,7300,2017-11-06 08:56:44,16,17.081,5776.9713160967,0,0,0.63292652944,341.2, -0.4, 1.8,0,1,1024,1024,1024,1024,329.6,12.9,99,4.274,4.274,4.275,4.277,0,0,87.71,10,Assisted_Takeoff,
0.359841459101415,36.8940260599259,5776.9713160967,0,0,0.64011484988,7400,2017-11-06 08:56:45,16,17.081,5776.9713160967,0,0,0.64011484988,341.2, -0.4, 1.8,0,1,1024,1024,1024,1024,329.6,26.1,99,4.274,4.274,4.275,4.277,0,0,87.71,10,Assisted_Takeoff,
0.359841491344606,36.8940260411015,5776.9713160967,0,0,0.65009516516,7500,2017-11-06 08:56:45,16,17.081,5776.9713160967,0,0,0.65009516516,341.2, -0.4, 1.8,0,1,1024,1024,1024,1024,329.6,38.7,99,4.274,4.274,4.275,4.277,0,0,87.71,10,Assisted_Takeoff,
0.359841518588474,36.8940260265226,5776.9713160967,0,0,0.65816603156,7600,2017-11-06 08:56:45,16,17.081,5776.9713160967,0,0,0.65816603156,341.2, -0.4, 1.8,0,1,1024,1024,1024,1024,329.6,46.1,99,4.274,4.274,4.275,4.277,0,0,87.71,10,Assisted_Takeoff,
0.359841540275684,36.8940260137107,5776.9713160967,0,0,0.66507876144,7700,2017-11-06 08:56:45,16,17.081,5776.9713160967,0,0,0.66507876144,341.2, -0.4, 1.8,0,1,1024,1024,1024,1024,329.4,45.9,99,4.274,4.274,4.275,4.277,0,0,89.51,10,Assisted_Takeoff,
0.359841612601803,36.8940259992175,5776.9713160967,0,0,0.67884516608,7900,2017-11-06 08:56:45,16,17.081,5776.9713160967,0,0,0.67884516608,341.2, -0.4, 1.8,0,1,1024,1024,1024,1024,329.4,45.8,99,4.274,4.274,4.275,4.277,0,0,89.51,10,Assisted_Takeoff,
0.359841646388759,36.8940259983139,5776.9713160967,0,0,0.68355317148,8000,2017-11-06 08:56:45,16,17.081,5776.9713160967,0,0,0.68355317148,341.2, -0.4, 1.8,0,1,1024,1024,1024,1024,329.4,45.7,99,4.274,4.274,4.275,4.277,0,0,89.51,10,Assisted_Takeoff,
0.359841676659904,36.8940259921585,5776.9713160967,0,0,0.68973427404,8100,2017-11-06 08:56:45,16,17.081,5776.9713160967,0,0,0.68973427404,341.2, -0.4, 1.8,0,1,1024,1024,1024,1024,329.3,45.6,99,4.274,4.274,4.275,4.277,0,0,89.51,10,Assisted_Takeoff,
0.359841683716766,36.8940259960672,5776.9713160967,0,0,0.68939306668,8200,2017-11-06 08:56:45,16,17.081,5776.9713160967,0,0,0.68973427404,341.2, -0.4, 1.8,0,1,1024,1024,1024,1024,329.3,39.8,99,4.274,4.274,4.275,4.277,0,0,89.51,10,Assisted_Takeoff,
0.359841697252393,36.8940259930514,5776.9713160967,0,0,0.69230317176,8300,2017-11-06 08:56:45,16,17.081,5776.9713160967,0,0,0.69230317176,341.2, -0.4, 1.8,0,1,1024,1024,1024,1024,329.3,39.8,99,4.274,4.274,4.275,4.277,0,0,89.51,10,Assisted_Takeoff,
0.359841699719078,36.8940259814161,5776.9713160967,0,0,0.69656826376,8400,2017-11-06 08:56:46,16,17.081,5776.9713160967,0,0,0.69656826376,341.2, -0.4, 1.8,0,1,1024,1024,1024,1024,329.1,29.1,99,4.274,4.274,4.275,4.277,0,0,89.51,10,Assisted_Takeoff,
0.359841705841213,36.894025950359,5776.9713160967,0,0,0.70788716176,8500,2017-11-06 08:56:46,16,17.081,5776.9713160967,0,0,0.70788716176,341.2, -0.4, 1.8,0,1,1024,1024,1024,1024,329,17.1,99,4.274,4.274,4.275,4.277,0,0,89.51,10,Assisted_Takeoff,
0.359841713650009,36.8940259229934,5776.9713160967,0,0,0.71820212272,8600,2017-11-06 08:56:46,16,17.081,5776.9713160967,0,0,0.71820212272,341.2, -0.4, 1.8,0,1,1024,1024,1024,1024,329,1.1,99,4.274,4.274,4.275,4.277,0,0,89.51,10,Assisted_Takeoff,
0.359841747447143,36.8940259037274,5776.9713160967,0,0,0.72945212308,8700,2017-11-06 08:56:46,16,17.081,5776.9713160967,0,0,0.72945212308,341.2, -0.4, 1.8,0,1,1024,1024,1024,1024,328.9,-17.7,99,4.275,4.274,4.274,4.275,0,0,89.51,10,Assisted_Takeoff,
0.359841769370071,36.8940258931494,5776.9713160967,0,0,0.73616144088,8800,2017-11-06 08:56:46,16,17.081,5776.9713160967,0,0,0.73616144088,341.2, -0.4, 1.8,0,1,1024,1024,1024,1024,328.9,-36.9,99,4.275,4.274,4.274,4.275,0,0,89.51,10,Assisted_Takeoff,
0.359841788480268,36.894025883158,5776.9713160967,0,0,0.7423064542,8900,2017-11-06 08:56:46,16,17.081,5776.9713160967,0,0,0.7423064542,341.2, -0.4, 1.8,0,1,1024,1024,1024,1024,328.8,-38,99,4.275,4.274,4.274,4.275,0,0,89.51,10,Assisted_Takeoff,
0.359841794539708,36.8940258822485,5776.9713160967,0,0,0.74350724164,9000,2017-11-06 08:56:46,16,17.081,5776.9713160967,0,0,0.74350724164,341.2, -0.4, 1.8,0,1,1024,1024,1024,1024,328.8,-38.2,99,4.275,4.274,4.274,4.275,0,0,89.51,10,Assisted_Takeoff,
0.359841805286624,36.8940258767676,5776.9713160967,0,0,0.74693900028,9100,2017-11-06 08:56:46,16,17.081,5776.9713160967,0,0,0.74693900028,341.2, -0.4, 1.8,0,1,1024,1024,1024,1024,328.7,-38.4,99,4.275,4.274,4.274,4.275,0,0,89.51,10,Assisted_Takeoff,
0.359841818746121,36.8940258799976,5776.9713160967,0,0,0.7479002864,9200,2017-11-06 08:56:46,16,17.081,5776.9713160967,0,0,0.7479002864,341.2, -0.4, 1.7,0,1,1024,1024,1024,1024,328.7,-38.6,99,4.275,4.274,4.274,4.275,0,0,89.51,10,Assisted_Takeoff,
0.359841853469839,36.8940258773205,5776.9713160967,0,0,0.75415684828,9300,2017-11-06 08:56:46,16,17.081,5776.9713160967,0,0,0.75415684828,341.2, -0.5, 1.7,0,1,1024,1024,1024,1024,328.7,-38.6,99,4.275,4.274,4.274,4.275,0,0,89.51,10,Assisted_Takeoff,
0.359841879259507,36.8940258668394,5776.9713160967,0,0,0.76168965692,9400,2017-11-06 08:56:47,16,17.081,5776.9713160967,0,0,0.76168965692,341.1, -0.5, 1.7,0,1,1024,1024,1024,1024,328.6,-38.8,99,4.275,4.274,4.274,4.275,0,0,89.51,10,Assisted_Takeoff,
0.359841899591852,36.8940258353455,5776.9713160967,0,0,0.77527233452,9500,2017-11-06 08:56:47,16,17.081,5776.9713160967,0,0,0.77527233452,341.1, -0.4, 1.7,0,1,1024,1024,1024,1024,328.6,-39.1,99,4.275,4.274,4.274,4.275,0,0,89.51,10,Assisted_Takeoff,
0.359841906033569,36.8940258080977,5776.9713160967,0,0,0.78523296476,9600,2017-11-06 08:56:47,16,17.081,5776.9713160967,0,0,0.78523296476,341.1, -0.5, 1.7,0,1,1024,1024,1024,1024,328.5,-39.3,99,4.275,4.274,4.274,4.275,0,0,89.51,10,Assisted_Takeoff,
0.359841918949165,36.8940257862376,5776.9713160967,0,0,0.79446852936,9700,2017-11-06 08:56:47,16,17.081,5776.9713160967,0,0,0.79446852936,341.1, -0.5, 1.7,0,1,1024,1024,1024,1024,328.5,-39.6,99,4.275,4.274,4.274,4.276,0,0,89.51,10,Assisted_Takeoff,
0.359841916315972,36.8940257751028,5776.9713160967,0,0,0.79770015676,9800,2017-11-06 08:56:47,16,17.081,5776.9713160967,0,0,0.79770015676,341.1, -0.5, 1.7,0,1,1024,1024,1024,1024,328.4,-37.1,99,4.275,4.274,4.274,4.276,0,0,89.51,10,Assisted_Takeoff,
0.359841915000189,36.894025761753,5776.9713160967,0,0,0.80187994692,10000,2017-11-06 08:56:47,16,17.081,5776.9713160967,0,0,0.80187994692,341.1, -0.5, 1.8,0,1,1024,1024,1024,1024,328.2,-36.7,99,4.275,4.274,4.274,4.276,0,0,89.51,10,Assisted_Takeoff,
0.359841919375818,36.8940257553856,5776.9713160967,0,0,0.80466538008,10100,2017-11-06 08:56:47,16,17.081,5776.9713160967,0,0,0.80466538008,341.1, -0.5, 1.8,0,1,1024,1024,1024,1024,328.1,-34.7,99,4.275,4.274,4.274,4.276,0,0,89.51,10,Assisted_Takeoff,
0.359841927009556,36.894025742373,5776.9713160967,0,0,0.81015094456,10200,2017-11-06 08:56:47,16,17.081,5776.9713160967,0,0,0.81015094456,341.1, -0.5, 1.7,0,1,1024,1024,1024,1024,328,-26.6,99,4.275,4.274,4.274,4.276,0,0,89.51,10,Assisted_Takeoff,
0.359841960839666,36.8940257086035,5776.9713160967,0,0,0.82662732304,10300,2017-11-06 08:56:47,16,17.081,5776.9713160967,0,0,0.82662732304,341.1, -0.5, 1.7,0,1,1024,1024,1024,1024,327.9,-16.1,99,4.275,4.274,4.274,4.276,0,0,89.51,10,Assisted_Takeoff,
0.359841985199153,36.8940256819531,5776.9713160967,0,0,0.83927824208,10400,2017-11-06 08:56:48,16,17.081,5776.9713160967,0,0,0.83927824208,341.1, -0.5, 1.7,0,1,1024,1024,1024,1024,327.9,-16.1,99,4.275,4.274,4.274,4.276,0,0,89.51,10,Assisted_Takeoff,
0.359842006563524,36.8940256611984,5776.9713160967,0,0,0.84953414792,10500,2017-11-06 08:56:48,16,17.081,5776.9713160967,0,0,0.84953414792,341.1, -0.5, 1.7,0,1,1024,1024,1024,1024,327.8,-2.7,99,4.275,4.274,4.274,4.276,0,0,89.51,10,Assisted_Takeoff,
0.359842014231866,36.8940256507478,5776.9713160967,0,0,0.85419622156,10600,2017-11-06 08:56:48,16,17.081,5776.9713160967,0,0,0.85419622156,341.1, -0.5, 1.7,0,1,1024,1024,1024,1024,327.8,12.5,99,4.275,4.274,4.274,4.276,0,0,89.51,10,Assisted_Takeoff,
0.359842026412627,36.8940256385124,5776.9713160967,0,0,0.86018047372,10700,2017-11-06 08:56:48,16,17.081,5776.9713160967,0,0,0.86018047372,341.1, -0.5, 1.7,0,1,1024,1024,1024,1024,327.8,26.1,99,4.275,4.275,4.274,4.276,0,0,89.51,10,Assisted_Takeoff,
0.35984202404487,36.8940256372941,5776.9713160967,0,0,0.86019031624,10800,2017-11-06 08:56:48,16,17.081,5776.9713160967,0,0,0.86019031624,341.1, -0.5, 1.7,0,1,1024,1024,1024,1024,327.7,38.9,99,4.275,4.275,4.274,4.276,0,0,89.51,10,Assisted_Takeoff,
0.359842030714569,36.8940256301762,5776.9713160967,0,0,0.86360238984,10900,2017-11-06 08:56:48,16,17.081,5776.9713160967,0,0,0.86360238984,341.1, -0.5, 1.7,0,1,1024,1024,1024,1024,327.7,43.6,99,4.275,4.275,4.274,4.276,0,0,89.51,10,Assisted_Takeoff,
0.359842022594741,36.8940256189659,5776.9713160967,0,0,0.8659285054,11000,2017-11-06 08:56:48,16,17.081,5776.9713160967,0,0,0.8659285054,341.1, -0.5, 1.7,0,1,1024,1024,1024,1024,327.7,43.6,99,4.275,4.275,4.274,4.276,0,0,89.51,10,Assisted_Takeoff,
0.359842025546295,36.8940255857275,5776.9713160967,0,0,0.87727365012,11100,2017-11-06 08:56:48,16,17.081,5776.9713160967,0,0,0.87727365012,341.1, -0.5, 1.7,0,1,1024,1024,1024,1024,327.6,43.4,99,4.275,4.275,4.274,4.276,0,0,89.51,10,Assisted_Takeoff,
0.359842037209211,36.8940255490006,5776.9713160967,0,0,0.89117785004,11200,2017-11-06 08:56:48,16,17.081,5776.9713160967,0,0,0.89117785004,341.1, -0.5, 1.7,0,1,1024,1024,1024,1024,327.6,43.3,99,4.275,4.275,4.274,4.276,0,0,89.51,10,Assisted_Takeoff,
0.359842019300398,36.894025540106,5776.9713160967,0,0,0.89125002852,11300,2017-11-06 08:56:48,16,17.081,5776.9713160967,0,0,0.89125002852,341.1, -0.5, 1.7,0,1,1024,1024,1024,1024,327.5,43.3,99,4.275,4.275,4.274,4.276,0,0,89.51,10,Assisted_Takeoff,
0.35984200367385,36.8940255340282,5776.9713160967,0,0,0.89080711512,11400,2017-11-06 08:56:49,16,17.081,5776.9713160967,0,0,0.89125002852,341.1, -0.5, 1.7,0,1,1024,1024,1024,1024,327.5,43.3,99,4.275,4.275,4.274,4.276,0,0,89.51,10,Assisted_Takeoff,
0.359842006161705,36.8940255228003,5776.9713160967,0,0,0.8948983226,11500,2017-11-06 08:56:49,16,17.081,5776.9713160967,0,0,0.8948983226,341.1, -0.5, 1.7,0,1,1024,1024,1024,1024,327.5,42.8,99,4.275,4.275,4.274,4.276,0,0,89.51,10,Assisted_Takeoff,
0.359841993937383,36.8940255267974,5776.9713160967,0,0,0.89168966108,11600,2017-11-06 08:56:49,16,17.081,5776.9713160967,0,0,0.8948983226,341.1, -0.5, 1.7,0,1,1024,1024,1062,1053,327.4,33.9,99,4.275,4.275,4.274,4.276,0,0,89.51,10,Assisted_Takeoff,
0.359841998120449,36.8940255203647,5776.9713160967,0,0,0.89446197088,11700,2017-11-06 08:56:49,16,17.081,5776.9713160967,0,0,0.8948983226,341.1, -0.5, 1.7,0,1,1024,1024,1537,1179,327.3,22.8,99,4.275,4.275,4.274,4.276,0,0,89.51,10,Assisted_Takeoff,
0.359841995391584,36.8940255230921,5776.9713160967,0,0,0.89313979236,11800,2017-11-06 08:56:49,16,17.081,5776.9713160967,0,0,0.8948983226,341.1, -0.5, 1.7,0,1,1024,1024,1684,1360,327.3,10,99,4.275,4.275,4.274,4.276,0,0,89.51,10,Assisted_Takeoff,
0.359841998998587,36.8940255240411,5776.9713160967,0,0,0.89337929368,11900,2017-11-06 08:56:49,16,17.081,5776.9713160967,0,0,0.8948983226,341.2, -0.5, 1.8,0,1,1024,1024,1684,1333,327.1,-8.8,99,4.275,4.275,4.274,4.276,0,0,89.51,10,Assisted_Takeoff,
0.359841968874001,36.8940255217838,5776.9713160967,0,0,0.88953743004,12000,2017-11-06 08:56:49,16,17.081,5776.9713160967,0,0,0.8948983226,341.2, -0.3, 1.6,0,1,1024,1024,1684,1292,327.1,-28.8,99,4.275,4.275,4.274,4.276,0,0,89.51,10,Assisted_Takeoff,
0.359841942870194,36.894025488843,5776.9713160967,0,0,0.89667653788,12100,2017-11-06 08:56:49,16,17.081,5776.9713160967,0,0,0.89667653788,341.3, -0.2, 1.6,0,1,1024,1024,1684,1215,328.9,-39.6,99,4.275,4.275,4.274,4.276,0,0,89.51,10,Assisted_Takeoff,
0.359841901386804,36.8940254681676,5776.9713160967,0,0,0.89772312584,12200,2017-11-06 08:56:49,16,17.081,5776.9713160967,0,0,0.89772312584,342.4, 0, 0.9,0,1,1024,1024,1684,1249,330.7,-56.8,99,4.275,4.275,4.274,4.276,0,0,89.51,10,Assisted_Takeoff,
0.35984188814959,36.894025448983,5776.9713160967,0,0,0.90238191864,12300,2017-11-06 08:56:49,16,17.081,5776.9713160967,0,0,0.90238191864,344.3, 1, -1.1,0,1,1024,1024,1684,1219,333.8,-79.2,99,4.275,4.275,4.274,4.276,0,0,89.51,10,Assisted_Takeoff,
0.359841852450026,36.8940254164164,5776.9713160967,0,0,0.90868113144,12400,2017-11-06 08:56:50,16,17.081,5776.9713160967,0,0,0.90868113144,347.9, 1.6, -1.6,0,1,1024,1024,1684,1230,333.8,-79.2,99,4.275,4.275,4.274,4.276,0,0,89.51,6,GPS_Atti,Obstacle Avoided. Revise Flight Route
0.359841794323532,36.8940253273397,5776.9713160967,0,0.223694,0.93199806132,12500,2017-11-06 08:56:50,16,17.081,5776.9713160967,0,0.223694,0.93199806132,351, 1, -0.2,0,1,1024,1024,1684,1228,340.1,-112.1,99,4.275,4.275,4.274,4.276,0,0,89.51,6,GPS_Atti,
0.35984171164743,36.8940251927337,5777.2994000967,0.328084,0.223694,0.96964570032,12600,2017-11-06 08:56:50,16,17.081,5777.2994000967,0.328084,0.223694,0.96964570032,354, 0.4, 0.8,0,1,1024,1024,1684,1197,343.5,-111.7,99,4.275,4.274,4.274,4.276,0,0,89.51,6,GPS_Atti,
0.359841596706561,36.8940248799101,5777.9555680967,0.984252,0,1.06980646468,12800,2017-11-06 08:56:50,16,17.081,5777.9555680967,0.984252,0.223694,1.06980646468,0, 0.4, 1.4,0,1,1024,1024,1684,1216,346.9,-111,99,4.275,4.274,4.274,4.276,0,0,89.51,6,GPS_Atti,Home Point Recorded. RTH Altitude:  30m.
0.359841565082992,36.8940247600602,5778.6117360967,1.64042,0,1.11020016676,12900,2017-11-06 08:56:50,16,17.081,5778.6117360967,1.64042,0.223694,1.11020016676,2.6, 0.4, 1.5,0,1,1024,1024,1684,1209,349.3,-110.8,99,4.275,4.274,4.274,4.276,0,0,89.51,6,GPS_Atti,
0.359841530936965,36.8940246855935,5779.2679040967,2.296588,0,1.13450462948,13000,2017-11-06 08:56:50,16,17.081,5779.2679040967,2.296588,0.223694,1.13450462948,5.2, -0.5, 2.1,0,1,1024,1024,1684,1182,351.3,-111.5,99,4.275,4.274,4.274,4.276,0,0,89.51,6,GPS_Atti,
0.359841502890274,36.8940246696887,5780.2521560967,3.28084,0,1.13839898656,13100,2017-11-06 08:56:50,16,17.081,5780.2521560967,3.28084,0.223694,1.13839898656,7.9, -1.1, 1.6,0,1,1024,1024,1684,1224,9.6,-119.3,99,4.275,4.274,4.274,4.276,0,0,89.51,6,GPS_Atti,
0.359841497723628,36.8940246875891,5781.5644920967,4.593176,0,1.13164045616,13200,2017-11-06 08:56:50,16,17.081,5781.5644920967,4.593176,0.223694,1.13839898656,10.7, -0.6, 0.8,0,1,1024,1024,1684,1196,2.6,-71.7,99,4.275,4.274,4.274,4.276,0,0,89.51,6,GPS_Atti,
0.359841513375824,36.8940246885403,5782.8768280967,5.905512,0,1.13229662416,13300,2017-11-06 08:56:50,16,17.081,5782.8768280967,5.905512,0.223694,1.13839898656,13.2, -0.1, 0.1,0,1,1024,1024,1684,1215,11.6,-71.7,99,4.275,4.274,4.274,4.276,0,0,89.51,6,GPS_Atti,
0.359841586521051,36.8940247148766,5785.8295840967,8.858268,0,1.12791670276,13500,2017-11-06 08:56:51,16,17.081,5785.8295840967,8.858268,0.223694,1.13839898656,18.6, 0.4, -0.5,0,1,1024,1024,1684,1223,14.6,-71.7,99,4.275,4.274,4.274,4.276,0,0,89.51,6,GPS_Atti,
0.359841629371519,36.8940247038306,5787.4700040967,10.498688,0,1.1351050232,13600,2017-11-06 08:56:51,16,17.081,5787.4700040967,10.498688,0.223694,1.13839898656,21.3, 0.8, 0.1,0,1,1024,1024,1684,1221,14.6,-71.7,99,4.275,4.274,4.274,4.276,0,0,89.51,6,GPS_Atti,
0.359841664446574,36.894024663742,5789.1104240967,12.139108,0,1.15217195288,13700,2017-11-06 08:56:51,16,16.676,5789.1104240967,12.139108,0.223694,1.15217195288,23.9, 0.3, 0.3,0,1,1024,1024,1684,1223,20.4,-71.7,99,4.254,4.254,4.252,4.252,0,0,89.51,6,GPS_Atti,
0.35984167751443,36.8940246320372,5790.7508440967,13.779528,0,1.16451119212,13800,2017-11-06 08:56:51,16,16.676,5790.7508440967,13.779528,0.223694,1.16451119212,26.6, -0.1, 0.1,0,1,1024,1024,1684,1215,20.4,-71.7,99,4.254,4.254,4.252,4.252,0,0,89.51,6,GPS_Atti,
0.359841712633453,36.8940246012045,5792.7193480967,15.748032,0,1.17838258364,13900,2017-11-06 08:56:51,16,16.676,5792.7193480967,15.748032,0.223694,1.17838258364,29.3, 0, 0,0,1,1024,1024,1684,1229,23.3,-71.7,99,4.254,4.254,4.252,4.252,0,0,89.51,6,GPS_Atti,
0.359841716810005,36.8940245735942,5794.3597680967,17.388452,0,1.1885335026,14000,2017-11-06 08:56:51,16,16.676,5794.3597680967,17.388452,0.223694,1.1885335026,32, 0.5, 0,0,1,1024,1024,1684,1238,29.3,-71.7,99,4.254,4.254,4.252,4.252,0,0,89.51,6,GPS_Atti,
0.359841659236775,36.8940244655626,5797.6406080967,20.669292,0,1.22237864804,14200,2017-11-06 08:56:51,16,16.676,5797.6406080967,20.669292,0.223694,1.22237864804,37.7, 0.2, -0.4,0,1,1024,1024,1684,1228,32.3,-71.7,99,4.254,4.254,4.252,4.252,0,0,89.51,6,GPS_Atti,
0.359841641869419,36.8940243839898,5799.2810280967,22.309712,0,1.25023626048,14300,2017-11-06 08:56:51,16,16.676,5799.2810280967,22.309712,0.223694,1.25023626048,40.6, -0.6, -0.2,0,1,1024,1024,1684,1228,35.4,-71.7,99,4.254,4.254,4.252,4.252,0,0,89.51,6,GPS_Atti,
0.359841589697738,36.8940242881005,5800.9214480967,23.950132,0,1.28101710136,14400,2017-11-06 08:56:52,16,16.676,5800.9214480967,23.950132,0.223694,1.28101710136,43.5, -0.8, 0,0,1,1024,1024,1684,1239,38.4,-71.7,99,4.254,4.254,4.252,4.252,0,0,89.51,6,GPS_Atti,
0.359841553593099,36.8940241914563,5802.5618680967,25.590552,0,1.3135006982,14500,2017-11-06 08:56:52,16,16.676,5802.5618680967,25.590552,0.223694,1.3135006982,46.5, -0.3, 0.1,0,1,1024,1024,1684,1230,41.7,-71.7,99,4.254,4.254,4.252,4.252,0,0,89.51,6,GPS_Atti,
0.359841477586697,36.8940240910672,5804.2022880967,27.230972,0,1.34549873072,14600,2017-11-06 08:56:52,16,16.676,5804.2022880967,27.230972,0.223694,1.34549873072,49.6, -0.1, 0.1,0,1,1024,1024,1684,1237,44.8,-71.7,99,4.254,4.254,4.252,4.252,0,0,89.51,6,GPS_Atti,
0.359841432286641,36.8940239900314,5805.8427080967,28.871392,0,1.37986552972,14700,2017-11-06 08:56:52,16,16.46,5805.8427080967,28.871392,0.223694,1.37986552972,52.5, -0.3, 0.1,0,1,1024,1024,1684,1237,48.1,-71.7,99,4.131,4.144,4.134,4.142,0,0,89.51,6,GPS_Atti,
0.359841352542146,36.8940238949535,5807.4831280967,30.511812,0,1.41106959896,14800,2017-11-06 08:56:52,16,16.46,5807.4831280967,30.511812,0.223694,1.41106959896,55.7, -0.4, 0,0,1,1024,1024,1684,1224,51.2,-71.7,99,4.131,4.144,4.134,4.142,0,0,89.51,6,GPS_Atti,
0.35984130696037,36.8940238183719,5809.1235480967,32.152232,0,1.43732616148,14900,2017-11-06 08:56:52,16,16.46,5809.1235480967,32.152232,0.223694,1.43732616148,58.6, -0.6, -0.4,0,1,1024,1024,1684,1223,54.4,-71.7,99,4.131,4.144,4.134,4.142,0,0,89.51,6,GPS_Atti,
0.359841223576709,36.8940237194238,5810.7639680967,33.792652,0,1.4710138266,15000,2017-11-06 08:56:52,16,16.46,5810.7639680967,33.792652,0.223694,1.4710138266,61.5, -0.9, -0.8,0,1,1024,1024,1684,1268,57.5,-71.7,99,4.131,4.144,4.134,4.142,0,0,89.51,6,GPS_Atti,
0.359841182299725,36.8940236020924,5812.4043880967,35.433072,0,1.51286750248,15100,2017-11-06 08:56:52,16,16.46,5812.4043880967,35.433072,0.223694,1.51286750248,64.3, -0.7, -0.5,0,1,1024,1024,1684,1382,57.5,-71.7,99,4.131,4.144,4.134,4.142,0,0,89.51,6,GPS_Atti,
0.359841130981348,36.8940234837498,5814.0448080967,37.073492,0,1.5551345642,15200,2017-11-06 08:56:52,16,16.46,5814.0448080967,37.073492,0.223694,1.5551345642,68, -0.6, 0.1,0,1,1024,1024,1684,1452,61.5,-71.7,99,4.131,4.144,4.134,4.142,0,0,89.51,6,GPS_Atti,
0.359841105595942,36.8940233845956,5815.6852280967,38.713912,0,1.59095477532,15300,2017-11-06 08:56:52,16,16.46,5815.6852280967,38.713912,0.223694,1.59095477532,74.1, -0.4, 0.4,0,1,1024,1024,1684,1465,66.6,-71.7,99,4.131,4.144,4.134,4.142,0,0,89.51,6,GPS_Atti,
0.359841055874254,36.8940232935218,5817.3256480967,40.354332,0,1.623687716,15400,2017-11-06 08:56:53,16,16.46,5817.3256480967,40.354332,0.223694,1.623687716,82.1, -0.2, 0.2,0,1,1024,1024,1684,1474,73.4,-71.7,99,4.131,4.144,4.134,4.142,0,0,89.51,6,GPS_Atti,
0.359841030183107,36.8940232166489,5818.9660680967,41.994752,0,1.65156173264,15500,2017-11-06 08:56:53,16,16.46,5818.9660680967,41.994752,0.223694,1.65156173264,90.5, 0, 0.3,0,1,1024,1024,1684,1460,81.5,-71.7,99,4.131,4.144,4.134,4.142,0,0,89.51,6,GPS_Atti,
0.359840968583549,36.8940231202425,5820.6064880967,43.635172,0,1.68655517208,15600,2017-11-06 08:56:53,16,16.46,5820.6064880967,43.635172,0.223694,1.68655517208,98.9, 0, 0.2,0,1,1024,1024,1684,1440,90.2,-71.7,99,4.131,4.144,4.134,4.142,0,0,89.51,6,GPS_Atti,
0.359840903622883,36.8940230154858,5822.2469080967,45.275592,0,1.72491475336,15700,2017-11-06 08:56:53,16,16.676,5822.2469080967,45.275592,0.223694,1.72491475336,107.3, 0, 0,0,1,1024,1024,1684,1395,99.1,-71.7,99,4.131,4.144,4.134,4.142,0,0,89.51,6,GPS_Atti,
0.359840807003229,36.8940228872488,5823.8873280967,46.916012,0,1.77248037168,15800,2017-11-06 08:56:53,16,16.676,5823.8873280967,46.916012,0.223694,1.77248037168,115.4, -0.1, 0.2,0,1,1024,1024,1684,1291,107.3,-71.7,99,4.131,4.144,4.134,4.142,0,0,89.51,6,GPS_Atti,
0.35984071433011,36.894022766901,5825.5277480967,48.556432,0,1.81774284032,15900,2017-11-06 08:56:53,16,16.676,5825.5277480967,48.556432,0.223694,1.81774284032,122.2, -0.4, 0,0,1,1024,1024,1684,1193,115.7,-71.7,99,4.131,4.144,4.134,4.142,0,0,89.51,6,GPS_Atti,
0.359840564130578,36.8940226270388,5827.4962520967,50.524936,0,1.87217197592,16000,2017-11-06 08:56:53,16,16.676,5827.4962520967,50.524936,0.223694,1.87217197592,126.6, 0, -0.1,0,1,1024,1024,1684,1090,121.6,-71.7,99,4.131,4.144,4.134,4.142,0,0,89.51,6,GPS_Atti,
0.359840401469378,36.8940225174891,5829.1366720967,52.165356,0,1.91745741044,16100,2017-11-06 08:56:53,16,16.676,5829.1366720967,52.165356,0.223694,1.91745741044,129, 0.5, -0.2,0,1,1024,1024,1684,1027,125,-71.7,99,4.131,4.144,4.134,4.142,0,0,89.51,6,GPS_Atti,
0.359840205282995,36.894022379849,5830.7770920967,53.805776,0,1.97613523384,16200,2017-11-06 08:56:53,16,16.676,5830.7770920967,53.805776,0.223694,1.97613523384,129.9, 1.3, -0.5,0,1,1024,1024,1684,1029,126.8,-71.7,99,4.131,4.144,4.134,4.142,0,0,89.51,6,GPS_Atti,
0.359840039773239,36.8940222566357,5832.4175120967,55.446196,0,2.02980321456,16300,2017-11-06 08:56:53,16,16.676,5832.4175120967,55.446196,0.223694,2.02980321456,130, 1.6, -0.8,0,1,1024,1024,1684,1024,128.2,-71.7,99,4.131,4.144,4.134,4.142,0,0,89.51,6,GPS_Atti,
0.359839719401309,36.8940219430825,5835.6983520967,58.727036,0,2.16416345508,16500,2017-11-06 08:56:54,16,16.676,5835.6983520967,58.727036,0.223694,2.16416345508,130, 1.6, -1.1,0,1,1024,1024,1684,1024,128.5,-71.7,99,4.131,4.144,4.134,4.142,0,0,89.51,6,GPS_Atti,
0.359839587287276,36.8940217657344,5837.3387720967,60.367456,0,2.23778878552,16600,2017-11-06 08:56:54,16,16.676,5837.3387720967,60.367456,0.223694,2.23778878552,130, 1.5, -1.1,0,1,1024,1024,1684,1024,128.5,-71.7,99,4.131,4.144,4.134,4.142,0,0,89.51,6,GPS_Atti,
0.359839499114362,36.8940216190878,5838.9791920967,62.007876,0,2.29722448296,16700,2017-11-06 08:56:54,16,16.514,5838.9791920967,62.007876,0.223694,2.29722448296,130, 1.7, -1.4,0,1,1024,1024,1684,1024,128.7,-71.7,99,4.162,4.171,4.162,4.168,0,0,89.51,6,GPS_Atti,
0.35983942166638,36.8940214245576,5840.6196120967,63.648296,0,2.3728511258,16800,2017-11-06 08:56:54,16,16.514,5840.6196120967,63.648296,0.223694,2.3728511258,130, 2, -1.7,0,1,1024,1024,1684,1024,128.9,-71.7,99,4.162,4.171,4.162,4.168,0,0,89.51,6,GPS_Atti,
0.359839380499316,36.8940212475263,5842.2600320967,65.288716,0,2.4391569022,16900,2017-11-06 08:56:54,16,16.514,5842.2600320967,65.288716,0.223694,2.4391569022,130, 1.6, -1,0,1,1024,1024,1684,1024,129,-71.7,99,4.162,4.171,4.162,4.168,0,0,89.51,6,GPS_Atti,
0.359839392155718,36.8940210486077,5843.9004520967,66.929136,0,2.50875336112,17000,2017-11-06 08:56:54,16,16.514,5843.9004520967,66.929136,0.223694,2.50875336112,130, 1, -0.5,0,1,1024,1024,1684,1024,129,-71.7,99,4.162,4.171,4.162,4.168,0,0,89.51,6,GPS_Atti,
0.359839450896135,36.8940209016036,5845.5408720967,68.569556,0,2.5562828902,17100,2017-11-06 08:56:54,16,16.514,5845.5408720967,68.569556,0.223694,2.5562828902,130, 0.5, -0.9,0,1,1024,1024,1684,1024,129.1,-71.7,99,4.162,4.171,4.162,4.168,0,0,89.51,6,GPS_Atti,
0.359839507193887,36.894020747921,5847.1812920967,70.209976,0,2.60679470284,17200,2017-11-06 08:56:54,16,16.514,5847.1812920967,70.209976,0.223694,2.60679470284,130, -0.2, -0.7,0,1,1024,1024,1684,966,129.1,-71.7,99,4.162,4.171,4.162,4.168,0,0,89.51,6,GPS_Atti,
0.359839535690028,36.8940206444967,5848.8217120967,71.850396,0,2.64167987456,17300,2017-11-06 08:56:54,16,16.514,5848.8217120967,71.850396,0.223694,2.64167987456,130, 0, -0.2,0,1,1024,1024,1684,961,129.2,-71.7,99,4.162,4.171,4.162,4.168,0,0,89.51,6,GPS_Atti,
0.359839547734814,36.8940205448046,5850.4621320967,73.490816,0,2.6764928678,17400,2017-11-06 08:56:55,16,16.514,5850.4621320967,73.490816,0.223694,2.6764928678,129.8, 1.3, 0.5,0,1,1024,1024,1684,964,128.9,-71.7,99,4.162,4.171,4.162,4.168,0,0,89.51,6,GPS_Atti,
0.359839567797245,36.8940204532811,5852.4306360967,75.45932,0,2.70788066408,17500,2017-11-06 08:56:55,16,16.514,5852.4306360967,75.45932,0.223694,2.70788066408,129.1, 1.6, 0.5,0,1,1024,1024,1684,941,128.4,-71.7,99,4.162,4.171,4.162,4.168,0,0,89.51,6,GPS_Atti,
0.359839577549181,36.8940201451452,5855.7114760967,78.74016,0,2.8177330298,17700,2017-11-06 08:56:55,16,16.568,5855.7114760967,78.74016,0.223694,2.8177330298,128, 0.4, -1.1,0,1,1024,1024,1684,979,127.9,-71.7,99,4.162,4.172,4.163,4.168,0,0,89.51,6,GPS_Atti,
0.359839583036223,36.894019979352,5857.3518960967,80.38058,0,2.87690954088,17800,2017-11-06 08:56:55,16,16.568,5857.3518960967,80.38058,0.223694,2.87690954088,127.1, 0, -1.6,0,1,1024,1024,1684,904,127.8,-71.7,99,4.162,4.172,4.163,4.168,0,0,89.51,6,GPS_Atti,
0.359839610028497,36.894019863997,5858.9923160967,82.021,0,2.91667332168,17900,2017-11-06 08:56:55,16,16.568,5858.9923160967,82.021,0.223694,2.91667332168,126.6, 0, -1.5,0,1,1024,1024,1684,912,127.2,-71.7,99,4.162,4.172,4.163,4.168,0,0,89.51,6,GPS_Atti,
0.359839656140331,36.8940197306697,5860.6327360967,83.66142,0,2.96187017352,18000,2017-11-06 08:56:55,16,16.568,5860.6327360967,83.66142,0.223694,2.96187017352,125.7, 0, -1,0,1,1024,1024,1684,918,127.2,-71.7,99,4.162,4.172,4.163,4.168,0,0,89.51,6,GPS_Atti,
0.359839730099372,36.8940196181164,5862.2731560967,85.30184,0,2.99823828492,18100,2017-11-06 08:56:55,16,16.568,5862.2731560967,85.30184,0.223694,2.99823828492,124.5, -0.2, -0.7,0,1,1024,1024,1684,856,125.9,-71.7,99,4.162,4.172,4.163,4.168,0,0,89.51,6,GPS_Atti,
0.359839820075789,36.8940195103884,5863.9135760967,86.94226,0,3.03241151436,18200,2017-11-06 08:56:55,16,16.568,5863.9135760967,86.94226,0.223694,3.03241151436,123.4, -0.2, -0.1,0,1,1024,1024,1684,870,125.9,-71.7,99,4.162,4.172,4.163,4.168,0,0,89.51,6,GPS_Atti,
0.359839912734252,36.8940194448644,5865.5539960967,88.58268,0,3.05166020264,18300,2017-11-06 08:56:55,16,16.568,5865.5539960967,88.58268,0.223694,3.05166020264,121.8, -0.2, -0.2,0,1,1024,1024,1684,889,124.7,-71.7,99,4.162,4.172,4.163,4.168,0,0,89.51,6,GPS_Atti,
0.359839990394746,36.8940193741491,5867.1944160967,90.2231,0,3.07385836608,18400,2017-11-06 08:56:56,16,16.568,5867.1944160967,90.2231,0.223694,3.07385836608,119.8, 0, 0.1,0,1,1024,1024,1684,886,123.6,-71.7,99,4.162,4.172,4.163,4.168,0,0,89.51,6,GPS_Atti,
0.359840035550684,36.894019335449,5868.8348360967,91.86352,0,3.08603028248,18500,2017-11-06 08:56:56,16,16.568,5868.8348360967,91.86352,0.223694,3.08603028248,118.2, 0.4, 0,0,1,1024,1024,1684,885,122.4,-71.7,99,4.162,4.172,4.163,4.168,0,0,89.51,6,GPS_Atti,
0.35984005952138,36.8940192867357,5870.4752560967,93.50394,0.223694,3.1027560048,18600,2017-11-06 08:56:56,16,16.568,5870.4752560967,93.50394,0.223694,3.1027560048,116.6, 0.9, -0.5,0,1,1024,1024,1684,888,121,-71.7,99,4.162,4.172,4.163,4.168,0,0,89.51,6,GPS_Atti,
0.359840084585575,36.8940192681115,5872.4437600967,95.472444,0.223694,3.10855652992,18700,2017-11-06 08:56:56,16,16.568,5872.4437600967,95.472444,0.223694,3.10855652992,114.9, 1.1, -0.6,0,1,1024,1024,1684,888,119.6,-71.7,99,4.162,4.172,4.163,4.168,0,0,89.51,6,GPS_Atti,
0.359840131794981,36.8940192376936,5874.0841800967,97.112864,0.223694,3.11787083468,18800,2017-11-06 08:56:56,16,16.568,5874.0841800967,97.112864,0.223694,3.11787083468,113.3, 1.1, -0.6,0,1,1024,1024,1684,890,118.1,-71.7,99,4.162,4.172,4.163,4.168,0,0,89.51,6,GPS_Atti,
0.359840209428199,36.8940192236109,5875.7246000967,98.753284,0.223694,3.12036099224,18900,2017-11-06 08:56:56,16,16.568,5875.7246000967,98.753284,0.223694,3.12036099224,111.7, 1.5, -0.5,0,1,1024,1024,1684,912,116.5,-71.7,99,4.162,4.172,4.163,4.168,0,0,89.51,6,GPS_Atti,
0.359840303687423,36.8940191966885,5877.3650200967,100.393704,0.223694,3.12730981136,19000,2017-11-06 08:56:56,16,16.568,5877.3650200967,100.393704,0.223694,3.12730981136,110.2, 1.7, -0.4,0,1,1024,1024,1684,929,115,-71.7,99,4.162,4.172,4.163,4.168,0,0,89.51,6,GPS_Atti,
0.359840393630049,36.8940191946308,5879.0054400967,102.034124,0.223694,3.1257054806,19100,2017-11-06 08:56:56,16,16.568,5879.0054400967,102.034124,0.223694,3.12730981136,108.8, 1.7, -0.3,0,1,1024,1024,1684,930,113.7,-71.7,99,4.162,4.172,4.163,4.168,0,0,89.51,6,GPS_Atti,
0.359840489606874,36.8940191738912,5880.6458600967,103.674544,0,3.13112542828,19200,2017-11-06 08:56:56,16,16.568,5880.6458600967,103.674544,0.223694,3.13112542828,107.7, 1.4, 0.1,0,1,1024,1024,1684,929,112.5,-71.7,99,4.162,4.172,4.163,4.168,0,0,89.51,6,GPS_Atti,
0.359840571813984,36.8940191623822,5882.2862800967,105.314964,0,3.1338091554,19300,2017-11-06 08:56:56,16,16.568,5882.2862800967,105.314964,0.223694,3.1338091554,106.7, 1.1, 0.1,0,1,1024,1024,1684,921,111.4,-71.7,99,4.162,4.172,4.163,4.168,0,0,89.51,6,GPS_Atti,
0.359840649876296,36.8940191283682,5883.9267000967,106.955384,0,3.14503947072,19400,2017-11-06 08:56:57,16,16.568,5883.9267000967,106.955384,0.223694,3.14503947072,105.7, 1.1, 0.2,0,1,1024,1024,1684,943,111.4,-71.7,99,4.162,4.172,4.163,4.168,0,0,89.51,6,GPS_Atti,
0.359840726770201,36.8940190887859,5885.5671200967,108.595804,0,3.15858277824,19500,2017-11-06 08:56:57,16,16.568,5885.5671200967,108.595804,0.223694,3.15858277824,104.6, 1.3, 0,0,1,1024,1024,1684,944,110.2,-71.7,99,4.162,4.172,4.163,4.168,0,0,89.51,6,GPS_Atti,
0.359840810560158,36.8940190268431,5887.2075400967,110.236224,0,3.18048894692,19600,2017-11-06 08:56:57,16,16.568,5887.2075400967,110.236224,0.223694,3.18048894692,103.7, 1.2, -0.2,0,1,1024,1024,1684,943,109.1,-71.7,99,4.162,4.172,4.163,4.168,0,0,89.51,6,GPS_Atti,
0.359840903995389,36.8940189870628,5888.8479600967,111.876644,0,3.1945867164,19700,2017-11-06 08:56:57,16,16.541,5888.8479600967,111.876644,0.223694,3.1945867164,103, 0.5, -0.1,0,1,1024,1024,1684,948,108.2,-71.7,99,4.153,4.164,4.153,4.16,0,0,89.51,6,GPS_Atti,
0.359841012838143,36.894018936811,5890.4883800967,113.517064,0,3.21289708444,19800,2017-11-06 08:56:57,16,16.541,5890.4883800967,113.517064,0.223694,3.21289708444,102.1, 0.4, 0.3,0,1,1024,1024,1684,950,107.3,-71.7,99,4.153,4.164,4.153,4.16,0,0,89.51,6,GPS_Atti,
0.359841109040915,36.8940189064477,5892.1288000967,115.157484,0,3.22436362024,19900,2017-11-06 08:56:57,16,16.541,5892.1288000967,115.157484,0.223694,3.22436362024,101.3, 0.6, 0.2,0,1,1024,1024,1684,957,106.4,-71.7,99,4.153,4.164,4.153,4.16,0,0,89.51,6,GPS_Atti,
0.359841201387939,36.8940188593402,5893.7692200967,116.797904,0,3.24227700664,20000,2017-11-06 08:56:57,16,16.541,5893.7692200967,116.797904,0.223694,3.24227700664,100.5, 0.8, 0,0,1,1024,1024,1684,954,105.5,-71.7,99,4.153,4.164,4.153,4.16,0,0,89.51,6,GPS_Atti,
0.359841286840537,36.8940188268368,5895.4096400967,118.438324,0,3.25511165272,20100,2017-11-06 08:56:57,16,16.541,5895.4096400967,118.438324,0.223694,3.25511165272,99.9, 0.7, -0.1,0,1,1024,1024,1684,966,104.8,-71.7,99,4.153,4.164,4.153,4.16,0,0,89.51,6,GPS_Atti,
0.359841388941533,36.8940187962647,5897.0500600967,120.078744,0,3.2678150652,20200,2017-11-06 08:56:57,16,16.541,5897.0500600967,120.078744,0.223694,3.2678150652,99.2, 0.7, 0.4,0,1,1024,1024,1684,967,104,-71.7,99,4.153,4.164,4.153,4.16,0,0,89.51,6,GPS_Atti,
0.359841481383414,36.8940187944811,5898.6904800967,121.719164,0,3.27023960596,20300,2017-11-06 08:56:57,16,16.541,5898.6904800967,121.719164,0.223694,3.27023960596,98.6, 0.7, 0.4,0,1,1024,1024,1684,974,103.4,-71.7,99,4.153,4.164,4.153,4.16,0,0,89.51,6,GPS_Atti,
0.359841565472598,36.8940187773943,5900.3309000967,123.359584,0,3.27837608916,20400,2017-11-06 08:56:58,16,16.541,5900.3309000967,123.359584,0.223694,3.27837608916,98.1, 0.7, 0,0,1,1024,1024,1684,963,102.7,-71.7,99,4.153,4.164,4.153,4.16,0,0,89.51,6,GPS_Atti,
0.359841636885159,36.8940187657783,5901.9713200967,125.000004,0,3.284448924,20500,2017-11-06 08:56:58,16,16.541,5901.9713200967,125.000004,0.223694,3.284448924,97.6, 0.8, -0.1,0,1,1024,1024,1684,970,102.2,-71.7,99,4.153,4.164,4.153,4.16,0,0,89.51,6,GPS_Atti,
0.359841719678102,36.8940187753259,5903.6117400967,126.640424,0.223694,3.2833662468,20600,2017-11-06 08:56:58,16,16.541,5903.6117400967,126.640424,0.223694,3.284448924,97.2, 1.2, -0.6,0,1,1024,1024,1684,989,101.5,-71.7,99,4.153,4.164,4.153,4.16,0,0,89.51,6,GPS_Atti,
0.359841802574858,36.8940188296996,5905.2521600967,128.280844,0.223694,3.26630915964,20700,2017-11-06 08:56:58,16,16.541,5905.2521600967,128.280844,0.223694,3.284448924,96.8, 1.5, -0.4,0,1,1024,1024,1684,989,101.1,-71.7,99,4.146,4.158,4.149,4.155,0,0,89.51,6,GPS_Atti,
0.359841901624964,36.8940188767235,5906.8925800967,129.921264,0.223694,3.25283146892,20800,2017-11-06 08:56:58,16,16.541,5906.8925800967,129.921264,0.223694,3.284448924,96.4, 1.5, 0.2,0,1,1024,1024,1684,1000,100.8,-71.7,99,4.146,4.158,4.149,4.155,0,0,89.51,6,GPS_Atti,
0.359841984779014,36.8940189150478,5908.5330000967,131.561684,0.223694,3.2422737258,20900,2017-11-06 08:56:58,16,16.541,5908.5330000967,131.561684,0.223694,3.284448924,96.3, 1.7, 0.6,0,1,1024,1024,1684,1000,100.8,-71.7,99,4.146,4.158,4.149,4.155,0,0,89.51,6,GPS_Atti,
0.359842055961151,36.8940189350563,5910.1734200967,133.202104,0.223694,3.23811690152,21000,2017-11-06 08:56:58,16,16.541,5910.1734200967,133.202104,0.223694,3.284448924,96.3, 1.7, 0.5,0,1,1024,1024,1684,1004,100.5,-71.7,99,4.146,4.158,4.149,4.155,0,0,89.51,6,GPS_Atti,
0.359842102630727,36.8940189475652,5911.8138400967,134.842524,0,3.23573173084,21100,2017-11-06 08:56:58,16,16.541,5911.8138400967,134.842524,0.223694,3.284448924,96.2, 1.7, 0.3,0,1,1024,1024,1684,1017,100.2,-71.7,99,4.146,4.158,4.149,4.155,0,0,89.51,6,GPS_Atti,
0.359842154028084,36.8940189511249,5913.7823440967,136.811028,0,3.23690627156,21200,2017-11-06 08:56:58,16,16.541,5913.7823440967,136.811028,0.223694,3.284448924,96.2, 1.8, 0.1,0,1,1024,1024,1684,1019,99.9,-71.7,99,4.146,4.158,4.149,4.155,0,0,89.51,6,GPS_Atti,
0.359842215130967,36.8940189722404,5915.4227640967,138.451448,0,3.23234590396,21300,2017-11-06 08:56:58,16,16.541,5915.4227640967,138.451448,0.223694,3.284448924,96.2, 2, 0.1,0,1,1024,1024,1684,1019,99.7,-71.7,99,4.146,4.158,4.149,4.155,0,0,89.51,6,GPS_Atti,
0.359842277754816,36.8940189693187,5917.0631840967,140.091868,0,3.23670942116,21400,2017-11-06 08:56:59,16,16.541,5917.0631840967,140.091868,0.223694,3.284448924,96.2, 1.7, 0.1,0,1,1024,1024,1684,1019,99.5,-71.7,99,4.146,4.158,4.149,4.155,0,0,89.51,6,GPS_Atti,
0.359842331349758,36.8940189538624,5918.7036040967,141.732288,0,3.24523632432,21500,2017-11-06 08:56:59,16,16.541,5918.7036040967,141.732288,0.223694,3.284448924,96.2, 1.6, 0.3,0,1,1024,1024,1684,1019,99.3,-71.7,99,4.146,4.158,4.149,4.155,0,0,89.51,6,GPS_Atti,
0.359842386470145,36.8940189155028,5920.3440240967,143.372708,0,3.2622048288,21600,2017-11-06 08:56:59,16,16.541,5920.3440240967,143.372708,0.223694,3.284448924,96.2, 1.4, 0.3,0,1,1024,1024,1684,1023,99.2,-71.7,99,4.146,4.158,4.149,4.155,0,0,89.51,6,GPS_Atti,
0.359842436012703,36.8940188747172,5921.6563600967,144.685044,0,3.27980981624,21700,2017-11-06 08:56:59,16,16.46,5921.6563600967,144.685044,0.223694,3.284448924,96.2, 0.8, 0.3,0,1,1024,1024,1684,1019,99,-71.7,98,4.137,4.149,4.139,4.145,0,0,89.51,6,GPS_Atti,
0.359842486717564,36.8940188204849,5923.2967800967,146.325464,0,3.3023951188,21800,2017-11-06 08:56:59,16,16.46,5923.2967800967,146.325464,0.223694,3.3023951188,96.2, 0.6, 0.4,0,1,1024,1024,1684,1010,98.9,-71.7,98,4.137,4.149,4.139,4.145,0,0,89.51,6,GPS_Atti,
0.3598425329039,36.8940187792818,5924.9372000967,147.965884,0,3.3200788464,21900,2017-11-06 08:56:59,16,16.46,5924.9372000967,147.965884,0.223694,3.3200788464,96.2, 0.9, 0.6,0,1,1024,1024,1684,1022,98.8,-71.7,98,4.137,4.149,4.139,4.145,0,0,89.51,6,GPS_Atti,
0.359842574080328,36.8940187427475,5926.5776200967,149.606304,0,3.3358268784,22000,2017-11-06 08:56:59,16,16.46,5926.5776200967,149.606304,0.223694,3.3358268784,96.2, 0.9, 0.5,0,1,1024,1024,1684,1021,98.7,-71.7,98,4.137,4.149,4.139,4.145,0,0,89.51,6,GPS_Atti,
0.359842609214821,36.8940187362597,5928.2180400967,151.246724,0,3.3404200544,22100,2017-11-06 08:56:59,16,16.46,5928.2180400967,151.246724,0.223694,3.3404200544,96.2, 0.8, 0.1,0,1,1024,1024,1684,1022,98.6,-71.7,98,4.137,4.149,4.139,4.145,0,0,89.51,6,GPS_Atti,
0.359842653029328,36.8940187208966,5929.8584600967,152.887144,0,3.3488518132,22200,2017-11-06 08:56:59,16,16.46,5929.8584600967,152.887144,0.223694,3.3488518132,96.2, 0.7, 0,0,1,1024,1024,1684,1021,98.5,-71.7,98,4.137,4.149,4.139,4.145,0,0,89.51,6,GPS_Atti,
0.359842713374577,36.8940187147128,5931.4988800967,154.527564,0,3.3551838344,22300,2017-11-06 08:56:59,16,16.46,5931.4988800967,154.527564,0.223694,3.3551838344,96.2, 0.9, 0.3,0,1,1024,1024,1684,1019,98.5,-71.7,98,4.137,4.149,4.139,4.145,0,0,89.51,6,GPS_Atti,
0.35984277774249,36.894018695851,5933.1393000967,156.167984,0,3.366469924,22400,2017-11-06 08:57:00,16,16.46,5933.1393000967,156.167984,0.223694,3.366469924,96.2, 1.3, 0.7,0,1,1024,1024,1684,1021,98.4,-71.7,98,4.137,4.149,4.139,4.145,0,0,89.51,6,GPS_Atti,
0.359842837982705,36.8940186794429,5934.7797200967,157.808404,0,3.3767389532,22500,2017-11-06 08:57:00,16,16.46,5934.7797200967,157.808404,0.223694,3.3767389532,96.2, 1.4, 1.4,0,1,1024,1024,1684,1022,98.3,-71.7,98,4.137,4.149,4.139,4.145,0,0,89.51,6,GPS_Atti,
0.359842891330123,36.89401863063,5936.4201400967,159.448824,0,3.3981628384,22600,2017-11-06 08:57:00,16,16.46,5936.4201400967,159.448824,0.223694,3.3981628384,96.2, 1.4, 1.7,0,1,1024,1024,1684,1022,98.3,-71.7,98,4.137,4.149,4.139,4.145,0,0,89.51,6,GPS_Atti,
0.359842934899957,36.8940185860962,5938.3886440967,161.417328,0,3.4173557524,22700,2017-11-06 08:57:00,16,16.487,5938.3886440967,161.417328,0.223694,3.4173557524,96.2, 1.4, 1.6,0,1,1024,1024,1684,1022,98.2,-71.7,98,4.137,4.149,4.139,4.145,0,0,89.51,6,GPS_Atti,
0.359842976895899,36.8940185227927,5940.0290640967,163.057748,0,3.4431759632,22800,2017-11-06 08:57:00,16,16.487,5940.0290640967,163.057748,0.223694,3.4431759632,96.2, 1.2, 1.4,0,1,1024,1024,1684,1021,98.1,-71.7,98,4.137,4.149,4.139,4.145,0,0,89.51,6,GPS_Atti,
0.359843028320939,36.8940184829471,5941.6694840967,164.698168,0,3.4614174336,22900,2017-11-06 08:57:00,16,16.487,5941.6694840967,164.698168,0.223694,3.4614174336,96.2, 0.7, 1.3,0,1,1024,1024,1684,1020,98.1,-71.7,98,4.137,4.149,4.139,4.145,0,0,89.51,6,GPS_Atti,
0.359843064447155,36.8940184130508,5943.3099040967,166.338588,0,3.48917334,23000,2017-11-06 08:57:00,16,16.487,5943.3099040967,166.338588,0.223694,3.48917334,96.1, 0.6, 1.5,0,1,1024,1024,1684,1021,98,-71.7,98,4.137,4.149,4.139,4.145,0,0,89.51,6,GPS_Atti,
0.359843076206963,36.8940183439725,5944.9503240967,167.979008,0,3.5147310836,23100,2017-11-06 08:57:00,16,16.487,5944.9503240967,167.979008,0.223694,3.5147310836,96.1, 0.6, 1.6,0,1,1024,1024,1684,1022,98,-71.7,98,4.137,4.149,4.139,4.145,0,0,89.51,6,GPS_Atti,
0.359843082057555,36.8940182614827,5946.5907440967,169.619428,0,3.5445539192,23200,2017-11-06 08:57:00,16,16.487,5946.5907440967,169.619428,0.223694,3.5445539192,96.1, 0.7, 1.6,0,1,1024,1024,1684,1021,97.9,-71.7,98,4.137,4.149,4.139,4.145,0,0,89.51,6,GPS_Atti,
0.359843092735262,36.8940182115049,5948.2311640967,171.259848,0,3.5631890904,23300,2017-11-06 08:57:00,16,16.487,5948.2311640967,171.259848,0.223694,3.5631890904,96.1, 0.7, 1.7,0,1,1024,1024,1684,1022,97.9,-71.7,98,4.137,4.149,4.139,4.145,0,0,89.51,6,GPS_Atti,
0.359843067784651,36.894018137747,5949.8715840967,172.900268,0,3.5875001148,23400,2017-11-06 08:57:01,17,16.487,5949.8715840967,172.900268,0.223694,3.5875001148,96.1, 0.8, 1.6,0,1,1024,1024,1684,1022,97.8,-71.7,98,4.137,4.149,4.139,4.145,0,0,89.51,6,GPS_Atti,
0.359843003390275,36.8940180603019,5951.5120040967,174.540688,0,3.6102035276,23500,2017-11-06 08:57:01,17,16.487,5951.5120040967,174.540688,0.223694,3.6102035276,96.2, 0.9, 1.2,0,1,1024,1024,1684,1021,97.8,-71.7,98,4.137,4.149,4.139,4.145,0,0,89.51,6,GPS_Atti,
0.359842920458508,36.8940179411644,5953.1524240967,176.181108,0,3.6466864684,23600,2017-11-06 08:57:01,17,16.487,5953.1524240967,176.181108,0.223694,3.6466864684,96.2, 0.6, 1,0,1,1024,1024,1684,1021,97.7,-71.7,98,4.137,4.149,4.139,4.145,0,0,89.51,6,GPS_Atti,
0.359842854567186,36.894017843956,5954.7928440967,177.821528,0,3.6769030048,23700,2017-11-06 08:57:01,17,16.46,5954.7928440967,177.821528,0.223694,3.6769030048,96.2, 0.7, 0.7,0,1,1024,1024,1684,1022,97.7,-71.7,98,4.135,4.148,4.137,4.144,0,0,89.51,6,GPS_Atti,
0.359842777913477,36.894017715241,5956.4332640967,179.461948,0,3.7179463132,23800,2017-11-06 08:57:01,17,16.46,5956.4332640967,179.461948,0.223694,3.7179463132,96.2, 0.5, 0.2,0,1,1024,1024,1684,1022,97.6,-71.7,98,4.135,4.148,4.137,4.144,0,0,89.51,6,GPS_Atti,
0.359842712379598,36.8940176154236,5958.0736840967,181.102368,0,3.7496392276,23900,2017-11-06 08:57:01,17,16.46,5958.0736840967,181.102368,0.223694,3.7496392276,96.2, 0.4, 0.1,0,1,1024,1024,1684,1022,97.6,-71.7,98,4.135,4.148,4.137,4.144,0,0,89.51,6,GPS_Atti,
0.359842643610815,36.8940174970912,5959.7141040967,182.742788,0,3.788057864,24000,2017-11-06 08:57:01,17,16.46,5959.7141040967,182.742788,0.223694,3.788057864,96.2, 0.6, 0.3,0,1,1024,1024,1684,1022,97.6,-71.7,98,4.135,4.148,4.137,4.144,0,0,89.51,6,GPS_Atti,
0.359842580095393,36.8940174115063,5961.6826080967,184.711292,0,3.8152232192,24100,2017-11-06 08:57:01,17,16.46,5961.6826080967,184.711292,0.223694,3.8152232192,96.2, 0.5, 0.6,0,1,1024,1024,1684,1022,97.6,-71.7,98,4.135,4.148,4.137,4.144,0,0,89.51,6,GPS_Atti,
0.359842514452815,36.8940172871989,5963.3230280967,186.351712,0,3.8564305696,24200,2017-11-06 08:57:01,17,16.46,5963.3230280967,186.351712,0.223694,3.8564305696,96.2, 0.3, 1,0,1,1024,1024,1684,1022,97.5,-71.7,98,4.135,4.148,4.137,4.144,0,0,89.51,6,GPS_Atti,
0.359842457288731,36.8940171787278,5964.9634480967,187.992132,0,3.8926182348,24300,2017-11-06 08:57:01,17,16.46,5964.9634480967,187.992132,0.223694,3.8926182348,96.2, 0.5, 1,0,1,1024,1024,1684,1022,97.5,-71.7,98,4.135,4.148,4.137,4.144,0,0,89.51,6,GPS_Atti,
0.359842370701107,36.8940170602948,5966.6038680967,189.632552,0,3.9311681048,24400,2017-11-06 08:57:02,17,16.46,5966.6038680967,189.632552,0.223694,3.9311681048,96.2, 0.6, 0.6,0,1,1024,1024,1684,1022,97.5,-71.7,98,4.135,4.148,4.137,4.144,0,0,89.51,6,GPS_Atti,
0.359842273295729,36.8940169988659,5968.2442880967,191.272972,0,3.9489174492,24500,2017-11-06 08:57:02,17,16.46,5968.2442880967,191.272972,0.223694,3.9489174492,96.2, 1, 0.3,0,1,1024,1024,1684,1022,97.4,-71.7,98,4.135,4.148,4.137,4.144,0,0,89.51,6,GPS_Atti,
0.359842180936493,36.8940169016982,5969.8847080967,192.913392,0,3.9802166628,24600,2017-11-06 08:57:02,17,16.46,5969.8847080967,192.913392,0.223694,3.9802166628,96.2, 0.9, 0.4,0,1,1024,1024,1684,1022,97.4,-71.7,98,4.135,4.148,4.137,4.144,0,0,89.51,6,GPS_Atti,
