latitude,longitude,altitude(feet),ascent(feet),speed(mph),distance(feet),time(millisecond),datetime(utc),satellites,voltage(v),max_altitude(feet),max_ascent(feet),max_speed(mph),max_distance(feet),compass_heading(degrees), pitch(degrees), roll(degrees),isPhoto,isVideo,rc_elevator,rc_aileron,rc_throttle,rc_rudder,gimbal_heading(degrees),gimbal_pitch(degrees),battery_percent,voltageCell1,voltageCell2,voltageCell3,voltageCell4,voltageCell5,voltageCell6,battery_temperature(f),flycStateRaw,flycState,message
0.305147049414804,36.8793943551694,5833.8657752664,0,0,0,100,2017-11-11 12:14:46,17,0,5833.8657752664,0,0,0,68.6, -2.6, 1.8,0,0,1024,1024,1024,1024,73.2,0,99,4.296,4.297,4.297,4.292,0,0,89.51,41,Motors_Started,
0.305147040562685,36.8793943653336,5833.8657752664,0,0,0.0049175854592,200,2017-11-11 12:14:46,17,0,5833.8657752664,0,0,0.0049175854592,68.6, -2.6, 1.8,0,0,1024,1024,1024,1024,73.2,0,99,4.296,4.297,4.297,4.292,0,0,89.51,41,Motors_Started,
0.305147029395935,36.8793943780394,5833.8657752664,0,0,0.0110891079664,300,2017-11-11 12:14:46,17,0,5833.8657752664,0,0,0.0110891079664,68.6, -2.6, 1.8,0,0,1024,1024,1024,1024,73.2,0,99,4.296,4.297,4.297,4.292,0,0,89.51,41,Motors_Started,
0.305146992288582,36.8793944117782,5833.8657752664,0,0,0.0293422909652,400,2017-11-11 12:14:46,17,0,5833.8657752664,0,0,0.0293422909652,68.6, -2.4, 1.8,0,0,1024,1024,1024,1024,73.2,0,99,4.296,4.297,4.297,4.292,0,0,89.51,41,Motors_Started,
0.305146955130034,36.8793944418909,5833.8657752664,0,0,0.046737862388,500,2017-11-11 12:14:46,17,17.13,5833.8657752664,0,0,0.046737862388,68.6, -2.3, 2,0,0,1024,1024,1024,1024,73.2,0,99,4.296,4.297,4.297,4.292,0,0,89.51,41,Motors_Started,Setting new Return-To-Home altitude to 30m (98 ft). Setting new Maximum Flight Altitude to 150m (492 ft)
0.30514693843085,36.8793944518667,5833.8657752664,0,0,0.053705382296,600,2017-11-11 12:14:46,17,17.13,5833.8657752664,0,0,0.053705382296,68.6, -2.3, 2,0,0,1024,1024,1024,1024,73.2,0,99,4.296,4.297,4.297,4.292,0,0,89.51,41,Motors_Started,
0.305146921807083,36.8793944654747,5833.8657752664,0,0,0.0615403563,700,2017-11-11 12:14:46,17,17.13,5833.8657752664,0,0,0.0615403563,68.6, -2.4, 1.9,0,0,1024,1024,1024,1024,73.2,0,99,4.296,4.297,4.297,4.292,0,0,89.51,41,Motors_Started,
0.305146884969644,36.8793945040004,5833.8657752664,0,0,0.080921262432,800,2017-11-11 12:14:46,17,17.13,5833.8657752664,0,0,0.080921262432,68.6, -2.4, 1.9,0,0,1024,1024,1024,1024,73.2,0,99,4.296,4.297,4.297,4.292,0,0,89.51,41,Motors_Started,
0.305146847436656,36.8793945353775,5833.8657752664,0,0,0.098758533344,900,2017-11-11 12:14:46,17,17.13,5833.8657752664,0,0,0.098758533344,68.6, -2.1, 2.1,0,0,528,491,529,1562,73.2,0,99,4.296,4.297,4.297,4.292,0,0,89.51,41,Motors_Started,
0.305146822606041,36.8793945836565,5833.8657752664,0,0,0.11746063368,1000,2017-11-11 12:14:47,17,17.13,5833.8657752664,0,0,0.11746063368,68.7, -1.7, 2.4,0,0,995,1140,851,949,72.8,0,99,4.296,4.297,4.297,4.292,0,0,89.51,41,Motors_Started,
0.305146800521287,36.8793946265033,5833.8657752664,0,0,0.134335962304,1100,2017-11-11 12:14:47,17,17.13,5833.8657752664,0,0,0.134335962304,68.6, -2.2, 2,0,0,1024,1025,1038,1023,70.9,0,99,4.296,4.297,4.297,4.292,0,0,89.51,41,Motors_Started,
0.305146813331441,36.8793946587332,5833.8657752664,0,0,0.1403051226,1200,2017-11-11 12:14:47,17,17.13,5833.8657752664,0,0,0.1403051226,68.6, -2.8, 1.6,0,0,1024,1024,1024,1024,70.2,0,99,4.296,4.297,4.297,4.292,0,0,89.51,41,Motors_Started,
0.305146814202964,36.8793946850148,5833.8657752664,0,0,0.147806435176,1300,2017-11-11 12:14:47,17,17.13,5833.8657752664,0,0,0.147806435176,68.6, -2.7, 1.7,0,0,1024,1024,1024,1024,70.2,0,99,4.296,4.297,4.297,4.292,0,0,89.51,41,Motors_Started,
0.305146816890304,36.8793947225157,5833.8657752664,0,0,0.158618115312,1400,2017-11-11 12:14:47,17,17.13,5833.8657752664,0,0,0.158618115312,68.6, -2, 2.2,0,0,1024,1024,1024,1024,69.9,0,99,4.296,4.297,4.297,4.292,0,0,89.51,41,Motors_Started,
0.305146803170867,36.8793947524702,5833.8657752664,0,0,0.170537078948,1500,2017-11-11 12:14:47,17,17.104,5833.8657752664,0,0,0.170537078948,68.6, -1.8, 2.3,0,0,1024,1024,1024,1024,69.7,0,99,4.293,4.292,4.286,4.28,0,0,89.51,10,Assisted_Takeoff,
0.305146785475075,36.8793948063915,5833.8657752664,0,0,0.190722447048,1600,2017-11-11 12:14:47,17,17.104,5833.8657752664,0,0,0.190722447048,68.6, -2.7, 1.7,0,0,1024,1024,1024,1024,69.5,0,99,4.293,4.292,4.286,4.28,0,0,89.51,10,Assisted_Takeoff,
0.305146770313447,36.8793948575304,5833.8657752664,0,0,0.209671594636,1700,2017-11-11 12:14:47,17,17.104,5833.8657752664,0,0,0.209671594636,68.6, -2.9, 1.5,0,0,1024,1024,1024,1024,69.4,0,99,4.293,4.292,4.286,4.28,0,0,89.51,10,Assisted_Takeoff,
0.305146761929912,36.8793948796461,5833.8657752664,0,0,0.218213917744,1800,2017-11-11 12:14:47,17,17.104,5833.8657752664,0,0,0.218213917744,68.6, -2.2, 2,0,0,1024,1024,1024,1024,69.3,0,99,4.293,4.292,4.286,4.28,0,0,89.51,10,Assisted_Takeoff,
0.305146743644521,36.8793948963227,5833.8657752664,0,0,0.22677494164,1900,2017-11-11 12:14:47,17,17.104,5833.8657752664,0,0,0.22677494164,68.6, -1.9, 2.2,0,0,1024,1024,1024,1024,69.3,0,99,4.293,4.292,4.286,4.28,0,0,89.51,10,Assisted_Takeoff,
0.305146745478964,36.879394933444,5833.8657752664,0,0,0.238347120488,2000,2017-11-11 12:14:48,17,17.104,5833.8657752664,0,0,0.238347120488,68.6, -2.5, 1.7,0,0,1024,1024,1024,1024,69.2,0,99,4.293,4.292,4.286,4.28,0,0,89.51,10,Assisted_Takeoff,
0.305146749436184,36.8793949718562,5833.8657752664,0,0,0.250202435828,2100,2017-11-11 12:14:48,17,17.104,5833.8657752664,0,0,0.250202435828,68.6, -2.9, 1.5,0,0,1024,1024,1024,1024,69.2,0,99,4.293,4.292,4.286,4.28,0,0,89.51,10,Assisted_Takeoff,
0.305146724519973,36.8793950260104,5833.8657752664,0,0,0.271946531012,2200,2017-11-11 12:14:48,17,17.104,5833.8657752664,0,0,0.271946531012,68.6, -2.5, 1.8,0,0,1024,1024,1024,1024,69.2,0,99,4.293,4.292,4.286,4.28,0,0,89.51,10,Assisted_Takeoff,
0.30514669482835,36.8793950683546,5833.8657752664,0,0,0.290588263892,2300,2017-11-11 12:14:48,17,17.104,5833.8657752664,0,0,0.290588263892,68.6, -2.1, 2.1,0,0,1024,1024,1024,1024,69.1,0,99,4.293,4.292,4.286,4.28,0,0,89.51,10,Assisted_Takeoff,
0.305146671022229,36.8793950813631,5833.8657752664,0,0,0.298758539744,2400,2017-11-11 12:14:48,17,17.104,5833.8657752664,0,0,0.298758539744,68.6, -2, 2.1,0,1,1024,1024,1024,1024,69.1,0,99,4.293,4.292,4.286,4.28,0,0,89.51,10,Assisted_Takeoff,
0.305146644553602,36.8793951148449,5833.8657752664,0,0,0.314067923436,2500,2017-11-11 12:14:48,17,17.264,5833.8657752664,0,0,0.314067923436,68.6, -2.4, 1.8,0,1,1024,1024,1024,1024,69.1,0,99,4.293,4.292,4.286,4.28,0,0,89.51,10,Assisted_Takeoff,
0.305146627051493,36.8793951429993,5833.8657752664,0,0,0.326137149544,2600,2017-11-11 12:14:48,17,17.264,5833.8657752664,0,0,0.326137149544,68.6, -2.7, 1.6,0,1,1024,1024,1024,1024,69.1,0,99,4.293,4.292,4.286,4.28,0,0,89.51,10,Assisted_Takeoff,
0.305146598250222,36.879395180903,5833.8657752664,0,0,0.34330053592,2700,2017-11-11 12:14:48,17,17.264,5833.8657752664,0,0,0.34330053592,68.6, -2.6, 1.7,0,1,1024,1024,1024,1024,69.1,0,99,4.293,4.292,4.286,4.28,0,0,89.51,10,Assisted_Takeoff,
0.305146574413873,36.8793951911761,5833.8657752664,0,0,0.35080709784,2800,2017-11-11 12:14:48,17,17.264,5833.8657752664,0,0,0.35080709784,68.6, -2.3, 1.9,0,1,1024,1024,1024,1024,69,0,99,4.293,4.292,4.286,4.28,0,0,89.51,10,Assisted_Takeoff,
0.305146550334479,36.8793952038532,5833.8657752664,0,0,0.35920932908,2900,2017-11-11 12:14:48,17,17.264,5833.8657752664,0,0,0.35920932908,68.6, -2, 2.1,0,1,1024,1024,1024,1024,69,0,99,4.293,4.292,4.286,4.28,0,0,89.51,10,Assisted_Takeoff,
0.305146541400835,36.8793952338728,5833.8657752664,0,0,0.37031169164,3000,2017-11-11 12:14:49,17,17.264,5833.8657752664,0,0,0.37031169164,68.6, -2.1, 2.1,0,1,1024,1024,1024,1024,69,0,99,4.293,4.292,4.286,4.28,0,0,89.51,10,Assisted_Takeoff,
0.305146536621149,36.8793952657362,5833.8657752664,0,0,0.38127625892,3100,2017-11-11 12:14:49,17,17.264,5833.8657752664,0,0,0.38127625892,68.6, -2.4, 1.8,0,1,1024,1024,1024,1024,69,0,99,4.293,4.292,4.286,4.28,0,0,89.51,10,Assisted_Takeoff,
0.305146511867375,36.8793952818221,5833.8657752664,0,0,0.39085303088,3200,2017-11-11 12:14:49,17,17.264,5833.8657752664,0,0,0.39085303088,68.6, -2.6, 1.7,0,1,1024,1024,1024,1024,69,0,99,4.293,4.292,4.286,4.28,0,0,89.51,10,Assisted_Takeoff,
0.305146487379852,36.8793952989226,5833.8657752664,0,0,0.40075788684,3300,2017-11-11 12:14:49,17,17.264,5833.8657752664,0,0,0.40075788684,68.6, -2.5, 1.8,0,1,1024,1024,1024,1024,69,0,99,4.293,4.292,4.286,4.28,0,0,89.51,10,Assisted_Takeoff,
0.305146470452584,36.8793953302058,5833.8657752664,0,0,0.41372376652,3400,2017-11-11 12:14:49,17,17.264,5833.8657752664,0,0,0.41372376652,68.6, -2.3, 1.9,0,1,1024,1024,1024,1024,69,0,99,4.293,4.292,4.286,4.28,0,0,89.51,10,Assisted_Takeoff,
0.305146452252076,36.8793953604531,5833.8657752664,0,0,0.42660434436,3500,2017-11-11 12:14:49,17,17.104,5833.8657752664,0,0,0.42660434436,68.6, -2.2, 2,0,1,1024,1024,1024,1024,69,0,99,4.284,4.282,4.279,4.274,0,0,89.51,10,Assisted_Takeoff,
0.305146412548779,36.8793953694017,5833.8657752664,0,0,0.4369422712,3600,2017-11-11 12:14:49,17,17.104,5833.8657752664,0,0,0.4369422712,68.6, -2.3, 1.9,0,1,1024,1024,1024,1024,69,0,99,4.284,4.282,4.279,4.274,0,0,89.51,10,Assisted_Takeoff,
0.30514638040818,36.8793953836009,5833.8657752664,0,0,0.4476214054,3700,2017-11-11 12:14:49,17,17.104,5833.8657752664,0,0,0.4476214054,68.6, -2.5, 1.8,0,1,1024,1024,1024,1024,69,0,99,4.284,4.282,4.279,4.274,0,0,89.51,10,Assisted_Takeoff,
0.305146367096668,36.8793954215929,5833.8657752664,0,0,0.46190290192,3800,2017-11-11 12:14:49,17,17.104,5833.8657752664,0,0,0.46190290192,68.6, -2.6, 1.7,0,1,1024,1024,1024,1024,69,0,99,4.284,4.282,4.279,4.274,0,0,89.51,10,Assisted_Takeoff,
0.30514635353173,36.8793954561017,5833.8657752664,0,0,0.47518374224,3900,2017-11-11 12:14:49,17,17.104,5833.8657752664,0,0,0.47518374224,68.6, -2.5, 1.8,0,1,1024,1024,1024,1024,69,0,99,4.284,4.282,4.279,4.274,0,0,89.51,10,Assisted_Takeoff,
0.305146350714929,36.8793954685963,5833.8657752664,0,0,0.47958991036,4000,2017-11-11 12:14:50,17,17.104,5833.8657752664,0,0,0.47958991036,68.6, -2.4, 1.9,0,1,1024,1024,1024,1024,69,0,99,4.284,4.282,4.279,4.274,0,0,89.51,10,Assisted_Takeoff,
0.305146345222594,36.8793954823443,5833.8657752664,0,0,0.48490159032,4100,2017-11-11 12:14:50,17,17.104,5833.8657752664,0,0,0.48490159032,68.6, -2.3, 1.9,0,1,1024,1024,1024,1024,69,0,99,4.284,4.282,4.279,4.274,0,0,89.51,10,Assisted_Takeoff,
0.305146315505323,36.8793955167241,5833.8657752664,0,0,0.50129266696,4200,2017-11-11 12:14:50,17,17.104,5833.8657752664,0,0,0.50129266696,68.6, -2.4, 1.9,0,1,1024,1024,1024,1024,69,0,99,4.284,4.282,4.279,4.274,0,0,89.51,10,Assisted_Takeoff,
0.305146290395734,36.8793955496145,5833.8657752664,0,0,0.51633203752,4300,2017-11-11 12:14:50,17,17.104,5833.8657752664,0,0,0.51633203752,68.6, -2.4, 1.8,0,1,1024,1024,1024,1024,69,0,99,4.284,4.282,4.279,4.274,0,0,89.51,10,Assisted_Takeoff,
0.305146278316548,36.8793955643911,5833.8657752664,0,0,0.52324804824,4400,2017-11-11 12:14:50,17,17.104,5833.8657752664,0,0,0.52324804824,68.6, -2.3, 1.9,0,1,1024,1024,1024,1024,69,0,99,4.284,4.282,4.279,4.274,0,0,89.51,10,Assisted_Takeoff,
0.305146267282007,36.8793955799395,5833.8657752664,0,0,0.53019358652,4500,2017-11-11 12:14:50,17,17.104,5833.8657752664,0,0,0.53019358652,68.6, -2.3, 1.9,0,1,1024,1024,1024,1024,69,0,99,4.288,4.289,4.289,4.284,0,0,89.51,10,Assisted_Takeoff,
0.305146269192172,36.8793956159038,5833.8657752664,0,0,0.54093177584,4600,2017-11-11 12:14:50,17,17.104,5833.8657752664,0,0,0.54093177584,68.6, -2.3, 1.9,0,1,1024,1024,1024,1024,69,0,99,4.288,4.289,4.289,4.284,0,0,89.51,10,Assisted_Takeoff,
0.30514626968498,36.879395649743,5833.8657752664,0,0,0.55137468956,4700,2017-11-11 12:14:50,17,17.104,5833.8657752664,0,0,0.55137468956,68.6, -2.3, 1.9,0,1,1024,1024,1024,1024,69,0,99,4.288,4.289,4.289,4.284,0,0,89.51,10,Assisted_Takeoff,
0.305146241577223,36.8793956641333,5833.8657752664,0,0,0.56119752452,4800,2017-11-11 12:14:50,17,17.104,5833.8657752664,0,0,0.56119752452,68.6, -2.3, 1.9,0,1,1024,1024,1024,1024,69,0,99,4.288,4.289,4.289,4.284,0,0,89.51,10,Assisted_Takeoff,
0.305146217809268,36.8793956792345,5833.8657752664,0,0,0.57045933584,4900,2017-11-11 12:14:50,17,17.104,5833.8657752664,0,0,0.57045933584,68.6, -2.3, 1.9,0,1,1024,1024,1024,1024,69,0,99,4.288,4.289,4.289,4.284,0,0,89.51,10,Assisted_Takeoff,
0.305146202576803,36.8793957155026,5833.8657752664,0,0,0.58462272212,5000,2017-11-11 12:14:51,17,17.104,5833.8657752664,0,0,0.58462272212,68.6, -2.3, 1.9,0,1,1024,1024,1024,1024,69,0,99,4.288,4.289,4.289,4.284,0,0,89.51,10,Assisted_Takeoff,
0.305146191973801,36.8793957490147,5833.8657752664,0,0,0.59705710572,5100,2017-11-11 12:14:51,17,17.104,5833.8657752664,0,0,0.59705710572,68.6, -2.3, 1.9,0,1,1024,1024,1024,1024,69,0,99,4.288,4.289,4.289,4.284,0,0,89.51,10,Assisted_Takeoff,
0.305146151975959,36.8793957649604,5833.8657752664,0,0,0.60973099064,5200,2017-11-11 12:14:51,17,17.104,5833.8657752664,0,0,0.60973099064,68.6, -2.3, 1.9,0,1,1024,1024,1024,1024,69,0,99,4.288,4.289,4.289,4.284,0,0,89.51,10,Assisted_Takeoff,
0.305146122946502,36.8793957827295,5833.8657752664,0,0,0.62090881252,5300,2017-11-11 12:14:51,17,17.104,5833.8657752664,0,0,0.62090881252,68.6, -2.4, 1.8,0,1,1024,1024,1024,1024,69,0,99,4.288,4.289,4.289,4.284,0,0,89.51,10,Assisted_Takeoff,
0.305146103910806,36.8793958227762,5833.8657752664,0,0,0.63695212012,5400,2017-11-11 12:14:51,17,17.104,5833.8657752664,0,0,0.63695212012,68.6, -2.3, 1.9,0,1,1024,1024,1024,1024,69,0,99,4.288,4.289,4.289,4.284,0,0,89.51,10,Assisted_Takeoff,
0.305146088280186,36.8793958576003,5833.8657752664,0,0,0.65072508644,5500,2017-11-11 12:14:51,17,17.104,5833.8657752664,0,0,0.65072508644,68.6, -2.3, 1.9,0,1,1024,1024,1024,1024,69,0,99,4.289,4.289,4.29,4.284,0,0,89.51,10,Assisted_Takeoff,
0.305146083000975,36.879395870562,5833.8657752664,0,0,0.65574477164,5600,2017-11-11 12:14:51,17,17.104,5833.8657752664,0,0,0.65574477164,68.6, -2.3, 1.9,0,1,1024,1024,1024,1024,69,0,99,4.289,4.289,4.29,4.284,0,0,89.51,10,Assisted_Takeoff,
0.305146079414327,36.8793958873705,5833.8657752664,0,0,0.66162403692,5700,2017-11-11 12:14:51,17,17.104,5833.8657752664,0,0,0.66162403692,68.6, -2.4, 1.9,0,1,1024,1024,1151,1024,69,0,99,4.289,4.289,4.29,4.284,0,0,89.51,10,Assisted_Takeoff,
0.305146085292399,36.8793959266328,5833.8657752664,0,0,0.67264765932,5800,2017-11-11 12:14:51,17,17.104,5833.8657752664,0,0,0.67264765932,68.6, -2.4, 1.9,0,1,1024,1024,1171,1024,69,0,99,4.289,4.289,4.29,4.284,0,0,89.51,10,Assisted_Takeoff,
0.305146085703581,36.8793959601296,5833.8657752664,0,0,0.68301511372,5900,2017-11-11 12:14:51,17,17.104,5833.8657752664,0,0,0.68301511372,68.6, -2.1, 2.1,0,1,1024,1024,1164,1024,69,0,99,4.289,4.289,4.29,4.284,0,0,89.51,10,Assisted_Takeoff,
0.305146046340222,36.8793959694593,5833.8657752664,0,0,0.69340881484,6000,2017-11-11 12:14:52,17,17.104,5833.8657752664,0,0,0.69340881484,68.7, -1.8, 2.2,0,1,1024,1024,1168,1024,69,0,99,4.289,4.289,4.29,4.284,0,0,89.51,10,Assisted_Takeoff,
0.305146021550012,36.8793959855205,5833.8657752664,0,0,0.70317259468,6100,2017-11-11 12:14:52,17,17.104,5833.8657752664,0,0,0.70317259468,68.6, -2, 2.2,0,1,1024,1024,1173,1024,69,0,99,4.289,4.289,4.29,4.284,0,0,89.51,10,Assisted_Takeoff,
0.305146005851405,36.8793960225249,5833.8657752664,0,0,0.7176509416,6200,2017-11-11 12:14:52,17,17.104,5833.8657752664,0,0,0.7176509416,68.7, -1.8, 2.3,0,1,1024,1024,1176,1024,69,0,99,4.289,4.289,4.29,4.284,0,0,89.51,10,Assisted_Takeoff,
0.30514599347523,36.8793960559851,5833.8657752664,0,0,0.73040028584,6300,2017-11-11 12:14:52,17,17.104,5833.8657752664,0,0,0.73040028584,68.7, -1.8, 2.3,0,1,1024,1024,1199,1024,69,0,99,4.289,4.289,4.29,4.284,0,0,89.51,10,Assisted_Takeoff,
0.305145950835849,36.879396109711,5833.8657752664,0,0,0.7552657722,6400,2017-11-11 12:14:52,17,17.104,5833.8657752664,0,0,0.7552657722,68.7, -1.6, 2.4,0,1,1024,1024,1224,1024,69,0,99,4.289,4.289,4.29,4.284,0,0,89.51,10,Assisted_Takeoff,
0.305145915665733,36.8793961557739,5833.8657752664,0,0,0.77632220332,6500,2017-11-11 12:14:52,17,17.077,5833.8657752664,0,0,0.77632220332,68.7, -0.7, 2.3,0,1,1024,1024,1241,1024,69,0,99,4.289,4.289,4.29,4.284,0,0,89.51,10,Assisted_Takeoff,
0.30514588598551,36.8793962004802,5833.8657752664,0,0,0.79589241392,6600,2017-11-11 12:14:52,17,17.077,5833.8657752664,0,0,0.79589241392,68.5, 1.8, 2.1,0,1,1024,1024,1246,1024,69,0,99,4.289,4.289,4.29,4.284,0,0,89.51,10,Assisted_Takeoff,
0.305145827965882,36.8793962394823,5833.8657752664,0,0,0.81928480312,6700,2017-11-11 12:14:52,17,17.077,5833.8657752664,0,0,0.81928480312,68.3, 2.9, 1.3,0,1,1024,1024,1251,1024,68.9,0,99,4.289,4.289,4.29,4.284,0,0,89.51,6,GPS_Atti,Obstacle Avoided. Revise Flight Route
0.305145706289768,36.8793961999834,5833.8657752664,0,0.223694,0.8325623626,6800,2017-11-11 12:14:52,17,17.077,5833.8657752664,0,0.223694,0.8325623626,68.2, 1.3, 0.4,0,1,1024,1024,1269,1024,68.9,0,99,4.289,4.289,4.29,4.284,0,0,89.51,6,GPS_Atti,
0.305145577048106,36.8793961366492,5833.8657752664,0,0.223694,0.8432250926,6900,2017-11-11 12:14:52,17,17.077,5833.8657752664,0,0.223694,0.8432250926,68.1, 0.3, -0.2,0,1,1024,1024,1274,1024,68.9,0,99,4.289,4.289,4.29,4.284,0,0,89.51,6,GPS_Atti,
0.305145468301634,36.8793960413796,5834.1938592664,0.328084,0,0.84335960704,7000,2017-11-11 12:14:53,17,17.077,5834.1938592664,0.328084,0.223694,0.84335960704,68, 0.2, 0,0,1,1024,1024,1270,1024,68.9,0,99,4.289,4.289,4.29,4.284,0,0,89.51,6,GPS_Atti,
0.305145368731444,36.8793959401329,5834.1938592664,0.328084,0,0.84285107684,7100,2017-11-11 12:14:53,17,17.077,5834.1938592664,0.328084,0.223694,0.84335960704,68, -0.2, 0.1,0,1,1024,1024,1275,1024,68.9,0,99,4.289,4.289,4.29,4.284,0,0,89.51,6,GPS_Atti,
0.305145270510623,36.8793958310034,5834.5219432664,0.656168,0,0.84331039444,7200,2017-11-11 12:14:53,17,17.077,5834.5219432664,0.656168,0.223694,0.84335960704,68.1, -0.7, -0.2,0,1,1024,1024,1279,1024,68.9,0,99,4.289,4.289,4.29,4.284,0,0,89.51,6,GPS_Atti,
0.305145179602126,36.8793957326077,5834.8500272664,0.984252,0,0.84732286176,7300,2017-11-11 12:14:53,17,17.077,5834.8500272664,0.984252,0.223694,0.84732286176,68.2, -1.4, -0.7,0,1,1024,1024,1278,1024,68.9,0,99,4.289,4.289,4.29,4.284,0,0,89.51,6,GPS_Atti,
0.305145114756265,36.8793956375083,5835.1781112664,1.312336,0,0.84683073576,7400,2017-11-11 12:14:53,17,17.077,5835.1781112664,1.312336,0.223694,0.84732286176,68.1, -1.6, -1,0,1,1024,1024,1276,1024,68.9,0,99,4.289,4.289,4.29,4.284,0,0,89.51,6,GPS_Atti,
0.305145096942919,36.8793955707951,5835.5061952664,1.64042,0,0.8391404468,7500,2017-11-11 12:14:53,17,16.569,5835.5061952664,1.64042,0.223694,0.84732286176,67.9, -1.4, -0.6,0,1,1024,1024,1275,1024,68.9,0,99,4.257,4.255,4.253,4.244,0,0,91.31,6,GPS_Atti,
0.305145144235986,36.8793955498567,5835.8342792664,1.968504,0,0.82045934384,7600,2017-11-11 12:14:53,17,16.569,5835.8342792664,1.968504,0.223694,0.84732286176,67.8, -1, -0.4,0,1,1024,1024,1275,1024,68.8,0,99,4.257,4.255,4.253,4.244,0,0,91.31,6,GPS_Atti,Home Point Recorded. RTH Altitude:  30m.
0.305145222764848,36.8793955422457,5836.1623632664,2.296588,0,0.7948162984,7700,2017-11-11 12:14:53,17,16.569,5836.1623632664,2.296588,0.223694,0.84732286176,67.8, -0.2, 0,0,1,1024,1024,1276,1024,68.8,0,99,4.257,4.255,4.253,4.244,0,0,91.31,6,GPS_Atti,
0.305145306657805,36.8793955380203,5836.4904472664,2.624672,0.223694,0.76846459152,7800,2017-11-11 12:14:53,16,16.569,5836.4904472664,2.624672,0.223694,0.84732286176,68, 0.3, 0.5,0,1,1024,1024,1293,1024,68.8,0,99,4.257,4.255,4.253,4.244,0,0,91.31,6,GPS_Atti,
0.305145412293746,36.8793955210408,5837.1466152664,3.28084,0,0.73328086336,7900,2017-11-11 12:14:53,16,16.569,5837.1466152664,3.28084,0.223694,0.84732286176,68.1, 0.6, 2.4,0,1,1024,1024,1292,1024,68.8,0,99,4.257,4.255,4.253,4.244,0,0,91.31,6,GPS_Atti,
0.305145490458447,36.879395475022,5837.4746992664,3.608924,0,0.70031826388,8000,2017-11-11 12:14:54,17,16.569,5837.4746992664,3.608924,0.223694,0.84732286176,68.1, 0.8, 2.8,0,1,1024,1024,1280,1024,68.8,0,99,4.257,4.255,4.253,4.244,0,0,91.31,6,GPS_Atti,
0.305145525228779,36.8793954175707,5837.8027832664,3.937008,0,0.6778543524,8100,2017-11-11 12:14:54,17,16.569,5837.8027832664,3.937008,0.223694,0.84732286176,68, 0, 3,0,1,1024,1024,1271,1024,68.8,0,99,4.257,4.255,4.253,4.244,0,0,91.31,6,GPS_Atti,
0.305145498640564,36.8793953680209,5838.1308672664,4.265092,0,0.67578414236,8200,2017-11-11 12:14:54,17,16.569,5838.1308672664,4.265092,0.223694,0.84732286176,68.1, -1.2, 1.3,0,1,1024,1024,1295,1024,68.8,0,99,4.257,4.255,4.253,4.244,0,0,91.31,6,GPS_Atti,
0.305145446040805,36.879395319483,5838.4589512664,4.593176,0,0.68263781712,8300,2017-11-11 12:14:54,17,16.569,5838.4589512664,4.593176,0.223694,0.84732286176,68.2, -1.6, -0.2,0,1,1024,1024,1304,1024,68.8,0,99,4.257,4.255,4.253,4.244,0,0,91.31,6,GPS_Atti,
0.305145343228586,36.879395256542,5838.7870352664,4.92126,0,0.70402889392,8400,2017-11-11 12:14:54,16,16.569,5838.7870352664,4.92126,0.223694,0.84732286176,68.4, -1.4, 0,0,1,1024,1024,1293,1024,68.8,0,99,4.257,4.255,4.253,4.244,0,0,91.31,6,GPS_Atti,
0.305145268798721,36.8793951746839,5839.4432032664,5.577428,0,0.7151575032,8500,2017-11-11 12:14:54,16,16.516,5839.4432032664,5.577428,0.223694,0.84732286176,68.4, -1.6, 0.3,0,1,1024,1024,1296,1024,68.8,0,99,4.159,4.159,4.163,4.149,0,0,91.31,6,GPS_Atti,
0.305145236169792,36.8793950537317,5839.7712872664,5.905512,0,0.7089567156,8600,2017-11-11 12:14:54,17,16.516,5839.7712872664,5.905512,0.223694,0.84732286176,68.4, -2.2, 0.1,0,1,1024,1024,1301,1024,68.8,0,99,4.159,4.159,4.163,4.149,0,0,91.31,6,GPS_Atti,
0.305145215856989,36.8793949252829,5840.4274552664,6.56168,0,0.70056432688,8700,2017-11-11 12:14:54,17,16.516,5840.4274552664,6.56168,0.223694,0.84732286176,68.4, -3.3, 0.8,0,1,1024,1024,1290,1024,68.8,0,99,4.159,4.159,4.163,4.149,0,0,91.31,6,GPS_Atti,
0.305145199277801,36.8793948439992,5840.7555392664,6.889764,0,0.69818571788,8800,2017-11-11 12:14:54,17,16.516,5840.7555392664,6.889764,0.223694,0.84732286176,68.5, -3, 0.9,0,1,1024,1024,1306,1024,68.8,0,99,4.159,4.159,4.163,4.149,0,0,91.31,6,GPS_Atti,
0.305145146593159,36.8793947629682,5841.7397912664,7.874016,0,0.7100065844,9000,2017-11-11 12:14:55,17,16.516,5841.7397912664,7.874016,0.223694,0.84732286176,68.3, -2, 1.6,0,1,1024,1024,1306,1024,68.8,0,99,4.159,4.159,4.163,4.149,0,0,91.31,6,GPS_Atti,
0.305145083215951,36.8793947412392,5842.0678752664,8.2021,0,0.73106301552,9100,2017-11-11 12:14:55,17,16.516,5842.0678752664,8.2021,0.223694,0.84732286176,67.9, -2, 0.3,0,1,1024,1024,1307,1024,68.8,0,99,4.159,4.159,4.163,4.149,0,0,91.31,6,GPS_Atti,
0.305145030740971,36.8793947308127,5842.7240432664,8.858268,0,0.74915356728,9200,2017-11-11 12:14:55,17,16.516,5842.7240432664,8.858268,0.223694,0.84732286176,67.9, -2, -0.5,0,1,1024,1024,1301,1024,68.7,0,99,4.159,4.159,4.163,4.149,0,0,91.31,6,GPS_Atti,
0.305145012989303,36.8793947050734,5843.0521272664,9.186352,0,0.75387469604,9300,2017-11-11 12:14:55,17,16.516,5843.0521272664,9.186352,0.223694,0.84732286176,68.1, -1.9, -0.7,0,1,1024,1024,1297,1024,68.7,0,99,4.159,4.159,4.163,4.149,0,0,91.31,6,GPS_Atti,
0.305145033691712,36.8793946301193,5843.7082952664,9.84252,0,0.74224411824,9400,2017-11-11 12:14:55,17,16.516,5843.7082952664,9.84252,0.223694,0.84732286176,68.4, -1.8, 0.7,0,1,1024,1024,1297,1024,68.7,0,99,4.159,4.159,4.163,4.149,0,0,91.31,6,GPS_Atti,
0.305145049906943,36.8793945229736,5844.3644632664,10.498688,0.223694,0.73208335676,9500,2017-11-11 12:14:55,17,16.516,5844.3644632664,10.498688,0.223694,0.84732286176,68.5, -1.8, 1.5,0,1,1024,1024,1302,1024,68.7,0,99,4.161,4.156,4.154,4.143,0,0,91.31,6,GPS_Atti,
0.305145032124131,36.8793943531243,5844.6925472664,10.826772,0.223694,0.7360072414,9600,2017-11-11 12:14:55,17,16.516,5844.6925472664,10.826772,0.223694,0.84732286176,68.5, -2.2, 1.3,0,1,1024,1024,1302,1024,68.7,0,99,4.161,4.156,4.154,4.143,0,0,91.31,6,GPS_Atti,
0.305144979551445,36.8793941647114,5845.0206312664,11.154856,0.31540854,0.75837928936,9700,2017-11-11 12:14:55,17,16.516,5845.0206312664,11.154856,0.31540854,0.84732286176,68.5, -3.6, 0.7,0,1,1024,1024,1301,1024,68.7,0,99,4.161,4.156,4.154,4.143,0,0,91.31,6,GPS_Atti,
0.305144859424185,36.879393996853,5845.6767992664,11.811024,0.223694,0.80963913352,9800,2017-11-11 12:14:55,17,16.516,5845.6767992664,11.811024,0.31540854,0.84732286176,68.4, -4.6, 0.2,0,1,1024,1024,1301,1024,68.7,0,99,4.161,4.156,4.154,4.143,0,0,91.31,6,GPS_Atti,
0.305144740810767,36.8793938335659,5846.0048832664,12.139108,0.223694,0.86352364968,9900,2017-11-11 12:14:55,17,16.516,5846.0048832664,12.139108,0.31540854,0.86352364968,68.5, -4.7, -0.4,0,1,1024,1024,1301,1024,68.7,0,99,4.161,4.156,4.154,4.143,0,0,91.31,6,GPS_Atti,
0.305144633935173,36.8793935768023,5846.6610512664,12.795276,0.447388,0.92591210312,10000,2017-11-11 12:14:56,17,16.516,5846.6610512664,12.795276,0.447388,0.92591210312,68.6, -4.9, 0,0,1,1024,1024,1302,1024,68.7,0,99,4.161,4.156,4.154,4.143,0,0,91.31,6,GPS_Atti,
0.305144538266531,36.8793932989831,5846.9891352664,13.12336,0.447388,0.993930478,10100,2017-11-11 12:14:56,17,16.516,5846.9891352664,13.12336,0.447388,0.993930478,68.6, -6.3, 0.8,0,1,1024,1024,1304,1024,68.7,0,99,4.161,4.156,4.154,4.143,0,0,91.31,6,GPS_Atti,
0.305144426532881,36.8793930037518,5847.3172192664,13.451444,0.50107456,1.0765092208,10200,2017-11-11 12:14:56,17,16.516,5847.3172192664,13.451444,0.50107456,1.0765092208,68.6, -7.3, 1.2,0,1,1024,1024,1304,1024,68.7,0,99,4.161,4.156,4.154,4.143,0,0,91.31,6,GPS_Atti,
0.305144306303233,36.8793927550468,5847.9733872664,14.107612,0.31540854,1.15864833104,10300,2017-11-11 12:14:56,17,16.516,5847.9733872664,14.107612,0.50107456,1.15864833104,68.5, -7.5, 0.7,0,1,1024,1024,1304,1024,68.7,0,99,4.161,4.156,4.154,4.143,0,0,91.31,6,GPS_Atti,
0.3051441671531,36.8793925151576,5848.3014712664,14.435696,0.31540854,1.24760174596,10400,2017-11-11 12:14:56,17,16.516,5848.3014712664,14.435696,0.50107456,1.24760174596,68.5, -7.4, -0.2,0,1,1024,1024,1306,1024,68.7,0,99,4.161,4.156,4.154,4.143,0,0,91.31,6,GPS_Atti,
0.305144034814749,36.8793922962476,5848.9576392664,15.091864,0.31540854,1.33191933396,10500,2017-11-11 12:14:56,17,16.569,5848.9576392664,15.091864,0.50107456,1.33191933396,68.5, -7.5, -0.8,0,1,1024,1024,1309,1024,68.7,0,99,4.161,4.156,4.154,4.143,0,0,91.31,6,GPS_Atti,
0.305143940374768,36.8793921499999,5849.2857232664,15.419948,0.223694,1.3906824592,10600,2017-11-11 12:14:56,17,16.569,5849.2857232664,15.419948,0.50107456,1.3906824592,68.6, -8.4, -0.5,0,1,1024,1024,1314,1024,68.7,0,99,4.161,4.156,4.154,4.143,0,0,91.31,6,GPS_Atti,
0.305143868756615,36.8793920060395,5849.6138072664,15.748032,0.223694,1.44264768396,10700,2017-11-11 12:14:56,17,16.569,5849.6138072664,15.748032,0.50107456,1.44264768396,68.6, -8.5, 0.3,0,1,1024,1024,1317,1024,68.7,0,99,4.161,4.156,4.154,4.143,0,0,91.31,6,GPS_Atti,
0.305143777350018,36.8793918508257,5850.2699752664,16.4042,0,1.50333666228,10800,2017-11-11 12:14:56,17,16.569,5850.2699752664,16.4042,0.50107456,1.50333666228,68.6, -8.2, 0.5,0,1,1024,1024,1335,1024,68.7,0,99,4.161,4.156,4.154,4.143,0,0,91.31,6,GPS_Atti,
0.305143678657355,36.8793917348659,5850.5980592664,16.732284,0.223694,1.55769033856,10900,2017-11-11 12:14:56,17,16.569,5850.5980592664,16.732284,0.50107456,1.55769033856,68.6, -7.9, -0.1,0,1,1024,1024,1341,1024,68.7,0,99,4.161,4.156,4.154,4.143,0,0,91.31,6,GPS_Atti,
0.305143598657601,36.8793916975234,5851.2542272664,17.388452,0.223694,1.58911094324,11000,2017-11-11 12:14:57,17,16.569,5851.2542272664,17.388452,0.50107456,1.58911094324,68.5, -6.9, -0.3,0,1,1024,1024,1352,1024,68.7,0,99,4.161,4.156,4.154,4.143,0,0,91.31,6,GPS_Atti,
0.305143520995072,36.879391668539,5851.9103952664,18.04462,0.223694,1.61803810952,11100,2017-11-11 12:14:57,17,16.569,5851.9103952664,18.04462,0.50107456,1.61803810952,68.4, -7.3, -0.7,0,1,1024,1024,1361,1024,68.7,0,99,4.161,4.156,4.154,4.143,0,0,91.31,6,GPS_Atti,
0.305143422499858,36.8793915643551,5852.2384792664,18.372704,0.223694,1.66967853112,11200,2017-11-11 12:14:57,17,16.569,5852.2384792664,18.372704,0.50107456,1.66967853112,68.4, -7.7, -1.6,0,1,1024,1024,1369,1024,68.7,0,99,4.161,4.156,4.154,4.143,0,0,91.31,6,GPS_Atti,
0.305143343658742,36.8793914786943,5852.8946472664,19.028872,0,1.7115486112,11300,2017-11-11 12:14:57,17,16.569,5852.8946472664,19.028872,0.50107456,1.7115486112,68.4, -8, -1.8,0,1,1024,1024,1370,1024,68.7,0,99,4.161,4.156,4.154,4.143,0,0,91.31,6,GPS_Atti,
0.305143287748967,36.8793913990852,5853.5508152664,19.68504,0,1.74550202436,11400,2017-11-11 12:14:57,17,16.569,5853.5508152664,19.68504,0.50107456,1.74550202436,68.4, -8.4, -1.6,0,1,1024,1024,1371,1024,68.7,0,99,4.161,4.156,4.154,4.143,0,0,91.31,6,GPS_Atti,
0.305143274782889,36.8793913299535,5854.2069832664,20.341208,0,1.76488850792,11500,2017-11-11 12:14:57,17,16.516,5854.2069832664,20.341208,0.50107456,1.76488850792,68.4, -8.5, -0.7,0,1,1024,1024,1374,1024,68.7,0,99,4.146,4.146,4.145,4.137,0,0,91.31,6,GPS_Atti,
0.305143331118094,36.8793912773139,5854.8631512664,20.997376,0,1.76107945268,11600,2017-11-11 12:14:57,17,16.516,5854.8631512664,20.997376,0.50107456,1.76488850792,68.4, -8.4, -0.3,0,1,1024,1024,1378,1024,68.7,0,99,4.146,4.146,4.145,4.137,0,0,91.31,6,GPS_Atti,
0.305143389155838,36.8793912414964,5855.5193192664,21.653544,0,1.75325793012,11700,2017-11-11 12:14:57,17,16.516,5855.5193192664,21.653544,0.50107456,1.76488850792,68.5, -8.2, -0.2,0,1,1024,1024,1380,1024,68.7,0,99,4.146,4.146,4.145,4.137,0,0,91.31,6,GPS_Atti,
0.305143384851861,36.8793911724313,5856.1754872664,22.309712,0,1.77087604092,11800,2017-11-11 12:14:57,17,16.516,5856.1754872664,22.309712,0.50107456,1.77087604092,68.5, -8.3, 0.1,0,1,1024,1024,1378,1024,68.7,0,99,4.146,4.146,4.145,4.137,0,0,91.31,6,GPS_Atti,
0.3051433874533,36.8793911373724,5856.8316552664,22.96588,0,1.7785761724,11900,2017-11-11 12:14:57,17,16.516,5856.8316552664,22.96588,0.50107456,1.7785761724,68.5, -7.5, -0.3,0,1,1024,1024,1378,1024,68.7,0,99,4.146,4.146,4.145,4.137,0,0,91.31,6,GPS_Atti,
0.305143416342304,36.8793911446927,5857.4878232664,23.622048,0,1.76890097524,12000,2017-11-11 12:14:58,16,16.516,5857.4878232664,23.622048,0.50107456,1.7785761724,68.5, -7.1, 0,0,1,1024,1024,1379,1024,68.7,0,99,4.146,4.146,4.145,4.137,0,0,91.31,6,GPS_Atti,
0.305143441996403,36.8793911576377,5858.1439912664,24.278216,0,1.75876317964,12100,2017-11-11 12:14:58,16,16.516,5858.1439912664,24.278216,0.50107456,1.7785761724,68.4, -7.7, 0.2,0,1,1024,1024,1379,1024,68.7,0,99,4.146,4.146,4.145,4.137,0,0,91.31,6,GPS_Atti,
0.30514341865673,36.8793912303773,5859.1282432664,25.262468,0,1.7477198722,12200,2017-11-11 12:14:58,17,16.516,5859.1282432664,25.262468,0.50107456,1.7785761724,68.4, -7, -0.6,0,1,1024,1024,1380,1024,68.7,0,99,4.146,4.146,4.145,4.137,0,0,91.31,6,GPS_Atti,
0.30514338209287,36.8793912780592,5859.7844112664,25.918636,0,1.74661750996,12300,2017-11-11 12:14:58,17,16.516,5859.7844112664,25.918636,0.50107456,1.7785761724,68.5, -7.7, -1.4,0,1,1024,1024,1381,1024,68.7,0,99,4.146,4.146,4.145,4.137,0,0,91.31,6,GPS_Atti,
0.305143296619101,36.8793912462845,5860.4405792664,26.574804,0,1.77799546372,12400,2017-11-11 12:14:58,17,16.516,5860.4405792664,26.574804,0.50107456,1.7785761724,68.5, -8.5, -1,0,1,1024,1024,1385,1024,68.7,0,99,4.146,4.146,4.145,4.137,0,0,91.31,6,GPS_Atti,
0.30514323047537,36.8793912292795,5861.0967472664,27.230972,0,1.80056764292,12500,2017-11-11 12:14:58,17,16.462,5861.0967472664,27.230972,0.50107456,1.80056764292,68.5, -8.5, -0.2,0,1,1024,1024,1385,1024,68.7,0,99,4.131,4.136,4.139,4.129,0,0,91.31,6,GPS_Atti,
0.305143158181006,36.8793912427339,5861.7529152664,27.88714,0.31540854,1.81798562248,12600,2017-11-11 12:14:58,17,16.462,5861.7529152664,27.88714,0.50107456,1.81798562248,68.4, -7.3, -1.3,0,1,1024,1024,1382,1024,68.7,0,99,4.131,4.136,4.139,4.129,0,0,91.31,6,GPS_Atti,
0.305143071939019,36.8793912767198,5862.7371672664,28.871392,0.223694,1.83504599048,12700,2017-11-11 12:14:58,17,16.462,5862.7371672664,28.871392,0.50107456,1.83504599048,68.4, -6.9, -2.7,0,1,1024,1024,1388,1024,68.7,0,99,4.131,4.136,4.139,4.129,0,0,91.31,6,GPS_Atti,
0.305142889419759,36.8793913555181,5864.0495032664,30.183728,0,1.87119100476,12900,2017-11-11 12:14:58,17,16.462,5864.0495032664,30.183728,0.50107456,1.87119100476,68.5, -8.5, -3.3,0,1,1024,1024,1395,1024,68.7,0,99,4.131,4.136,4.139,4.129,0,0,91.31,6,GPS_Atti,
0.305142831544045,36.8793913329112,5864.7056712664,30.839896,0,1.89314966688,13000,2017-11-11 12:14:59,17,16.462,5864.7056712664,30.839896,0.50107456,1.89314966688,68.6, -9, -3.7,0,1,1024,1024,1407,1024,68.7,0,99,4.131,4.136,4.139,4.129,0,0,91.31,6,GPS_Atti,
0.305142818127702,36.8793912837925,5865.3618392664,31.496064,0,1.90760504792,13100,2017-11-11 12:14:59,17,16.462,5865.3618392664,31.496064,0.50107456,1.90760504792,68.6, -9.4, -3,0,1,1024,1024,1417,1024,68.7,0,99,4.131,4.136,4.139,4.129,0,0,91.31,6,GPS_Atti,
0.305142868803251,36.8793912128517,5866.3460912664,32.480316,0,1.90811029728,13200,2017-11-11 12:14:59,17,16.462,5866.3460912664,32.480316,0.50107456,1.90811029728,68.5, -9.3, -1.4,0,1,1024,1024,1421,1024,68.6,0,99,4.131,4.136,4.139,4.129,0,0,91.31,6,GPS_Atti,
0.305142944610169,36.8793911633755,5867.0022592664,33.136484,0,1.89709979824,13300,2017-11-11 12:14:59,17,16.462,5867.0022592664,33.136484,0.50107456,1.90811029728,68.4, -8.6, -0.6,0,1,1024,1024,1427,1024,68.7,0,99,4.131,4.136,4.139,4.129,0,0,91.31,6,GPS_Atti,
0.305143038999668,36.8793911078435,5867.9865112664,34.120736,0,1.88271659568,13400,2017-11-11 12:14:59,17,16.462,5867.9865112664,34.120736,0.50107456,1.90811029728,68.4, -8.9, -0.6,0,1,1024,1024,1437,1024,68.7,0,99,4.131,4.136,4.139,4.129,0,0,91.31,6,GPS_Atti,
0.305143131295395,36.8793910613164,5868.6426792664,34.776904,0,1.86754599152,13500,2017-11-11 12:14:59,17,16.409,5868.6426792664,34.776904,0.50107456,1.90811029728,68.5, -9.5, -1.2,0,1,1024,1024,1445,1024,68.7,0,99,4.131,4.136,4.139,4.129,0,0,91.31,6,GPS_Atti,
0.305143200461926,36.879390987057,5869.2988472664,35.433072,0,1.86603024344,13600,2017-11-11 12:14:59,17,16.409,5869.2988472664,35.433072,0.50107456,1.90811029728,68.5, -9.6, -1.2,0,1,1024,1024,1446,1024,68.6,0,99,4.131,4.136,4.139,4.129,0,0,91.31,6,GPS_Atti,
0.305143309881556,36.8793909473025,5870.2830992664,36.417324,0.223694,1.84591213256,13700,2017-11-11 12:14:59,17,16.409,5870.2830992664,36.417324,0.50107456,1.90811029728,68.4, -9.5, 0,0,1,1024,1024,1446,1024,68.6,0,99,4.131,4.136,4.139,4.129,0,0,91.31,6,GPS_Atti,
0.305143447299024,36.8793909721223,5870.9392672664,37.073492,0.31540854,1.80295937528,13800,2017-11-11 12:14:59,17,16.409,5870.9392672664,37.073492,0.50107456,1.90811029728,68.4, -9.2, 0.4,0,1,1024,1024,1447,1024,68.6,0,99,4.131,4.136,4.139,4.129,0,0,91.31,6,GPS_Atti,
0.30514357760467,36.8793910519447,5871.9235192664,38.057744,0.31540854,1.74840228692,13900,2017-11-11 12:14:59,17,16.409,5871.9235192664,38.057744,0.50107456,1.90811029728,68.5, -7.7, 0.5,0,1,1024,1024,1447,1024,68.6,0,99,4.131,4.136,4.139,4.129,0,0,91.31,6,GPS_Atti,
0.305143620708361,36.8793911614014,5872.9077712664,39.041996,0.223694,1.7095801072,14000,2017-11-11 12:15:00,17,16.409,5872.9077712664,39.041996,0.50107456,1.90811029728,68.5, -6.4, 0.1,0,1,1024,1024,1449,1024,68.6,0,99,4.131,4.136,4.139,4.129,0,0,91.31,6,GPS_Atti,
0.305143631671861,36.8793912631279,5873.5639392664,39.698164,0.223694,1.68153220604,14100,2017-11-11 12:15:00,17,16.409,5873.5639392664,39.698164,0.50107456,1.90811029728,68.4, -6.2, -1.4,0,1,1024,1024,1449,1024,68.6,0,99,4.131,4.136,4.139,4.129,0,0,91.31,6,GPS_Atti,
0.305143619282659,36.8793913565086,5874.5481912664,40.682416,0,1.6622703944,14200,2017-11-11 12:15:00,16,16.409,5874.5481912664,40.682416,0.50107456,1.90811029728,68.5, -6.8, -2.2,0,1,1024,1024,1450,1024,68.6,0,99,4.131,4.136,4.139,4.129,0,0,91.31,6,GPS_Atti,
0.305143642051156,36.879391399615,5875.5324432664,41.666668,0,1.64567590568,14300,2017-11-11 12:15:00,16,16.409,5875.5324432664,41.666668,0.50107456,1.90811029728,68.6, -7.8, -1.7,0,1,1024,1024,1455,1024,68.6,0,99,4.131,4.136,4.139,4.129,0,0,91.31,6,GPS_Atti,
0.305143661629531,36.8793913765427,5876.5166952664,42.65092,0,1.645833386,14400,2017-11-11 12:15:00,17,16.409,5876.5166952664,42.65092,0.50107456,1.90811029728,68.5, -8.1, -0.2,0,1,1024,1024,1456,1024,68.6,0,99,4.131,4.136,4.139,4.129,0,0,91.31,6,GPS_Atti,
0.305143692784921,36.8793913491807,5877.5009472664,43.635172,0,1.64395674552,14500,2017-11-11 12:15:00,17,16.382,5877.5009472664,43.635172,0.50107456,1.90811029728,68.4, -8.3, -0.5,0,1,1024,1024,1459,1024,68.6,0,99,4.127,4.13,4.134,4.126,0,0,91.31,6,GPS_Atti,
0.305143725117677,36.8793912615882,5878.4851992664,44.619424,0,1.6567913916,14600,2017-11-11 12:15:00,16,16.382,5878.4851992664,44.619424,0.50107456,1.90811029728,68.4, -8.5, -0.2,0,1,1024,1024,1460,1024,68.6,0,99,4.127,4.13,4.134,4.126,0,0,91.31,6,GPS_Atti,
0.305143770640829,36.879391189137,5879.4694512664,45.603676,0,1.66292328156,14700,2017-11-11 12:15:00,16,16.382,5879.4694512664,45.603676,0.50107456,1.90811029728,68.4, -8.7, 0.1,0,1,1024,1024,1461,1024,68.6,0,99,4.127,4.13,4.134,4.126,0,0,91.31,6,GPS_Atti,
0.305143794467407,36.8793911460605,5880.4537032664,46.587928,0,1.66767721872,14800,2017-11-11 12:15:00,16,16.382,5880.4537032664,46.587928,0.50107456,1.90811029728,68.4, -8.7, 0.1,0,1,1024,1024,1462,1024,68.6,0,99,4.127,4.13,4.134,4.126,0,0,91.31,6,GPS_Atti,
0.305143812220296,36.8793911288164,5881.1098712664,47.244096,0,1.6675033342,14900,2017-11-11 12:15:00,16,16.382,5881.1098712664,47.244096,0.50107456,1.90811029728,68.4, -8, -0.4,0,1,1024,1024,1461,1024,68.6,0,99,4.127,4.13,4.134,4.126,0,0,91.31,6,GPS_Atti,
0.305143831304846,36.8793910827039,5882.4222072664,48.556432,0,1.67453417432,15000,2017-11-11 12:15:01,16,16.382,5882.4222072664,48.556432,0.50107456,1.90811029728,68.4, -8.3, -0.4,0,1,1024,1024,1462,1024,68.6,0,99,4.127,4.13,4.134,4.126,0,0,91.31,6,GPS_Atti,
0.305143862133733,36.8793910263476,5883.0783752664,49.2126,0,1.68145674672,15100,2017-11-11 12:15:01,16,16.382,5883.0783752664,49.2126,0.50107456,1.90811029728,68.4, -9.2, 0,0,1,1024,1024,1465,1024,68.6,0,99,4.127,4.13,4.134,4.126,0,0,91.31,6,GPS_Atti,
0.305143905231318,36.8793909453695,5884.0626272664,50.196852,0,1.69222118276,15200,2017-11-11 12:15:01,17,16.382,5884.0626272664,50.196852,0.50107456,1.90811029728,68.4, -9.3, 0.2,0,1,1024,1024,1465,1024,68.6,0,99,4.127,4.13,4.134,4.126,0,0,91.31,6,GPS_Atti,
0.305143942144072,36.8793908853134,5885.3749632664,51.509188,0,1.69937997564,15300,2017-11-11 12:15:01,17,16.382,5885.3749632664,51.509188,0.50107456,1.90811029728,68.3, -9.2, 1,0,1,1024,1024,1465,1024,68.6,0,99,4.127,4.13,4.134,4.126,0,0,91.31,6,GPS_Atti,
0.305143959712947,36.8793908416312,5886.3592152664,52.49344,0,1.70704401788,15400,2017-11-11 12:15:01,17,16.382,5886.3592152664,52.49344,0.50107456,1.90811029728,68.4, -9, 0.4,0,1,1024,1024,1466,1024,68.6,0,99,4.127,4.13,4.134,4.126,0,0,91.31,6,GPS_Atti,
0.305143951293078,36.8793908329466,5887.0153832664,53.149608,0,1.71145346684,15500,2017-11-11 12:15:01,17,16.328,5887.0153832664,53.149608,0.50107456,1.90811029728,68.4, -9, -0.4,0,1,1024,1024,1466,1024,68.6,0,99,4.121,4.123,4.118,4.104,0,0,91.31,6,GPS_Atti,
0.305143879894765,36.8793907903311,5887.9996352664,54.13386,0,1.74035766724,15600,2017-11-11 12:15:01,17,16.328,5887.9996352664,54.13386,0.50107456,1.90811029728,68.4, -8.7, -0.7,0,1,1024,1024,1466,1024,68.6,0,99,4.121,4.123,4.118,4.104,0,0,91.31,6,GPS_Atti,
0.305143823971962,36.8793907689587,5888.9838872664,55.118112,0,1.75977039752,15700,2017-11-11 12:15:01,17,16.328,5888.9838872664,55.118112,0.50107456,1.90811029728,68.4, -8.8, -1.1,0,1,1024,1024,1464,1024,68.6,0,99,4.121,4.123,4.118,4.104,0,0,91.31,6,GPS_Atti,
0.305143785925404,36.8793907457183,5889.9681392664,56.102364,0,1.77536423004,15800,2017-11-11 12:15:01,17,16.328,5889.9681392664,56.102364,0.50107456,1.90811029728,68.4, -9.2, -0.9,0,1,1024,1024,1461,1024,68.6,0,99,4.121,4.123,4.118,4.104,0,0,91.31,6,GPS_Atti,
0.305143758513806,36.8793907317606,5890.9523912664,57.086616,0,1.78585307552,15900,2017-11-11 12:15:01,17,16.328,5890.9523912664,57.086616,0.50107456,1.90811029728,68.4, -9.7, -0.7,0,1,1024,1024,1461,1024,68.6,0,99,4.121,4.123,4.118,4.104,0,0,91.31,6,GPS_Atti,
0.305143668983177,36.8793906501194,5891.9366432664,58.070868,0,1.82986882496,16000,2017-11-11 12:15:02,17,16.328,5891.9366432664,58.070868,0.50107456,1.90811029728,68.4, -9.6, -0.7,0,1,1024,1024,1461,1024,68.6,0,99,4.121,4.123,4.118,4.104,0,0,91.31,6,GPS_Atti,
0.305143587094428,36.879390606875,5892.9208952664,59.05512,0,1.8616962538,16100,2017-11-11 12:15:02,17,16.328,5892.9208952664,59.05512,0.50107456,1.90811029728,68.4, -9.6, -1,0,1,1024,1024,1461,1024,68.6,0,99,4.121,4.123,4.118,4.104,0,0,91.31,6,GPS_Atti,
0.305143454853376,36.8793905430571,5893.9051472664,60.039372,0,1.91164048112,16200,2017-11-11 12:15:02,17,16.328,5893.9051472664,60.039372,0.50107456,1.91164048112,68.5, -9.6, -1.4,0,1,1024,1024,1461,1024,68.6,0,99,4.121,4.123,4.118,4.104,0,0,91.31,6,GPS_Atti,
0.305143351572572,36.8793905034482,5894.8893992664,61.023624,0,1.94808405184,16300,2017-11-11 12:15:02,17,16.328,5894.8893992664,61.023624,0.50107456,1.94808405184,68.5, -9.6, -1.4,0,1,1024,1024,1462,1024,68.6,0,99,4.121,4.123,4.118,4.104,0,0,91.31,6,GPS_Atti,
0.305143224838918,36.8793903863528,5895.8736512664,62.007876,0,2.01092854204,16400,2017-11-11 12:15:02,17,16.328,5895.8736512664,62.007876,0.50107456,2.01092854204,68.5, -9.6, -1.5,0,1,1024,1024,1462,1024,68.6,0,99,4.121,4.123,4.118,4.104,0,0,91.31,6,GPS_Atti,
0.305143134098762,36.879390300791,5896.8579032664,62.992128,0,2.05637801856,16500,2017-11-11 12:15:02,17,16.409,5896.8579032664,62.992128,0.50107456,2.05637801856,68.5, -9.8, -1.5,0,1,1024,1024,1462,1024,68.6,0,99,4.123,4.119,4.115,4.107,0,0,91.31,6,GPS_Atti,
0.305143029453322,36.8793901793631,5897.8421552664,63.97638,0,2.11477368972,16600,2017-11-11 12:15:02,17,16.409,5897.8421552664,63.97638,0.50107456,2.11477368972,68.5, -10.3, -1.3,0,1,1024,1024,1462,1024,68.6,0,99,4.123,4.119,4.115,4.107,0,0,91.31,6,GPS_Atti,
0.305142965109429,36.8793900889094,5898.8264072664,64.960632,0,2.15483602696,16700,2017-11-11 12:15:02,17,16.409,5898.8264072664,64.960632,0.50107456,2.15483602696,68.4, -10.5, -0.7,0,1,1024,1024,1462,1024,68.6,0,99,4.123,4.119,4.115,4.107,0,0,91.31,6,GPS_Atti,
0.30514291777789,36.8793899985771,5899.8106592664,65.944884,0,2.19061030632,16800,2017-11-11 12:15:02,17,16.409,5899.8106592664,65.944884,0.50107456,2.19061030632,68.4, -10.4, -0.2,0,1,1024,1024,1462,1024,68.6,0,99,4.123,4.119,4.115,4.107,0,0,91.31,6,GPS_Atti,
0.305142877745851,36.8793899522431,5900.7949112664,66.929136,0,2.21292658,16900,2017-11-11 12:15:02,17,16.409,5900.7949112664,66.929136,0.50107456,2.21292658,68.4, -10.7, -1,0,1,1024,1024,1462,1024,68.6,0,99,4.123,4.119,4.115,4.107,0,0,91.31,6,GPS_Atti,
0.305142797990364,36.8793898801481,5901.7791632664,67.913388,0,2.25203747364,17000,2017-11-11 12:15:03,17,16.409,5901.7791632664,67.913388,0.50107456,2.25203747364,68.4, -10.6, -1.2,0,1,1024,1024,1462,1024,68.6,0,99,4.123,4.119,4.115,4.107,0,0,91.31,6,GPS_Atti,
0.305142759846913,36.8793898450971,5902.7634152664,68.89764,0,2.27089246112,17100,2017-11-11 12:15:03,17,16.409,5902.7634152664,68.89764,0.50107456,2.27089246112,68.4, -10.3, -0.7,0,1,1024,1024,1462,1024,68.6,0,99,4.123,4.119,4.115,4.107,0,0,91.31,6,GPS_Atti,
0.305142716288071,36.879389801311,5903.7476672664,69.881892,0,2.2934219894,17200,2017-11-11 12:15:03,17,16.409,5903.7476672664,69.881892,0.50107456,2.2934219894,68.4, -10.1, -0.5,0,1,1024,1024,1462,1024,68.6,0,99,4.123,4.119,4.115,4.107,0,0,91.31,6,GPS_Atti,
0.305142693879054,36.8793897924984,5904.4038352664,70.53806,0,2.30138786892,17300,2017-11-11 12:15:03,17,16.409,5904.4038352664,70.53806,0.50107456,2.30138786892,68.4, -9.8, -0.3,0,1,1024,1024,1462,1024,68.6,0,99,4.123,4.119,4.115,4.107,0,0,91.31,6,GPS_Atti,
0.305142639353049,36.8793897965902,5905.3880872664,71.522312,0,2.31409784308,17400,2017-11-11 12:15:03,17,16.409,5905.3880872664,71.522312,0.50107456,2.31409784308,68.4, -9.7, -0.5,0,1,1024,1024,1462,1024,68.6,0,99,4.123,4.119,4.115,4.107,0,0,91.31,6,GPS_Atti,
0.30514260062173,36.8793898269225,5906.3723392664,72.506564,0,2.31603681952,17500,2017-11-11 12:15:03,17,16.328,5906.3723392664,72.506564,0.50107456,2.31603681952,68.4, -9.5, -0.7,0,1,1024,1024,1462,1024,68.6,0,99,4.123,4.119,4.115,4.107,0,0,91.31,6,GPS_Atti,
0.30514253571928,36.8793898083652,5907.3565912664,73.490816,0,2.33749351312,17600,2017-11-11 12:15:03,17,16.328,5907.3565912664,73.490816,0.50107456,2.33749351312,68.5, -9.4, -0.8,0,1,1024,1024,1462,1024,68.6,0,99,4.123,4.119,4.115,4.107,0,0,91.31,6,GPS_Atti,
0.305142494321384,36.8793898126544,5908.0127592664,74.146984,0,2.34705388088,17700,2017-11-11 12:15:03,17,16.328,5908.0127592664,74.146984,0.50107456,2.34705388088,68.4, -9.7, -0.9,0,1,1024,1024,1462,1024,68.6,0,99,4.123,4.119,4.115,4.107,0,0,91.31,6,GPS_Atti,
0.305142396196641,36.8793897600668,5908.9970112664,75.131236,0,2.38598104748,17800,2017-11-11 12:15:03,17,16.328,5908.9970112664,75.131236,0.50107456,2.38598104748,68.5, -9.8, -0.9,0,1,1024,1024,1462,1024,68.6,0,99,4.123,4.119,4.115,4.107,0,0,91.31,6,GPS_Atti,
0.305142336606583,36.8793897459948,5909.9812632664,76.115488,0,2.4050853788,17900,2017-11-11 12:15:03,17,16.328,5909.9812632664,76.115488,0.50107456,2.4050853788,68.5, -9.7, -0.9,0,1,1024,1024,1462,1024,68.6,0,99,4.123,4.119,4.115,4.107,0,0,91.31,6,GPS_Atti,
0.305142303503166,36.8793897148179,5910.9655152664,77.09974,0,2.42167330584,18000,2017-11-11 12:15:04,17,16.328,5910.9655152664,77.09974,0.50107456,2.42167330584,68.5, -9.7, -0.9,0,1,1024,1024,1463,1024,68.6,0,99,4.123,4.119,4.115,4.107,0,0,91.31,6,GPS_Atti,
0.305142303731962,36.8793897134096,5911.9497672664,78.083992,0,2.42197514312,18100,2017-11-11 12:15:04,17,16.328,5911.9497672664,78.083992,0.50107456,2.42197514312,68.5, -9.7, -0.7,0,1,1024,1024,1465,1024,68.6,0,99,4.123,4.119,4.115,4.107,0,0,91.31,6,GPS_Atti,
0.305142281103512,36.879389693234,5913.9182712664,80.052496,0,2.43302501224,18300,2017-11-11 12:15:04,17,16.328,5913.9182712664,80.052496,0.50107456,2.43302501224,68.4, -9.5, -0.3,0,1,1024,1024,1468,1024,68.6,0,99,4.123,4.119,4.115,4.107,0,0,91.31,6,GPS_Atti,
0.305142278517136,36.8793897670092,5915.8867752664,82.021,0.223694,2.41496398804,18500,2017-11-11 12:15:04,17,16.328,5915.8867752664,82.021,0.50107456,2.43302501224,68.5, -9.3, -0.5,0,1,1024,1024,1469,1024,68.6,0,99,4.108,4.109,4.108,4.102,0,0,91.31,6,GPS_Atti,
0.305142231937938,36.8793897592506,5916.8710272664,83.005252,0.223694,2.42919299112,18600,2017-11-11 12:15:04,17,16.328,5916.8710272664,83.005252,0.50107456,2.43302501224,68.5, -9.2, -0.5,0,1,1024,1024,1469,1024,68.6,0,99,4.108,4.109,4.108,4.102,0,0,91.31,6,GPS_Atti,
0.305142209386838,36.8793897808422,5917.5271952664,83.66142,0.223694,2.42973761056,18700,2017-11-11 12:15:04,17,16.328,5917.5271952664,83.66142,0.50107456,2.43302501224,68.5, -9.3, -0.6,0,1,1024,1024,1474,1024,68.6,0,99,4.108,4.109,4.108,4.102,0,0,91.31,6,GPS_Atti,
0.305142179379908,36.8793898203407,5918.5114472664,84.645672,0.223694,2.42786097008,18800,2017-11-11 12:15:04,17,16.328,5918.5114472664,84.645672,0.50107456,2.43302501224,68.5, -8.9, -0.7,0,1,1024,1024,1478,1024,68.6,0,99,4.108,4.109,4.108,4.102,0,0,91.31,6,GPS_Atti,
0.305142171005227,36.8793898822632,5919.4956992664,85.629924,0.223694,2.41477369932,18900,2017-11-11 12:15:04,17,16.328,5919.4956992664,85.629924,0.50107456,2.43302501224,68.4, -8.8, -0.8,0,1,1024,1024,1481,1024,68.6,0,99,4.108,4.109,4.108,4.102,0,0,91.31,6,GPS_Atti,
0.30514215439062,36.879389932367,5920.4799512664,86.614176,0.223694,2.40695217676,19000,2017-11-11 12:15:05,17,16.328,5920.4799512664,86.614176,0.50107456,2.43302501224,68.5, -8.6, -0.8,0,1,1024,1024,1481,1024,68.6,0,99,4.108,4.109,4.108,4.102,0,0,91.31,6,GPS_Atti,
0.305142154583591,36.8793899867965,5921.4642032664,87.598428,0.223694,2.39363196636,19100,2017-11-11 12:15:05,17,16.328,5921.4642032664,87.598428,0.50107456,2.43302501224,68.4, -8.6, -0.7,0,1,1024,1024,1481,1024,68.6,0,99,4.108,4.109,4.108,4.102,0,0,91.31,6,GPS_Atti,
0.305142102240516,36.8793899725817,5922.4484552664,88.58268,0,2.41134850236,19200,2017-11-11 12:15:05,17,16.328,5922.4484552664,88.58268,0.50107456,2.43302501224,68.5, -8.9, -0.7,0,1,1024,1024,1481,1024,68.6,0,99,4.108,4.109,4.108,4.102,0,0,91.31,6,GPS_Atti,
0.305142070498071,36.8793899737386,5923.4327072664,89.566932,0,2.4197507336,19300,2017-11-11 12:15:05,17,16.328,5923.4327072664,89.566932,0.50107456,2.43302501224,68.5, -9.3, -0.8,0,1,1024,1024,1481,1024,68.6,0,99,4.108,4.109,4.108,4.102,0,0,91.31,6,GPS_Atti,
0.305142035356657,36.8793899301974,5924.4169592664,90.551184,0,2.43987540616,19400,2017-11-11 12:15:05,17,16.328,5924.4169592664,90.551184,0.50107456,2.43987540616,68.5, -9.6, -0.9,0,1,1024,1024,1482,1024,68.6,0,99,4.108,4.109,4.108,4.102,0,0,91.31,6,GPS_Atti,
0.305142026571201,36.8793899189199,5925.4012112664,91.535436,0,2.44500007824,19500,2017-11-11 12:15:05,17,16.302,5925.4012112664,91.535436,0.50107456,2.44500007824,68.4, -9.4, -0.7,0,1,1024,1024,1482,1024,68.6,0,99,4.1,4.099,4.099,4.089,0,0,91.31,6,GPS_Atti,
0.305142019407269,36.879389925595,5926.3854632664,92.519688,0,2.44535112812,19600,2017-11-11 12:15:05,17,16.302,5926.3854632664,92.519688,0.50107456,2.44535112812,68.4, -9.3, -0.4,0,1,1024,1024,1482,1024,68.6,0,99,4.1,4.099,4.099,4.089,0,0,91.31,6,GPS_Atti,
0.305142017825236,36.8793899528564,5927.3697152664,93.50394,0,2.439222519,19700,2017-11-11 12:15:05,17,16.302,5927.3697152664,93.50394,0.50107456,2.44535112812,68.4, -9.1, -0.5,0,1,1024,1024,1483,1024,68.6,0,99,4.1,4.099,4.099,4.089,0,0,91.31,6,GPS_Atti,
0.305142001631989,36.8793899586222,5928.3539672664,94.488192,0,2.4422901044,19800,2017-11-11 12:15:05,17,16.302,5928.3539672664,94.488192,0.50107456,2.44535112812,68.4, -9.1, -0.9,0,1,1024,1024,1483,1024,68.6,0,99,4.1,4.099,4.099,4.089,0,0,91.31,6,GPS_Atti,
0.305141997665913,36.8793899699338,5929.3382192664,95.472444,0,2.44067265028,19900,2017-11-11 12:15:05,17,16.302,5929.3382192664,95.472444,0.50107456,2.44535112812,68.5, -9.2, -0.8,0,1,1024,1024,1489,1024,68.6,0,99,4.1,4.099,4.099,4.089,0,0,91.31,6,GPS_Atti,
0.305141957055777,36.8793899500105,5930.3224712664,96.456696,0,2.45663065604,20000,2017-11-11 12:15:06,17,16.302,5930.3224712664,96.456696,0.50107456,2.45663065604,68.4, -9.4, -0.4,0,1,1024,1024,1489,1024,68.6,0,99,4.1,4.099,4.099,4.089,0,0,91.31,6,GPS_Atti,
0.305141926093357,36.8793899536407,5931.3067232664,97.440948,0,2.46432422584,20100,2017-11-11 12:15:06,17,16.302,5931.3067232664,97.440948,0.50107456,2.46432422584,68.4, -9.5, -0.7,0,1,1024,1024,1489,1024,68.6,0,99,4.1,4.099,4.099,4.089,0,0,91.31,6,GPS_Atti,
0.305141892667508,36.8793899838105,5932.2909752664,98.4252,0,2.466453491,20200,2017-11-11 12:15:06,17,16.302,5932.2909752664,98.4252,0.50107456,2.466453491,68.4, -9.5, -0.8,0,1,1024,1024,1490,1024,68.6,0,99,4.1,4.099,4.099,4.089,0,0,91.31,6,GPS_Atti,
0.305141875465847,36.8793900313499,5933.2752272664,99.409452,0,2.4600886614,20300,2017-11-11 12:15:06,17,16.302,5933.2752272664,99.409452,0.50107456,2.466453491,68.4, -9.4, -1,0,1,1024,1024,1491,1024,68.6,0,99,4.1,4.099,4.099,4.089,0,0,91.31,6,GPS_Atti,
0.305141900727492,36.8793900943195,5934.2594792664,100.393704,0,2.43831044548,20400,2017-11-11 12:15:06,17,16.302,5934.2594792664,100.393704,0.50107456,2.466453491,68.4, -9.4, -1.1,0,1,1024,1024,1493,1024,68.6,0,99,4.1,4.099,4.099,4.089,0,0,91.31,6,GPS_Atti,
0.305141934836473,36.8793901595468,5935.2437312664,101.377956,0,2.41357291188,20500,2017-11-11 12:15:06,17,16.222,5935.2437312664,101.377956,0.50107456,2.466453491,68.4, -9.3, -0.9,0,1,1024,1024,1494,1024,68.6,0,99,4.097,4.099,4.1,4.089,0,0,91.31,6,GPS_Atti,
0.305141932559908,36.8793901856419,5936.2279832664,102.362208,0,2.40818905344,20600,2017-11-11 12:15:06,17,16.222,5936.2279832664,102.362208,0.50107456,2.466453491,68.4, -9.2, -0.8,0,1,1024,1024,1497,1024,68.6,0,99,4.097,4.099,4.1,4.089,0,0,91.31,6,GPS_Atti,
0.305141933343597,36.8793902174298,5937.5403192664,103.674544,0,2.40065952564,20700,2017-11-11 12:15:06,17,16.222,5937.5403192664,103.674544,0.50107456,2.466453491,68.4, -9.4, -0.7,0,1,1024,1024,1497,1024,68.6,0,99,4.097,4.099,4.1,4.089,0,0,91.31,6,GPS_Atti,
0.30514192426665,36.8793902434909,5938.5245712664,104.658796,0,2.39727369876,20800,2017-11-11 12:15:06,17,16.222,5938.5245712664,104.658796,0.50107456,2.466453491,68.4, -9.5, -0.8,0,1,1024,1024,1497,1024,68.6,0,99,4.097,4.099,4.1,4.089,0,0,91.31,6,GPS_Atti,
0.30514192676224,36.8793902782986,5939.5088232664,105.643048,0,2.38863524704,20900,2017-11-11 12:15:06,17,16.222,5939.5088232664,105.643048,0.50107456,2.466453491,68.4, -9.4, -0.9,0,1,1024,1024,1501,1024,68.6,0,99,4.097,4.099,4.1,4.089,0,0,91.31,6,GPS_Atti,
0.305141962550961,36.8793903118769,5940.4930752664,106.6273,0,2.37079075828,21000,2017-11-11 12:15:07,17,16.222,5940.4930752664,106.6273,0.50107456,2.466453491,68.4, -9.5, -0.7,0,1,1024,1024,1506,1024,68.6,0,99,4.097,4.099,4.1,4.089,0,0,91.31,6,GPS_Atti,
0.305142002365196,36.8793903513405,5941.8054112664,107.939636,0,2.3504593928,21100,2017-11-11 12:15:07,17,16.222,5941.8054112664,107.939636,0.50107456,2.466453491,68.4, -9.6, -0.5,0,1,1024,1024,1514,1024,68.6,0,99,4.097,4.099,4.1,4.089,0,0,91.31,6,GPS_Atti,
0.305142022777334,36.8793903186998,5942.7896632664,108.923888,0,2.3520670044,21200,2017-11-11 12:15:07,17,16.222,5942.7896632664,108.923888,0.50107456,2.466453491,68.4, -9.4, -0.4,0,1,1024,1024,1523,1024,68.6,0,99,4.097,4.099,4.1,4.089,0,0,91.31,6,GPS_Atti,
0.30514203843808,36.8793903020895,5943.7739152664,109.90814,0,2.35142067892,21300,2017-11-11 12:15:07,17,16.222,5943.7739152664,109.90814,0.50107456,2.466453491,68.4, -9.5, -0.5,0,1,1024,1024,1536,1024,68.6,0,99,4.097,4.099,4.1,4.089,0,0,91.31,6,GPS_Atti,
0.305141991362207,36.8793902617651,5944.7581672664,110.892392,0,2.37402894736,21400,2017-11-11 12:15:07,17,16.222,5944.7581672664,110.892392,0.50107456,2.466453491,68.4, -9.4, -0.6,0,1,1024,1024,1536,1024,68.5,0,99,4.097,4.099,4.1,4.089,0,0,91.31,6,GPS_Atti,
0.305141954903788,36.8793902434238,5946.0705032664,112.204728,0,2.38857947276,21500,2017-11-11 12:15:07,17,16.222,5946.0705032664,112.204728,0.50107456,2.466453491,68.4, -9.5, -0.7,0,1,1024,1024,1549,1024,68.5,0,99,4.097,4.099,4.1,4.089,0,0,91.31,6,GPS_Atti,
0.305141907970811,36.8793902125082,5947.0547552664,113.18898,0,2.4089895784,21600,2017-11-11 12:15:07,17,16.222,5947.0547552664,113.18898,0.50107456,2.466453491,68.5, -9.3, -0.9,0,1,1024,1024,1549,1024,68.5,0,99,4.097,4.099,4.1,4.089,0,0,91.31,6,GPS_Atti,
0.305141878135274,36.8793901977486,5948.3670912664,114.501316,0,2.42084653416,21700,2017-11-11 12:15:07,17,16.222,5948.3670912664,114.501316,0.50107456,2.466453491,68.5, -9.8, -0.9,0,1,1024,1024,1553,1024,68.5,0,99,4.097,4.099,4.1,4.089,0,0,91.31,6,GPS_Atti,
0.305141855580918,36.8793901724238,5949.3513432664,115.485568,0,2.43305125896,21800,2017-11-11 12:15:07,17,16.222,5949.3513432664,115.485568,0.50107456,2.466453491,68.5, -10.3, -0.9,0,1,1024,1024,1558,1024,68.5,0,99,4.097,4.099,4.1,4.089,0,0,91.31,6,GPS_Atti,
0.305141851985313,36.879390174375,5950.6636792664,116.797904,0,2.43362540596,21900,2017-11-11 12:15:07,17,16.222,5950.6636792664,116.797904,0.50107456,2.466453491,68.5, -10.2, -0.8,0,1,1024,1024,1564,1024,68.5,0,99,4.097,4.099,4.1,4.089,0,0,91.31,6,GPS_Atti,
0.305141819986389,36.8793901407566,5951.9760152664,118.11024,0,2.4504101834,22000,2017-11-11 12:15:08,17,16.222,5951.9760152664,118.11024,0.50107456,2.466453491,68.4, -10.2, -0.7,0,1,1024,1024,1572,1024,68.5,0,99,4.097,4.099,4.1,4.089,0,0,91.31,6,GPS_Atti,
0.305141803294024,36.8793901352441,5952.9602672664,119.094492,0,2.45641740144,22100,2017-11-11 12:15:08,17,16.222,5952.9602672664,119.094492,0.50107456,2.466453491,68.5, -10, -0.8,0,1,1024,1024,1572,1024,68.5,0,99,4.097,4.099,4.1,4.089,0,0,91.31,6,GPS_Atti,
0.305141790884873,36.8793901666641,5954.2726032664,120.406828,0,2.4527887924,22200,2017-11-11 12:15:08,17,16.222,5954.2726032664,120.406828,0.50107456,2.466453491,68.5, -10.1, -0.7,0,1,1024,1024,1572,1024,68.5,0,99,4.097,4.099,4.1,4.089,0,0,91.31,6,GPS_Atti,
0.305141788376255,36.8793902118894,5955.5849392664,121.719164,0,2.44326123304,22300,2017-11-11 12:15:08,17,16.222,5955.5849392664,121.719164,0.50107456,2.466453491,68.5, -10.4, -0.7,0,1,1024,1024,1586,1024,68.5,0,99,4.097,4.099,4.1,4.089,0,0,91.31,6,GPS_Atti,
0.305141785481696,36.8793902091541,5956.8972752664,123.0315,0,2.44470808348,22400,2017-11-11 12:15:08,17,16.222,5956.8972752664,123.0315,0.50107456,2.466453491,68.5, -10.3, -0.7,0,1,1024,1024,1596,1024,68.5,0,99,4.097,4.099,4.1,4.089,0,0,91.31,6,GPS_Atti,
0.305141793146375,36.8793902356151,5958.2096112664,124.343836,0,2.43654535356,22500,2017-11-11 12:15:08,17,16.222,5958.2096112664,124.343836,0.50107456,2.466453491,68.4, -9.4, -0.6,0,1,1024,1024,1599,1024,68.5,0,98,4.091,4.092,4.085,4.068,0,0,91.31,6,GPS_Atti,
0.305141756642767,36.8793902756783,5959.5219472664,125.656172,0,2.4380906292,22600,2017-11-11 12:15:08,17,16.222,5959.5219472664,125.656172,0.50107456,2.466453491,68.4, -9.3, -0.8,0,1,1024,1024,1603,1024,68.5,0,98,4.091,4.092,4.085,4.068,0,0,91.31,6,GPS_Atti,
0.305141728819173,36.8793903209013,5960.8342832664,126.968508,0,2.43613524856,22700,2017-11-11 12:15:08,17,16.222,5960.8342832664,126.968508,0.50107456,2.466453491,68.5, -9.9, -1,0,1,1024,1024,1616,1024,68.5,0,98,4.091,4.092,4.085,4.068,0,0,91.31,6,GPS_Atti,
0.305141702258437,36.8793903219478,5962.1466192664,128.280844,0,2.44363196796,22800,2017-11-11 12:15:08,17,16.222,5962.1466192664,128.280844,0.50107456,2.466453491,68.5, -10.1, -0.8,0,1,1024,1024,1616,1024,68.5,0,98,4.091,4.092,4.085,4.068,0,0,91.31,6,GPS_Atti,
0.305141697376769,36.8793903486965,5963.4589552664,129.59318,0,2.43919299144,22900,2017-11-11 12:15:08,17,16.222,5963.4589552664,129.59318,0.50107456,2.466453491,68.5, -9.6, -0.6,0,1,1024,1024,1635,1024,68.5,0,98,4.091,4.092,4.085,4.068,0,0,91.31,6,GPS_Atti,
0.305141658564028,36.8793903454168,5964.7712912664,130.905516,0,2.45125992096,23000,2017-11-11 12:15:09,17,16.222,5964.7712912664,130.905516,0.50107456,2.466453491,68.6, -9.6, -0.7,0,1,1024,1024,1636,1024,68.5,0,98,4.091,4.092,4.085,4.068,0,0,91.31,6,GPS_Atti,
0.305141631070601,36.87939036228,5966.0836272664,132.217852,0,2.4556595274,23100,2017-11-11 12:15:09,17,16.222,5966.0836272664,132.217852,0.50107456,2.466453491,68.5, -9.8, -0.6,0,1,1024,1024,1630,1024,68.5,0,98,4.091,4.092,4.085,4.068,0,0,91.31,6,GPS_Atti,
0.305141605355434,36.8793903893034,5967.7240472664,133.858272,0,2.45740165344,23200,2017-11-11 12:15:09,17,16.222,5967.7240472664,133.858272,0.50107456,2.466453491,68.5, -10.2, -0.7,0,1,1024,1024,1631,1024,68.5,0,98,4.091,4.092,4.085,4.068,0,0,91.31,6,GPS_Atti,
0.305141595331955,36.8793904467054,5969.3644672664,135.498692,0,2.44810047204,23300,2017-11-11 12:15:09,17,16.222,5969.3644672664,135.498692,0.50107456,2.466453491,68.5, -10.6, -0.9,0,1,1024,1024,1631,1024,68.5,0,98,4.091,4.092,4.085,4.068,0,0,91.31,6,GPS_Atti,
0.305141553167061,36.8793904859406,5970.6768032664,136.811028,0.223694,2.45235244068,23400,2017-11-11 12:15:09,17,16.222,5970.6768032664,136.811028,0.50107456,2.466453491,68.5, -10.3, -1.1,0,1,1024,1024,1631,1024,68.5,0,98,4.091,4.092,4.085,4.068,0,0,91.31,6,GPS_Atti,
0.305141539972187,36.8793905701276,5972.3172232664,138.451448,0.223694,2.43876976308,23500,2017-11-11 12:15:09,17,16.222,5972.3172232664,138.451448,0.50107456,2.466453491,68.5, -9.7, -0.9,0,1,1024,1024,1630,1024,68.5,0,98,4.091,4.092,4.085,4.068,0,0,91.31,6,GPS_Atti,
0.30514153082196,36.8793906006734,5973.6295592664,139.763784,0.223694,2.4352362984,23600,2017-11-11 12:15:09,17,16.222,5973.6295592664,139.763784,0.50107456,2.466453491,68.5, -9.5, -1,0,1,1024,1024,1630,1024,68.5,0,98,4.091,4.092,4.085,4.068,0,0,91.31,6,GPS_Atti,
0.305141535313615,36.8793906619678,5974.9418952664,141.07612,0.223694,2.42136490688,23700,2017-11-11 12:15:09,17,16.222,5974.9418952664,141.07612,0.50107456,2.466453491,68.5, -9.5, -0.9,0,1,1024,1024,1635,1024,68.5,0,98,4.091,4.092,4.085,4.068,0,0,91.31,6,GPS_Atti,
