latitude,longitude,altitude(feet),ascent(feet),speed(mph),distance(feet),time(millisecond),datetime(utc),satellites,voltage(v),max_altitude(feet),max_ascent(feet),max_speed(mph),max_distance(feet),compass_heading(degrees), pitch(degrees), roll(degrees),isPhoto,isVideo,rc_elevator,rc_aileron,rc_throttle,rc_rudder,gimbal_heading(degrees),gimbal_pitch(degrees),battery_percent,voltageCell1,voltageCell2,voltageCell3,voltageCell4,voltageCell5,voltageCell6,battery_temperature(f),flycStateRaw,flycState,message
0.336762723091234,36.8716583417738,5849.5975474233,0,0,0,200,2017-11-07 13:20:15,17,16.89,5849.5975474233,0,0,0,296, 2.2, 1,0,0,1024,1024,1024,1024,300.5,0,96,4.24,4.241,4.241,4.239,0,0,80.51,41,Motors_Started,Setting new Return-To-Home altitude to 30m (98 ft). Setting new Maximum Flight Altitude to 100m (328 ft)
0.336762722417873,36.8716582943043,5849.5975474233,0,0,0.0173206370372,300,2017-11-07 13:20:15,17,16.89,5849.5975474233,0,0,0.0173206370372,296, 2.2, 1,0,0,1024,1024,1024,1024,300.5,0,96,4.24,4.241,4.241,4.239,0,0,80.51,41,Motors_Started,
0.336762715483144,36.8716582747374,5849.5975474233,0,0,0.0246147973756,400,2017-11-07 13:20:15,17,16.89,5849.5975474233,0,0,0.0246147973756,296, 2.2, 1,0,0,1024,1024,1024,1024,300.5,0,96,4.24,4.241,4.241,4.239,0,0,80.51,41,Motors_Started,
0.336762713693891,36.8716582511054,5849.5975474233,0,0,0.033256890828,500,2017-11-07 13:20:15,17,16.89,5849.5975474233,0,0,0.033256890828,296, 2.2, 1,0,0,1024,1024,1024,1024,300.5,0,96,4.24,4.241,4.241,4.239,0,0,80.51,41,Motors_Started,
0.33676270731324,36.8716582154076,5849.5975474233,0,0,0.046461943744,600,2017-11-07 13:20:16,17,16.89,5849.5975474233,0,0,0.046461943744,296, 2.2, 1,0,0,1024,1024,1024,1024,300.5,0,96,4.24,4.241,4.241,4.239,0,0,80.51,41,Motors_Started,
0.336762704705694,36.8716581791515,5849.5975474233,0,0,0.05970964758,700,2017-11-07 13:20:16,17,16.89,5849.5975474233,0,0,0.05970964758,296, 2.2, 1,0,0,1024,1024,1024,1024,300.5,0,96,4.24,4.241,4.241,4.239,0,0,80.51,41,Motors_Started,
0.336762699032196,36.8716581685222,5849.5975474233,0,0,0.063816275008,800,2017-11-07 13:20:16,17,16.89,5849.5975474233,0,0,0.063816275008,296, 2.2, 1,0,0,1024,1024,1024,1024,300.5,0,96,4.24,4.241,4.241,4.239,0,0,80.51,41,Motors_Started,
0.336762698515572,36.8716581513194,5849.5975474233,0,0,0.070062010116,900,2017-11-07 13:20:16,17,16.89,5849.5975474233,0,0,0.070062010116,296, 2.1, 1,0,0,704,560,823,1325,300.5,0,96,4.24,4.241,4.241,4.239,0,0,80.51,41,Motors_Started,
0.336762736341883,36.871658115836,5849.5975474233,0,0,0.082573493456,1000,2017-11-07 13:20:16,17,16.89,5849.5975474233,0,0,0.082573493456,296, 2, 1,0,0,1024,926,1024,1034,300.4,0,96,4.24,4.241,4.241,4.239,0,0,80.51,41,Motors_Started,
0.336762767744797,36.8716580824895,5849.5975474233,0,0,0.09599081672,1100,2017-11-07 13:20:16,17,16.89,5849.5975474233,0,0,0.09599081672,296, 2, 0.9,0,0,1024,1024,1024,1024,298.9,0,96,4.24,4.241,4.241,4.239,0,0,80.51,41,Motors_Started,
0.33676278703453,36.8716580753328,5849.5975474233,0,0,0.099969491388,1200,2017-11-07 13:20:16,17,16.916,5849.5975474233,0,0,0.099969491388,296, 2.1, 1,0,0,1024,1024,1024,1024,297.8,0,96,4.24,4.241,4.241,4.238,0,0,80.51,41,Motors_Started,
0.336762808897612,36.8716580644083,5849.5975474233,0,0,0.10592684066,1300,2017-11-07 13:20:16,17,16.916,5849.5975474233,0,0,0.10592684066,296, 2.2, 1,0,0,1024,1024,1024,1024,297.3,0,96,4.24,4.241,4.241,4.238,0,0,80.51,41,Motors_Started,
0.336762818798959,36.8716580721754,5849.5975474233,0,0,0.104375331424,1400,2017-11-07 13:20:16,17,16.916,5849.5975474233,0,0,0.10592684066,296, 2.1, 1,0,0,1024,1024,1024,1024,297,0,96,4.24,4.241,4.241,4.238,0,0,80.51,41,Motors_Started,
0.336762831074984,36.8716580687728,5849.5975474233,0,0,0.107111551984,1500,2017-11-07 13:20:16,17,16.916,5849.5975474233,0,0,0.107111551984,296, 1.9, 0.9,0,0,1024,1024,1024,1024,296.8,0,96,4.24,4.241,4.241,4.238,0,0,80.51,41,Motors_Started,
0.336762832244614,36.8716580402348,5849.5975474233,0,0,0.117000659912,1600,2017-11-07 13:20:17,17,16.916,5849.5975474233,0,0,0.117000659912,296, 2, 0.9,0,0,1024,1024,1024,1024,296.7,0,96,4.24,4.241,4.241,4.238,0,0,80.51,10,Assisted_Takeoff,
0.336762837434465,36.8716580166992,5849.5975474233,0,0,0.125724413472,1700,2017-11-07 13:20:17,17,16.916,5849.5975474233,0,0,0.125724413472,296, 2.2, 1,0,0,1024,1024,1024,1024,296.6,0,96,4.24,4.241,4.241,4.238,0,0,80.51,10,Assisted_Takeoff,
0.336762832504758,36.8716580116838,5849.5975474233,0,0,0.126874675976,1800,2017-11-07 13:20:17,17,16.916,5849.5975474233,0,0,0.126874675976,296, 2.2, 1,0,0,1024,1024,1024,1024,296.6,0,96,4.24,4.241,4.241,4.238,0,0,80.51,10,Assisted_Takeoff,
0.336762832727448,36.871657998856,5849.5975474233,0,0,0.13135006982,1900,2017-11-07 13:20:17,17,16.916,5849.5975474233,0,0,0.13135006982,296, 2.1, 1,0,0,1024,1024,1024,1024,296.5,0,96,4.24,4.241,4.241,4.238,0,0,80.51,10,Assisted_Takeoff,
0.336762825591199,36.8716580052,5849.5975474233,0,0,0.128364833504,2000,2017-11-07 13:20:17,17,16.916,5849.5975474233,0,0,0.13135006982,296, 2.2, 1,0,0,1024,1024,1024,1024,296.5,0,96,4.24,4.241,4.241,4.238,0,0,80.51,10,Assisted_Takeoff,
0.33676282380846,36.8716580016197,5849.5975474233,0,0,0.129428809916,2100,2017-11-07 13:20:17,17,16.916,5849.5975474233,0,0,0.13135006982,296, 2.2, 1,0,0,1024,1024,1024,1024,296.5,0,96,4.24,4.241,4.241,4.238,0,0,80.51,10,Assisted_Takeoff,
0.336762816123018,36.8716579717735,5849.5975474233,0,0,0.139193902092,2200,2017-11-07 13:20:17,17,16.81,5849.5975474233,0,0,0.139193902092,296, 2.2, 1.1,0,0,1024,1024,1026,1024,296.4,0,96,4.234,4.236,4.237,4.234,0,0,80.51,10,Assisted_Takeoff,
0.336762809651989,36.8716579338879,5849.5975474233,0,0,0.152128613792,2400,2017-11-07 13:20:17,17,16.81,5849.5975474233,0,0,0.152128613792,296, 2.2, 1,0,0,1024,1024,1044,1024,296.4,0,96,4.234,4.236,4.237,4.234,0,0,80.51,10,Assisted_Takeoff,
0.336762810192633,36.8716579217121,5849.5975474233,0,0,0.156516737292,2500,2017-11-07 13:20:17,17,16.81,5849.5975474233,0,0,0.156516737292,296, 2.2, 1,0,0,1024,1024,1065,1024,296.4,0,96,4.234,4.236,4.237,4.234,0,0,80.51,10,Assisted_Takeoff,
0.336762806445176,36.8716579204282,5849.5975474233,0,0,0.15670440134,2600,2017-11-07 13:20:18,17,16.81,5849.5975474233,0,0,0.15670440134,296, 2.2, 1,0,0,1024,1024,1069,1024,296.3,0,96,4.234,4.236,4.237,4.234,0,0,80.51,10,Assisted_Takeoff,
0.336762807819583,36.8716579163798,5849.5975474233,0,0,0.158250661232,2700,2017-11-07 13:20:18,17,16.81,5849.5975474233,0,0,0.158250661232,296, 2.2, 1,0,0,1024,1024,1066,1024,296.3,0,96,4.234,4.236,4.237,4.234,0,0,80.51,10,Assisted_Takeoff,
0.336762804599742,36.8716578804505,5849.5975474233,0,0,0.170917656388,2800,2017-11-07 13:20:18,17,16.81,5849.5975474233,0,0,0.170917656388,296, 2.1, 1,0,0,1024,1024,1063,1024,296.3,0,96,4.234,4.236,4.237,4.234,0,0,80.51,10,Assisted_Takeoff,
0.336762806724047,36.8716578506717,5849.5975474233,0,0,0.181754927076,2900,2017-11-07 13:20:18,17,16.81,5849.5975474233,0,0,0.181754927076,296, 2.2, 1,0,0,1024,1024,1079,1024,296.3,0,96,4.234,4.236,4.237,4.234,0,0,80.51,10,Assisted_Takeoff,
0.336762804082304,36.8716578352461,5849.5975474233,0,0,0.18715059654,3000,2017-11-07 13:20:18,17,16.81,5849.5975474233,0,0,0.18715059654,296, 2.1, 1,0,0,1024,1024,1127,1024,296.3,0,96,4.234,4.236,4.237,4.234,0,0,80.51,10,Assisted_Takeoff,
0.336762805793391,36.8716578176718,5849.5975474233,0,0,0.19358104294,3100,2017-11-07 13:20:18,17,16.81,5849.5975474233,0,0,0.19358104294,296, 2, 1,0,0,1024,1024,1177,1024,296.3,0,96,4.234,4.236,4.237,4.234,0,0,80.51,10,Assisted_Takeoff,
0.336762803390622,36.871657774993,5849.5975474233,0,0,0.208851056552,3200,2017-11-07 13:20:18,17,16.89,5849.5975474233,0,0,0.208851056552,296, 2.1, 1,0,0,1024,1024,1230,1024,296.3,0,96,4.227,4.233,4.228,4.221,0,0,80.51,10,Assisted_Takeoff,
0.336762805810083,36.8716577373949,5849.5975474233,0,0,0.222559390324,3300,2017-11-07 13:20:18,17,16.89,5849.5975474233,0,0,0.222559390324,296, 1.9, 0.9,0,0,1024,1024,1256,1024,296.3,0,96,4.227,4.233,4.228,4.221,0,0,80.51,10,Assisted_Takeoff,
0.336762803666236,36.8716577148715,5849.5975474233,0,0,0.230602369584,3400,2017-11-07 13:20:18,17,16.89,5849.5975474233,0,0,0.230602369584,296, 1.7, 0.8,0,0,1024,1024,1298,1024,296.3,0,96,4.227,4.233,4.228,4.221,0,0,80.51,10,Assisted_Takeoff,
0.336762807594043,36.8716576930638,5849.5975474233,0,0,0.238677172992,3500,2017-11-07 13:20:18,17,16.89,5849.5975474233,0,0,0.238677172992,295.9, 1.7, 0.7,0,0,1024,1024,1352,1024,296.3,0,96,4.227,4.233,4.228,4.221,0,0,80.51,10,Assisted_Takeoff,
0.336762794762311,36.8716576489052,5849.5975474233,0,0,0.25413714724,3600,2017-11-07 13:20:19,17,16.89,5849.5975474233,0,0,0.25413714724,295.8, 0.9, -0.8,0,0,1024,1024,1410,1024,296.3,0,96,4.227,4.233,4.228,4.221,0,0,80.51,10,Assisted_Takeoff,
0.336762761006703,36.8716575830191,5849.5975474233,0,0,0.27717192488,3700,2017-11-07 13:20:19,17,16.89,5849.5975474233,0,0,0.27717192488,295.6, -0.6, -2.8,0,0,1024,1024,1473,1024,296.2,0,96,4.227,4.233,4.228,4.221,0,0,80.51,6,GPS_Atti,Obstacle Avoided. Revise Flight Route
0.33676265712134,36.8716574498111,5849.5975474233,0,0.31540854,0.326315299156,3800,2017-11-07 13:20:19,17,16.89,5849.5975474233,0,0.31540854,0.326315299156,295.7, -0.2, -1.8,0,0,1024,1024,1549,1024,296.2,0,96,4.227,4.233,4.228,4.221,0,0,80.51,6,GPS_Atti,
0.336762493516456,36.871657216351,5849.5975474233,0,0.50107456,0.41905841236,3900,2017-11-07 13:20:19,17,16.89,5849.5975474233,0,0.50107456,0.41905841236,295.6, 0.5, -0.1,0,0,1024,1024,1612,1024,296.2,0,96,4.227,4.233,4.228,4.221,0,0,80.51,6,GPS_Atti,
0.336762245672573,36.8716568913608,5849.9256314233,0.328084,0.80753534,0.5571030362,4000,2017-11-07 13:20:19,17,16.89,5849.9256314233,0.328084,0.80753534,0.5571030362,295.5, 0.9, 1.3,0,0,1024,1024,1643,1024,296.2,0,96,4.227,4.233,4.228,4.221,0,0,80.51,6,GPS_Atti,
0.33676199567955,36.8716565150774,5850.2537154233,0.656168,0.80753534,0.717355666,4100,2017-11-07 13:20:19,17,16.89,5850.2537154233,0.656168,0.80753534,0.717355666,295.4, 1.7, 2,0,0,1024,1024,1642,1024,296.2,0,96,4.227,4.233,4.228,4.221,0,0,80.51,6,GPS_Atti,
0.336761439510151,36.8716555227438,5851.5660514233,1.968504,0.92161928,1.13010502304,4300,2017-11-07 13:20:19,17,16.89,5851.5660514233,1.968504,0.92161928,1.13010502304,295.7, 3.5, 4.4,0,0,1024,1024,1647,1024,296.2,0,96,4.227,4.233,4.228,4.221,0,0,80.51,6,GPS_Atti,Home Point Recorded. RTH Altitude:  30m.
0.336761216013947,36.8716550096175,5852.2222194233,2.624672,0.80753534,1.33428153876,4400,2017-11-07 13:20:19,17,16.89,5852.2222194233,2.624672,0.92161928,1.33428153876,295.8, 4.6, 2.6,0,0,1024,1024,1640,1024,296.2,0,96,4.227,4.233,4.228,4.221,0,0,80.51,6,GPS_Atti,
0.336760930962968,36.8716545171494,5853.2064714233,3.608924,1.11847,1.54098430128,4500,2017-11-07 13:20:19,17,16.89,5853.2064714233,3.608924,1.11847,1.54098430128,295.8, 3.8, 2.9,0,0,1024,1024,1626,1024,296.2,0,96,4.227,4.233,4.228,4.221,0,0,80.51,6,GPS_Atti,
0.336760550426546,36.8716539881574,5854.1907234233,4.593176,1.11847,1.77520018804,4600,2017-11-07 13:20:20,17,16.89,5854.1907234233,4.593176,1.11847,1.77520018804,295.7, 3.5, 7,0,0,1024,1024,1614,1024,296.2,0,96,4.227,4.233,4.228,4.221,0,0,80.51,6,GPS_Atti,
0.336760211207209,36.8716534571432,5855.5030594233,5.905512,0.99991218,2.00396331872,4700,2017-11-07 13:20:20,17,16.89,5855.5030594233,5.905512,1.11847,2.00396331872,295.5, 2.9, 9.1,0,0,1024,1024,1606,1024,296.1,0,96,4.227,4.233,4.228,4.221,0,0,80.51,6,GPS_Atti,
0.336759965034923,36.8716528944046,5856.8153954233,7.217848,0.92161928,2.22766411328,4800,2017-11-07 13:20:20,17,16.89,5856.8153954233,7.217848,1.11847,2.22766411328,295.4, 3.1, 8,0,0,1024,1024,1589,1024,296.1,0,96,4.227,4.233,4.228,4.221,0,0,80.51,6,GPS_Atti,
0.336759826762115,36.8716523091478,5858.4558154233,8.858268,0.894776,2.44149614112,4900,2017-11-07 13:20:20,17,16.89,5858.4558154233,8.858268,1.11847,2.44149614112,295.8, 5.7, 7.3,0,0,1024,1024,1561,1024,296.1,0,96,4.227,4.233,4.228,4.221,0,0,80.51,6,GPS_Atti,
0.336759750882731,36.87165166711,5859.7681514233,10.170604,0.894776,2.66573827428,5000,2017-11-07 13:20:20,17,16.89,5859.7681514233,10.170604,1.11847,2.66573827428,296.1, 8.2, 7.1,0,0,1024,1024,1534,1024,296.1,0,96,4.227,4.233,4.228,4.221,0,0,80.51,6,GPS_Atti,
0.336759691768382,36.8716511028946,5861.0804874233,11.48294,0.671082,2.86327765068,5100,2017-11-07 13:20:20,17,16.89,5861.0804874233,11.48294,1.11847,2.86327765068,296.1, 8.2, 7,0,0,1024,1024,1510,1024,296.1,0,96,4.227,4.233,4.228,4.221,0,0,80.51,6,GPS_Atti,
0.336759689893229,36.8716506818525,5862.7209074233,13.12336,0.671082,3.0058071828,5200,2017-11-07 13:20:20,17,15.954,5862.7209074233,13.12336,1.11847,3.0058071828,296, 7.2, 4.8,0,0,1024,1024,1480,1024,296.1,0,96,4.175,4.172,4.164,4.149,0,0,80.51,6,GPS_Atti,
0.336759699798646,36.871650289119,5864.0332434233,14.435696,0.671082,3.13819891932,5300,2017-11-07 13:20:20,17,15.954,5864.0332434233,14.435696,1.11847,3.13819891932,296, 6.9, 2.8,0,0,1024,1024,1446,1024,296.1,0,96,4.175,4.172,4.164,4.149,0,0,80.51,6,GPS_Atti,
0.336759653971993,36.871649951128,5865.0174954233,15.419948,0.92161928,3.25963921192,5400,2017-11-07 13:20:20,17,15.954,5865.0174954233,15.419948,1.11847,3.25963921192,296.1, 7, 2.3,0,0,1024,1024,1439,1024,296.1,0,96,4.175,4.172,4.164,4.149,0,0,80.51,6,GPS_Atti,
0.336759564354853,36.8716495733785,5866.3298314233,16.732284,0.99991218,3.4003281928,5500,2017-11-07 13:20:20,17,15.954,5866.3298314233,16.732284,1.11847,3.4003281928,296, 7, 4.1,0,0,1024,1024,1439,1024,296.1,0,96,4.175,4.172,4.164,4.149,0,0,80.51,6,GPS_Atti,
0.336759431152612,36.8716491108649,5867.3140834233,17.716536,0.70687304,3.5755906656,5600,2017-11-07 13:20:21,17,15.954,5867.3140834233,17.716536,1.11847,3.5755906656,296, 6.4, 5.4,0,0,1024,1024,1433,1024,296,0,96,4.175,4.172,4.164,4.149,0,0,80.51,6,GPS_Atti,
0.336759323861561,36.8716486655247,5868.2983354233,18.700788,0.70687304,3.7418308284,5700,2017-11-07 13:20:21,17,15.954,5868.2983354233,18.700788,1.11847,3.7418308284,296, 6.2, 4.5,0,0,1024,1024,1429,1024,296,0,96,4.175,4.172,4.164,4.149,0,0,80.51,6,GPS_Atti,
0.336759186544243,36.8716482210024,5869.2825874233,19.68504,0.70687304,3.9114502564,5800,2017-11-07 13:20:21,17,15.954,5869.2825874233,19.68504,1.11847,3.9114502564,296.1, 5.8, 4.4,0,0,1024,1024,1420,1024,296,0,96,4.175,4.172,4.164,4.149,0,0,80.51,6,GPS_Atti,
0.336759035930475,36.8716477877074,5870.2668394233,20.669292,0.70687304,4.0788059048,5900,2017-11-07 13:20:21,17,15.954,5870.2668394233,20.669292,1.11847,4.0788059048,296.1, 5.6, 5.3,0,0,1024,1024,1414,1024,296,0,96,4.175,4.172,4.164,4.149,0,0,80.51,6,GPS_Atti,
0.336758868960005,36.8716473817896,5870.9230074233,21.32546,0.70687304,4.2387140464,6000,2017-11-07 13:20:21,17,15.954,5870.9230074233,21.32546,1.11847,4.2387140464,296, 5.3, 6.7,0,0,1024,1024,1410,1024,296,0,96,4.175,4.172,4.164,4.149,0,0,80.51,6,GPS_Atti,
0.336758742039487,36.871647010394,5871.9072594233,22.309712,0.447388,4.3819227124,6100,2017-11-07 13:20:21,17,15.954,5871.9072594233,22.309712,1.11847,4.3819227124,295.9, 4, 5.8,0,0,1024,1024,1400,1024,296,0,96,4.175,4.172,4.164,4.149,0,0,80.51,6,GPS_Atti,
0.336758675145349,36.8716466010428,5872.8915114233,23.293964,0.671082,4.5309712736,6200,2017-11-07 13:20:21,17,15.794,5872.8915114233,23.293964,1.11847,4.5309712736,295.7, 3.8, 4.3,0,0,1024,1024,1400,1024,296,0,96,3.958,3.964,3.964,3.946,0,0,80.51,6,GPS_Atti,
0.336758606798537,36.8716461587902,5873.5476794233,23.950132,0.671082,4.6917324336,6300,2017-11-07 13:20:21,17,15.794,5873.5476794233,23.950132,1.11847,4.6917324336,295.7, 4.4, 4.7,0,0,1024,1024,1392,1024,296,0,96,3.958,3.964,3.964,3.946,0,0,80.51,6,GPS_Atti,
0.336758556881029,36.871645671456,5874.2038474233,24.6063,0.894776,4.8661746964,6400,2017-11-07 13:20:21,17,15.794,5874.2038474233,24.6063,1.11847,4.8661746964,295.8, 5.9, 5.3,0,0,1024,1024,1387,1024,296,0,96,3.958,3.964,3.964,3.946,0,0,80.51,6,GPS_Atti,
0.336758518299526,36.871645179346,5875.1880994233,25.590552,0.671082,5.0413059356,6500,2017-11-07 13:20:21,17,15.794,5875.1880994233,25.590552,1.11847,5.0413059356,295.9, 6.7, 5.6,0,0,1024,1024,1384,1024,296,0,96,3.958,3.964,3.964,3.946,0,0,80.51,6,GPS_Atti,
0.336758514705041,36.8716446786669,5875.8442674233,26.24672,0.671082,5.2160106656,6600,2017-11-07 13:20:22,17,15.794,5875.8442674233,26.24672,1.11847,5.2160106656,295.9, 6.7, 6,0,0,1024,1024,1377,1024,296,0,96,3.958,3.964,3.964,3.946,0,0,80.51,6,GPS_Atti,
0.33675854421723,36.8716442199914,5876.5004354233,26.902888,0.70687304,5.3730972848,6700,2017-11-07 13:20:22,17,15.794,5876.5004354233,26.902888,1.11847,5.3730972848,295.9, 6.2, 4.4,0,0,1024,1024,1371,1024,296,0,96,3.958,3.964,3.964,3.946,0,0,80.51,6,GPS_Atti,
0.336758636283042,36.871643790557,5877.1566034233,27.559056,0.70687304,5.5143374468,6800,2017-11-07 13:20:22,17,15.794,5877.1566034233,27.559056,1.11847,5.5143374468,295.9, 6.2, 3.1,0,0,1024,1024,1367,1024,296,0,96,3.958,3.964,3.964,3.946,0,0,80.51,6,GPS_Atti,
0.336758704217654,36.8716433444374,5877.8127714233,28.215224,0.894776,5.6647311524,6900,2017-11-07 13:20:22,17,15.794,5877.8127714233,28.215224,1.11847,5.6647311524,295.9, 6.5, 2.8,0,0,1024,1024,1369,1024,296,0,96,3.958,3.964,3.964,3.946,0,0,80.51,6,GPS_Atti,
0.336758783020095,36.8716429108522,5878.4689394233,28.871392,0.894776,5.8104988736,7000,2017-11-07 13:20:22,17,15.794,5878.4689394233,28.871392,1.11847,5.8104988736,296, 8, 3.1,0,0,1024,1024,1374,1024,296,0,96,3.958,3.964,3.964,3.946,0,0,80.51,6,GPS_Atti,
0.336758808347081,36.8716424644264,5879.1251074233,29.52756,0.894776,5.9662403484,7100,2017-11-07 13:20:22,17,15.794,5879.1251074233,29.52756,1.11847,5.9662403484,295.9, 8, 3.9,0,0,1024,1024,1374,1024,296,0,96,3.958,3.964,3.964,3.946,0,0,80.51,6,GPS_Atti,
0.336758806676603,36.8716420329375,5879.7812754233,30.183728,0.894776,6.1193243428,7200,2017-11-07 13:20:22,17,16.222,5879.7812754233,30.183728,1.11847,6.1193243428,295.9, 7.1, 5,0,0,1024,1024,1394,1024,296,0,96,3.958,3.964,3.964,3.946,0,0,80.51,6,GPS_Atti,
0.336758810321366,36.8716415950808,5880.4374434233,30.839896,0.894776,6.2744752664,7300,2017-11-07 13:20:22,17,16.222,5880.4374434233,30.839896,1.11847,6.2744752664,295.9, 7.2, 5,0,0,1024,1024,1419,1024,295.9,0,96,3.958,3.964,3.964,3.946,0,0,80.51,6,GPS_Atti,
0.336758826813636,36.8716411302344,5881.0936114233,31.496064,0.894776,6.4384188412,7400,2017-11-07 13:20:22,17,16.222,5881.0936114233,31.496064,1.11847,6.4384188412,295.9, 7.3, 4.3,0,0,1024,1024,1419,1024,295.9,0,96,3.958,3.964,3.964,3.946,0,0,80.51,6,GPS_Atti,
0.336758835513598,36.8716406650968,5881.7497794233,32.152232,0.894776,6.603346668,7500,2017-11-07 13:20:22,17,16.222,5881.7497794233,32.152232,1.11847,6.603346668,295.9, 7.6, 4.2,0,0,1024,1024,1421,1024,295.9,0,96,3.958,3.964,3.964,3.946,0,0,80.51,6,GPS_Atti,
0.336758841831757,36.8716402584884,5882.4059474233,32.8084,0.894776,6.7478348616,7600,2017-11-07 13:20:23,17,16.222,5882.4059474233,32.8084,1.11847,6.7478348616,295.8, 8.1, 4,0,0,1024,1024,1421,1024,295.9,0,96,3.958,3.964,3.964,3.946,0,0,80.51,6,GPS_Atti,
0.336758828382031,36.8716398544088,5883.3901994233,33.792652,0.671082,6.89304484,7700,2017-11-07 13:20:23,17,16.222,5883.3901994233,33.792652,1.11847,6.89304484,295.9, 8.3, 5.5,0,0,1024,1024,1422,1024,295.9,0,96,3.958,3.964,3.964,3.946,0,0,80.51,6,GPS_Atti,
0.336758861306522,36.8716394201128,5884.0463674233,34.44882,0.671082,7.045767942,7800,2017-11-07 13:20:23,17,16.222,5884.0463674233,34.44882,1.11847,7.045767942,296.1, 8.3, 5.9,0,0,1024,1024,1427,1024,295.9,0,96,3.958,3.964,3.964,3.946,0,0,80.51,6,GPS_Atti,
0.336758899061996,36.8716390212277,5885.0306194233,35.433072,0.447388,7.1857285764,7900,2017-11-07 13:20:23,17,16.222,5885.0306194233,35.433072,1.11847,7.1857285764,296, 8, 5,0,0,1024,1024,1436,1024,295.9,0,96,3.958,3.964,3.964,3.946,0,0,80.51,6,GPS_Atti,
0.336758944574563,36.8716386321363,5885.6867874233,36.08924,0.671082,7.3218834364,8000,2017-11-07 13:20:23,17,16.222,5885.6867874233,36.08924,1.11847,7.3218834364,295.9, 7.3, 3.8,0,0,1024,1024,1439,1024,295.9,0,96,3.958,3.964,3.964,3.946,0,0,80.51,6,GPS_Atti,
0.336758951060859,36.8716382278618,5886.6710394233,37.073492,0.671082,7.4663388216,8100,2017-11-07 13:20:23,17,16.222,5886.6710394233,37.073492,1.11847,7.4663388216,296, 7.2, 4.1,0,0,1024,1024,1443,1024,295.9,0,96,3.958,3.964,3.964,3.946,0,0,80.51,6,GPS_Atti,
0.336758918294531,36.8716378133718,5887.6552914233,38.057744,0.92161928,7.6171918448,8200,2017-11-07 13:20:23,17,16.141,5887.6552914233,38.057744,1.11847,7.6171918448,296.1, 7.7, 5.1,0,0,1024,1024,1446,1024,295.9,0,96,4.065,4.075,4.08,4.07,0,0,80.51,6,GPS_Atti,
0.336758857205082,36.8716373743181,5888.3114594233,38.713912,1.1408394,7.7787732148,8300,2017-11-07 13:20:23,17,16.141,5888.3114594233,38.713912,1.1408394,7.7787732148,296.2, 8.1, 6.3,0,0,1024,1024,1447,1024,295.9,0,96,4.065,4.075,4.08,4.07,0,0,80.51,6,GPS_Atti,
0.336758800430807,36.8716369116279,5889.2957114233,39.698164,0.92161928,7.9485566848,8400,2017-11-07 13:20:23,17,16.141,5889.2957114233,39.698164,1.1408394,7.9485566848,296.2, 8.6, 6.8,0,0,1024,1024,1447,1024,295.9,0,96,4.065,4.075,4.08,4.07,0,0,80.51,6,GPS_Atti,
0.336758742654327,36.8716364602773,5890.2799634233,40.682416,0.92161928,8.11433753,8500,2017-11-07 13:20:23,17,16.141,5890.2799634233,40.682416,1.1408394,8.11433753,296.3, 9.1, 6.8,0,0,1024,1024,1457,1024,295.9,0,96,4.065,4.075,4.08,4.07,0,0,80.51,6,GPS_Atti,
0.33675868048522,36.8716359601978,5890.9361314233,41.338584,0.92161928,8.297900528,8600,2017-11-07 13:20:24,17,16.141,5890.9361314233,41.338584,1.1408394,8.297900528,296.3, 9, 7,0,0,1024,1024,1447,1024,295.9,0,96,4.065,4.075,4.08,4.07,0,0,80.51,6,GPS_Atti,
0.336758603488928,36.8716355008136,5891.9203834233,42.322836,0.92161928,8.4678152316,8700,2017-11-07 13:20:24,17,16.141,5891.9203834233,42.322836,1.1408394,8.4678152316,296.3, 8.8, 7,0,0,1024,1024,1448,1024,295.9,0,96,4.065,4.075,4.08,4.07,0,0,80.51,6,GPS_Atti,
0.336758519783548,36.8716350620832,5892.9046354233,43.307088,0.70687304,8.6307745544,8800,2017-11-07 13:20:24,17,16.141,5892.9046354233,43.307088,1.1408394,8.6307745544,296.4, 8.4, 7.7,0,0,1024,1024,1449,1024,295.9,0,96,4.065,4.075,4.08,4.07,0,0,80.51,6,GPS_Atti,
0.336758425022763,36.8716346542287,5893.8888874233,44.29134,0.70687304,8.7833664228,8900,2017-11-07 13:20:24,17,16.141,5893.8888874233,44.29134,1.1408394,8.7833664228,296.4, 8.1, 7.8,0,0,1024,1024,1447,1024,295.9,0,96,4.065,4.075,4.08,4.07,0,0,80.51,6,GPS_Atti,
0.336758329439207,36.8716342771322,5894.5450554233,44.947508,0.70687304,8.9249674772,9000,2017-11-07 13:20:24,17,16.141,5894.5450554233,44.947508,1.1408394,8.9249674772,296.4, 8.3, 8,0,0,1024,1024,1450,1024,295.9,0,96,4.065,4.075,4.08,4.07,0,0,80.51,6,GPS_Atti,
0.33675823757461,36.8716339009714,5895.5293074233,45.93176,0.70687304,9.0659779804,9100,2017-11-07 13:20:24,17,16.141,5895.5293074233,45.93176,1.1408394,9.0659779804,296.4, 8.7, 9.1,0,0,1024,1024,1467,995,295.8,0,96,4.065,4.075,4.08,4.07,0,0,80.51,6,GPS_Atti,
0.336758197818796,36.8716335509417,5896.5135594233,46.916012,0.671082,9.194226016,9200,2017-11-07 13:20:24,17,15.954,5896.5135594233,46.916012,1.1408394,9.194226016,296.4, 9.2, 9.2,0,0,1024,1024,1478,937,295.8,0,96,4.041,4.075,4.08,4.07,0,0,80.51,6,GPS_Atti,
0.33675817059854,36.871633204599,5897.4978114233,47.900264,0.671082,9.3203086972,9300,2017-11-07 13:20:24,17,15.954,5897.4978114233,47.900264,1.1408394,9.3203086972,296.2, 9.4, 8.5,0,0,1024,1024,1475,931,295.4,0,96,4.041,4.075,4.08,4.07,0,0,80.51,6,GPS_Atti,
0.33675817225935,36.8716328878903,5898.4820634233,48.884516,0.671082,9.4339241864,9400,2017-11-07 13:20:24,17,15.954,5898.4820634233,48.884516,1.1408394,9.4339241864,295.5, 9.9, 7.9,0,0,1024,1024,1473,927,294.9,0,96,4.041,4.075,4.08,4.07,0,0,80.51,6,GPS_Atti,
0.336758163024749,36.8716325534013,5899.4663154233,49.868768,0.671082,9.5546919068,9500,2017-11-07 13:20:24,17,15.954,5899.4663154233,49.868768,1.1408394,9.5546919068,294.6, 10.8, 8,0,0,1024,1024,1475,893,294.3,0,96,4.041,4.075,4.08,4.07,0,0,80.51,6,GPS_Atti,
0.336758133783798,36.8716322323524,5900.4505674233,50.85302,0.671082,9.6718835116,9600,2017-11-07 13:20:25,17,15.954,5900.4505674233,50.85302,1.1408394,9.6718835116,293.6, 11.8, 8.6,0,0,1024,1024,1477,889,293.4,0,96,4.041,4.075,4.08,4.07,0,0,80.51,6,GPS_Atti,
0.336758084882541,36.871631908186,5901.4348194233,51.837272,0.671082,9.7914701296,9700,2017-11-07 13:20:25,17,15.954,5901.4348194233,51.837272,1.1408394,9.7914701296,292.2, 12.5, 9.9,0,0,1024,1024,1464,888,292.3,0,96,4.041,4.075,4.08,4.07,0,0,80.51,6,GPS_Atti,
0.336758062088803,36.8716316770796,5902.4190714233,52.821524,0.447388,9.8759517596,9800,2017-11-07 13:20:25,17,15.954,5902.4190714233,52.821524,1.1408394,9.8759517596,290.6, 12.7, 9.4,0,0,1024,1024,1469,889,292.3,0,96,4.041,4.075,4.08,4.07,0,0,80.51,6,GPS_Atti,
0.336758088120295,36.8716314905698,5903.0752394233,53.477692,0.447388,9.9413717092,9900,2017-11-07 13:20:25,17,15.954,5903.0752394233,53.477692,1.1408394,9.9413717092,288.9, 12.7, 7.4,0,0,1024,1024,1469,888,291.2,0,96,4.041,4.075,4.08,4.07,0,0,80.51,6,GPS_Atti,
0.336758124210787,36.8716314005116,5904.0594914233,54.461944,0.223694,9.9715226288,10000,2017-11-07 13:20:25,17,15.954,5904.0594914233,54.461944,1.1408394,9.9715226288,287.2, 12.6, 6.5,0,0,1024,1024,1466,889,289.9,0,96,4.041,4.075,4.08,4.07,0,0,80.51,6,GPS_Atti,
0.336758154381376,36.8716313184958,5905.0437434233,55.446196,0.223694,9.99918011,10100,2017-11-07 13:20:25,17,15.954,5905.0437434233,55.446196,1.1408394,9.99918011,285.7, 12, 5.5,0,0,1024,1024,1471,883,288.6,0,96,4.041,4.075,4.08,4.07,0,0,80.51,6,GPS_Atti,
0.336758164071533,36.8716312408844,5906.0279954233,56.430448,0,10.0265095072,10200,2017-11-07 13:20:25,17,15.954,5906.0279954233,56.430448,1.1408394,10.0265095072,284, 11.9, 5.1,0,0,1024,1024,1471,883,287.3,0,96,4.011,4.018,4.027,4.029,0,0,80.51,6,GPS_Atti,
0.336758150608474,36.8716311716749,5907.0122474233,57.4147,0,10.0522312928,10300,2017-11-07 13:20:25,17,15.954,5907.0122474233,57.4147,1.1408394,10.0522312928,282.3, 11.2, 6.5,0,0,1024,1024,1470,878,285.8,0,96,4.011,4.018,4.027,4.029,0,0,80.51,6,GPS_Atti,
0.336758176300741,36.871631194273,5907.9964994233,58.398952,0,10.0425528148,10400,2017-11-07 13:20:25,17,15.954,5907.9964994233,58.398952,1.1408394,10.0522312928,280.5, 11, 6.3,0,0,1024,1024,1468,877,284.1,0,96,4.011,4.018,4.027,4.029,0,0,80.51,6,GPS_Atti,
0.336758262343752,36.8716312159888,5908.9807514233,59.383204,0.223694,10.0295934968,10500,2017-11-07 13:20:25,17,15.954,5908.9807514233,59.383204,1.1408394,10.0522312928,278.7, 11.6, 3.8,0,0,1024,1024,1467,862,282.4,0,96,4.011,4.018,4.027,4.029,0,0,80.51,6,GPS_Atti,
0.336758434252478,36.8716313992698,5910.9492554233,61.351708,0,9.9535436256,10700,2017-11-07 13:20:26,17,15.954,5910.9492554233,61.351708,1.1408394,10.0522312928,275.2, 11.8, 1.4,0,0,1024,1024,1467,860,279,0,96,4.011,4.018,4.027,4.029,0,0,80.51,6,GPS_Atti,
0.336758431541119,36.8716315186942,5911.9335074233,62.33596,0,9.9106958552,10800,2017-11-07 13:20:26,17,15.954,5911.9335074233,62.33596,1.1408394,10.0522312928,273.1, 10.8, 1.7,0,0,1024,1024,1468,861,277.1,0,96,4.011,4.018,4.027,4.029,0,0,80.51,6,GPS_Atti,
0.336758391423994,36.8716316311705,5912.5896754233,62.992128,0,9.8725068776,10900,2017-11-07 13:20:26,17,15.954,5912.5896754233,62.992128,1.1408394,10.0522312928,270.9, 10.4, 2.9,0,0,1024,1024,1468,860,275,0,96,4.011,4.018,4.027,4.029,0,0,80.51,6,GPS_Atti,
0.336758345685989,36.8716317616756,5913.5739274233,63.97638,0,9.8281827292,11000,2017-11-07 13:20:26,17,15.954,5913.5739274233,63.97638,1.1408394,10.0522312928,268.8, 10.3, 3.4,0,0,1024,1024,1466,864,272.8,0,96,4.011,4.018,4.027,4.029,0,0,80.51,6,GPS_Atti,
0.336758343645142,36.8716318707474,5914.5581794233,64.960632,0,9.789042308,11100,2017-11-07 13:20:26,17,15.954,5914.5581794233,64.960632,1.1408394,10.0522312928,266.7, 10.2, 1.8,0,0,1024,1024,1462,869,270.7,0,96,4.011,4.018,4.027,4.029,0,0,80.51,6,GPS_Atti,
0.336758369047749,36.8716320175533,5915.5424314233,65.944884,0,9.7347115976,11200,2017-11-07 13:20:26,17,15.874,5915.5424314233,65.944884,1.1408394,10.0522312928,264.7, 10, 0.6,0,0,1024,1024,1448,867,268.7,0,96,4.011,4.018,4.027,4.029,0,0,80.51,6,GPS_Atti,
0.336758372907975,36.8716321197755,5916.5266834233,66.929136,0,9.697670914,11300,2017-11-07 13:20:26,17,15.874,5916.5266834233,66.929136,1.1408394,10.0522312928,262.8, 10.4, -0.1,0,0,1024,1024,1481,822,268.7,0,96,4.011,4.018,4.027,4.029,0,0,80.51,6,GPS_Atti,
0.336758333371798,36.8716322357547,5917.5109354233,67.913388,0,9.6583336424,11400,2017-11-07 13:20:26,17,15.874,5917.5109354233,67.913388,1.1408394,10.0522312928,261, 11.4, -0.2,0,0,1024,1024,1516,768,266.7,0,96,4.011,4.018,4.027,4.029,0,0,80.51,6,GPS_Atti,
0.33675824254971,36.87163231582,5918.4951874233,68.89764,0,9.6350724868,11500,2017-11-07 13:20:26,17,15.874,5918.4951874233,68.89764,1.1408394,10.0522312928,258.7, 10.8, 0.8,0,0,1024,1024,1524,752,264.1,0,96,4.011,4.018,4.027,4.029,0,0,80.51,6,GPS_Atti,
0.336758146714661,36.8716323988272,5919.4794394233,69.881892,0,9.6112535884,11600,2017-11-07 13:20:27,17,15.874,5919.4794394233,69.881892,1.1408394,10.0522312928,255.7, 10.1, 1,0,0,1024,1024,1525,751,260.9,0,96,4.011,4.018,4.027,4.029,0,0,80.51,6,GPS_Atti,
0.336758065877785,36.8716324364242,5920.7917754233,71.194228,0,9.6029202548,11700,2017-11-07 13:20:27,17,15.874,5920.7917754233,71.194228,1.1408394,10.0522312928,251.9, 10.7, 0.3,0,0,1024,1024,1524,751,260.9,0,96,4.011,4.018,4.027,4.029,0,0,80.51,6,GPS_Atti,
0.336758020080342,36.8716324952082,5921.7760274233,72.17848,0,9.5847772096,11800,2017-11-07 13:20:27,17,15.874,5921.7760274233,72.17848,1.1408394,10.0522312928,247.7, 11.5, -0.6,0,0,1024,1024,1524,750,253.5,0,96,4.011,4.018,4.027,4.029,0,0,80.51,6,GPS_Atti,
0.336757974865475,36.871632531103,5923.0883634233,73.490816,0,9.5748690728,11900,2017-11-07 13:20:27,17,15.874,5923.0883634233,73.490816,1.1408394,10.0522312928,243.5, 11.7, -1.2,0,0,1024,1024,1524,754,249.4,0,96,4.011,4.018,4.027,4.029,0,0,80.51,6,GPS_Atti,
0.33675797392912,36.8716326659461,5924.0726154233,74.475068,0,9.5265422996,12000,2017-11-07 13:20:27,17,15.874,5924.0726154233,74.475068,1.1408394,10.0522312928,239.4, 11.3, -2.2,0,0,1024,1024,1497,781,245.2,0,96,4.011,4.018,4.027,4.029,0,0,80.51,6,GPS_Atti,
0.336757985883222,36.8716327690504,5925.3849514233,75.787404,0,9.4887798312,12100,2017-11-07 13:20:27,17,15.874,5925.3849514233,75.787404,1.1408394,10.0522312928,235.3, 10.6, -3.3,0,0,1024,1024,1500,782,241.2,0,96,4.011,4.018,4.027,4.029,0,0,80.51,6,GPS_Atti,
0.336758041330112,36.8716329557358,5926.3692034233,76.771656,0,9.4181105376,12200,2017-11-07 13:20:27,17,15.874,5926.3692034233,76.771656,1.1408394,10.0522312928,231.6, 10.3, -4.6,0,0,1024,1024,1500,782,237.4,0,96,4.008,4.014,4.02,4.01,0,0,80.51,6,GPS_Atti,
0.336758079195913,36.8716330721776,5927.6815394233,78.083992,0,9.3738191976,12300,2017-11-07 13:20:27,17,15.874,5927.6815394233,78.083992,1.1408394,10.0522312928,228.2, 9.9, -5.7,0,0,1024,1024,1499,783,233.7,0,96,4.008,4.014,4.02,4.01,0,0,80.51,6,GPS_Atti,
0.336758141775591,36.8716332928114,5928.9938754233,79.396328,0,9.2905514784,12400,2017-11-07 13:20:27,17,15.874,5928.9938754233,79.396328,1.1408394,10.0522312928,224.8, 9, -5.9,0,0,1024,1024,1491,793,230.1,0,96,4.008,4.014,4.02,4.01,0,0,80.51,6,GPS_Atti,
0.336758158909977,36.8716334200576,5929.9781274233,80.38058,0,9.2437338916,12500,2017-11-07 13:20:27,17,15.874,5929.9781274233,80.38058,1.1408394,10.0522312928,221.4, 9, -6.4,0,0,1024,1024,1491,796,230.1,0,96,4.008,4.014,4.02,4.01,0,0,80.51,6,GPS_Atti,
0.336758220047667,36.8716336206072,5931.2904634233,81.692916,0,9.1677496372,12600,2017-11-07 13:20:28,17,15.874,5931.2904634233,81.692916,1.1408394,10.0522312928,218.1, 9.2, -7.2,0,0,1024,1024,1480,810,226.5,0,96,4.008,4.014,4.02,4.01,0,0,80.51,6,GPS_Atti,
0.336758239297097,36.8716337264351,5932.2747154233,82.677168,0,9.1285107908,12700,2017-11-07 13:20:28,17,15.874,5932.2747154233,82.677168,1.1408394,10.0522312928,215, 9.3, -7.9,0,0,1024,1024,1467,829,223.1,0,96,4.008,4.014,4.02,4.01,0,0,80.51,6,GPS_Atti,
0.33675828511917,36.8716338579722,5933.2589674233,83.66142,0,9.0783139388,12800,2017-11-07 13:20:28,17,15.874,5933.2589674233,83.66142,1.1408394,10.0522312928,211.8, 9.1, -8.6,0,0,1024,1024,1466,832,219.8,0,96,4.008,4.014,4.02,4.01,0,0,80.51,6,GPS_Atti,
0.336758287611707,36.8716339134138,5934.5713034233,84.973756,0,9.058235198,12900,2017-11-07 13:20:28,17,15.874,5934.5713034233,84.973756,1.1408394,10.0522312928,209, 9, -9.4,0,0,1024,1024,1466,826,216.8,0,96,4.008,4.014,4.02,4.01,0,0,80.51,6,GPS_Atti,
0.336758335194739,36.8716340285773,5935.5555554233,85.958008,0,9.0138126244,13000,2017-11-07 13:20:28,17,15.874,5935.5555554233,85.958008,1.1408394,10.0522312928,206.6, 8.7, -9.8,0,0,1024,1024,1466,826,214,0,96,4.008,4.014,4.02,4.01,0,0,80.51,6,GPS_Atti,
0.336758341736097,36.8716340880166,5936.5398074233,86.94226,0,8.9920606552,13100,2017-11-07 13:20:28,17,15.874,5936.5398074233,86.94226,1.1408394,10.0522312928,204.2, 8.2, -9.9,0,0,1024,1024,1469,814,211.2,0,96,4.008,4.014,4.02,4.01,0,0,80.51,6,GPS_Atti,
0.336758364690643,36.8716341899475,5937.5240594233,87.926512,0,8.9539701028,13200,2017-11-07 13:20:28,17,15.874,5937.5240594233,87.926512,1.1408394,10.0522312928,201.6, 7.8, -10,0,0,1024,1024,1470,811,208.3,0,96,4.008,4.014,4.009,3.99,0,0,80.51,6,GPS_Atti,
0.336758345875296,36.8716342335634,5938.5083114233,88.910764,0,8.9395344068,13300,2017-11-07 13:20:28,17,15.874,5938.5083114233,88.910764,1.1408394,10.0522312928,198.8, 7.3, -10.6,0,0,1024,1024,1470,811,205.4,0,96,4.008,4.014,4.009,3.99,0,0,80.51,6,GPS_Atti,
0.33675837482272,36.871634311147,5939.4925634233,89.895016,0,8.909777188,13400,2017-11-07 13:20:28,17,15.874,5939.4925634233,89.895016,1.1408394,10.0522312928,195.9, 7.2, -11.1,0,0,1024,1024,1464,813,202.3,0,96,4.008,4.014,4.009,3.99,0,0,80.51,6,GPS_Atti,
0.336758363709913,36.8716343557607,5940.4768154233,90.879268,0,8.8944884736,13500,2017-11-07 13:20:28,17,15.874,5940.4768154233,90.879268,1.1408394,10.0522312928,193.1, 6.8, -11.1,0,0,1024,1024,1465,813,199.3,0,96,4.008,4.014,4.009,3.99,0,0,80.51,6,GPS_Atti,
0.336758419749149,36.8716344796816,5941.4610674233,91.86352,0,8.8463585508,13600,2017-11-07 13:20:29,17,15.874,5941.4610674233,91.86352,1.1408394,10.0522312928,190.2, 6.3, -11,0,0,1024,1024,1464,811,196.2,0,96,4.008,4.014,4.009,3.99,0,0,80.51,6,GPS_Atti,
0.336758446262762,36.871634557186,5942.4453194233,92.847772,0,8.8168309908,13700,2017-11-07 13:20:29,17,15.874,5942.4453194233,92.847772,1.1408394,10.0522312928,187.4, 5.6, -11.2,0,0,1024,1024,1464,811,193,0,96,4.008,4.014,4.009,3.99,0,0,80.51,6,GPS_Atti,
0.336758525617652,36.8716346343735,5943.7576554233,94.160108,0,8.7840225908,13800,2017-11-07 13:20:29,17,15.874,5943.7576554233,94.160108,1.1408394,10.0522312928,184.5, 4.7, -11.6,0,0,1024,1024,1462,810,189.9,0,96,4.008,4.014,4.009,3.99,0,0,80.51,6,GPS_Atti,
0.336758567510391,36.8716346656861,5944.7419074233,95.14436,0,8.7701118292,13900,2017-11-07 13:20:29,17,15.874,5944.7419074233,95.14436,1.1408394,10.0522312928,181.8, 3.5, -11.9,0,0,1024,1024,1461,810,189.9,0,96,4.008,4.014,4.009,3.99,0,0,80.51,6,GPS_Atti,
0.336758632940152,36.8716346978809,5945.7261594233,96.128612,0,8.754429414,14000,2017-11-07 13:20:29,16,15.874,5945.7261594233,96.128612,1.1408394,10.0522312928,178.7, 3, -12.1,0,0,1024,1024,1460,810,186.7,0,96,4.008,4.014,4.009,3.99,0,0,80.51,6,GPS_Atti,
0.33675864871611,36.8716346972214,5946.7104114233,97.112864,0,8.7537076292,14100,2017-11-07 13:20:29,16,15.874,5946.7104114233,97.112864,1.1408394,10.0522312928,175.8, 2.4, -12.5,0,0,1024,1024,1458,811,183.4,0,96,4.008,4.014,4.009,3.99,0,0,80.51,6,GPS_Atti,
0.336758701862924,36.8716346974184,5947.6946634233,98.097116,0,8.7503611724,14200,2017-11-07 13:20:29,16,15.954,5947.6946634233,98.097116,1.1408394,10.0522312928,172.9, 1.8, -12.7,0,0,1024,1024,1456,812,180.2,0,96,4.017,4.022,4.017,4.002,0,0,80.51,6,GPS_Atti,
0.336758725027031,36.8716346788116,5948.6789154233,99.081368,0,8.7556433248,14300,2017-11-07 13:20:29,16,15.954,5948.6789154233,99.081368,1.1408394,10.0522312928,169.9, 1.2, -12.8,0,0,1024,1024,1455,814,176.7,0,96,4.017,4.022,4.017,4.002,0,0,80.51,6,GPS_Atti,
0.336758833852788,36.8716345948515,5949.6631674233,100.06562,0,8.7793309896,14400,2017-11-07 13:20:29,17,15.954,5949.6631674233,100.06562,1.1408394,10.0522312928,167, 0.4, -12.8,0,0,1024,1024,1454,814,173.5,0,96,4.017,4.022,4.017,4.002,0,0,80.51,6,GPS_Atti,
0.336758907444412,36.8716344972736,5950.6474194233,101.049872,0,8.8101708856,14500,2017-11-07 13:20:29,17,15.954,5950.6474194233,101.049872,1.1408394,10.0522312928,164, -0.5, -13.1,0,0,1024,1024,1454,814,170.1,0,96,4.017,4.022,4.017,4.002,0,0,80.51,6,GPS_Atti,
0.336758995592289,36.8716344235056,5951.6316714233,102.034124,0,8.8317588128,14600,2017-11-07 13:20:30,17,15.954,5951.6316714233,102.034124,1.1408394,10.0522312928,161, -1.6, -13,0,0,1024,1024,1455,814,166.6,0,96,4.017,4.022,4.017,4.002,0,0,80.51,6,GPS_Atti,
0.336759052725839,36.8716343497033,5952.6159234233,103.018376,0,8.8551840104,14700,2017-11-07 13:20:30,17,15.954,5952.6159234233,103.018376,1.1408394,10.0522312928,157.9, -2.4, -12.6,0,0,1024,1024,1457,814,163.2,0,96,4.017,4.022,4.017,4.002,0,0,80.51,6,GPS_Atti,
0.336759143674844,36.8716342361992,5953.6001754233,104.002628,0.223694,8.8911748252,14800,2017-11-07 13:20:30,17,15.954,5953.6001754233,104.002628,1.1408394,10.0522312928,154.7, -3.3, -12.6,0,0,1024,1024,1453,813,159.7,0,96,4.017,4.022,4.017,4.002,0,0,80.51,6,GPS_Atti,
0.336759214557958,36.8716341030134,5954.5844274233,104.98688,0.223694,8.9354989736,14900,2017-11-07 13:20:30,17,15.954,5954.5844274233,104.98688,1.1408394,10.0522312928,151.6, -4.5, -12.7,0,0,1024,1024,1455,814,156.1,0,96,4.017,4.022,4.017,4.002,0,0,80.51,6,GPS_Atti,
0.336759314539127,36.8716339518416,5955.5686794233,105.971132,0.223694,8.9849740408,15000,2017-11-07 13:20:30,17,15.954,5955.5686794233,105.971132,1.1408394,10.0522312928,148.5, -5.5, -12.7,0,0,1024,1024,1450,820,152.5,0,96,4.017,4.022,4.017,4.002,0,0,80.51,6,GPS_Atti,
0.336759397946807,36.8716338032607,5956.5529314233,106.955384,0.223694,9.0345475332,15100,2017-11-07 13:20:30,17,15.954,5956.5529314233,106.955384,1.1408394,10.0522312928,145.5, -6.5, -12.1,0,0,1024,1024,1447,820,152.5,0,96,4.017,4.022,4.017,4.002,0,0,80.51,6,GPS_Atti,
0.336759527020331,36.8716336347754,5957.5371834233,107.939636,0.223694,9.0893047528,15200,2017-11-07 13:20:30,17,15.901,5957.5371834233,107.939636,1.1408394,10.0522312928,142.4, -7.6, -11.7,0,0,1024,1024,1448,820,149,0,96,4.017,4.022,4.017,4.002,0,0,80.51,6,GPS_Atti,
0.336759622741491,36.8716334710991,5958.1933514233,108.595804,0.223694,9.1441275892,15300,2017-11-07 13:20:30,17,15.901,5958.1933514233,108.595804,1.1408394,10.0522312928,139.3, -8.4, -11.6,0,0,1024,1024,1449,820,145.6,0,96,4.017,4.022,4.017,4.002,0,0,80.51,6,GPS_Atti,
0.336759736606366,36.8716333229807,5959.1776034233,109.580056,0.223694,9.192749638,15400,2017-11-07 13:20:30,17,15.901,5959.1776034233,109.580056,1.1408394,10.0522312928,136.2, -9.2, -11,0,0,1024,1024,1446,822,142.1,0,96,4.017,4.022,4.017,4.002,0,0,80.51,6,GPS_Atti,
0.336759828633807,36.8716331900861,5960.1618554233,110.564308,0.223694,9.2369753612,15500,2017-11-07 13:20:30,17,15.901,5960.1618554233,110.564308,1.1408394,10.0522312928,133.2, -10, -10.2,0,0,1024,1024,1439,838,138.7,0,96,4.017,4.022,4.017,4.002,0,0,80.51,6,GPS_Atti,
0.336759919743214,36.8716330947863,5961.1461074233,111.54856,0.223694,9.2678152572,15600,2017-11-07 13:20:31,17,15.901,5961.1461074233,111.54856,1.1408394,10.0522312928,130.1, -10.5, -10,0,0,1024,1024,1442,841,135.4,0,96,4.017,4.022,4.017,4.002,0,0,80.51,6,GPS_Atti,
0.336759971544017,36.8716330159138,5962.1303594233,112.532812,0,9.2943572528,15700,2017-11-07 13:20:31,17,15.901,5962.1303594233,112.532812,1.1408394,10.0522312928,127.2, -10.7, -9.4,0,0,1024,1024,1442,838,132.3,0,96,4.017,4.022,4.017,4.002,0,0,80.51,6,GPS_Atti,
0.336760010861169,36.8716329263717,5962.7865274233,113.18898,0,9.325295574,15800,2017-11-07 13:20:31,17,15.901,5962.7865274233,113.18898,1.1408394,10.0522312928,124.4, -10.8, -8.7,0,0,1024,1024,1397,952,129.3,0,96,4.017,4.022,4.017,4.002,0,0,80.51,6,GPS_Atti,
0.336760003611743,36.8716328416279,5963.7707794233,114.173232,0,9.356299512,15900,2017-11-07 13:20:31,17,15.901,5963.7707794233,114.173232,1.1408394,10.0522312928,121.8, -11.3, -8.4,0,0,1024,1024,1402,972,126.8,0,96,4.017,4.022,4.017,4.002,0,0,80.51,6,GPS_Atti,
0.336759964234746,36.8716327610938,5964.7550314233,115.157484,0,9.3870737912,16000,2017-11-07 13:20:31,17,15.901,5964.7550314233,115.157484,1.1408394,10.0522312928,120.6, -12.1, -9.2,0,0,1024,1024,1412,959,124.9,0,96,4.017,4.022,4.017,4.002,0,0,80.51,6,GPS_Atti,
0.336759903163007,36.87163269382,5965.4111994233,115.813652,0,9.413878254,16100,2017-11-07 13:20:31,17,15.901,5965.4111994233,115.813652,1.1408394,10.0522312928,119.9, -11.9, -9,0,0,1024,1024,1413,955,123.5,0,96,4.017,4.022,4.017,4.002,0,0,80.51,6,GPS_Atti,
0.336759862064541,36.8716326494097,5966.3954514233,116.797904,0,9.4316275984,16200,2017-11-07 13:20:31,17,15.821,5966.3954514233,116.797904,1.1408394,10.0522312928,119.1, -11, -7.8,0,0,1024,1024,1388,1002,122.4,0,96,3.999,4.004,4.003,3.989,0,0,80.51,6,GPS_Atti,
0.336759801111476,36.8716326170757,5967.0516194233,117.454072,0,9.4458336356,16300,2017-11-07 13:20:31,17,15.821,5967.0516194233,117.454072,1.1408394,10.0522312928,118.3, -10.9, -7.5,0,0,1024,1024,1379,1024,121.7,0,96,3.999,4.004,4.003,3.989,0,0,80.51,6,GPS_Atti,
0.336759727532676,36.8716325887179,5967.7077874233,118.11024,0.223694,9.4591866544,16400,2017-11-07 13:20:31,17,15.821,5967.7077874233,118.11024,1.1408394,10.0522312928,118, -11.6, -8.2,0,0,1024,1024,1376,1024,121.1,0,96,3.999,4.004,4.003,3.989,0,0,80.51,6,GPS_Atti,
0.336759632205397,36.871632563589,5968.3639554233,118.766408,0.223694,9.4723756312,16500,2017-11-07 13:20:32,17,15.821,5968.3639554233,118.766408,1.1408394,10.0522312928,118, -11.7, -8.8,0,0,1024,1024,1376,1024,120.7,0,96,3.999,4.004,4.003,3.989,0,0,80.51,6,GPS_Atti,
0.336759516662003,36.8716325735819,5969.3482074233,119.75066,0.223694,9.4738520092,16600,2017-11-07 13:20:32,17,15.821,5969.3482074233,119.75066,1.1408394,10.0522312928,117.8, -11.3, -8.4,0,0,1024,1024,1381,1024,120.7,0,96,3.999,4.004,4.003,3.989,0,0,80.51,6,GPS_Atti,
0.336759397722081,36.8716325965418,5970.0043754233,120.406828,0.223694,9.4709976784,16700,2017-11-07 13:20:32,17,15.821,5970.0043754233,120.406828,1.1408394,10.0522312928,117.8, -10.8, -8,0,0,1024,1024,1385,1024,120.4,0,96,3.999,4.004,4.003,3.989,0,0,80.51,6,GPS_Atti,
0.336759248654929,36.8716325971649,5970.9886274233,121.39108,0.223694,9.4778874424,16800,2017-11-07 13:20:32,17,15.821,5970.9886274233,121.39108,1.1408394,10.0522312928,117.8, -10.4, -8,0,0,1024,1024,1387,1024,120.1,0,96,3.999,4.004,4.003,3.989,0,0,80.51,6,GPS_Atti,
0.336759103836183,36.8716325948631,5971.6447954233,122.047248,0.223694,9.4859255004,16900,2017-11-07 13:20:32,17,15.821,5971.6447954233,122.047248,1.1408394,10.0522312928,117.8, -10.3, -8.1,0,0,1024,1024,1388,1024,119.9,0,96,3.999,4.004,4.003,3.989,0,0,80.51,6,GPS_Atti,
0.336758974688157,36.8716324823782,5972.6290474233,123.0315,0.223694,9.5332352132,17000,2017-11-07 13:20:32,17,15.821,5972.6290474233,123.0315,1.1408394,10.0522312928,117.8, -10.2, -8.3,0,0,1024,1024,1379,945,119.7,0,96,3.999,4.004,4.003,3.989,0,0,80.51,6,GPS_Atti,
0.336758856954913,36.8716323833678,5973.2852154233,123.687668,0.223694,9.5751971568,17100,2017-11-07 13:20:32,17,15.821,5973.2852154233,123.687668,1.1408394,10.0522312928,117.8, -10.8, -8.7,0,0,1024,1024,1361,809,119.5,0,96,3.999,4.004,4.003,3.989,0,0,80.51,6,GPS_Atti,
0.336758732699343,36.8716322309007,5974.2694674233,124.67192,0.223694,9.636975374,17200,2017-11-07 13:20:32,17,16.115,5974.2694674233,124.67192,1.1408394,10.0522312928,117.7, -11.7, -9.2,0,0,1024,1024,1354,749,118.4,0,96,3.996,4.008,4.022,4.004,0,0,80.51,6,GPS_Atti,
0.336758619681666,36.8716321243148,5974.9256354233,125.328088,0.223694,9.6817260316,17300,2017-11-07 13:20:32,17,16.115,5974.9256354233,125.328088,1.1408394,10.0522312928,115.6, -12.3, -9,0,0,1024,1024,1350,744,116.4,0,96,3.996,4.008,4.022,4.004,0,0,80.51,6,GPS_Atti,
0.336758498690211,36.8716320682565,5975.5818034233,125.984256,0,9.70882577,17400,2017-11-07 13:20:32,17,16.115,5975.5818034233,125.984256,1.1408394,10.0522312928,111.6, -12.4, -7.9,0,0,1024,1024,1351,744,113.7,0,96,3.996,4.008,4.022,4.004,0,0,80.51,6,GPS_Atti,
0.336758389019291,36.8716320625267,5976.2379714233,126.640424,0,9.7173231456,17500,2017-11-07 13:20:32,17,16.115,5976.2379714233,126.640424,1.1408394,10.0522312928,106.8, -12.3, -6.9,0,0,1024,1024,1350,753,110.1,0,96,3.996,4.008,4.022,4.004,0,0,80.51,6,GPS_Atti,
0.336758254439997,36.8716320872466,5976.8941394233,127.296592,0,9.716535744,17600,2017-11-07 13:20:33,17,16.115,5976.8941394233,127.296592,1.1408394,10.0522312928,101.9, -12.2, -6.1,0,0,1024,1024,1351,767,105.7,0,96,3.996,4.008,4.022,4.004,0,0,80.51,6,GPS_Atti,
0.336758145193593,36.8716321331429,5977.5503074233,127.95276,0,9.7068244576,17700,2017-11-07 13:20:33,17,16.115,5977.5503074233,127.95276,1.1408394,10.0522312928,96.9, -12.1, -5.3,0,0,1024,1024,1349,810,101.1,0,96,3.996,4.008,4.022,4.004,0,0,80.51,6,GPS_Atti,
0.336758049627034,36.871632147887,5978.2064754233,128.608928,0.223694,9.7075790508,17800,2017-11-07 13:20:33,16,16.115,5978.2064754233,128.608928,1.1408394,10.0522312928,92.4, -12, -4.2,0,0,1024,1024,1344,855,96.8,0,96,3.996,4.008,4.022,4.004,0,0,80.51,6,GPS_Atti,
0.336757991364463,36.8716321797136,5978.8626434233,129.265096,0.223694,9.6999018852,17900,2017-11-07 13:20:33,16,16.115,5978.8626434233,129.265096,1.1408394,10.0522312928,88.8, -12.1, -3.5,0,0,1024,1024,1336,894,93.2,0,96,3.996,4.008,4.022,4.004,0,0,80.51,6,GPS_Atti,
0.336757915332158,36.8716322160687,5979.5188114233,129.921264,0,9.6918310188,18000,2017-11-07 13:20:33,17,16.115,5979.5188114233,129.921264,1.1408394,10.0522312928,86.1, -12.4, -2.6,0,0,1024,1024,1334,922,93.2,0,96,3.996,4.008,4.022,4.004,0,0,80.51,6,GPS_Atti,
0.33675787186283,36.8716322555714,5980.1749794233,130.577432,0,9.6805449292,18100,2017-11-07 13:20:33,17,16.115,5980.1749794233,130.577432,1.1408394,10.0522312928,84, -12.8, -1.7,0,0,1024,1024,1331,926,90.4,0,96,3.996,4.008,4.022,4.004,0,0,80.51,6,GPS_Atti,
0.336757835676871,36.8716322554793,5980.8311474233,131.2336,0,9.6830055592,18200,2017-11-07 13:20:33,17,15.874,5980.8311474233,131.2336,1.1408394,10.0522312928,82.6, -13.1, -0.9,0,0,1024,1024,1280,1023,88.3,0,95,3.997,4.008,4.001,3.986,0,0,80.51,6,GPS_Atti,
0.336757815448289,36.8716322660225,5981.4873154233,131.889768,0,9.6805777376,18300,2017-11-07 13:20:33,17,15.874,5981.4873154233,131.889768,1.1408394,10.0522312928,81.5, -12.8, -0.3,0,0,1024,1024,1256,1024,86.7,0,95,3.997,4.008,4.001,3.986,0,0,80.51,6,GPS_Atti,
0.336757733900953,36.8716322823083,5982.1434834233,132.545936,0,9.6803152704,18400,2017-11-07 13:20:33,17,15.874,5982.1434834233,132.545936,1.1408394,10.0522312928,80.9, -13, 0,0,0,1024,1024,1256,1024,85.7,0,95,3.997,4.008,4.001,3.986,0,0,80.51,6,GPS_Atti,
0.336757657841423,36.8716322890124,5982.7996514233,133.202104,0,9.6831696012,18500,2017-11-07 13:20:34,17,15.874,5982.7996514233,133.202104,1.1408394,10.0522312928,80.9, -14.8, 0,0,0,1024,1024,1251,1024,85.1,0,95,3.997,4.008,4.001,3.986,0,0,80.51,6,GPS_Atti,
0.336757589845947,36.8716322783578,5983.1277354233,133.530188,0.223694,9.6917325936,18600,2017-11-07 13:20:34,17,15.874,5983.1277354233,133.530188,1.1408394,10.0522312928,80.9, -13.9, 0,0,0,1024,1024,1248,1024,84.6,0,95,3.997,4.008,4.001,3.986,0,0,80.51,6,GPS_Atti,
0.336757540919704,36.8716322942925,5983.7839034233,134.186356,0.223694,9.6895016224,18700,2017-11-07 13:20:34,17,15.874,5983.7839034233,134.186356,1.1408394,10.0522312928,80.9, -12.4, 0,0,0,1024,1024,1247,1024,84.3,0,95,3.997,4.008,4.001,3.986,0,0,80.51,6,GPS_Atti,
0.336757438899799,36.8716322848156,5984.1119874233,134.51444,0,9.7002299692,18800,2017-11-07 13:20:34,17,15.874,5984.1119874233,134.51444,1.1408394,10.0522312928,80.9, -12.2, 0.1,0,0,1024,1024,1252,1023,84.1,0,95,3.997,4.008,4.001,3.986,0,0,80.51,6,GPS_Atti,
0.33675734047756,36.8716322758184,5984.4400714233,134.842524,0,9.710630232,18900,2017-11-07 13:20:34,17,15.874,5984.4400714233,134.842524,1.1408394,10.0522312928,81, -12.3, 0,0,0,1024,1024,1277,1005,83.9,0,95,3.997,4.008,4.001,3.986,0,0,80.51,6,GPS_Atti,
0.336757195027175,36.8716322833489,5984.7681554233,135.170608,0,9.718832332,19000,2017-11-07 13:20:34,17,15.874,5984.7681554233,135.170608,1.1408394,10.0522312928,81, -11.8, -0.4,0,0,1024,1024,1307,1004,83.7,0,95,3.997,4.008,4.001,3.986,0,0,80.51,6,GPS_Atti,
0.336757075795067,36.8716322994292,5985.0962394233,135.498692,0,9.7222115972,19100,2017-11-07 13:20:34,17,15.874,5985.0962394233,135.498692,1.1408394,10.0522312928,80.9, -11.1, -0.5,0,0,1024,1024,1351,1017,83.6,0,95,3.997,4.008,4.001,3.986,0,0,80.51,6,GPS_Atti,
0.336756973600603,36.8716323371697,5985.4243234233,135.826776,0,9.7167325944,19200,2017-11-07 13:20:34,17,15.928,5985.4243234233,135.826776,1.1408394,10.0522312928,80.9, -10.3, -0.3,0,0,1024,1024,1414,1024,83.5,0,95,3.997,4.008,4.001,3.986,0,0,80.51,6,GPS_Atti,
0.336756897813875,36.8716323608876,5985.7524074233,136.15486,0,9.7143047728,19300,2017-11-07 13:20:34,17,15.928,5985.7524074233,136.15486,1.1408394,10.0522312928,81, -9.7, -0.3,0,0,1024,1024,1442,1023,83.4,0,95,3.997,4.008,4.001,3.986,0,0,80.51,6,GPS_Atti,
0.336756817619433,36.8716323561234,5986.4085754233,136.811028,0,9.722441256,19400,2017-11-07 13:20:34,17,15.928,5986.4085754233,136.811028,1.1408394,10.0522312928,81, -9.6, -0.4,0,0,1024,1024,1456,1023,83.3,0,95,3.997,4.008,4.001,3.986,0,0,80.51,6,GPS_Atti,
0.33675675296929,36.8716323243761,5987.0647434233,137.467196,0,9.7389766896,19500,2017-11-07 13:20:35,17,15.928,5987.0647434233,137.467196,1.1408394,10.0522312928,81.1, -10.7, 0.1,0,0,1024,1024,1473,1023,83.3,0,95,3.997,4.008,4.001,3.986,0,0,80.51,6,GPS_Atti,
0.336756660489243,36.8716322791244,5987.7209114233,138.123364,0,9.7626643544,19600,2017-11-07 13:20:35,17,15.928,5987.7209114233,138.123364,1.1408394,10.0522312928,81, -12.3, 0.1,0,0,1024,1024,1480,1023,83.2,0,95,3.997,4.008,4.001,3.986,0,0,80.51,6,GPS_Atti,
0.336756579613997,36.8716322521391,5988.7051634233,139.107616,0,9.7789701292,19700,2017-11-07 13:20:35,17,15.928,5988.7051634233,139.107616,1.1408394,10.0522312928,81, -13, -0.3,0,0,1024,1024,1498,1008,83.1,0,95,3.997,4.008,4.001,3.986,0,0,80.51,6,GPS_Atti,
0.33675648370175,36.871632272992,5989.6894154233,140.091868,0,9.7796591056,19800,2017-11-07 13:20:35,17,15.928,5989.6894154233,140.091868,1.1408394,10.0522312928,81, -13.1, -0.4,0,0,1024,1024,1504,997,83.1,0,95,3.997,4.008,4.001,3.986,0,0,80.51,6,GPS_Atti,
0.336756423760457,36.8716323174687,5990.6736674233,141.07612,0.223694,9.7689963756,19900,2017-11-07 13:20:35,17,15.928,5990.6736674233,141.07612,1.1408394,10.0522312928,81, -12.6, -0.1,0,0,1024,1024,1506,996,83,0,95,3.997,4.008,4.001,3.986,0,0,80.51,6,GPS_Atti,
0.33675638069366,36.8716323874189,5991.6579194233,142.060372,0.223694,9.7479005744,20000,2017-11-07 13:20:35,17,15.928,5991.6579194233,142.060372,1.1408394,10.0522312928,80.9, -12.5, 0,0,0,1024,1024,1510,1000,82.9,0,95,3.997,4.008,4.001,3.986,0,0,80.51,6,GPS_Atti,
0.336756359941227,36.8716324564207,5992.9702554233,143.372708,0.223694,9.7252627784,20100,2017-11-07 13:20:35,17,15.928,5992.9702554233,143.372708,1.1408394,10.0522312928,80.8, -13, 0,0,0,1024,1024,1512,1002,82.9,0,95,3.997,4.008,4.001,3.986,0,0,80.51,6,GPS_Atti,
0.336756334435367,36.8716324772715,5993.9545074233,144.35696,0.223694,9.7201118596,20200,2017-11-07 13:20:35,17,15.741,5993.9545074233,144.35696,1.1408394,10.0522312928,80.8, -12.7, 0,0,0,1024,1024,1519,1004,82.8,0,95,4.028,4.037,4.032,4.015,0,0,80.51,6,GPS_Atti,
0.336756318973291,36.8716325103721,5994.9387594233,145.341212,0.223694,9.7097444052,20300,2017-11-07 13:20:35,17,15.741,5994.9387594233,145.341212,1.1408394,10.0522312928,80.8, -12.3, 0,0,0,1024,1024,1522,1005,82.7,0,95,4.028,4.037,4.032,4.015,0,0,80.51,6,GPS_Atti,
0.336756311656896,36.8716325793395,5996.2510954233,146.653548,0.223694,9.6859583152,20400,2017-11-07 13:20:35,17,15.741,5996.2510954233,146.653548,1.1408394,10.0522312928,80.8, -12.3, -0.2,0,0,1024,1024,1522,1007,82.7,0,95,4.028,4.037,4.032,4.015,0,0,80.51,6,GPS_Atti,
0.336756314565043,36.8716326515852,5997.2353474233,147.6378,0.223694,9.6601381044,20500,2017-11-07 13:20:35,17,15.741,5997.2353474233,147.6378,1.1408394,10.0522312928,80.8, -12.1, -0.3,0,0,1024,1024,1526,1007,82.6,0,95,4.028,4.037,4.032,4.015,0,0,80.51,6,GPS_Atti,
0.336756248336632,36.8716327118894,5998.2195994233,148.622052,0,9.6446525396,20600,2017-11-07 13:20:36,17,15.741,5998.2195994233,148.622052,1.1408394,10.0522312928,80.8, -12.1, -0.3,0,0,1024,1024,1522,1007,82.5,0,95,4.028,4.037,4.032,4.015,0,0,80.51,6,GPS_Atti,
0.336756196735211,36.8716327697035,5999.5319354233,149.934388,0,9.6288716992,20700,2017-11-07 13:20:36,17,15.741,5999.5319354233,149.934388,1.1408394,10.0522312928,80.8, -12, -0.8,0,0,1024,1024,1520,1010,82.5,0,95,4.028,4.037,4.032,4.015,0,0,80.51,6,GPS_Atti,
0.336756125874387,36.8716328137669,6000.5161874233,150.91864,0,9.6197181556,20800,2017-11-07 13:20:36,17,15.741,6000.5161874233,150.91864,1.1408394,10.0522312928,80.9, -12.1, -0.9,0,0,1024,1024,1510,1011,82.4,0,95,4.028,4.037,4.032,4.015,0,0,80.51,6,GPS_Atti,
0.336756092629703,36.8716328515994,6001.5004394233,151.902892,0,9.6093835096,20900,2017-11-07 13:20:36,17,15.741,6001.5004394233,151.902892,1.1408394,10.0522312928,80.8, -12.1, -0.7,0,0,1024,1024,1480,1023,82.4,0,95,4.028,4.037,4.032,4.015,0,0,80.51,6,GPS_Atti,
0.33675604920073,36.871632839521,6002.4846914233,152.887144,0,9.6176512264,21000,2017-11-07 13:20:36,17,15.741,6002.4846914233,152.887144,1.1408394,10.0522312928,80.8, -12.5, -0.7,0,0,1014,1024,1459,1024,82.4,0,95,4.028,4.037,4.032,4.015,0,0,80.51,6,GPS_Atti,
0.336756034358582,36.871632828965,6003.7970274233,154.19948,0,9.6227693368,21100,2017-11-07 13:20:36,17,15.741,6003.7970274233,154.19948,1.1408394,10.0522312928,80.8, -13.4, -0.5,0,0,1006,1024,1470,1024,82.3,0,95,4.028,4.037,4.032,4.015,0,0,80.51,6,GPS_Atti,
0.336756023683114,36.8716327927405,6004.7812794233,155.183732,0,9.6365488648,21200,2017-11-07 13:20:36,17,15.607,6004.7812794233,155.183732,1.1408394,10.0522312928,80.8, -13.9, -0.5,0,0,1023,1024,1501,1024,82.3,0,95,3.934,3.946,3.947,3.937,0,0,80.51,6,GPS_Atti,
0.336756035534624,36.8716327860493,6005.7655314233,156.167984,0,9.637795584,21300,2017-11-07 13:20:36,17,15.607,6005.7655314233,156.167984,1.1408394,10.0522312928,80.8, -12.8, -0.5,0,0,1024,1024,1511,1024,82.3,0,95,3.934,3.946,3.947,3.937,0,0,80.51,6,GPS_Atti,
0.33675601485308,36.8716327599932,6006.7497834233,157.152236,0,9.6489176316,21400,2017-11-07 13:20:36,17,15.607,6006.7497834233,157.152236,1.1408394,10.0522312928,80.8, -10.8, -0.6,0,0,1024,1024,1519,1024,82.2,0,95,3.934,3.946,3.947,3.937,0,0,80.51,6,GPS_Atti,
0.336756004970969,36.871632728854,6007.7340354233,158.136488,0,9.6608270808,21500,2017-11-07 13:20:37,17,15.607,6007.7340354233,158.136488,1.1408394,10.0522312928,80.8, -10.7, -0.2,0,0,1024,1024,1522,1024,82.2,-0.1,95,3.934,3.946,3.947,3.937,0,0,80.51,6,GPS_Atti,
0.336755969509973,36.8716326180757,6009.0463714233,159.448824,0,9.7031827252,21600,2017-11-07 13:20:37,17,15.607,6009.0463714233,159.448824,1.1408394,10.0522312928,80.8, -12.3, -0.3,0,0,1024,1024,1525,1024,82.1,-0.3,95,3.934,3.946,3.947,3.937,0,0,80.51,6,GPS_Atti,
0.336755957982218,36.8716325377471,6010.0306234233,160.433076,0,9.73261186,21700,2017-11-07 13:20:37,17,15.607,6010.0306234233,160.433076,1.1408394,10.0522312928,80.8, -12.6, -0.6,0,0,1024,1024,1525,1024,82.1,-0.6,95,3.934,3.946,3.947,3.937,0,0,80.51,6,GPS_Atti,
0.336755936483398,36.871632468801,6011.3429594233,161.745412,0,9.7589241968,21800,2017-11-07 13:20:37,17,15.607,6011.3429594233,161.745412,1.1408394,10.0522312928,80.8, -12.9, -0.5,0,0,1024,1024,1524,1024,82.1,-0.9,95,3.934,3.946,3.947,3.937,0,0,80.51,6,GPS_Atti,
0.336755941158152,36.8716324319662,6012.3272114233,162.729664,0,9.771489814,21900,2017-11-07 13:20:37,17,15.607,6012.3272114233,162.729664,1.1408394,10.0522312928,80.7, -13.1, -0.4,0,0,1024,1024,1522,1023,82,-1.2,95,3.934,3.946,3.947,3.937,0,0,80.51,6,GPS_Atti,
0.336755940345559,36.8716323973305,6013.6395474233,164.042,0,9.783792964,22000,2017-11-07 13:20:37,17,15.607,6013.6395474233,164.042,1.1408394,10.0522312928,80.7, -12.7, -0.6,0,0,1024,1024,1522,1023,82,-1.5,95,3.934,3.946,3.947,3.937,0,0,80.51,6,GPS_Atti,
0.336755959106862,36.8716323819311,6014.6237994233,165.026252,0,9.7875003132,22100,2017-11-07 13:20:37,17,15.607,6014.6237994233,165.026252,1.1408394,10.0522312928,80.7, -12.4, -0.5,0,0,1024,1024,1522,1024,82,-1.8,95,3.934,3.946,3.947,3.937,0,0,80.51,6,GPS_Atti,
0.336755940297011,36.8716323009259,6015.9361354233,166.338588,0,9.8178152748,22200,2017-11-07 13:20:37,17,15.821,6015.9361354233,166.338588,1.1408394,10.0522312928,80.7, -12.7, -0.2,0,0,1024,1024,1524,1024,81.9,-2.1,95,3.954,3.966,3.968,3.96,0,0,80.51,6,GPS_Atti,
0.336755950857368,36.8716322408272,6016.9203874233,167.32284,0,9.838090866,22300,2017-11-07 13:20:37,17,15.821,6016.9203874233,167.32284,1.1408394,10.0522312928,80.7, -13.2, 0.2,0,0,1024,1024,1524,1024,81.9,-2.5,95,3.954,3.966,3.968,3.96,0,0,80.51,6,GPS_Atti,
0.336755938760472,36.8716322011939,6018.2327234233,168.635176,0,9.85318273,22400,2017-11-07 13:20:37,17,15.821,6018.2327234233,168.635176,1.1408394,10.0522312928,80.7, -13.1, 0.3,0,0,1024,1024,1521,1024,81.9,-2.5,95,3.954,3.966,3.968,3.96,0,0,80.51,6,GPS_Atti,
0.336755942090538,36.871632199102,6019.5450594233,169.947512,0,9.8536092392,22500,2017-11-07 13:20:38,17,15.821,6019.5450594233,169.947512,1.1408394,10.0522312928,80.7, -12.8, 0,0,0,1024,1024,1524,1024,81.9,-2.8,95,3.954,3.966,3.968,3.96,0,0,80.51,6,GPS_Atti,
0.336755950332399,36.8716321818569,6020.5293114233,170.931764,0,9.8589570084,22600,2017-11-07 13:20:38,17,15.821,6020.5293114233,170.931764,1.1408394,10.0522312928,80.7, -12.9, 0,0,0,1024,1024,1524,1024,81.9,-3.2,95,3.954,3.966,3.968,3.96,0,0,80.51,6,GPS_Atti,
0.336755974196329,36.8716321852657,6021.5135634233,171.916016,0,9.8555777432,22700,2017-11-07 13:20:38,17,15.821,6021.5135634233,171.916016,1.1408394,10.0522312928,80.7, -12.5, 0,0,0,1024,1024,1522,1024,81.8,-3.5,95,3.954,3.966,3.968,3.96,0,0,80.51,6,GPS_Atti,
0.336755934961821,36.871632187501,6022.8258994233,173.228352,0,9.8583664572,22800,2017-11-07 13:20:38,17,15.821,6022.8258994233,173.228352,1.1408394,10.0522312928,80.8, -12.2, 0,0,0,1024,1024,1521,1023,81.8,-3.9,95,3.954,3.966,3.968,3.96,0,0,80.51,6,GPS_Atti,
0.336755911959541,36.8716322048639,6023.8101514233,174.212604,0,9.8543638324,22900,2017-11-07 13:20:38,17,15.821,6023.8101514233,174.212604,1.1408394,10.0522312928,80.8, -12.2, 0,0,0,1024,1024,1521,1023,81.8,-4.2,95,3.954,3.966,3.968,3.96,0,0,80.51,6,GPS_Atti,
0.33675587494735,36.8716321363782,6024.7944034233,175.196856,0,9.8819228884,23000,2017-11-07 13:20:38,17,15.821,6024.7944034233,175.196856,1.1408394,10.0522312928,80.8, -12.1, 0,0,0,1024,1024,1522,1024,81.8,-4.6,95,3.954,3.966,3.968,3.96,0,0,80.51,6,GPS_Atti,
0.336755860212171,36.8716320871503,6026.1067394233,176.509192,0,9.9006892932,23100,2017-11-07 13:20:38,17,15.821,6026.1067394233,176.509192,1.1408394,10.0522312928,80.7, -12.1, 0,0,0,1024,1024,1521,1023,81.8,-4.9,95,3.954,3.966,3.968,3.96,0,0,80.51,6,GPS_Atti,
0.33675583458667,36.8716319534399,6027.0909914233,177.493444,0,9.9502299772,23200,2017-11-07 13:20:38,17,15.767,6027.0909914233,177.493444,1.1408394,10.0522312928,80.7, -12.4, 0,0,0,1024,1024,1521,1024,81.8,-5.3,95,3.954,3.966,3.968,3.96,0,0,80.51,6,GPS_Atti,
0.336755826360382,36.8716318562045,6028.4033274233,178.80578,0,9.9853349652,23300,2017-11-07 13:20:38,17,15.767,6028.4033274233,178.80578,1.1408394,10.0522312928,80.7, -12.7, 0,0,0,1024,1024,1521,1024,81.7,-5.6,95,3.954,3.966,3.968,3.96,0,0,80.51,6,GPS_Atti,
0.336755812063254,36.8716319637432,6029.3875794233,179.790032,0,9.9486879824,23400,2017-11-07 13:20:38,17,15.767,6029.3875794233,179.790032,1.1408394,10.0522312928,80.7, -12.9, 0.1,0,0,1024,1024,1517,1023,81.7,-6,95,3.954,3.966,3.968,3.96,0,0,80.51,6,GPS_Atti,
