latitude,longitude,altitude(feet),ascent(feet),speed(mph),distance(feet),time(millisecond),datetime(utc),satellites,gpslevel,voltage(v),max_altitude(feet),max_ascent(feet),max_speed(mph),max_distance(feet), xSpeed(mph), ySpeed(mph), zSpeed(mph), compass_heading(degrees), pitch(degrees), roll(degrees),isPhoto,isVideo,rc_elevator,rc_aileron,rc_throttle,rc_rudder,gimbal_heading(degrees),gimbal_pitch(degrees),battery_percent,voltageCell1,voltageCell2,voltageCell3,voltageCell4,voltageCell5,voltageCell6,current(A),battery_temperature(f),flycStateRaw,flycState,message
0.307546690561438,36.8794027614603,5808.619487385,0,0,0,0,2018-03-31 04:54:42,16,0,0,5808.619487385,0,0,0,0,0,0,22.5, -0.3, 0,0,0,364,364,364,1684,27,0,99,4.286,4.287,4.285,4.271,0,0,0,71.51,41,Motors_Started,
0.307546553533066,36.8794026325511,5808.619487385,0,0,0.06864009406,100,2018-03-31 04:54:42,16,0,0,5808.619487385,0,0,0.06864009406,0,0,0,22.5, -0.2, 0,0,0,364,364,364,1684,27,0,99,4.286,4.287,4.285,4.271,0,0,0,71.51,41,Motors_Started,
0.307546432410826,36.8794025032812,5808.619487385,0,0,0.133205712924,200,2018-03-31 04:54:42,16,0,0,5808.619487385,0,0,0.133205712924,0,0,0,22.4, -0.3, 0,0,0,364,364,364,1684,27,0,99,4.286,4.287,4.285,4.271,0,0,0,71.51,41,Motors_Started,
0.307546314070783,36.8794023633506,5808.619487385,0,0,0.199913392224,300,2018-03-31 04:54:42,16,0,0,5808.619487385,0,0,0.199913392224,0,0,0,22.5, -0.3, 0,0,0,364,364,364,1684,27,0,99,4.286,4.287,4.285,4.271,0,0,0,71.51,41,Motors_Started,
0.307546188693419,36.8794022210287,5808.619487385,0,0,0.269082029608,400,2018-03-31 04:54:42,16,0,0,5808.619487385,0,0,0.269082029608,0,0,0,22.5, -0.3, 0,0,0,364,364,364,1684,27,0,99,4.286,4.287,4.285,4.271,0,0,0,71.51,41,Motors_Started,
0.307546115237364,36.8794021720114,5808.619487385,0,0,0.3005167419,500,2018-03-31 04:54:43,16,0,0,5808.619487385,0,0,0.3005167419,0,0,0,22.4, -0.3, 0,0,0,364,364,374,1684,27,0,99,4.286,4.287,4.285,4.271,0,0,0,71.51,41,Motors_Started,
0.307546009546667,36.8794020735685,5808.619487385,0,0,0.35316274096,600,2018-03-31 04:54:43,16,0,0,5808.619487385,0,0,0.35316274096,0,0,0,22.5, -0.3, 0,0,0,470,522,592,1543,27,0,99,4.286,4.287,4.285,4.271,0,0,0,71.51,41,Motors_Started,
0.307545847411251,36.8794018963988,5808.619487385,0,0,0.4407316414,700,2018-03-31 04:54:43,16,0,17.096,5808.619487385,0,0,0.4407316414,0,0,0,22.5, -0.3, 0,0,0,711,719,1022,1168,27,0,99,4.286,4.287,4.285,4.271,0,0,1.456,71.51,41,Motors_Started,Setting new Return-To-Home altitude to 45m (148 ft). Setting new Maximum Flight Altitude to 150m (492 ft)
0.307545659290551,36.8794017068813,5808.619487385,0,0,0.53815290436,800,2018-03-31 04:54:43,16,0,17.096,5808.619487385,0,0,0.53815290436,0,0,0,22.4, -0.3, 0,0,0,1024,1024,1024,1024,25.3,0,99,4.286,4.287,4.285,4.271,0,0,1.456,71.51,41,Motors_Started,
0.307545463715445,36.8794015317601,5808.619487385,0,0,0.63375330112,900,2018-03-31 04:54:43,16,0,17.096,5808.619487385,0,0,0.63375330112,0,0,0,22.4, -0.4, 0,0,0,1024,1024,1024,1024,25.3,0,99,4.286,4.287,4.285,4.271,0,0,1.456,71.51,41,Motors_Started,
0.307545261782893,36.8794013332714,5808.619487385,0,0,0.7370571102,1000,2018-03-31 04:54:43,16,0,17.096,5808.619487385,0,0,0.7370571102,0,0,0,22.4, -0.4, 0,0,0,1024,1024,1024,1024,24.2,0,99,4.286,4.287,4.285,4.271,0,0,1.456,71.51,41,Motors_Started,
0.307545078331349,36.8794011340365,5808.619487385,0,0,0.83579399,1100,2018-03-31 04:54:43,16,0,17.096,5808.619487385,0,0,0.83579399,0,0,0,22.4, -0.3, 0,0,0,1024,1024,1024,1024,23.8,0,99,4.286,4.287,4.285,4.271,0,0,1.456,71.51,41,Motors_Started,
0.307544893212888,36.8794009311332,5808.619487385,0,0,0.9359252268,1200,2018-03-31 04:54:43,16,0,17.096,5808.619487385,0,0,0.9359252268,0,0,0,22.4, -0.3, 0,0,0,1024,1024,1024,1024,23.5,0,99,4.286,4.287,4.285,4.271,0,0,1.456,71.51,41,Motors_Started,
0.307544718652648,36.8794007484132,5808.619487385,0,0,1.0281168308,1300,2018-03-31 04:54:43,16,0,17.096,5808.619487385,0,0,1.0281168308,0,0,0,22.4, -0.4, 0,0,0,1024,1024,1024,1024,23.3,0,99,4.286,4.287,4.285,4.271,0,0,1.456,71.51,41,Motors_Started,
0.307544530686243,36.8794005671596,5808.619487385,0,0,1.12334977348,1400,2018-03-31 04:54:44,16,0,17.096,5808.619487385,0,0,1.12334977348,0,0,0,22.4, -0.4, 0,0,0,1024,1024,1024,1024,23.2,0,99,4.286,4.287,4.285,4.271,0,0,1.456,71.51,41,Motors_Started,
0.307544334492532,36.8794003948685,5808.619487385,0,0,1.21838258492,1500,2018-03-31 04:54:44,16,0,17.096,5808.619487385,0,0,1.21838258492,0,0,0,22.4, -0.4, 0,0,0,1024,1024,1024,1024,23.1,0,99,4.286,4.287,4.285,4.271,0,0,1.456,71.51,10,Assisted_Takeoff,
0.307544160382964,36.8794002296423,5808.619487385,0,0,1.3059219578,1600,2018-03-31 04:54:44,16,0,17.096,5808.619487385,0,0,1.3059219578,0,0,0,22.4, -0.3, 0,0,0,1024,1024,1024,1024,23.1,0,99,4.286,4.287,4.285,4.271,0,0,1.456,71.51,10,Assisted_Takeoff,
0.307544017283447,36.8794000725158,5808.619487385,0,0,1.3833825902,1700,2018-03-31 04:54:44,16,0,17.069,5808.619487385,0,0,1.3833825902,0,0,0,22.4, -0.3, 0,0,0,1024,1024,1024,1024,23,0,99,4.286,4.287,4.285,4.271,0,0,1.456,71.51,10,Assisted_Takeoff,
0.30754390480682,36.8793999402097,5808.619487385,0,0,1.4465551644,1800,2018-03-31 04:54:44,16,0,17.069,5808.619487385,0,0,1.4465551644,0,0,0,22.4, -0.3, 0,0,0,1024,1024,1024,1024,23,0,99,4.286,4.287,4.285,4.271,0,0,1.456,71.51,10,Assisted_Takeoff,
0.307543787646382,36.8793998144698,5808.619487385,0,0,1.5092356126,1900,2018-03-31 04:54:44,16,0,17.069,5808.619487385,0,0,1.5092356126,0,0,0,22.4, -0.3, 0,0,0,1024,1024,1024,1024,22.9,0,99,4.286,4.287,4.285,4.271,0,0,1.456,71.51,10,Assisted_Takeoff,
0.307543701695886,36.8793997174292,5808.619487385,0,0,1.55646658524,2000,2018-03-31 04:54:44,16,0,17.069,5808.619487385,0,0,1.55646658524,0,0,0,22.4, -0.3, 0,0,0,1024,1024,1024,1024,22.9,0,99,4.286,4.287,4.285,4.271,0,0,1.456,71.51,10,Assisted_Takeoff,
0.307543602532196,36.8793996146466,5808.619487385,0,0,1.60856960528,2100,2018-03-31 04:54:44,16,0,17.069,5808.619487385,0,0,1.60856960528,0,0,0,22.4, -0.3, 0,0,0,1024,1024,1024,1024,22.9,0,99,4.286,4.287,4.285,4.271,0,0,1.456,71.51,10,Assisted_Takeoff,
0.3075435301902,36.8793995205375,5808.619487385,0,0,1.65157157516,2200,2018-03-31 04:54:44,16,0,17.069,5808.619487385,0,0,1.65157157516,0,0,0,22.4, -0.3, 0,0,0,1024,1024,1024,1024,22.9,0,99,4.286,4.287,4.285,4.271,0,0,1.456,71.51,10,Assisted_Takeoff,
0.307543444055283,36.8793994028399,5808.619487385,0,0,1.70427170808,2300,2018-03-31 04:54:44,16,0,17.069,5808.619487385,0,0,1.70427170808,0,0,0,22.4, -0.3, 0,0,0,1024,1024,1024,1024,22.8,0,99,4.286,4.287,4.285,4.271,0,0,1.456,71.51,10,Assisted_Takeoff,
0.307543383248777,36.8793992872404,5808.619487385,0,0,1.7500656728,2400,2018-03-31 04:54:44,16,0,17.069,5808.619487385,0,0,1.7500656728,0,0,0,22.4, -0.3, 0,0,0,1024,1024,1024,1024,22.8,0,99,4.286,4.287,4.285,4.271,0,0,1.456,71.51,10,Assisted_Takeoff,
0.307543295925096,36.8793991520105,5808.619487385,0,0,1.80780189512,2500,2018-03-31 04:54:45,16,0,17.069,5808.619487385,0,0,1.80780189512,0,0,0,22.4, -0.3, 0,0,0,1024,1024,1024,1024,22.8,0,99,4.286,4.287,4.285,4.271,0,0,1.456,71.51,10,Assisted_Takeoff,
0.307543227569938,36.8793990504306,5808.619487385,0,0,1.85189966556,2600,2018-03-31 04:54:45,16,0,17.069,5808.619487385,0,0,1.85189966556,0,0,0,22.4, -0.3, 0,0,0,1024,1024,1024,1024,22.8,0,99,4.286,4.287,4.285,4.271,0,0,1.456,71.51,10,Assisted_Takeoff,
0.307543139709278,36.8793989651923,5808.619487385,0,0,1.89650924704,2700,2018-03-31 04:54:45,16,0,17.229,5808.619487385,0,0,1.89650924704,0,0,0,22.4, -0.3, 0,0,0,1024,1024,1024,1024,22.8,0,99,4.28,4.276,4.269,4.247,0,0,3.21,71.51,10,Assisted_Takeoff,
0.307543066548174,36.8793989002429,5808.619487385,0,0,1.93205058676,2800,2018-03-31 04:54:45,16,0,17.229,5808.619487385,0,0,1.93205058676,0,0,0,22.4, -0.3, 0,0,0,1024,1024,1024,1024,22.8,0,99,4.28,4.276,4.269,4.247,0,0,3.21,71.51,10,Assisted_Takeoff,
0.307542975810054,36.8793988164071,5808.619487385,0,0,1.97701121812,2900,2018-03-31 04:54:45,16,0,17.229,5808.619487385,0,0,1.97701121812,0,0,0,22.4, -0.3, 0,0,0,1024,1024,1024,1024,22.8,0,99,4.28,4.276,4.269,4.247,0,0,3.21,71.51,10,Assisted_Takeoff,
0.307542914063935,36.8793987477864,5808.619487385,0,0,2.01068247904,3000,2018-03-31 04:54:45,16,0,17.229,5808.619487385,0,0,2.01068247904,0,0,0,22.4, -0.3, 0,0,0,1024,1024,1024,1024,22.8,0,99,4.28,4.276,4.269,4.247,0,0,3.21,71.51,10,Assisted_Takeoff,
0.307542849280362,36.8793986617205,5808.619487385,0,0,2.0497540026,3100,2018-03-31 04:54:45,16,0,17.229,5808.619487385,0,0,2.0497540026,0,0,0,22.4, -0.3, 0,0,0,1024,1024,1024,1024,22.8,0,99,4.28,4.276,4.269,4.247,0,0,3.21,71.51,10,Assisted_Takeoff,
0.307542814218742,36.8793985860281,5808.619487385,0,0,2.0786746072,3200,2018-03-31 04:54:45,16,0,17.229,5808.619487385,0,0,2.0786746072,0,0,0,22.4, -0.3, 0,0,0,1024,1024,1024,1024,22.8,0,99,4.28,4.276,4.269,4.247,0,0,3.21,71.51,10,Assisted_Takeoff,
0.307542765301912,36.8793984957338,5808.619487385,0,0,2.11498038264,3300,2018-03-31 04:54:45,16,0,17.229,5808.619487385,0,0,2.11498038264,0,0,0,22.4, -0.2, 0,0,0,1024,1024,1024,1024,22.8,0,99,4.28,4.276,4.269,4.247,0,0,3.21,71.51,10,Assisted_Takeoff,
0.307542725757185,36.8793984131628,5808.619487385,0,0,2.14693904508,3400,2018-03-31 04:54:46,16,0,17.229,5808.619487385,0,0,2.14693904508,0,0,0,22.4, -0.3, 0,0,0,1024,1024,1024,1024,22.8,0,99,4.28,4.276,4.269,4.247,0,0,3.21,71.51,10,Assisted_Takeoff,
0.307542654798145,36.8793983186376,5808.619487385,0,0,2.18987211732,3500,2018-03-31 04:54:46,16,0,17.229,5808.619487385,0,0,2.18987211732,0,0,0,22.4, -0.3, 0,0,0,1024,1024,1024,1024,22.8,0,99,4.28,4.276,4.269,4.247,0,0,3.21,71.51,10,Assisted_Takeoff,
0.307542603867745,36.8793982476879,5808.619487385,0,0,2.22152894248,3600,2018-03-31 04:54:46,16,0,17.229,5808.619487385,0,0,2.22152894248,0,0,0,22.4, -0.2, 0,0,0,1024,1024,1024,1024,22.7,0,99,4.28,4.276,4.269,4.247,0,0,3.21,71.51,10,Assisted_Takeoff,
0.307542545832444,36.8793981797728,5808.619487385,0,0,2.25410768368,3700,2018-03-31 04:54:46,16,0,17.069,5808.619487385,0,0,2.25410768368,0,0,0,22.4, -0.2, 0,0,0,1024,1024,1024,1024,22.7,0,99,4.279,4.279,4.276,4.261,0,0,1.786,71.51,10,Assisted_Takeoff,
0.307542456203293,36.8793980377064,5808.619487385,0,0,2.31450794808,3900,2018-03-31 04:54:46,16,0,17.069,5808.619487385,0,0,2.31450794808,0,0,0,22.4, -0.2, 0,0,0,1024,1024,1024,1024,22.7,0,99,4.279,4.279,4.276,4.261,0,0,1.786,71.51,10,Assisted_Takeoff,
0.307542405137732,36.8793979775568,5808.619487385,0,0,2.34328419572,4000,2018-03-31 04:54:46,16,0,17.069,5808.619487385,0,0,2.34328419572,0,0,0,22.4, -0.2, 0,0,0,1024,1024,1024,1024,22.7,0,99,4.279,4.279,4.276,4.261,0,0,1.786,71.51,10,Assisted_Takeoff,
0.307542324883127,36.879397913006,5808.619487385,0,0,2.38037409192,4100,2018-03-31 04:54:46,16,0,17.069,5808.619487385,0,0,2.38037409192,0,0,0,22.4, -0.2, 0,0,0,1024,1024,1024,1024,22.7,0,99,4.279,4.279,4.276,4.261,0,0,1.786,71.51,10,Assisted_Takeoff,
0.307542258607084,36.8793978507484,5808.619487385,0,0,2.4134351166,4200,2018-03-31 04:54:46,16,0,17.069,5808.619487385,0,0,2.4134351166,0,0,0,22.4, -0.2, 0,0,0,1024,1024,1024,1024,22.7,0,99,4.279,4.279,4.276,4.261,0,0,1.786,71.51,10,Assisted_Takeoff,
0.307542192197103,36.8793977699627,5808.619487385,0,0,2.45154863488,4300,2018-03-31 04:54:46,16,0,17.069,5808.619487385,0,0,2.45154863488,0,0,0,22.4, -0.2, 0,0,0,1024,1024,1024,1024,22.7,0,99,4.279,4.279,4.276,4.261,0,0,1.786,71.51,10,Assisted_Takeoff,
0.307542141644501,36.8793977065815,5808.619487385,0,0,2.48107619488,4400,2018-03-31 04:54:46,16,0,17.069,5808.619487385,0,0,2.48107619488,0,0,0,22.4, -0.2, 0,0,0,1024,1024,1024,1024,22.7,0,99,4.279,4.279,4.276,4.261,0,0,1.786,71.51,10,Assisted_Takeoff,
0.307542082697679,36.8793976425767,5808.619487385,0,0,2.51282160272,4500,2018-03-31 04:54:47,16,0,17.069,5808.619487385,0,0,2.51282160272,0,0,0,22.4, -0.2, 0,0,0,1024,1024,1026,1024,22.7,0,99,4.279,4.279,4.276,4.261,0,0,1.786,71.51,10,Assisted_Takeoff,
0.307542039749911,36.8793975794723,5808.619487385,0,0,2.54041674796,4600,2018-03-31 04:54:47,16,0,17.069,5808.619487385,0,0,2.54041674796,0,0,0,22.4, -0.2, 0,0,0,1024,1024,1092,1024,22.7,0,99,4.279,4.279,4.276,4.261,0,0,1.786,71.51,10,Assisted_Takeoff,
0.307541984556651,36.87939749648,5808.619487385,0,0,2.57640756276,4700,2018-03-31 04:54:47,16,0,17.069,5808.619487385,0,0,2.57640756276,0,0,0,22.4, -0.2, 0,0,0,1024,1024,1181,1024,22.7,0,99,4.28,4.281,4.279,4.264,0,0,1.888,71.51,10,Assisted_Takeoff,
0.307541944798598,36.8793974279948,5808.619487385,0,0,2.60471136944,4800,2018-03-31 04:54:47,16,0,17.069,5808.619487385,0,0,2.60471136944,0,0,0,22.4, -0.2, 0,0,0,1024,1024,1193,1024,22.7,0,99,4.28,4.281,4.279,4.264,0,0,1.888,71.51,10,Assisted_Takeoff,
0.307541891686083,36.8793973615545,5808.619487385,0,0,2.63570218408,4900,2018-03-31 04:54:47,16,0,17.069,5808.619487385,0,0,2.63570218408,0,0,0,22.4, -0.3, 0,0,0,1024,1024,1206,1024,22.7,0,99,4.28,4.281,4.279,4.264,0,0,1.888,71.51,10,Assisted_Takeoff,
0.307541870741036,36.879397311561,5808.619487385,0,0,2.65441937628,5000,2018-03-31 04:54:47,16,0,17.069,5808.619487385,0,0,2.65441937628,0,0,0,22.4, -0.3, 0,0,0,1024,1024,1233,1024,22.7,0,99,4.28,4.281,4.279,4.264,0,0,1.888,71.51,10,Assisted_Takeoff,
0.307541847685526,36.8793972551237,5808.619487385,0,0,2.6754265948,5100,2018-03-31 04:54:47,16,0,17.069,5808.619487385,0,0,2.6754265948,0,0,0,22.4, -0.4, 0,0,0,1024,1024,1252,1024,22.7,0,99,4.28,4.281,4.279,4.264,0,0,1.888,71.51,10,Assisted_Takeoff,
0.307541841654991,36.8793972138027,5808.619487385,0,0,2.68821202828,5200,2018-03-31 04:54:47,16,0,17.069,5808.619487385,0,0,2.68821202828,0,0,0,22.4, -0.5, -0.1,0,0,1024,1024,1229,1024,22.7,0,99,4.28,4.281,4.279,4.264,0,0,1.888,71.51,10,Assisted_Takeoff,
0.307541813335943,36.8793971639955,5808.619487385,0,0,2.70869759324,5300,2018-03-31 04:54:47,16,0,17.069,5808.619487385,0,0,2.70869759324,0,0,0,22.4, -1.2, -0.5,0,0,1024,1024,1212,1024,22.7,0,99,4.28,4.281,4.279,4.264,0,0,1.888,71.51,10,Assisted_Takeoff,
0.307541850174603,36.8793971110392,5808.619487385,0,0,2.71453092676,5400,2018-03-31 04:54:48,16,0,17.069,5808.619487385,0,0,2.71453092676,0,0,0,22.4, -1.5, -1,0,0,1024,1024,1203,1024,22.7,0,99,4.28,4.281,4.279,4.264,0,0,1.888,71.51,10,Assisted_Takeoff,
0.307541943634261,36.8793970230591,5808.619487385,0,0.223694,2.7171260712,5500,2018-03-31 04:54:48,16,0,17.069,5808.619487385,0,0.223694,2.7171260712,0.223694,0,-0.447388,22.4, -1.5, -1.1,0,0,1024,1024,1203,1024,22.7,0,99,4.28,4.281,4.279,4.264,0,0,1.888,71.51,6,P-GPS,Obstacle Avoided. Revise Flight Route
0.30754214183218,36.8793969285762,5808.619487385,0,0.447388,2.69871399712,5600,2018-03-31 04:54:48,16,0,17.069,5808.619487385,0,0.447388,2.7171260712,0.447388,0,-0.447388,22.4, -0.3, -0.1,0,0,1024,1024,1221,1024,22.7,0,99,4.28,4.281,4.279,4.264,0,0,1.888,71.51,6,P-GPS,
0.307542370325671,36.8793968244371,5808.619487385,0,0.447388,2.67889116184,5700,2018-03-31 04:54:48,16,0,17.069,5808.619487385,0,0.447388,2.7171260712,0.447388,0,-0.671082,22.4, 0.8, 0.4,0,0,1024,1024,1266,1024,22.7,0,99,4.28,4.281,4.279,4.264,0,0,1.888,71.51,6,P-GPS,
0.307542643386417,36.879396733129,5808.619487385,0,0.447388,2.64910113464,5800,2018-03-31 04:54:48,16,0,17.069,5808.619487385,0,0.447388,2.7171260712,0.447388,0,-0.894776,22.4, 1.3, 0.9,0,0,1024,1024,1302,1024,22.7,0,99,4.28,4.281,4.279,4.264,0,0,1.888,71.51,6,P-GPS,Home Point Recorded. RTH Altitude:  45m.
0.307543191760862,36.8793965672997,5809.275655385,0.656168,0.447388,2.59551517492,6000,2018-03-31 04:54:48,16,0,17.069,5809.275655385,0.656168,0.447388,2.7171260712,0.447388,0,-1.565858,22.3, 2.2, 1.4,0,0,1024,1024,1286,1024,22.7,0,99,4.28,4.281,4.279,4.264,0,0,1.888,71.51,6,P-GPS,
0.307543461581412,36.8793964877114,5809.275655385,0.656168,0.447388,2.57432422936,6100,2018-03-31 04:54:48,16,0,17.069,5809.275655385,0.656168,0.447388,2.7171260712,0.447388,0,-1.789552,22.3, 2.5, 2.2,0,0,1024,1024,1288,1024,22.7,0,99,4.28,4.281,4.279,4.264,0,0,1.888,71.51,6,P-GPS,
0.307543709225404,36.8793964247927,5809.603739385,0.984252,0.447388,2.5550033626,6200,2018-03-31 04:54:48,16,0,17.069,5809.603739385,0.984252,0.447388,2.7171260712,0.447388,0,-2.23694,22.3, 2.6, 2.4,0,0,1024,1024,1296,1024,22.7,0,99,4.28,4.281,4.279,4.264,0,0,1.888,71.51,6,P-GPS,
0.307543890765562,36.8793963452815,5809.931823385,1.312336,0.447388,2.55407816572,6300,2018-03-31 04:54:48,16,0,17.069,5809.931823385,1.312336,0.447388,2.7171260712,0.447388,0,-2.23694,22.4, 2.6, 2.3,0,0,1024,1024,1320,1024,22.7,0,99,4.28,4.281,4.279,4.264,0,0,1.888,71.51,6,P-GPS,
0.307544098984111,36.8793962758654,5810.259907385,1.64042,0.447388,2.54815296868,6400,2018-03-31 04:54:48,16,0,17.069,5810.259907385,1.64042,0.447388,2.7171260712,0.447388,0,-2.460634,22.4, 3.1, 2.7,0,0,1024,1024,1354,1024,22.7,0,99,4.28,4.281,4.279,4.264,0,0,1.888,71.51,6,P-GPS,
0.307544309806542,36.8793961901008,5810.916075385,2.296588,0.447388,2.55001976664,6500,2018-03-31 04:54:49,16,0,17.069,5810.916075385,2.296588,0.447388,2.7171260712,0.447388,0,-2.684328,22.4, 3.3, 3,0,0,1024,1024,1360,1024,22.7,0,99,4.28,4.281,4.279,4.264,0,0,1.888,71.51,6,P-GPS,
0.307544510463818,36.8793961569639,5811.244159385,2.624672,0.223694,2.5375000812,6600,2018-03-31 04:54:49,16,0,17.069,5811.244159385,2.624672,0.447388,2.7171260712,0.223694,0,-3.131716,22.4, 3.5, 3.1,0,0,1024,1024,1362,1024,22.7,0,99,4.28,4.281,4.279,4.264,0,0,1.888,71.51,6,P-GPS,
0.307544654694289,36.8793961457302,5811.572243385,2.952756,0.223694,2.52541674748,6700,2018-03-31 04:54:49,16,0,16.616,5811.572243385,2.952756,0.447388,2.7171260712,0.223694,0,-3.35541,22.5, 3.6, 2.8,0,0,1024,1024,1363,1024,22.7,0,99,4.237,4.236,4.231,4.204,0,0,6.208,71.51,6,P-GPS,
0.307544782746576,36.8793961758133,5812.228411385,3.608924,0.223694,2.50152895144,6800,2018-03-31 04:54:49,16,0,16.616,5812.228411385,3.608924,0.447388,2.7171260712,0.223694,0,-3.802798,22.4, 3.4, 2.2,0,0,1024,1024,1382,1024,22.7,0,99,4.237,4.236,4.231,4.204,0,0,6.208,71.51,6,P-GPS,
0.307544876299258,36.8793961855348,5812.884579385,4.265092,0,2.48882553896,6900,2018-03-31 04:54:49,16,0,16.616,5812.884579385,4.265092,0.447388,2.7171260712,0,0,-4.026492,22.4, 3.5, 1.9,0,0,1024,1024,1402,1024,22.7,0,99,4.237,4.236,4.231,4.204,0,0,6.208,71.51,6,P-GPS,
0.307544958859537,36.8793961808702,5813.540747385,4.92126,0,2.48263131304,7000,2018-03-31 04:54:49,16,0,16.616,5813.540747385,4.92126,0.447388,2.7171260712,0,0,-4.026492,22.4, 3.4, 2.1,0,0,1024,1024,1420,1024,22.7,0,99,4.237,4.236,4.231,4.204,0,0,6.208,71.51,6,P-GPS,
0.307544999274871,36.8793961301879,5814.196915385,5.577428,0,2.4968340694,7100,2018-03-31 04:54:49,16,0,16.616,5814.196915385,5.577428,0.447388,2.7171260712,0,0,-4.250186,22.4, 3.1, 2,0,0,1024,1024,1450,1024,22.7,0,99,4.237,4.236,4.231,4.204,0,0,6.208,71.51,6,P-GPS,
0.307545038695836,36.8793960722399,5814.853083385,6.233596,0,2.51383866312,7200,2018-03-31 04:54:49,16,0,16.616,5814.853083385,6.233596,0.447388,2.7171260712,0,0,-4.47388,22.3, 2.7, 2,0,0,1024,1024,1450,1024,22.7,0,99,4.237,4.236,4.231,4.204,0,0,6.208,71.51,6,P-GPS,
0.307545066164429,36.8793960032928,5815.509251385,6.889764,0,2.53590559296,7300,2018-03-31 04:54:49,16,0,16.616,5815.509251385,6.889764,0.447388,2.7171260712,0,0,-4.697574,22.3, 2.3, 2.2,0,0,1024,1024,1511,1024,22.7,0,99,4.237,4.236,4.231,4.204,0,0,6.208,71.51,6,P-GPS,
0.307545111220828,36.8793959435457,5816.165419385,7.545932,0,2.55334325756,7400,2018-03-31 04:54:50,16,0,16.616,5816.165419385,7.545932,0.447388,2.7171260712,0,0,-5.144962,22.3, 2.4, 2.2,0,0,1024,1024,1511,1024,22.7,0,99,4.237,4.236,4.231,4.204,0,0,6.208,71.51,6,P-GPS,
0.30754514822559,36.8793958946979,5817.149671385,8.530184,0,2.5677166176,7500,2018-03-31 04:54:50,16,0,16.616,5817.149671385,8.530184,0.447388,2.7171260712,0,0,-5.59235,22.3, 2.9, 1.9,0,0,1024,1024,1491,1024,22.7,0,99,4.237,4.236,4.231,4.204,0,0,6.208,71.51,6,P-GPS,
0.307545223218896,36.879395847451,5817.805839385,9.186352,0,2.57872055496,7600,2018-03-31 04:54:50,16,0,16.616,5817.805839385,9.186352,0.447388,2.7171260712,0,0,-6.039738,22.3, 3, 1.6,0,0,1024,1024,1512,1024,22.7,0,99,4.237,4.236,4.231,4.204,0,0,6.208,71.51,6,P-GPS,
0.307545308397102,36.8793957733533,5818.790091385,10.170604,0,2.59896333776,7700,2018-03-31 04:54:50,16,0,16.482,5818.790091385,10.170604,0.447388,2.7171260712,0,0,-6.263432,22.3, 2.7, 2.2,0,0,1024,1024,1534,1024,22.7,0,99,4.148,4.162,4.159,4.123,0,0,14.788,71.51,6,P-GPS,
0.307545388441028,36.8793956881454,5819.774343385,11.154856,0,2.62402239368,7800,2018-03-31 04:54:50,16,0,16.482,5819.774343385,11.154856,0.447388,2.7171260712,0,0,-6.71082,22.4, 2.7, 3.2,0,0,1024,1024,1546,1024,22.6,0,99,4.148,4.162,4.159,4.123,0,0,14.788,71.51,6,P-GPS,
0.30754541228328,36.8793956112844,5820.758595385,12.139108,0,2.65006242076,7900,2018-03-31 04:54:50,16,0,16.482,5820.758595385,12.139108,0.447388,2.7171260712,0,0,-6.934514,22.4, 3.2, 3.3,0,0,1024,1024,1543,1024,22.6,0,99,4.148,4.162,4.159,4.123,0,0,14.788,71.51,6,P-GPS,
0.307545454538145,36.8793955715649,5821.742847385,13.12336,0,2.66167331352,8000,2018-03-31 04:54:50,16,0,16.482,5821.742847385,13.12336,0.447388,2.7171260712,0,0,-7.381902,22.4, 4, 2.5,0,0,1024,1024,1588,1024,22.6,0,99,4.148,4.162,4.159,4.123,0,0,14.788,71.51,6,P-GPS,
0.307545509234729,36.8793955375282,5823.055183385,14.435696,0,2.67061688336,8100,2018-03-31 04:54:50,16,0,16.482,5823.055183385,14.435696,0.447388,2.7171260712,0,0,-7.381902,22.4, 3.9, 2.8,0,0,1024,1024,1640,1024,22.6,0,99,4.148,4.162,4.159,4.123,0,0,14.788,71.51,6,P-GPS,
0.307545554596868,36.8793955144184,5824.039435385,15.419948,0,2.67632554496,8200,2018-03-31 04:54:50,16,0,16.482,5824.039435385,15.419948,0.447388,2.7171260712,0,0,-7.82929,22.5, 2.7, 3,0,0,1024,1024,1615,1024,22.6,0,99,4.148,4.162,4.159,4.123,0,0,14.788,71.51,6,P-GPS,
0.307545551569795,36.8793955122258,5825.351771385,16.732284,0,2.67728683108,8300,2018-03-31 04:54:50,16,0,16.482,5825.351771385,16.732284,0.447388,2.7171260712,0,0,-8.500372,22.5, 2.4, 1.7,0,0,1024,1024,1620,1024,22.6,0,99,4.148,4.162,4.159,4.123,0,0,14.788,71.51,6,P-GPS,
0.307545587001072,36.8793955426863,5826.664107385,18.04462,0,2.66432751308,8400,2018-03-31 04:54:50,16,0,16.482,5826.664107385,18.04462,0.447388,2.7171260712,0,0,-8.724066,22.5, 3.1, 1.5,0,0,1024,1024,1615,1024,22.6,0,99,4.148,4.162,4.159,4.123,0,0,14.788,71.51,6,P-GPS,
0.307545622051904,36.8793955712716,5827.976443385,19.356956,0,2.65210638408,8500,2018-03-31 04:54:51,16,0,16.482,5827.976443385,19.356956,0.447388,2.7171260712,0,0,-8.94776,22.5, 3.9, 1.9,0,0,1024,1024,1603,1024,22.6,0,99,4.148,4.162,4.159,4.123,0,0,14.788,71.51,6,P-GPS,
0.307545671650034,36.8793956289749,5829.288779385,20.669292,0,2.62866478228,8600,2018-03-31 04:54:51,16,0,16.482,5829.288779385,20.669292,0.447388,2.7171260712,0,0,-9.171454,22.5, 3.7, 1.4,0,0,1024,1024,1602,1024,22.6,0,99,4.148,4.162,4.159,4.123,0,0,14.788,71.51,6,P-GPS,
0.307545697611502,36.8793956758192,5830.601115385,21.981628,0,2.6104167502,8700,2018-03-31 04:54:51,16,0,16.322,5830.601115385,21.981628,0.447388,2.7171260712,0,0,-9.171454,22.5, 3.3, 1.3,0,0,1024,1024,1599,1024,22.6,0,99,4.129,4.128,4.136,4.104,0,0,17.044,71.51,6,P-GPS,
0.307545755030844,36.8793957364323,5831.913451385,23.293964,0,2.58566937408,8800,2018-03-31 04:54:51,16,0,16.322,5831.913451385,23.293964,0.447388,2.7171260712,0,0,-8.94776,22.4, 3.4, 1.5,0,0,1024,1024,1594,1024,22.6,0,99,4.129,4.128,4.136,4.104,0,0,17.044,71.51,6,P-GPS,
0.30754579277553,36.8793957750373,5833.225787385,24.6063,0,2.5699147804,8900,2018-03-31 04:54:51,16,0,16.322,5833.225787385,24.6063,0.447388,2.7171260712,0,0,-8.94776,22.4, 3.4, 1.7,0,0,1024,1024,1622,1024,22.6,0,99,4.129,4.128,4.136,4.104,0,0,17.044,71.51,6,P-GPS,
0.307545854359618,36.8793958576581,5834.538123385,25.918636,0.223694,2.5372212098,9000,2018-03-31 04:54:51,16,0,16.322,5834.538123385,25.918636,0.447388,2.7171260712,0,0.223694,-8.724066,22.3, 3.5, 1,0,0,1024,1024,1628,1024,22.6,0,99,4.129,4.128,4.136,4.104,0,0,17.044,71.51,6,P-GPS,
0.307545894021593,36.8793959364311,5835.850459385,27.230972,0,2.50697514584,9100,2018-03-31 04:54:51,16,0,16.322,5835.850459385,27.230972,0.447388,2.7171260712,0,0,-8.94776,22.4, 3.7, 0.7,0,0,1024,1024,1627,1024,22.6,0,99,4.129,4.128,4.136,4.104,0,0,17.044,71.51,6,P-GPS,
0.307545942824024,36.8793960424042,5837.162795385,28.543308,0,2.46654207368,9200,2018-03-31 04:54:51,16,0,16.322,5837.162795385,28.543308,0.447388,2.7171260712,0,0,-9.171454,22.4, 3.5, 0.6,0,0,1024,1024,1642,1024,22.6,0,99,4.129,4.128,4.136,4.104,0,0,17.044,71.51,6,P-GPS,
0.307545984753607,36.8793961925712,5839.787467385,31.16798,0,2.4104167438,9400,2018-03-31 04:54:52,16,0,16.322,5839.787467385,31.16798,0.447388,2.7171260712,0,0,-9.395148,22.4, 3.4, 0.5,0,0,1024,1024,1640,1024,22.6,0,99,4.129,4.128,4.136,4.104,0,0,17.044,71.51,6,P-GPS,
0.307546019505823,36.8793962169122,5841.427887385,32.8084,0,2.40025926316,9500,2018-03-31 04:54:52,16,0,16.322,5841.427887385,32.8084,0.447388,2.7171260712,0,0,-9.395148,22.4, 3.4, 0.6,0,0,1024,1024,1644,1024,22.6,0,99,4.129,4.128,4.136,4.104,0,0,17.044,71.51,6,P-GPS,
0.307546094568339,36.8793962265454,5842.740223385,34.120736,0,2.39412081152,9600,2018-03-31 04:54:52,16,0,16.482,5842.740223385,34.120736,0.447388,2.7171260712,0,0,-9.618842,22.4, 4, 1.3,0,0,1024,1024,1684,1024,22.6,0,99,4.129,4.128,4.136,4.104,0,0,17.044,71.51,6,P-GPS,
0.307546301864985,36.8793961719709,5847.005315385,38.385828,0,2.4083170062,9900,2018-03-31 04:54:52,16,0,16.482,5847.005315385,38.385828,0.447388,2.7171260712,0,0,-9.842536,22.5, 3.5, 1.5,0,0,1024,1024,1679,1024,22.6,0,99,4.129,4.128,4.136,4.104,0,0,17.044,71.51,6,P-GPS,
0.307546370062184,36.8793961774663,5848.317651385,39.698164,0,2.40497711108,10000,2018-03-31 04:54:52,16,0,16.482,5848.317651385,39.698164,0.447388,2.7171260712,0,0,-10.289924,22.5, 3.1, 1.6,0,0,1024,1024,1673,1024,22.6,0,99,4.129,4.128,4.136,4.104,0,0,17.044,71.51,6,P-GPS,
0.307546398880554,36.8793961668974,5849.958071385,41.338584,0,2.40833997208,10100,2018-03-31 04:54:52,16,0,16.482,5849.958071385,41.338584,0.447388,2.7171260712,0,0,-10.289924,22.5, 3.5, 1.5,0,0,1024,1024,1677,1024,22.6,0,99,4.129,4.128,4.136,4.104,0,0,17.044,71.51,6,P-GPS,
0.307546469423933,36.8793961603951,5851.598491385,42.979004,0,2.4097113632,10200,2018-03-31 04:54:52,16,0,16.482,5851.598491385,42.979004,0.447388,2.7171260712,0,0,-10.513618,22.5, 3.8, 1.5,0,0,1024,1024,1675,1024,22.6,0,99,4.129,4.128,4.136,4.104,0,0,17.044,71.51,6,P-GPS,
0.307546542084494,36.8793961166968,5853.238911385,44.619424,0,2.42490821408,10300,2018-03-31 04:54:52,16,0,16.482,5853.238911385,44.619424,0.447388,2.7171260712,0,0,-10.513618,22.5, 3.5, 1.9,0,0,1024,1024,1658,1024,22.6,0,99,4.129,4.128,4.136,4.104,0,0,17.044,71.51,6,P-GPS,
0.307546653507721,36.8793960991064,5854.551247385,45.93176,0,2.4307579518,10400,2018-03-31 04:54:52,16,0,16.482,5854.551247385,45.93176,0.447388,2.7171260712,0,0,-10.513618,22.5, 3.4, 1.8,0,0,1024,1024,1661,1024,22.6,0,99,4.129,4.128,4.136,4.104,0,0,17.044,71.51,6,P-GPS,
0.307546750696719,36.8793960884658,5856.191667385,47.57218,0,2.43470152148,10500,2018-03-31 04:54:53,16,0,16.482,5856.191667385,47.57218,0.447388,2.7171260712,0,0,-10.513618,22.5, 3.3, 2.1,0,0,1024,1024,1670,1024,22.6,0,99,4.129,4.128,4.136,4.104,0,0,17.044,71.51,6,P-GPS,
0.307546876643021,36.8793961202292,5857.832087385,49.2126,0,2.423966613,10600,2018-03-31 04:54:53,16,0,16.482,5857.832087385,49.2126,0.447388,2.7171260712,0,0,-10.513618,22.4, 4, 2.1,0,0,1024,1024,1677,1024,22.6,0,99,4.129,4.128,4.136,4.104,0,0,17.044,71.51,6,P-GPS,
0.307546963755411,36.8793961616124,5859.472507385,50.85302,0,2.40997711124,10700,2018-03-31 04:54:53,16,0,16.322,5859.472507385,50.85302,0.447388,2.7171260712,0,0,-10.513618,22.5, 4.5, 1.9,0,0,1024,1024,1684,1024,22.6,0,99,4.118,4.132,4.13,4.089,0,0,16.292,71.51,6,P-GPS,
0.307547056207673,36.8793962440356,5861.112927385,52.49344,0,2.38158472188,10800,2018-03-31 04:54:53,16,0,16.322,5861.112927385,52.49344,0.447388,2.7171260712,0,0,-10.737312,22.5, 4.5, 1.4,0,0,1024,1024,1684,1024,22.6,0,99,4.118,4.132,4.13,4.089,0,0,16.292,71.51,6,P-GPS,
0.307547114333353,36.8793963341248,5862.753347385,54.13386,0,2.350065692,10900,2018-03-31 04:54:53,16,0,16.322,5862.753347385,54.13386,0.447388,2.7171260712,0,0,-10.961006,22.5, 3.9, 0.6,0,0,1024,1024,1684,1024,22.6,0,99,4.118,4.132,4.13,4.089,0,0,16.292,71.51,6,P-GPS,
0.307547201045349,36.8793964597604,5864.393767385,55.77428,0,2.30667002132,11000,2018-03-31 04:54:53,16,0,16.322,5864.393767385,55.77428,0.447388,2.7171260712,0,0,-11.1847,22.5, 3.6, 0.4,0,0,1024,1024,1684,1024,22.6,0,99,4.118,4.132,4.13,4.089,0,0,16.292,71.51,6,P-GPS,
0.307547274259377,36.8793965589689,5866.034187385,57.4147,0,2.27294298612,11100,2018-03-31 04:54:53,16,0,16.322,5866.034187385,57.4147,0.447388,2.7171260712,0,0,-11.1847,22.5, 3.5, 0.5,0,0,1024,1024,1684,1024,22.6,0,99,4.118,4.132,4.13,4.089,0,0,16.292,71.51,6,P-GPS,
0.30754738086582,36.8793966691194,5867.674607385,59.05512,0,2.23697841804,11200,2018-03-31 04:54:53,16,0,16.322,5867.674607385,59.05512,0.447388,2.7171260712,0,0,-11.408394,22.5, 3.9, 0.7,0,0,1024,1024,1684,1024,22.6,0,99,4.118,4.132,4.13,4.089,0,0,16.292,71.51,6,P-GPS,
0.307547469460959,36.8793967351974,5869.315027385,60.69554,0,2.21693576648,11300,2018-03-31 04:54:53,16,0,16.322,5869.315027385,60.69554,0.447388,2.7171260712,0,0,-11.1847,22.5, 4.6, 0.5,0,0,1024,1024,1684,1024,22.6,0,99,4.118,4.132,4.13,4.089,0,0,16.292,71.51,6,P-GPS,
0.307547571363641,36.8793968137167,5871.283531385,62.664044,0,2.19366476836,11400,2018-03-31 04:54:53,16,0,16.322,5871.283531385,62.664044,0.447388,2.7171260712,0,0,-11.408394,22.5, 4.9, 1.1,0,0,1024,1024,1684,1024,22.6,0,99,4.118,4.132,4.13,4.089,0,0,16.292,71.51,6,P-GPS,
0.307547639005083,36.8793968791609,5872.923951385,64.304464,0,2.17384193308,11500,2018-03-31 04:54:54,16,0,16.322,5872.923951385,64.304464,0.447388,2.7171260712,0,0,-11.632088,22.5, 5.3, 0.9,0,0,1024,1024,1684,1024,22.6,0,99,4.118,4.132,4.13,4.089,0,0,16.292,71.51,6,P-GPS,
0.30754772487899,36.879396960778,5874.892455385,66.272968,0,2.14972775908,11600,2018-03-31 04:54:54,16,0,16.322,5874.892455385,66.272968,0.447388,2.7171260712,0,0,-11.408394,22.5, 5.2, 1.2,0,0,1024,1024,1684,1024,22.6,0,99,4.118,4.132,4.13,4.089,0,0,16.292,71.51,6,P-GPS,
0.307547791011857,36.8793970112044,5876.532875385,67.913388,0,2.13602040956,11700,2018-03-31 04:54:54,16,0,16.349,5876.532875385,67.913388,0.447388,2.7171260712,0,0,-11.408394,22.5, 5.2, 1,0,0,1024,1024,1684,1024,22.6,0,98,4.112,4.118,4.114,4.079,0,0,17.268,71.51,6,P-GPS,
0.307547852614468,36.8793970927541,5878.501379385,69.881892,0,2.1112041358,11800,2018-03-31 04:54:54,16,0,16.349,5878.501379385,69.881892,0.447388,2.7171260712,0,0,-11.408394,22.5, 5, 0.8,0,0,1024,1024,1684,1024,22.6,0,98,4.112,4.118,4.114,4.079,0,0,17.268,71.51,6,P-GPS,
0.307547857782539,36.8793971536477,5880.141799385,71.522312,0,2.0898294632,11900,2018-03-31 04:54:54,16,0,16.349,5880.141799385,71.522312,0.447388,2.7171260712,0,0,-11.632088,22.5, 4.6, 0.7,0,0,1024,1024,1679,1024,22.6,0,98,4.112,4.118,4.114,4.079,0,0,17.268,71.51,6,P-GPS,
0.307547873026658,36.879397222998,5882.110303385,73.490816,0,2.06621725772,12000,2018-03-31 04:54:54,16,0,16.349,5882.110303385,73.490816,0.447388,2.7171260712,0,0,-11.632088,22.5, 4.5, 0.5,0,0,1024,1024,1677,1024,22.6,0,98,4.112,4.118,4.114,4.079,0,0,17.268,71.51,6,P-GPS,
0.307547882308229,36.8793972614054,5883.750723385,75.131236,0,2.053231693,12100,2018-03-31 04:54:54,16,0,16.349,5883.750723385,75.131236,0.447388,2.7171260712,0,0,-11.632088,22.4, 4.4, 0.4,0,0,1024,1024,1684,1024,22.6,0,98,4.112,4.118,4.114,4.079,0,0,17.268,71.51,6,P-GPS,
0.307547926814494,36.8793973075415,5885.719227385,77.09974,0,2.04031174508,12200,2018-03-31 04:54:54,16,0,16.349,5885.719227385,77.09974,0.447388,2.7171260712,0,0,-11.632088,22.4, 4.2, 0.9,0,0,1024,1024,1684,1024,22.6,0,98,4.112,4.118,4.114,4.079,0,0,17.268,71.51,6,P-GPS,
0.30754796800344,36.8793973321614,5887.359647385,78.74016,0,2.03494101,12300,2018-03-31 04:54:55,16,0,16.349,5887.359647385,78.74016,0.447388,2.7171260712,0,0,-11.632088,22.5, 5, 1.1,0,0,1024,1024,1684,1024,22.6,0,98,4.112,4.118,4.114,4.079,0,0,17.268,71.51,6,P-GPS,
0.307548078977166,36.8793974120114,5891.296655385,82.677168,0,2.01638129812,12500,2018-03-31 04:54:55,16,0,16.349,5891.296655385,82.677168,0.447388,2.7171260712,0,0,-11.408394,22.5, 5.5, 1,0,0,1024,1024,1684,1024,22.6,0,98,4.112,4.118,4.114,4.079,0,0,17.268,71.51,6,P-GPS,
0.307548126736451,36.8793974558313,5892.937075385,84.317588,0,2.00539376496,12600,2018-03-31 04:54:55,16,0,16.349,5892.937075385,84.317588,0.447388,2.7171260712,0,0,-11.408394,22.5, 5.4, 1.1,0,0,1024,1024,1668,1024,22.6,0,98,4.112,4.118,4.114,4.079,0,0,17.268,71.51,6,P-GPS,
0.307548142726346,36.8793974769236,5894.905579385,86.286092,0,1.99950465716,12700,2018-03-31 04:54:55,16,0,16.269,5894.905579385,86.286092,0.447388,2.7171260712,0,0,-11.408394,22.5, 5.8, 0.9,0,0,1024,1024,1665,1024,22.6,0,98,4.112,4.118,4.114,4.079,0,0,17.454,71.51,6,P-GPS,
0.307548158710218,36.8793975289944,5896.874083385,88.254596,0,1.9827592498,12800,2018-03-31 04:54:55,16,0,16.269,5896.874083385,88.254596,0.447388,2.7171260712,0,0,-11.1847,22.5, 5.5, 1.1,0,0,1024,1024,1662,1024,22.6,0,98,4.112,4.118,4.114,4.079,0,0,17.454,71.51,6,P-GPS,
0.307548128285413,36.8793975627481,5898.514503385,89.895016,0,1.96791672964,12900,2018-03-31 04:54:55,16,0,16.269,5898.514503385,89.895016,0.447388,2.7171260712,0,0,-11.1847,22.5, 5, 1.1,0,0,1024,1024,1662,1024,22.6,0,98,4.112,4.118,4.114,4.079,0,0,17.454,71.51,6,P-GPS,
0.307548122094069,36.8793976113834,5900.483007385,91.86352,0,1.95021659784,13000,2018-03-31 04:54:55,16,0,16.269,5900.483007385,91.86352,0.447388,2.7171260712,0,0,-11.1847,22.5, 4.6, 0.9,0,0,1024,1024,1651,1024,22.6,0,98,4.112,4.118,4.114,4.079,0,0,17.454,71.51,6,P-GPS,
0.307548113976944,36.8793976065963,5902.451511385,93.832024,0,1.95110898632,13100,2018-03-31 04:54:55,16,0,16.269,5902.451511385,93.832024,0.447388,2.7171260712,0,0,-10.961006,22.5, 4.3, 1.2,0,0,1024,1024,1615,1024,22.6,0,98,4.112,4.118,4.114,4.079,0,0,17.454,71.51,6,P-GPS,
0.307548147535549,36.8793976406828,5904.091931385,95.472444,0,1.9424377262,13200,2018-03-31 04:54:55,16,0,16.269,5904.091931385,95.472444,0.447388,2.7171260712,0,0,-10.961006,22.5, 4.7, 1.5,0,0,1024,1024,1616,1024,22.6,0,98,4.112,4.118,4.114,4.079,0,0,17.454,71.51,6,P-GPS,
0.307548165435389,36.8793976776777,5905.732351385,97.112864,0,1.93126974684,13300,2018-03-31 04:54:55,16,0,16.269,5905.732351385,97.112864,0.447388,2.7171260712,0,0,-10.289924,22.5, 5.6, 1.4,0,0,1024,1024,1616,1024,22.6,0,98,4.112,4.118,4.114,4.079,0,0,17.454,71.51,6,P-GPS,
0.307548201500867,36.8793977605955,5907.700855385,99.081368,0,1.90599743632,13400,2018-03-31 04:54:55,16,0,16.269,5907.700855385,99.081368,0.447388,2.7171260712,0,0,-10.06623,22.5, 5.7, 1.2,0,0,1024,1024,1621,1024,22.6,0,98,4.112,4.118,4.114,4.079,0,0,17.454,71.51,6,P-GPS,
0.307548193823816,36.8793978238488,5909.341275385,100.721788,0,1.88310045396,13500,2018-03-31 04:54:56,16,0,16.269,5909.341275385,100.721788,0.447388,2.7171260712,0,0,-9.842536,22.5, 5.6, 1.2,0,0,1024,1024,1617,1024,22.6,-0.3,98,4.112,4.118,4.114,4.079,0,0,17.454,71.51,6,P-GPS,
0.307548206968149,36.8793979232923,5910.653611385,102.034124,0,1.84984914056,13600,2018-03-31 04:54:56,16,0,16.269,5910.653611385,102.034124,0.447388,2.7171260712,0,0,-9.842536,22.5, 5.3, 1,0,0,1024,1024,1615,1024,22.6,-5.4,98,4.112,4.118,4.114,4.079,0,0,17.454,71.51,6,P-GPS,
0.307548187423991,36.8793980978426,5913.934451385,105.314964,0,1.786991527,13800,2018-03-31 04:54:56,16,0,16.269,5913.934451385,105.314964,0.447388,2.7171260712,0,0,-9.395148,22.4, 5.4, 0,0,0,1024,1024,1615,1024,22.6,-5.4,98,4.112,4.118,4.114,4.079,0,0,17.454,71.51,6,P-GPS,
0.307548132109642,36.8793981694047,5915.574871385,106.955384,0.223694,1.75600071236,13900,2018-03-31 04:54:56,16,0,16.269,5915.574871385,106.955384,0.447388,2.7171260712,-0.223694,0,-9.395148,22.4, 5.3, 0.2,0,0,1024,1024,1619,1024,22.6,-8.3,98,4.112,4.118,4.114,4.079,0,0,17.454,71.51,6,P-GPS,
0.307548083814573,36.8793982355603,5916.887207385,108.26772,0.223694,1.72771987156,14000,2018-03-31 04:54:56,16,0,16.269,5916.887207385,108.26772,0.447388,2.7171260712,-0.223694,0,-9.618842,22.4, 5.2, 0.1,0,0,1024,1024,1610,1024,22.6,-11.3,98,4.112,4.118,4.114,4.079,0,0,17.454,71.51,6,P-GPS,
0.307548008819486,36.8793982319465,5918.527627385,109.90814,0.223694,1.72113522568,14100,2018-03-31 04:54:56,16,0,16.269,5918.527627385,109.90814,0.447388,2.7171260712,-0.223694,0,-9.618842,22.4, 4.8, 0.3,0,0,1024,1024,1607,1024,22.6,-14.2,98,4.112,4.118,4.114,4.079,0,0,17.454,71.51,6,P-GPS,
0.307547967026704,36.8793982541195,5920.168047385,111.54856,0.223694,1.70915031716,14200,2018-03-31 04:54:56,16,0,16.269,5920.168047385,111.54856,0.447388,2.7171260712,-0.223694,0,-9.618842,22.4, 4.3, 0.6,0,0,1024,1024,1605,1024,22.6,-14.2,98,4.112,4.118,4.114,4.079,0,0,17.454,71.51,6,P-GPS,
0.307547931863077,36.879398279697,5921.808467385,113.18898,0.223694,1.69670609104,14300,2018-03-31 04:54:56,16,0,16.269,5921.808467385,113.18898,0.447388,2.7171260712,-0.223694,0,-9.395148,22.4, 4.5, 0.6,0,0,1024,1024,1604,1024,22.6,-14.2,98,4.112,4.118,4.114,4.079,0,0,17.454,71.51,6,P-GPS,
0.30754792587137,36.8793983237278,5923.448887385,114.8294,0.223694,1.68063981756,14400,2018-03-31 04:54:56,15,0,16.269,5923.448887385,114.8294,0.447388,2.7171260712,-0.223694,0,-9.171454,22.4, 4.6, 0.4,0,0,1024,1024,1605,1024,22.6,-14.2,98,4.112,4.118,4.114,4.079,0,0,17.454,71.51,6,P-GPS,
0.307547896217558,36.8793983161308,5924.761223385,116.141736,0,1.680446248,14500,2018-03-31 04:54:57,15,0,16.269,5924.761223385,116.141736,0.447388,2.7171260712,0,0,-8.94776,22.4, 4.7, 0.9,0,0,1024,1024,1607,1024,22.6,-14.2,98,4.112,4.118,4.114,4.079,0,0,17.454,71.51,6,P-GPS,
0.307547888836635,36.8793983345686,5926.401643385,117.782156,0,1.67325136588,14600,2018-03-31 04:54:57,16,0,16.322,5926.401643385,117.782156,0.447388,2.7171260712,0,0,-9.171454,22.4, 4.7, 1.1,0,0,1024,1024,1607,1024,22.6,-14.2,98,4.108,4.12,4.119,4.076,0,0,15.586,71.51,6,P-GPS,
0.307547838777096,36.8793983663999,5929.354399385,120.734912,0,1.6573327302,14800,2018-03-31 04:54:57,16,0,16.322,5929.354399385,120.734912,0.447388,2.7171260712,0,0,-9.171454,22.4, 4.4, 1.2,0,0,1024,1024,1615,1024,22.6,-14.2,98,4.108,4.12,4.119,4.076,0,0,15.586,71.51,6,P-GPS,
0.307547823605214,36.8793983695662,5930.666735385,122.047248,0,1.6548228876,14900,2018-03-31 04:54:57,16,0,16.322,5930.666735385,122.047248,0.447388,2.7171260712,0,0,-9.395148,22.4, 4.4, 1.4,0,0,1024,1024,1618,1024,22.6,-14.2,98,4.108,4.12,4.119,4.076,0,0,15.586,71.51,6,P-GPS,
0.307547852495923,36.8793984044568,5932.307155385,123.687668,0,1.64518377968,15000,2018-03-31 04:54:57,16,0,16.322,5932.307155385,123.687668,0.447388,2.7171260712,0,0,-9.171454,22.4, 4.5, 1.6,0,0,1024,1024,1617,1024,22.6,-14.6,98,4.108,4.12,4.119,4.076,0,0,15.586,71.51,6,P-GPS,
0.307547907590788,36.8793985122991,5935.259911385,126.640424,0,1.61261816184,15200,2018-03-31 04:54:57,16,0,16.322,5935.259911385,126.640424,0.447388,2.7171260712,0,0,-9.395148,22.4, 4.1, 0.7,0,0,1024,1024,1616,1024,22.6,-15.1,98,4.108,4.12,4.119,4.076,0,0,15.586,71.51,6,P-GPS,
0.307547898327537,36.8793985867245,5936.900331385,128.280844,0,1.58559060192,15300,2018-03-31 04:54:57,16,0,16.322,5936.900331385,128.280844,0.447388,2.7171260712,0,0,-9.618842,22.4, 4.5, 0.1,0,0,1024,1024,1618,1024,22.6,-15.6,98,4.108,4.12,4.119,4.076,0,0,15.586,71.51,6,P-GPS,
0.307547931054936,36.8793986785812,5938.540751385,129.921264,0,1.55685372436,15400,2018-03-31 04:54:58,16,0,16.322,5938.540751385,129.921264,0.447388,2.7171260712,0,0,-9.618842,22.4, 4.8, 0.1,0,0,1024,1024,1620,1024,22.6,-15.6,98,4.108,4.12,4.119,4.076,0,0,15.586,71.51,6,P-GPS,
0.307547963971336,36.8793987258666,5939.853087385,131.2336,0,1.54392721476,15500,2018-03-31 04:54:58,16,0,16.322,5939.853087385,131.2336,0.447388,2.7171260712,0,0,-9.618842,22.4, 5.2, 0.7,0,0,1024,1024,1612,1024,22.6,-16.4,98,4.108,4.12,4.119,4.076,0,0,15.586,71.51,6,P-GPS,
0.307548037816437,36.8793988130085,5941.493507385,132.87402,0,1.52212275212,15600,2018-03-31 04:54:58,16,0,16.322,5941.493507385,132.87402,0.447388,2.7171260712,0,0,-9.842536,22.4, 6.2, 0.6,0,0,1024,1024,1612,1024,22.6,-18.3,98,4.108,4.12,4.119,4.076,0,0,15.586,71.51,6,P-GPS,
0.307548093962858,36.8793988874071,5943.133927385,134.51444,0,1.50331041556,15700,2018-03-31 04:54:58,16,0,16.349,5943.133927385,134.51444,0.447388,2.7171260712,0,0,-9.395148,22.4, 6.7, 0.5,0,0,1024,1024,1613,1024,22.6,-18.3,98,4.101,4.1,4.097,4.061,0,0,16.746,71.51,6,P-GPS,
0.307548175427738,36.8793989814604,5944.446263385,135.826776,0,1.48170280332,15800,2018-03-31 04:54:58,16,0,16.349,5944.446263385,135.826776,0.447388,2.7171260712,0,0,-9.395148,22.4, 6.7, 0.2,0,0,1024,1024,1614,1024,22.6,-18.3,98,4.101,4.1,4.097,4.061,0,0,16.746,71.51,6,P-GPS,
0.307548217226001,36.8793990242774,5946.086683385,137.467196,0,1.47287406288,15900,2018-03-31 04:54:58,16,0,16.349,5946.086683385,137.467196,0.447388,2.7171260712,0,0,-9.171454,22.4, 6.6, 0.3,0,0,1024,1024,1626,1024,22.6,-18.3,98,4.101,4.1,4.097,4.061,0,0,16.746,71.51,6,P-GPS,
0.307548258095109,36.8793990783605,5948.711355385,140.091868,0.223694,1.4604003092,16100,2018-03-31 04:54:58,16,0,16.349,5948.711355385,140.091868,0.447388,2.7171260712,-0.223694,0,-9.395148,22.4, 6, 0.1,0,0,1024,1024,1623,1024,22.6,-18.5,98,4.101,4.1,4.097,4.061,0,0,16.746,71.51,6,P-GPS,
0.307548231476102,36.8793990923253,5950.351775385,141.732288,0.223694,1.45192589948,16200,2018-03-31 04:54:58,16,0,16.349,5950.351775385,141.732288,0.447388,2.7171260712,-0.223694,0,-9.395148,22.4, 5.5, 0.2,0,0,1024,1024,1618,1024,22.6,-20,98,4.101,4.1,4.097,4.061,0,0,16.746,71.51,6,P-GPS,
0.307548153290432,36.87939907791,5951.664111385,143.044624,0.223694,1.44600726412,16300,2018-03-31 04:54:58,16,0,16.349,5951.664111385,143.044624,0.447388,2.7171260712,-0.223694,0,-9.618842,22.5, 4.7, 0.6,0,0,1024,1024,1615,1024,22.6,-20.3,98,4.101,4.1,4.097,4.061,0,0,16.746,71.51,6,P-GPS,
0.307548123982059,36.879399086342,5953.304531385,144.685044,0.223694,1.43922904868,16400,2018-03-31 04:54:58,16,0,16.349,5953.304531385,144.685044,0.447388,2.7171260712,-0.223694,0,-9.618842,22.4, 4.8, 0.4,0,0,1024,1024,1613,1024,22.6,-20.3,98,4.101,4.1,4.097,4.061,0,0,16.746,71.51,6,P-GPS,
0.307548118746459,36.8793990710839,5954.944951385,146.325464,0,1.44372379948,16500,2018-03-31 04:54:59,16,0,16.349,5954.944951385,146.325464,0.447388,2.7171260712,0,0,-9.618842,22.5, 4.9, 0.4,0,0,1024,1024,1616,1024,22.6,-20.3,98,4.101,4.1,4.097,4.061,0,0,16.746,71.51,6,P-GPS,
0.307548155995016,36.8793990896124,5956.257287385,147.6378,0,1.4424049018,16600,2018-03-31 04:54:59,16,0,16.349,5956.257287385,147.6378,0.447388,2.7171260712,0,0,-9.842536,22.4, 4.8, 0.6,0,0,1024,1024,1623,1024,22.6,-20.3,98,4.101,4.1,4.097,4.061,0,0,16.746,71.51,6,P-GPS,
0.307548176998541,36.8793991035954,5957.897707385,149.27822,0,1.440534823,16700,2018-03-31 04:54:59,16,0,16.322,5957.897707385,149.27822,0.447388,2.7171260712,0,0,-9.842536,22.5, 5.6, 0.7,0,0,1024,1024,1624,1024,22.6,-20.3,98,4.101,4.1,4.097,4.061,0,0,16.146,71.51,6,P-GPS,
0.307548223474878,36.8793991455173,5959.538127385,150.91864,0,1.43291015084,16800,2018-03-31 04:54:59,16,0,16.322,5959.538127385,150.91864,0.447388,2.7171260712,0,0,-9.618842,22.5, 5.9, 0.8,0,0,1024,1024,1626,1024,22.6,-20.6,98,4.101,4.1,4.097,4.061,0,0,16.146,71.51,6,P-GPS,
0.30754821622502,36.8793991506441,5960.850463385,152.230976,0,1.43015752608,16900,2018-03-31 04:54:59,16,0,16.322,5960.850463385,152.230976,0.447388,2.7171260712,0,0,-9.395148,22.4, 5.8, 0.1,0,0,1024,1024,1621,1024,22.6,-20.6,98,4.101,4.1,4.097,4.061,0,0,16.146,71.51,6,P-GPS,
0.307548238111821,36.8793991765364,5962.162799385,153.543312,0.223694,1.4246063448,17000,2018-03-31 04:54:59,16,0,16.322,5962.162799385,153.543312,0.447388,2.7171260712,0,-0.223694,-9.618842,22.4, 5.6, 0.1,0,0,1024,1024,1619,1024,22.6,-22.7,98,4.101,4.1,4.097,4.061,0,0,16.146,71.51,6,P-GPS,
0.307548235692821,36.8793991643359,5963.803219385,155.183732,0.223694,1.4283465024,17100,2018-03-31 04:54:59,16,0,16.322,5963.803219385,155.183732,0.447388,2.7171260712,0,-0.223694,-9.395148,22.4, 5.3, 0.6,0,0,1024,1024,1612,1024,22.6,-23.3,98,4.101,4.1,4.097,4.061,0,0,16.146,71.51,6,P-GPS,
0.307548262680858,36.8793991505151,5965.115555385,156.496068,0.223694,1.43688324808,17200,2018-03-31 04:54:59,16,0,16.322,5965.115555385,156.496068,0.447388,2.7171260712,0,-0.223694,-9.171454,22.4, 5.3, 1.4,0,0,1024,1024,1593,1024,22.6,-23.3,98,4.101,4.1,4.097,4.061,0,0,16.146,71.51,6,P-GPS,
0.307548253692979,36.8793991007353,5966.755975385,158.136488,0.223694,1.45226054516,17300,2018-03-31 04:54:59,16,0,16.322,5966.755975385,158.136488,0.447388,2.7171260712,0,-0.223694,-9.395148,22.4, 5.5, 1.1,0,0,1024,1024,1562,1024,22.6,-23.3,98,4.101,4.1,4.097,4.061,0,0,16.146,71.51,6,P-GPS,
0.30754828483255,36.8793990731804,5968.068311385,159.448824,0.223694,1.46598429888,17400,2018-03-31 04:54:59,16,0,16.322,5968.068311385,159.448824,0.447388,2.7171260712,0,-0.223694,-9.395148,22.4, 5.1, 0.8,0,0,1024,1024,1541,1024,22.6,-23.3,98,4.101,4.1,4.097,4.061,0,0,16.146,71.51,6,P-GPS,
0.307548308620554,36.8793990230641,5969.380647385,160.76116,0.223694,1.48621067748,17500,2018-03-31 04:55:00,16,0,16.322,5969.380647385,160.76116,0.447388,2.7171260712,0,-0.223694,-9.171454,22.4, 5.5, 0.9,0,0,1024,1024,1503,1024,22.6,-23.3,98,4.101,4.1,4.097,4.061,0,0,16.146,71.51,6,P-GPS,
0.307548366800749,36.879398982398,5971.021067385,162.40158,0.223694,1.50832025824,17600,2018-03-31 04:55:00,16,0,16.322,5971.021067385,162.40158,0.447388,2.7171260712,0,-0.223694,-8.724066,22.4, 6, 1.5,0,0,1024,1024,1475,1024,22.6,-23.3,98,4.101,4.1,4.097,4.061,0,0,16.146,71.51,6,P-GPS,
0.307548370431263,36.8793989275347,5972.333403385,163.713916,0,1.52716868404,17700,2018-03-31 04:55:00,16,0,16.295,5972.333403385,163.713916,0.447388,2.7171260712,0,0,-8.276678,22.4, 6.6, 1.1,0,0,1024,1024,1518,1024,22.6,-23.3,98,4.101,4.107,4.104,4.068,0,0,16.146,71.51,6,P-GPS,
0.307548406212033,36.8793989153078,5973.645739385,165.026252,0.223694,1.53652892056,17800,2018-03-31 04:55:00,16,0,16.295,5973.645739385,165.026252,0.447388,2.7171260712,0,-0.223694,-7.605596,22.5, 6.9, 1.3,0,0,1024,1024,1573,1024,22.6,-23.3,98,4.101,4.107,4.104,4.068,0,0,16.146,71.51,6,P-GPS,
0.307548405434095,36.8793989091179,5974.629991385,166.010504,0.223694,1.53847445868,17900,2018-03-31 04:55:00,16,0,16.295,5974.629991385,166.010504,0.447388,2.7171260712,0,-0.223694,-7.381902,22.4, 5.4, 1.3,0,0,1024,1024,1603,1024,22.6,-23.3,98,4.101,4.107,4.104,4.068,0,0,16.146,71.51,6,P-GPS,
0.307548414969257,36.8793989416598,5975.942327385,167.32284,0,1.52906500956,18000,2018-03-31 04:55:00,16,0,16.295,5975.942327385,167.32284,0.447388,2.7171260712,0,0,-7.605596,22.4, 4.7, 0.7,0,0,1024,1024,1598,1024,22.6,-23.3,98,4.101,4.107,4.104,4.068,0,0,16.146,71.51,6,P-GPS,
0.307548409029635,36.8793989365141,5976.926579385,168.307092,0.223694,1.52988521956,18100,2018-03-31 04:55:00,16,0,16.295,5976.926579385,168.307092,0.447388,2.7171260712,0,-0.223694,-8.052984,22.4, 4.7, 1,0,0,1024,1024,1592,1024,22.6,-23.3,98,4.101,4.107,4.104,4.068,0,0,16.146,71.51,6,P-GPS,
0.307548433589497,36.8793989432087,5978.238915385,169.619428,0.223694,1.53135831672,18200,2018-03-31 04:55:00,16,0,16.295,5978.238915385,169.619428,0.447388,2.7171260712,0,-0.223694,-8.052984,22.4, 5.7, 1.1,0,0,1024,1024,1593,1024,22.6,-23.3,98,4.101,4.107,4.104,4.068,0,0,16.146,71.51,6,P-GPS,
0.307548433282281,36.8793989085406,5979.551251385,170.931764,0.223694,1.54282813336,18300,2018-03-31 04:55:00,16,0,16.295,5979.551251385,170.931764,0.447388,2.7171260712,0,-0.223694,-8.276678,22.5, 6.5, 1.2,0,0,1024,1024,1604,1024,22.6,-23.3,98,4.101,4.107,4.104,4.068,0,0,16.146,71.51,6,P-GPS,
0.307548423727258,36.8793988997719,5980.535503385,171.916016,0.3131716,1.54431107304,18400,2018-03-31 04:55:01,16,0,16.295,5980.535503385,171.916016,0.447388,2.7171260712,-0.223694,-0.223694,-8.276678,22.4, 6.1, 1.6,0,0,1024,1024,1604,1024,22.6,-23.3,98,4.101,4.107,4.104,4.068,0,0,16.146,71.51,6,P-GPS,
0.307548357093149,36.8793988879825,5981.847839385,173.228352,0.3131716,1.538467897,18500,2018-03-31 04:55:01,16,0,16.295,5981.847839385,173.228352,0.447388,2.7171260712,-0.223694,-0.223694,-8.500372,22.4, 5.1, 1.8,0,0,1024,1024,1604,1024,22.6,-23.3,98,4.101,4.107,4.104,4.068,0,0,16.146,71.51,6,P-GPS,
0.307548311403018,36.8793988947149,5983.160175385,174.540688,0.223694,1.52969165,18600,2018-03-31 04:55:01,16,0,16.029,5983.160175385,174.540688,0.447388,2.7171260712,-0.223694,0,-8.94776,22.4, 4.7, 1.3,0,0,1024,1024,1604,1024,22.6,-23.3,98,4.132,4.15,4.152,4.096,0,0,13.966,71.51,6,P-GPS,
0.307548238334234,36.8793988412464,5986.112931385,177.493444,0.3131716,1.53771002296,18800,2018-03-31 04:55:01,16,0,16.029,5986.112931385,177.493444,0.447388,2.7171260712,-0.223694,-0.223694,-9.171454,22.4, 4.3, 0.6,0,0,1024,1024,1606,1024,22.5,-23.3,98,4.132,4.15,4.152,4.096,0,0,13.966,71.51,6,P-GPS,
0.307548182206048,36.8793988322111,5987.425267385,178.80578,0.3131716,1.53338915668,18900,2018-03-31 04:55:01,16,0,16.029,5987.425267385,178.80578,0.447388,2.7171260712,-0.223694,-0.223694,-9.395148,22.3, 4.4, 0.7,0,0,1024,1024,1606,1024,22.6,-23.3,98,4.132,4.15,4.152,4.096,0,0,13.966,71.51,6,P-GPS,
0.307548212191834,36.8793988430509,5989.065687385,180.4462,0.3131716,1.53361881548,19000,2018-03-31 04:55:01,16,0,16.029,5989.065687385,180.4462,0.447388,2.7171260712,0,-0.223694,-9.395148,22.4, 4.5, 1.4,0,0,1024,1024,1607,1024,22.5,-23.3,98,4.132,4.15,4.152,4.096,0,0,13.966,71.51,6,P-GPS,
0.30754828680679,36.8793988203078,5990.378023385,181.758536,0.223694,1.55137144072,19100,2018-03-31 04:55:01,16,0,16.029,5990.378023385,181.758536,0.447388,2.7171260712,0,-0.223694,-9.618842,22.4, 4.9, 1.9,0,0,1024,1024,1608,1024,22.5,-23.3,98,4.132,4.15,4.152,4.096,0,0,13.966,71.51,6,P-GPS,
0.307548417028908,36.8793988571318,5992.018443385,183.398956,0,1.5575295774,19200,2018-03-31 04:55:01,16,0,16.029,5992.018443385,183.398956,0.447388,2.7171260712,0,0,-9.395148,22.4, 5.2, 2.1,0,0,1024,1024,1592,1024,22.6,-25.5,98,4.132,4.15,4.152,4.096,0,0,13.966,71.51,6,P-GPS,
0.307548506577553,36.8793988964739,5993.330779385,184.711292,0,1.5580217034,19300,2018-03-31 04:55:01,16,0,16.029,5993.330779385,184.711292,0.447388,2.7171260712,0,0,-9.171454,22.4, 5.5, 2.2,0,0,1024,1024,1590,1024,22.5,-26.2,98,4.132,4.15,4.152,4.096,0,0,13.966,71.51,6,P-GPS,
0.307548632614284,36.8793989901584,5994.643115385,186.023628,0,1.54766081068,19400,2018-03-31 04:55:01,16,0,16.029,5994.643115385,186.023628,0.447388,2.7171260712,0,0,-8.94776,22.4, 6.1, 2,0,0,1024,1024,1589,1024,22.5,-26.2,98,4.132,4.15,4.152,4.096,0,0,13.966,71.51,6,P-GPS,
0.307548701525759,36.8793990561114,5995.955451385,187.335964,0,1.53814309384,19500,2018-03-31 04:55:02,16,0,16.029,5995.955451385,187.335964,0.447388,2.7171260712,0,0,-8.94776,22.4, 6.4, 1.7,0,0,1024,1024,1589,1024,22.5,-26.2,98,4.132,4.15,4.152,4.096,0,0,13.966,71.51,6,P-GPS,
0.307548804870224,36.8793991907434,5997.267787385,188.6483,0,1.51401251564,19600,2018-03-31 04:55:02,16,0,16.029,5997.267787385,188.6483,0.447388,2.7171260712,0,0,-8.724066,22.5, 7.1, 0.9,0,0,1024,1024,1591,1024,22.5,-26.2,98,4.132,4.15,4.152,4.096,0,0,13.966,71.51,6,P-GPS,
0.307548854248768,36.8793992937234,5998.580123385,189.960636,0,1.49126645192,19700,2018-03-31 04:55:02,16,0,16.295,5998.580123385,189.960636,0.447388,2.7171260712,0,0,-8.724066,22.4, 7.1, -0.2,0,0,1024,1024,1593,1024,22.5,-26.2,98,4.096,4.103,4.098,4.067,0,0,16.784,71.51,6,P-GPS,
0.307548923656359,36.8793993696302,5999.892459385,191.272972,0,1.48161750148,19800,2018-03-31 04:55:02,16,0,16.295,5999.892459385,191.272972,0.447388,2.7171260712,0,0,-8.724066,22.4, 6.6, 0.6,0,0,1024,1024,1593,1024,22.5,-26.2,98,4.096,4.103,4.098,4.067,0,0,16.784,71.51,6,P-GPS,
0.307548953754177,36.879399361828,6001.204795385,192.585308,0.223694,1.49005254112,19900,2018-03-31 04:55:02,16,0,16.295,6001.204795385,192.585308,0.447388,2.7171260712,0,-0.223694,-8.94776,22.4, 6.5, 1.2,0,0,1024,1024,1593,1024,22.5,-26.2,98,4.096,4.103,4.098,4.067,0,0,16.784,71.51,6,P-GPS,
0.307549026253471,36.8793993360944,6004.157551385,195.538064,0.223694,1.51261815864,20100,2018-03-31 04:55:02,16,0,16.295,6004.157551385,195.538064,0.447388,2.7171260712,0,-0.223694,-8.94776,22.5, 6.3, 1.8,0,0,1024,1024,1593,1024,22.5,-26.2,98,4.096,4.103,4.098,4.067,0,0,16.784,71.51,6,P-GPS,
0.307549090766875,36.879399320152,6005.469887385,196.8504,0.223694,1.53077104636,20200,2018-03-31 04:55:02,16,0,16.295,6005.469887385,196.8504,0.447388,2.7171260712,0,-0.223694,-8.724066,22.5, 6.1, 2.2,0,0,1024,1024,1594,1024,22.5,-26.2,98,4.096,4.103,4.098,4.067,0,0,16.784,71.51,6,P-GPS,
0.307549137570086,36.8793992754213,6006.782223385,198.162736,0.223694,1.55393049592,20300,2018-03-31 04:55:02,16,0,16.295,6006.782223385,198.162736,0.447388,2.7171260712,0,-0.223694,-8.724066,22.5, 6.2, 2.5,0,0,1024,1024,1595,1024,22.5,-26.2,98,4.096,4.103,4.098,4.067,0,0,16.784,71.51,6,P-GPS,
0.307549227870257,36.8793992667434,6008.094559385,199.475072,0.223694,1.57565293756,20400,2018-03-31 04:55:03,16,0,16.295,6008.094559385,199.475072,0.447388,2.7171260712,0,-0.223694,-8.94776,22.5, 6.4, 2.4,0,0,1024,1024,1598,1024,22.5,-26.2,98,4.096,4.103,4.098,4.067,0,0,16.784,71.51,6,P-GPS,
0.307549291004115,36.8793992475097,6009.406895385,200.787408,0.223694,1.5949311534,20500,2018-03-31 04:55:03,16,0,16.295,6009.406895385,200.787408,0.447388,2.7171260712,0,-0.223694,-8.724066,22.5, 6.4, 2.4,0,0,1024,1024,1603,1024,22.5,-26.2,98,4.096,4.103,4.098,4.067,0,0,16.784,71.51,6,P-GPS,
0.307549402768094,36.8793992678383,6010.719231385,202.099744,0.223694,1.61365490728,20600,2018-03-31 04:55:03,16,0,16.295,6010.719231385,202.099744,0.447388,2.7171260712,0,-0.223694,-8.94776,22.5, 6.5, 2.4,0,0,1024,1024,1601,1024,22.5,-26.2,98,4.096,4.103,4.098,4.067,0,0,16.784,71.51,6,P-GPS,
0.307549468914471,36.8793992605888,6012.031567385,203.41208,0.223694,1.63063653512,20700,2018-03-31 04:55:03,16,0,16.242,6012.031567385,203.41208,0.447388,2.7171260712,0,-0.223694,-8.724066,22.5, 6.7, 2.3,0,0,1024,1024,1601,1024,22.5,-26.2,98,4.096,4.103,4.098,4.067,0,0,16.784,71.51,6,P-GPS,
0.307549578629868,36.8793992898454,6013.671987385,205.0525,0.223694,1.64759847792,20800,2018-03-31 04:55:03,16,0,16.242,6013.671987385,205.0525,0.447388,2.7171260712,0,-0.223694,-8.94776,22.5, 6.6, 2.3,0,0,1024,1024,1601,1024,22.5,-26.2,98,4.096,4.103,4.098,4.067,0,0,16.784,71.51,6,P-GPS,
0.307549624886532,36.8793992703149,6014.984323385,206.364836,0.223694,1.66389112936,20900,2018-03-31 04:55:03,16,0,16.242,6014.984323385,206.364836,0.447388,2.7171260712,0,-0.223694,-8.94776,22.5, 6.7, 2.5,0,0,1024,1024,1602,1024,22.5,-26.2,98,4.096,4.103,4.098,4.067,0,0,16.784,71.51,6,P-GPS,
0.307549647348983,36.879399225778,6016.296659385,207.677172,0.223694,1.68160766536,21000,2018-03-31 04:55:03,16,0,16.242,6016.296659385,207.677172,0.447388,2.7171260712,0,-0.223694,-9.171454,22.5, 6.8, 2.7,0,0,1024,1024,1595,1024,22.5,-26.2,98,4.096,4.103,4.098,4.067,0,0,16.784,71.51,6,P-GPS,
0.3075497501153,36.8793992472431,6017.608995385,208.989508,0.223694,1.69998693104,21100,2018-03-31 04:55:03,16,0,16.242,6017.608995385,208.989508,0.447388,2.7171260712,0,-0.223694,-9.171454,22.5, 6.9, 2.9,0,0,1024,1024,1596,1024,22.5,-26.2,98,4.096,4.103,4.098,4.067,0,0,16.784,71.51,6,P-GPS,
0.307549870077172,36.8793992513718,6019.249415385,210.629928,0.223694,1.72792656448,21200,2018-03-31 04:55:03,16,0,16.242,6019.249415385,210.629928,0.447388,2.7171260712,0,-0.223694,-9.171454,22.5, 6.8, 3.1,0,0,1024,1024,1590,1024,22.5,-26.2,98,4.096,4.103,4.098,4.067,0,0,16.784,71.51,6,P-GPS,
0.307549960676569,36.8793992011161,6020.561751385,211.942264,0.223694,1.76375005644,21300,2018-03-31 04:55:03,16,0,16.242,6020.561751385,211.942264,0.447388,2.7171260712,0,-0.223694,-9.171454,22.5, 6.8, 3.4,0,0,1024,1024,1590,1024,22.5,-26.2,98,4.096,4.103,4.098,4.067,0,0,16.784,71.51,6,P-GPS,
0.307550093664873,36.8793991945502,6021.874087385,213.2546,0.223694,1.79865819404,21400,2018-03-31 04:55:03,16,0,16.242,6021.874087385,213.2546,0.447388,2.7171260712,0,-0.223694,-8.94776,22.5, 7.1, 3.1,0,0,1024,1024,1587,1024,22.5,-26.2,98,4.096,4.103,4.098,4.067,0,0,16.784,71.51,6,P-GPS,
0.307550152448445,36.8793991749078,6023.186423385,214.566936,0.223694,1.81868116056,21500,2018-03-31 04:55:04,16,0,16.242,6023.186423385,214.566936,0.447388,2.7171260712,0,-0.223694,-8.94776,22.5, 7.4, 3.1,0,0,1024,1024,1588,1024,22.5,-26.2,98,4.096,4.103,4.098,4.067,0,0,16.784,71.51,6,P-GPS,
0.307550249395008,36.8793991865606,6024.498759385,215.879272,0.223694,1.84040688304,21600,2018-03-31 04:55:04,16,0,16.242,6024.498759385,215.879272,0.447388,2.7171260712,0,-0.223694,-8.724066,22.6, 7.9, 3.2,0,0,1024,1024,1588,1024,22.5,-26.2,98,4.096,4.103,4.098,4.067,0,0,16.784,71.51,6,P-GPS,
0.30755027794957,36.8793991652992,6025.811095385,217.191608,0.3131716,1.85325465248,21700,2018-03-31 04:55:04,16,0,16.242,6025.811095385,217.191608,0.447388,2.7171260712,-0.223694,-0.223694,-8.724066,22.6, 7.8, 2.8,0,0,1024,1024,1591,1024,22.5,-26.2,98,4.095,4.101,4.098,4.062,0,0,15.754,71.51,6,P-GPS,
0.307550312743719,36.8793991621931,6027.123431385,218.503944,0.3131716,1.86303811736,21800,2018-03-31 04:55:04,16,0,16.242,6027.123431385,218.503944,0.447388,2.7171260712,-0.223694,-0.223694,-8.500372,22.6, 7.1, 3.1,0,0,1024,1024,1591,1024,22.5,-26.2,98,4.095,4.101,4.098,4.062,0,0,15.754,71.51,6,P-GPS,
0.307550270110241,36.8793991104876,6028.435767385,219.81628,0.3131716,1.86546265812,21900,2018-03-31 04:55:04,16,0,16.242,6028.435767385,219.81628,0.447388,2.7171260712,-0.223694,-0.223694,-8.500372,22.5, 6, 3.7,0,0,1024,1024,1579,1024,22.5,-26.2,98,4.095,4.101,4.098,4.062,0,0,15.754,71.51,6,P-GPS,
0.307550256006084,36.8793991030261,6029.748103385,221.128616,0.3131716,1.8638123956,22000,2018-03-31 04:55:04,16,0,16.242,6029.748103385,221.128616,0.447388,2.7171260712,-0.223694,-0.223694,-8.724066,22.4, 5.6, 3.1,0,0,1024,1024,1575,1024,22.5,-26.2,98,4.095,4.101,4.098,4.062,0,0,15.754,71.51,6,P-GPS,
0.307550212799394,36.8793990633965,6031.060439385,222.440952,0.3131716,1.86328418036,22100,2018-03-31 04:55:04,16,0,16.242,6031.060439385,222.440952,0.447388,2.7171260712,-0.223694,-0.223694,-8.94776,22.5, 5.9, 3.5,0,0,1024,1024,1578,1024,22.5,-26.2,98,4.095,4.101,4.098,4.062,0,0,15.754,71.51,6,P-GPS,
0.307550239389441,36.8793990746402,6032.372775385,223.753288,0.3131716,1.86703089964,22200,2018-03-31 04:55:04,16,0,16.242,6032.372775385,223.753288,0.447388,2.7171260712,-0.223694,-0.223694,-8.500372,22.5, 6.2, 3.1,0,0,1024,1024,1583,1024,22.5,-26.2,98,4.095,4.101,4.098,4.062,0,0,15.754,71.51,6,P-GPS,
0.307550236320028,36.8793990696014,6033.685111385,225.065624,0.3131716,1.86758208076,22300,2018-03-31 04:55:04,16,0,16.242,6033.685111385,225.065624,0.447388,2.7171260712,-0.223694,-0.223694,-8.500372,22.5, 6.5, 3,0,0,1024,1024,1586,1024,22.5,-26.2,98,4.095,4.101,4.098,4.062,0,0,15.754,71.51,6,P-GPS,
0.307550281066005,36.8793990966732,6034.997447385,226.37796,0.3131716,1.87186029612,22400,2018-03-31 04:55:05,16,0,16.242,6034.997447385,226.37796,0.447388,2.7171260712,-0.223694,-0.223694,-8.724066,22.6, 6.7, 3,0,0,1024,1024,1591,1024,22.5,-26.2,98,4.095,4.101,4.098,4.062,0,0,15.754,71.51,6,P-GPS,
0.307550294648856,36.8793991010211,6036.309783385,227.690296,0.3131716,1.87419953504,22500,2018-03-31 04:55:05,16,0,16.242,6036.309783385,227.690296,0.447388,2.7171260712,-0.223694,-0.223694,-8.94776,22.6, 6.8, 2.8,0,0,1024,1024,1592,1024,22.5,-26.2,98,4.095,4.101,4.098,4.062,0,0,15.754,71.51,6,P-GPS,
0.30755036795367,36.8793991325027,6037.950203385,229.330716,0.3131716,1.8849738136,22600,2018-03-31 04:55:05,16,0,16.242,6037.950203385,229.330716,0.447388,2.7171260712,-0.223694,-0.223694,-8.94776,22.6, 7, 3.1,0,0,1024,1024,1591,1024,22.5,-26.2,98,4.095,4.101,4.098,4.062,0,0,15.754,71.51,6,P-GPS,
0.307550410552747,36.8793991230114,6039.262539385,230.643052,0.3131716,1.89848759356,22700,2018-03-31 04:55:05,16,0,16.349,6039.262539385,230.643052,0.447388,2.7171260712,-0.223694,-0.223694,-8.94776,22.6, 7.1, 3.4,0,0,1024,1024,1583,1024,22.5,-26.2,98,4.088,4.1,4.099,4.067,0,0,15.29,71.51,6,P-GPS,
