latitude,longitude,altitude(feet),ascent(feet),speed(mph),distance(feet),time(millisecond),datetime(utc),satellites,gpslevel,voltage(v),max_altitude(feet),max_ascent(feet),max_speed(mph),max_distance(feet), xSpeed(mph), ySpeed(mph), zSpeed(mph), compass_heading(degrees), pitch(degrees), roll(degrees),isPhoto,isVideo,rc_elevator,rc_aileron,rc_throttle,rc_rudder,gimbal_heading(degrees),gimbal_pitch(degrees),battery_percent,voltageCell1,voltageCell2,voltageCell3,voltageCell4,voltageCell5,voltageCell6,current(A),battery_temperature(f),flycStateRaw,flycState,message
0.358282826570868,36.8932395425643,5800.8779543289,0,0,0,0,2018-04-16 08:02:47,13,0,0,5800.8779543289,0,0,0,0,0,0,249, 3.6, 0.4,0,0,364,364,364,1684,253.5,0,98,4.288,4.289,4.287,4.287,0,0,0,100.31,41,Motors_Started,
0.358282809587826,36.8932395805576,5800.8779543289,0,0,0.0151834322444,100,2018-04-16 08:02:47,13,0,0,5800.8779543289,0,0,0.0151834322444,0,0,0,249, 3.6, 0.4,0,0,364,364,364,1684,253.5,0,98,4.288,4.289,4.287,4.287,0,0,0,100.31,41,Motors_Started,
0.358282793606276,36.8932396126386,5800.8779543289,0,0,0.02825377387,200,2018-04-16 08:02:47,13,0,0,5800.8779543289,0,0,0.02825377387,0,0,0,249.1, 3.7, 0.4,0,0,364,364,364,1684,253.5,0,98,4.288,4.289,4.287,4.287,0,0,0,100.31,41,Motors_Started,
0.358282790299721,36.8932396308645,5800.8779543289,0,0,0.03482775702,300,2018-04-16 08:02:47,13,0,0,5800.8779543289,0,0,0.03482775702,0,0,0,249, 3.7, 0.4,0,0,364,364,364,1684,253.5,0,98,4.288,4.289,4.287,4.287,0,0,0,100.31,41,Motors_Started,
0.358282784176771,36.893239648146,5800.8779543289,0,0,0.041510171932,400,2018-04-16 08:02:47,13,0,17.134,5800.8779543289,0,0,0.041510171932,0,0,0,249.1, 3.7, 0.4,0,0,364,364,364,1684,253.5,0,98,4.288,4.289,4.287,4.287,0,0,1.642,100.31,41,Motors_Started,Setting new Return-To-Home altitude to 30m (98 ft). Setting new Maximum Flight Altitude to 150m (492 ft)
0.358282748988539,36.8932396918007,5800.8779543289,0,0,0.061365815612,500,2018-04-16 08:02:48,13,0,17.134,5800.8779543289,0,0,0.061365815612,0,0,0,249, 3.7, 0.4,0,0,364,364,364,1684,253.5,0,98,4.288,4.289,4.287,4.287,0,0,1.642,100.31,41,Motors_Started,
0.358282718944562,36.893239728125,5800.8779543289,0,0,0.078264110116,600,2018-04-16 08:02:48,13,0,17.134,5800.8779543289,0,0,0.078264110116,0,0,0,249, 3.7, 0.4,0,0,364,364,364,1684,253.5,0,98,4.288,4.289,4.287,4.287,0,0,1.642,100.31,41,Motors_Started,
0.358282702896246,36.8932397478095,5800.8779543289,0,0,0.087426511984,700,2018-04-16 08:02:48,13,0,17.134,5800.8779543289,0,0,0.087426511984,0,0,0,249, 3.7, 0.4,0,0,364,364,364,1684,253.5,0,98,4.288,4.289,4.287,4.287,0,0,1.642,100.31,41,Motors_Started,
0.358282687080798,36.8932397679994,5800.8779543289,0,0,0.096720475536,800,2018-04-16 08:02:48,13,0,17.134,5800.8779543289,0,0,0.096720475536,0,0,0,249, 3.7, 0.4,0,0,364,364,364,1684,253.5,0,98,4.288,4.289,4.287,4.287,0,0,1.642,100.31,41,Motors_Started,
0.358282643838282,36.8932398122327,5800.8779543289,0,0,0.118847772832,900,2018-04-16 08:02:48,13,0,17.134,5800.8779543289,0,0,0.118847772832,0,0,0,249, 3.7, 0.4,0,0,364,364,364,1684,253.5,0,98,4.288,4.289,4.287,4.287,0,0,1.642,100.31,41,Motors_Started,
0.358282608379728,36.8932398505044,5800.8779543289,0,0,0.137694230128,1000,2018-04-16 08:02:48,13,0,17.134,5800.8779543289,0,0,0.137694230128,0,0,0,249, 3.8, 0.5,0,0,364,364,364,1684,253.5,0,98,4.288,4.289,4.287,4.287,0,0,1.642,100.31,41,Motors_Started,
0.358282550531698,36.8932398673674,5800.8779543289,0,0,0.155517721512,1100,2018-04-16 08:02:48,13,0,17.134,5800.8779543289,0,0,0.155517721512,0,0,0,249, 3.8, 0.4,0,0,364,364,364,1684,253.5,0,98,4.288,4.289,4.287,4.287,0,0,1.642,100.31,41,Motors_Started,
0.358282498132441,36.893239883223,5800.8779543289,0,0,0.172645674816,1200,2018-04-16 08:02:48,13,0,17.134,5800.8779543289,0,0,0.172645674816,0,0,0,249, 3.6, 0.4,0,0,364,364,364,1684,253.5,0,98,4.288,4.289,4.287,4.287,0,0,1.642,100.31,41,Motors_Started,
0.358282473768476,36.8932399254077,5800.8779543289,0,0,0.189943575632,1300,2018-04-16 08:02:48,13,0,17.134,5800.8779543289,0,0,0.189943575632,0,0,0,249, 3.8, 0.4,0,0,364,364,364,1684,253.5,0,98,4.288,4.289,4.287,4.287,0,0,1.642,100.31,41,Motors_Started,
0.358282446189963,36.8932399598317,5800.8779543289,0,0,0.206000990844,1400,2018-04-16 08:02:49,13,0,17.134,5800.8779543289,0,0,0.206000990844,0,0,0,249, 3.8, 0.4,0,0,364,364,364,1684,253.5,0,98,4.288,4.289,4.287,4.287,0,0,1.642,100.31,41,Motors_Started,
0.358282406407076,36.8932400189447,5800.8779543289,0,0,0.231749023164,1500,2018-04-16 08:02:49,13,0,17.134,5800.8779543289,0,0,0.231749023164,0,0,0,249, 3.9, 0.5,0,0,394,364,423,1684,253.5,0,98,4.288,4.289,4.287,4.287,0,0,1.642,100.31,41,Motors_Started,
0.358282365919887,36.8932400651501,5800.8779543289,0,0,0.254162737792,1600,2018-04-16 08:02:49,13,0,17.134,5800.8779543289,0,0,0.254162737792,0,0,0,249.1, 3.6, 0.4,0,0,552,481,534,1613,253.5,0,98,4.288,4.289,4.287,4.287,0,0,1.642,100.31,10,Assisted_Takeoff,
0.35828234941805,36.893240084113,5800.8779543289,0,0,0.263333997928,1700,2018-04-16 08:02:49,13,0,17.134,5800.8779543289,0,0,0.263333997928,0,0,0,249, 3.7, 0.4,0,0,786,747,761,1386,253.1,0,98,4.288,4.289,4.287,4.287,0,0,1.642,100.31,10,Assisted_Takeoff,
0.358282332204583,36.8932401090349,5800.8779543289,0,0,0.2743110324,1800,2018-04-16 08:02:49,13,0,17.134,5800.8779543289,0,0,0.2743110324,0,0,0,249, 3.6, 0.4,0,0,890,816,935,1165,252.3,0,98,4.288,4.289,4.287,4.287,0,0,1.642,100.31,10,Assisted_Takeoff,
0.358282294538673,36.893240150466,5800.8779543289,0,0,0.29473590182,1900,2018-04-16 08:02:49,13,0,17.134,5800.8779543289,0,0,0.29473590182,0,0,0,249.1, 3.7, 0.4,0,0,1024,1024,1024,1024,252.3,0,98,4.288,4.289,4.287,4.287,0,0,1.642,100.31,10,Assisted_Takeoff,
0.358282261202796,36.8932401894994,5800.8779543289,0,0,0.313462608456,2000,2018-04-16 08:02:49,13,0,17.134,5800.8779543289,0,0,0.313462608456,0,0,0,249, 3.6, 0.4,0,0,1024,1024,1024,1024,251.1,0,98,4.288,4.289,4.287,4.287,0,0,1.642,100.31,10,Assisted_Takeoff,
0.358282251133312,36.8932402422649,5800.8779543289,0,0,0.33052494496,2100,2018-04-16 08:02:49,13,0,17.134,5800.8779543289,0,0,0.33052494496,0,0,0,249, 3.7, 0.4,0,0,1024,1024,1024,1024,250.5,0,98,4.288,4.289,4.287,4.287,0,0,1.642,100.31,10,Assisted_Takeoff,
0.358282236387752,36.8932402895355,5800.8779543289,0,0,0.34732940744,2200,2018-04-16 08:02:49,13,0,17.134,5800.8779543289,0,0,0.34732940744,0,0,0,249, 3.6, 0.3,0,0,1024,1024,1024,1024,250.2,0,98,4.288,4.289,4.287,4.287,0,0,1.642,100.31,10,Assisted_Takeoff,
0.358282200907214,36.8932403069568,5800.8779543289,0,0,0.36039371232,2300,2018-04-16 08:02:49,13,0,17.134,5800.8779543289,0,0,0.36039371232,0,0,0,249, 3.7, 0.4,0,0,1024,1024,1024,1024,250,0,98,4.288,4.289,4.287,4.287,0,0,1.642,100.31,10,Assisted_Takeoff,
0.358282167991476,36.8932403290544,5800.8779543289,0,0,0.374261823,2400,2018-04-16 08:02:49,13,0,17.107,5800.8779543289,0,0,0.374261823,0,0,0,249, 3.6, 0.4,0,0,1024,1024,1024,1024,249.8,0,98,4.288,4.289,4.287,4.287,0,0,1.642,100.31,10,Assisted_Takeoff,
0.358282158318518,36.8932403660559,5800.8779543289,0,0,0.3869258654,2500,2018-04-16 08:02:50,13,0,17.107,5800.8779543289,0,0,0.3869258654,0,0,0,249, 3.6, 0.4,0,0,1024,1024,1024,1024,249.7,0,98,4.288,4.289,4.287,4.287,0,0,1.642,100.31,10,Assisted_Takeoff,
0.358282143121879,36.8932404000361,5800.8779543289,0,0,0.40005906792,2600,2018-04-16 08:02:50,13,0,17.107,5800.8779543289,0,0,0.40005906792,0,0,0,249, 3.6, 0.4,0,0,1024,1024,1024,1024,249.6,0,98,4.288,4.289,4.287,4.287,0,0,1.642,100.31,10,Assisted_Takeoff,
0.358282148676501,36.8932404483757,5800.8779543289,0,0,0.4127788846,2700,2018-04-16 08:02:50,13,0,17.107,5800.8779543289,0,0,0.4127788846,0,0,0,249, 3.6, 0.4,0,0,1024,1024,1024,1024,249.6,0,98,4.288,4.289,4.287,4.287,0,0,1.642,100.31,10,Assisted_Takeoff,
0.358282153333037,36.8932404879894,5800.8779543289,0,0,0.42345145712,2800,2018-04-16 08:02:50,13,0,17.107,5800.8779543289,0,0,0.42345145712,0,0,0,249, 3.6, 0.4,0,0,1024,1024,1024,1024,249.5,0,98,4.288,4.289,4.287,4.287,0,0,1.642,100.31,10,Assisted_Takeoff,
0.358282155724407,36.8932405043527,5800.8779543289,0,0,0.42782809768,2900,2018-04-16 08:02:50,13,0,17.107,5800.8779543289,0,0,0.42782809768,0,0,0,249, 3.6, 0.4,0,0,1024,1024,1024,1024,249.5,0,98,4.288,4.289,4.287,4.287,0,0,1.642,100.31,10,Assisted_Takeoff,
0.358282157193264,36.8932405220175,5800.8779543289,0,0,0.43282809784,3000,2018-04-16 08:02:50,13,0,17.107,5800.8779543289,0,0,0.43282809784,0,0,0,249, 3.6, 0.4,0,1,1024,1024,1024,1024,249.5,0,98,4.288,4.289,4.287,4.287,0,0,1.642,100.31,10,Assisted_Takeoff,
0.358282130049545,36.8932405569993,5800.8779543289,0,0,0.44895342644,3100,2018-04-16 08:02:50,13,0,17.107,5800.8779543289,0,0,0.44895342644,0,0,0,249, 3.6, 0.4,0,1,1024,1024,1024,1024,249.4,0,98,4.288,4.289,4.287,4.287,0,0,1.642,100.31,10,Assisted_Takeoff,
0.358282107423944,36.8932405953424,5800.8779543289,0,0,0.46516077604,3200,2018-04-16 08:02:50,13,0,17.107,5800.8779543289,0,0,0.46516077604,0,0,0,249, 3.6, 0.4,0,1,1024,1024,1024,1024,249.4,0,98,4.288,4.289,4.287,4.287,0,0,1.642,100.31,10,Assisted_Takeoff,
0.358282095478493,36.8932406383181,5800.8779543289,0,0,0.4805938474,3300,2018-04-16 08:02:50,13,0,17.107,5800.8779543289,0,0,0.4805938474,0,0,0,249, 3.6, 0.4,0,1,1024,1024,1024,1024,249.4,0,98,4.288,4.289,4.287,4.287,0,0,1.642,100.31,10,Assisted_Takeoff,
0.358282082421629,36.8932406798658,5800.8779543289,0,0,0.49586943844,3400,2018-04-16 08:02:50,13,0,17.134,5800.8779543289,0,0,0.49586943844,0,0,0,249, 3.6, 0.4,0,1,1024,1024,1024,1024,249.4,0,98,4.267,4.284,4.281,4.281,0,0,4.076,100.31,10,Assisted_Takeoff,
0.358282083831047,36.8932407354807,5800.8779543289,0,0,0.5126968668,3500,2018-04-16 08:02:51,13,0,17.134,5800.8779543289,0,0,0.5126968668,0,0,0,249, 3.6, 0.4,0,1,1024,1024,1024,1024,249.4,0,98,4.267,4.284,4.281,4.281,0,0,4.076,100.31,10,Assisted_Takeoff,
0.358282080417014,36.8932407835695,5800.8779543289,0,0,0.52831038436,3600,2018-04-16 08:02:51,13,0,17.134,5800.8779543289,0,0,0.52831038436,0,0,0,249, 3.6, 0.4,0,1,1024,1024,1024,1024,249.4,0,98,4.267,4.284,4.281,4.281,0,0,4.076,100.31,10,Assisted_Takeoff,
0.358282087023612,36.8932408409307,5800.8779543289,0,0,0.54515749776,3700,2018-04-16 08:02:51,13,0,17.134,5800.8779543289,0,0,0.54515749776,0,0,0,249, 3.6, 0.4,0,1,1024,1024,1024,1024,249.4,0,98,4.267,4.284,4.281,4.281,0,0,4.076,100.31,10,Assisted_Takeoff,
0.358282088158637,36.8932408919597,5800.8779543289,0,0,0.56121064788,3800,2018-04-16 08:02:51,13,0,17.134,5800.8779543289,0,0,0.56121064788,0,0,0,249, 3.6, 0.4,0,1,1024,1024,1032,1024,249.3,0,98,4.267,4.284,4.281,4.281,0,0,4.076,100.31,10,Assisted_Takeoff,
0.35828209650767,36.8932409515028,5800.8779543289,0,0,0.5789534306,3900,2018-04-16 08:02:51,13,0,17.134,5800.8779543289,0,0,0.5789534306,0,0,0,249, 3.6, 0.4,0,1,1024,1024,1076,1024,249.3,0,98,4.267,4.284,4.281,4.281,0,0,4.076,100.31,10,Assisted_Takeoff,
0.358282099127022,36.8932410041623,5800.8779543289,0,0,0.59564962536,4000,2018-04-16 08:02:51,13,0,17.134,5800.8779543289,0,0,0.59564962536,0,0,0,249, 3.6, 0.4,0,1,1024,1024,1139,1024,249.3,0,98,4.267,4.284,4.281,4.281,0,0,4.076,100.31,10,Assisted_Takeoff,
0.358282107564804,36.89324106478,5800.8779543289,0,0,0.6142060564,4100,2018-04-16 08:02:51,13,0,17.134,5800.8779543289,0,0,0.6142060564,0,0,0,249, 3.6, 0.4,0,1,1024,1024,1188,1024,249.3,0,98,4.267,4.284,4.281,4.281,0,0,4.076,100.31,10,Assisted_Takeoff,
0.358282111433173,36.8932411187103,5800.8779543289,0,0,0.63146983648,4200,2018-04-16 08:02:51,13,0,17.134,5800.8779543289,0,0,0.63146983648,0,0,0,249, 3.6, 0.4,0,1,1024,1024,1215,1024,249.3,0,98,4.267,4.284,4.281,4.281,0,0,4.076,100.31,10,Assisted_Takeoff,
0.358282118456652,36.8932411753984,5800.8779543289,0,0,0.64933729112,4300,2018-04-16 08:02:51,13,0,17.107,5800.8779543289,0,0,0.64933729112,0,0,0,248.9, 3.6, 0.4,0,1,1024,1024,1246,1024,249.3,0,98,4.283,4.285,4.284,4.283,0,0,1.932,100.31,10,Assisted_Takeoff,
0.358282130264499,36.8932412426614,5800.8779543289,0,0,0.670275612,4500,2018-04-16 08:02:52,13,0,17.107,5800.8779543289,0,0,0.670275612,0,0,0,249, 3.7, 0.5,0,1,1024,1024,1250,1024,249.3,0,98,4.283,4.285,4.284,4.283,0,0,1.932,100.31,10,Assisted_Takeoff,
0.358282134703638,36.8932412641317,5800.8779543289,0,0,0.67692587468,4600,2018-04-16 08:02:52,13,0,17.107,5800.8779543289,0,0,0.67692587468,0,0,0,249.3, 3.6, 0.5,0,1,1024,1024,1269,1024,249.3,0,98,4.283,4.285,4.284,4.283,0,0,1.932,100.31,10,Assisted_Takeoff,
0.358282145446483,36.8932413079921,5800.8779543289,0,0,0.69038059952,4700,2018-04-16 08:02:52,13,0,17.107,5800.8779543289,0,0,0.69038059952,0,0,0,249.4, 3, 0.1,0,1,1024,1024,1282,1024,249.3,0,98,4.283,4.285,4.284,4.283,0,0,1.932,100.31,10,Assisted_Takeoff,
0.358282162177116,36.8932413905256,5800.8779543289,0,0,0.71646655836,4800,2018-04-16 08:02:52,13,0,17.107,5800.8779543289,0,0,0.71646655836,0,0,-0.223694,249.3, 3.3, -0.9,0,1,1024,1024,1303,1024,249.3,0,98,4.283,4.285,4.284,4.283,0,0,1.932,100.31,10,Assisted_Takeoff,
0.358282164213486,36.8932415397681,5800.8779543289,0,0.223694,0.76769359412,4900,2018-04-16 08:02:52,13,0,17.107,5800.8779543289,0,0.223694,0.76769359412,0,0.223694,-0.671082,249.4, 2.5, -0.4,0,1,1024,1024,1325,1024,249.3,0,98,4.283,4.285,4.284,4.283,0,0,1.932,100.31,6,P-GPS,Obstacle Avoided. Revise Flight Route
0.358282143171547,36.8932417428433,5800.8779543289,0,0.223694,0.84058729724,5000,2018-04-16 08:02:52,13,0,17.107,5800.8779543289,0,0.223694,0.84058729724,0,0.223694,-1.11847,249.4, 0.9, 0.8,0,1,1024,1024,1334,1024,249.3,0,98,4.283,4.285,4.284,4.283,0,0,1.932,100.31,6,P-GPS,
0.358282115658171,36.8932419737963,5801.2060383289,0.328084,0.223694,0.92416013456,5100,2018-04-16 08:02:52,13,0,17.107,5801.2060383289,0.328084,0.223694,0.92416013456,0,0.223694,-1.565858,249.4, 0, 1.1,0,1,1024,1024,1351,1024,249.3,0,98,4.283,4.285,4.284,4.283,0,0,1.932,100.31,6,P-GPS,
0.358282091426924,36.8932421880522,5801.2060383289,0.328084,0.223694,1.00176184308,5200,2018-04-16 08:02:52,13,0,17.107,5801.2060383289,0.328084,0.223694,1.00176184308,0,0.223694,-2.013246,249.3, -0.1, 1.2,0,1,1024,1024,1366,1024,249.3,0,98,4.283,4.285,4.284,4.283,0,0,1.932,100.31,6,P-GPS,
0.358282122930802,36.8932424100108,5801.8622063289,0.984252,0.223694,1.07720475888,5300,2018-04-16 08:02:52,13,0,17.107,5801.8622063289,0.984252,0.223694,1.07720475888,0,0.223694,-2.460634,249.2, -1, 1.3,0,1,1024,1024,1366,1024,249.3,0,98,4.283,4.285,4.284,4.283,0,0,1.932,100.31,6,P-GPS,
0.358282144955507,36.8932426175934,5802.1902903289,1.312336,0.223694,1.14913389504,5400,2018-04-16 08:02:53,13,0,17.107,5802.1902903289,1.312336,0.223694,1.14913389504,0,0.223694,-2.908022,249.3, -1.8, 1.4,0,1,1024,1024,1369,1024,249.3,0,98,4.283,4.285,4.284,4.283,0,0,1.932,100.31,6,P-GPS,
0.358282183093665,36.8932428729227,5802.5183743289,1.64042,0.223694,1.23752956716,5500,2018-04-16 08:02:53,13,0,17.107,5802.5183743289,1.64042,0.223694,1.23752956716,0,0.223694,-3.131716,249.4, -1.7, 0.8,0,1,1024,1024,1369,1024,249.3,0,98,4.283,4.285,4.284,4.283,0,0,1.932,100.31,6,P-GPS,Home Point Recorded. RTH Altitude:  30m.
0.358282206899074,36.8932430808297,5803.1745423289,2.296588,0.223694,1.31055778472,5600,2018-04-16 08:02:53,13,0,17.107,5803.1745423289,2.296588,0.223694,1.31055778472,0,0.223694,-3.579104,249.5, -1.4, 0.1,0,1,1024,1024,1372,1024,249.3,0,98,4.283,4.285,4.284,4.283,0,0,1.932,100.31,6,P-GPS,
0.358282215031523,36.893243316832,5803.5026263289,2.624672,0.223694,1.39497051708,5700,2018-04-16 08:02:53,13,0,17.107,5803.5026263289,2.624672,0.223694,1.39497051708,0,0.223694,-4.026492,249.4, -0.9, 0.1,0,1,1024,1024,1374,1024,249.3,0,98,4.283,4.285,4.284,4.283,0,0,1.932,100.31,6,P-GPS,
0.35828221432315,36.8932435487859,5804.1587943289,3.28084,0.223694,1.4786089712,5800,2018-04-16 08:02:53,13,0,17.107,5804.1587943289,3.28084,0.223694,1.4786089712,0,0.223694,-4.250186,249.4, -1.7, 0,0,1,1024,1024,1373,1024,249.3,0,98,4.283,4.285,4.284,4.283,0,0,1.932,100.31,6,P-GPS,
0.358282185642994,36.8932437471432,5804.8149623289,3.937008,0.3131716,1.55172905228,5900,2018-04-16 08:02:53,13,0,17.107,5804.8149623289,3.937008,0.3131716,1.55172905228,-0.223694,0.223694,-4.47388,249.3, -2.3, 0.6,0,1,1024,1024,1377,1024,249.3,0,98,4.283,4.285,4.284,4.283,0,0,1.932,100.31,6,P-GPS,
0.358282106572268,36.8932439363522,5805.4711303289,4.593176,0.3131716,1.62441934332,6000,2018-04-16 08:02:53,13,0,17.107,5805.4711303289,4.593176,0.3131716,1.62441934332,-0.223694,0.223694,-4.47388,249.3, -1.7, 2,0,1,1024,1024,1380,1024,249.3,0,98,4.283,4.285,4.284,4.283,0,0,1.932,100.31,6,P-GPS,
0.358281981611989,36.8932441852028,5806.1272983289,5.249344,0.3131716,1.72165687924,6100,2018-04-16 08:02:53,13,0,17.107,5806.1272983289,5.249344,0.3131716,1.72165687924,-0.223694,0.223694,-4.47388,249.3, -1.8, 3.3,0,1,1024,1024,1382,1024,249.3,0,98,4.283,4.285,4.284,4.283,0,0,1.932,100.31,6,P-GPS,
0.358281858365648,36.8932444161954,5806.7834663289,5.905512,0.3131716,1.81285766956,6200,2018-04-16 08:02:53,13,0,17.107,5806.7834663289,5.905512,0.3131716,1.81285766956,-0.223694,0.223694,-4.47388,249.4, -1.8, 4.2,0,1,1024,1024,1382,1024,249.3,0,98,4.283,4.285,4.284,4.283,0,0,1.932,100.31,6,P-GPS,
0.358281744266277,36.8932446087661,5807.4396343289,6.56168,0.223694,1.8900755198,6300,2018-04-16 08:02:53,13,0,17.107,5807.4396343289,6.56168,0.3131716,1.8900755198,0,0.223694,-4.47388,249.4, -1.5, 4.6,0,1,1024,1024,1383,1024,249.3,0,98,4.283,4.285,4.284,4.283,0,0,1.932,100.31,6,P-GPS,
0.358281671637674,36.8932448096493,5808.4238863289,7.545932,0.223694,1.96731305508,6400,2018-04-16 08:02:53,13,0,16.759,5808.4238863289,7.545932,0.3131716,1.96731305508,0,0.223694,-4.47388,249.4, -1.8, 4,0,1,1024,1024,1386,1024,249.3,0,98,4.274,4.275,4.267,4.266,0,0,4.128,100.31,6,P-GPS,
0.358281614501274,36.893245078616,5809.0800543289,8.2021,0.223694,2.06763129976,6500,2018-04-16 08:02:54,13,0,16.759,5809.0800543289,8.2021,0.3131716,2.06763129976,0,0.223694,-4.47388,249.4, -2.8, 3.1,0,1,1024,1024,1387,1024,249.3,0,98,4.274,4.275,4.267,4.266,0,0,4.128,100.31,6,P-GPS,
0.358281572050996,36.8932453508941,5809.7362223289,8.858268,0.447388,2.16799219536,6600,2018-04-16 08:02:54,13,0,16.759,5809.7362223289,8.858268,0.447388,2.16799219536,0,0.447388,-4.697574,249.4, -3.5, 3.1,0,1,1024,1024,1386,1024,249.3,0,98,4.274,4.275,4.267,4.266,0,0,4.128,100.31,6,P-GPS,
0.358281511504634,36.8932456732699,5810.3923903289,9.514436,0.447388,2.28762146428,6700,2018-04-16 08:02:54,13,0,16.759,5810.3923903289,9.514436,0.447388,2.28762146428,0,0.447388,-4.697574,249.4, -4.4, 3.3,0,1,1024,1024,1389,1024,249.3,0,98,4.274,4.275,4.267,4.266,0,0,4.128,100.31,6,P-GPS,
0.358281461055439,36.8932459812517,5811.0485583289,10.170604,0.447388,2.40135506372,6800,2018-04-16 08:02:54,13,0,16.759,5811.0485583289,10.170604,0.447388,2.40135506372,0,0.447388,-4.697574,249.4, -5.2, 3.6,0,1,1024,1024,1391,1024,249.3,0,98,4.274,4.275,4.267,4.266,0,0,4.128,100.31,6,P-GPS,
0.358281399524682,36.8932462773216,5811.7047263289,10.826772,0.447388,2.5116798704,6900,2018-04-16 08:02:54,13,0,16.759,5811.7047263289,10.826772,0.447388,2.5116798704,0,0.447388,-4.697574,249.4, -5.4, 4.1,0,1,1024,1024,1391,1024,249.3,0,98,4.274,4.275,4.267,4.266,0,0,4.128,100.31,6,P-GPS,
0.358281348209155,36.8932465516809,5812.3608943289,11.48294,0.447388,2.61348761644,7000,2018-04-16 08:02:54,13,0,16.759,5812.3608943289,11.48294,0.447388,2.61348761644,0,0.447388,-4.47388,249.3, -6, 4.3,0,1,1024,1024,1391,1024,249.3,0,98,4.274,4.275,4.267,4.266,0,0,4.128,100.31,6,P-GPS,
0.358281295003819,36.8932467802979,5813.0170623289,12.139108,0.223694,2.69910769792,7100,2018-04-16 08:02:54,13,0,16.759,5813.0170623289,12.139108,0.447388,2.69910769792,0,0.223694,-4.47388,249.3, -6.1, 4,0,1,1024,1024,1391,1024,249.3,0,98,4.274,4.275,4.267,4.266,0,0,4.128,100.31,6,P-GPS,
0.358281244760622,36.8932469752651,5813.6732303289,12.795276,0.223694,2.77249680788,7200,2018-04-16 08:02:54,13,0,16.759,5813.6732303289,12.795276,0.447388,2.77249680788,0,0.223694,-4.47388,249.2, -6.3, 4.1,0,1,1024,1024,1391,1024,249.3,0,98,4.274,4.275,4.267,4.266,0,0,4.128,100.31,6,P-GPS,
0.358281138191176,36.8932471393861,5814.3293983289,13.451444,0.223694,2.8392717444,7300,2018-04-16 08:02:54,13,0,16.759,5814.3293983289,13.451444,0.447388,2.8392717444,0,0.223694,-4.47388,249.2, -6, 4.2,0,1,1024,1024,1391,1024,249.3,0,98,4.274,4.275,4.267,4.266,0,0,4.128,100.31,6,P-GPS,
0.358281045137,36.8932472691214,5815.3136503289,14.435696,0,2.89293316344,7400,2018-04-16 08:02:55,13,0,16.759,5815.3136503289,14.435696,0.447388,2.89293316344,0,0,-4.697574,249.2, -5.5, 4.3,0,1,1024,1024,1392,1024,249.3,0,98,4.211,4.215,4.216,4.208,0,0,16.044,100.31,6,P-GPS,
0.358280952906003,36.8932473316986,5815.9698183289,15.091864,0,2.92287082844,7500,2018-04-16 08:02:55,13,0,16.759,5815.9698183289,15.091864,0.447388,2.92287082844,0,0,-4.697574,249.3, -5.3, 4.4,0,1,1024,1024,1394,1024,249.3,0,98,4.211,4.215,4.216,4.208,0,0,16.044,100.31,6,P-GPS,
0.358280879513661,36.8932473826566,5816.6259863289,15.748032,0,2.94729012056,7600,2018-04-16 08:02:55,13,0,16.759,5816.6259863289,15.748032,0.447388,2.94729012056,0,0,-4.697574,249.3, -5.1, 4.2,0,1,1024,1024,1394,1024,249.3,0,98,4.211,4.215,4.216,4.208,0,0,16.044,100.31,6,P-GPS,
0.358280825851546,36.8932473888109,5817.2821543289,16.4042,0,2.95424550136,7700,2018-04-16 08:02:55,13,0,16.759,5817.2821543289,16.4042,0.447388,2.95424550136,0,0,-4.697574,249.3, -5, 4,0,1,1024,1024,1394,1024,249.3,0,98,4.211,4.215,4.216,4.208,0,0,16.044,100.31,6,P-GPS,
0.358280777910969,36.8932473906593,5817.9383223289,17.060368,0,2.9592684674,7800,2018-04-16 08:02:55,13,0,16.759,5817.9383223289,17.060368,0.447388,2.9592684674,0,0,-4.697574,249.3, -4.8, 3.8,0,1,1024,1024,1394,1024,249.4,0,98,4.211,4.215,4.216,4.208,0,0,16.044,100.31,6,P-GPS,
0.358280737459606,36.8932474052486,5818.9225743289,18.04462,0,2.968175948,7900,2018-04-16 08:02:55,13,0,16.759,5818.9225743289,18.04462,0.447388,2.968175948,0,0,-4.921268,249.3, -4.7, 3.5,0,1,1024,1024,1394,1024,249.4,0,98,4.211,4.215,4.216,4.208,0,0,16.044,100.31,6,P-GPS,
0.358280692962374,36.893247411472,5819.5787423289,18.700788,0,2.97457686684,8000,2018-04-16 08:02:55,13,0,16.759,5819.5787423289,18.700788,0.447388,2.97457686684,0,0,-4.921268,249.3, -4.6, 3.5,0,1,1024,1024,1395,1024,249.4,0,98,4.211,4.215,4.216,4.208,0,0,16.044,100.31,6,P-GPS,
0.358280638436369,36.8932474295239,5820.2349103289,19.356956,0,2.98619104044,8100,2018-04-16 08:02:55,13,0,16.759,5820.2349103289,19.356956,0.447388,2.98619104044,0,0,-4.921268,249.3, -4.7, 4,0,1,1024,1024,1400,1024,249.4,0,98,4.211,4.215,4.216,4.208,0,0,16.044,100.31,6,P-GPS,
0.35828058683505,36.8932474392366,5820.8910783289,20.013124,0,2.99468841604,8200,2018-04-16 08:02:55,13,0,16.759,5820.8910783289,20.013124,0.447388,2.99468841604,0,0,-4.921268,249.3, -4.7, 4,0,1,1024,1024,1400,1024,249.4,0,98,4.211,4.215,4.216,4.208,0,0,16.044,100.31,6,P-GPS,
0.358280540162216,36.8932474702587,5821.8753303289,20.997376,0,3.010252721,8300,2018-04-16 08:02:55,13,0,16.759,5821.8753303289,20.997376,0.447388,3.010252721,0,0,-4.921268,249.4, -4.6, 3.7,0,1,1024,1024,1402,1024,249.4,0,98,4.211,4.215,4.216,4.208,0,0,16.044,100.31,6,P-GPS,
0.358280494284878,36.8932474876581,5822.5314983289,21.653544,0,3.02102371872,8400,2018-04-16 08:02:55,13,0,16.812,5822.5314983289,21.653544,0.447388,3.02102371872,0,0,-4.921268,249.4, -4.3, 3.6,0,1,1024,1024,1402,1024,249.4,0,98,4.208,4.212,4.213,4.204,0,0,14.61,100.31,6,P-GPS,
0.358280449825914,36.8932475016379,5823.1876663289,22.309712,0,3.03051846968,8500,2018-04-16 08:02:56,13,0,16.812,5823.1876663289,22.309712,0.447388,3.03051846968,0,0,-4.921268,249.3, -4.5, 3.7,0,1,1024,1024,1401,1024,249.4,0,98,4.208,4.212,4.213,4.204,0,0,14.61,100.31,6,P-GPS,
0.358280411246447,36.8932475109524,5823.8438343289,22.96588,0,3.0378281812,8600,2018-04-16 08:02:56,13,0,16.812,5823.8438343289,22.96588,0.447388,3.0378281812,0,0,-4.921268,249.3, -4.8, 3.7,0,1,1024,1024,1402,1024,249.4,0,98,4.208,4.212,4.213,4.204,0,0,14.61,100.31,6,P-GPS,
0.358280371920339,36.8932475117701,5824.8280863289,23.950132,0,3.0423065278,8700,2018-04-16 08:02:56,13,0,16.812,5824.8280863289,23.950132,0.447388,3.0423065278,0,0,-4.921268,249.3, -4.9, 3.8,0,1,1024,1024,1401,1024,249.4,0,98,4.208,4.212,4.213,4.204,0,0,14.61,100.31,6,P-GPS,
0.358280340178709,36.8932474974284,5825.4842543289,24.6063,0,3.04074156712,8800,2018-04-16 08:02:56,13,0,16.812,5825.4842543289,24.6063,0.447388,3.0423065278,0,0,-4.921268,249.2, -4.9, 3.5,0,1,1024,1024,1400,1024,249.4,0,98,4.208,4.212,4.213,4.204,0,0,14.61,100.31,6,P-GPS,
0.35828034363101,36.8932474676165,5826.1404223289,25.262468,0,3.0299869736,8900,2018-04-16 08:02:56,13,0,16.812,5826.1404223289,25.262468,0.447388,3.0423065278,0,0,-4.921268,249.3, -4.6, 3.2,0,1,1024,1024,1375,1059,249.4,0,98,4.208,4.212,4.213,4.204,0,0,14.61,100.31,6,P-GPS,
0.358280339261895,36.8932474258659,5826.7965903289,25.918636,0,3.01593185504,9000,2018-04-16 08:02:56,13,0,16.812,5826.7965903289,25.918636,0.447388,3.0423065278,0,0,-4.921268,249.3, -3.9, 3.1,0,1,1024,1024,1361,1102,249.5,0,98,4.208,4.212,4.213,4.204,0,0,14.61,100.31,6,P-GPS,
0.358280359220919,36.893247408777,5827.7808423289,26.902888,0,3.00779865268,9100,2018-04-16 08:02:56,13,0,16.812,5827.7808423289,26.902888,0.447388,3.0423065278,0,0,-4.921268,249.3, -5.3, 2.8,0,1,1024,1024,1352,1124,249.5,0,98,4.208,4.212,4.213,4.204,0,0,14.61,100.31,6,P-GPS,
0.35828035107707,36.8932473916584,5828.4370103289,27.559056,0,3.00273303572,9200,2018-04-16 08:02:56,13,0,16.812,5828.4370103289,27.559056,0.447388,3.0423065278,0,0,-4.697574,249.9, -5.6, 3,0,1,1024,1024,1339,1159,249.8,0,98,4.208,4.212,4.213,4.204,0,0,14.61,100.31,6,P-GPS,
0.358280290586889,36.8932473910715,5829.0931783289,28.215224,0,3.00924222228,9300,2018-04-16 08:02:56,13,0,16.812,5829.0931783289,28.215224,0.447388,3.0423065278,0,0,-4.250186,251, -4.7, 3.2,0,1,1024,1024,1342,1165,250.4,0,98,4.208,4.212,4.213,4.204,0,0,14.61,100.31,6,P-GPS,
0.358280222211783,36.8932473846902,5829.7493463289,28.871392,0,3.0147966844,9400,2018-04-16 08:02:57,13,0,16.786,5829.7493463289,28.871392,0.447388,3.0423065278,0,0,-4.026492,252.6, -4.4, 3.7,0,1,1024,1024,1341,1172,251.2,0,98,4.208,4.212,4.213,4.204,0,0,14.61,100.31,6,P-GPS,
0.358280184437582,36.8932473653448,5830.4055143289,29.52756,0,3.01248041136,9500,2018-04-16 08:02:57,13,0,16.786,5830.4055143289,29.52756,0.447388,3.0423065278,0,0,-4.026492,254.3, -4, 3.9,0,1,1024,1024,1341,1173,252.1,0,98,4.208,4.212,4.213,4.204,0,0,14.61,100.31,6,P-GPS,
0.358280163401342,36.8932473505133,5830.7335983289,29.855644,0,3.00982293096,9600,2018-04-16 08:02:57,13,0,16.786,5830.7335983289,29.855644,0.447388,3.0423065278,0,0,-3.802798,256.1, -4.1, 3.6,0,1,1024,1024,1341,1173,253.2,0,98,4.208,4.212,4.213,4.204,0,0,14.61,100.31,6,P-GPS,
0.358280170184626,36.8932473644527,5831.3897663289,30.511812,0,3.01383867912,9700,2018-04-16 08:02:57,13,0,16.786,5831.3897663289,30.511812,0.447388,3.0423065278,0,0,-3.802798,257.9, -4.6, 2.9,0,1,1024,1024,1341,1173,254.6,0,98,4.208,4.212,4.213,4.204,0,0,14.61,100.31,6,P-GPS,
0.358280181217334,36.8932473742342,5832.0459343289,31.16798,0,3.0159285742,9800,2018-04-16 08:02:57,13,0,16.786,5832.0459343289,31.16798,0.447388,3.0423065278,0,0,-3.579104,259.7, -4.8, 2.2,0,1,1024,1024,1344,1171,256.1,0,98,4.208,4.212,4.213,4.204,0,0,14.61,100.31,6,P-GPS,
0.358280212263619,36.893247433431,5832.7021023289,31.824148,0,3.03281833852,9900,2018-04-16 08:02:57,13,0,16.786,5832.7021023289,31.824148,0.447388,3.0423065278,0,0,-3.579104,261.5, -5.2, 2,0,1,1024,1024,1345,1171,257.8,0,98,4.208,4.212,4.213,4.204,0,0,14.61,100.31,6,P-GPS,
0.358280224735871,36.8932474730998,5833.0301863289,32.152232,0,3.04513789272,10000,2018-04-16 08:02:57,13,0,16.786,5833.0301863289,32.152232,0.447388,3.04513789272,0,0,-3.802798,263.4, -5.4, 1.7,0,1,1024,1024,1347,1167,259.4,0,98,4.208,4.212,4.213,4.204,0,0,14.61,100.31,6,P-GPS,
0.358280205709946,36.8932474580807,5833.6863543289,32.8084,0,3.04210639656,10100,2018-04-16 08:02:57,13,0,16.786,5833.6863543289,32.8084,0.447388,3.04513789272,0,0,-3.802798,265.2, -5.3, 2,0,1,1024,1024,1350,1165,261.3,0,98,4.208,4.212,4.213,4.204,0,0,14.61,100.31,6,P-GPS,
0.35828015764805,36.8932474413277,5834.3425223289,33.464568,0,3.04187345692,10200,2018-04-16 08:02:57,13,0,16.786,5834.3425223289,33.464568,0.447388,3.04513789272,0,0,-3.802798,266.9, -5.6, 2.3,0,1,1024,1024,1349,1165,263.1,0,98,4.208,4.212,4.213,4.204,0,0,14.61,100.31,6,P-GPS,
0.358280086661733,36.8932474614443,5834.9986903289,34.120736,0,3.05719826056,10300,2018-04-16 08:02:57,13,0,16.786,5834.9986903289,34.120736,0.447388,3.05719826056,0,0,-3.802798,268.7, -5.6, 3.6,0,1,1024,1024,1350,1163,264.9,0,98,4.208,4.212,4.213,4.204,0,0,14.61,100.31,6,P-GPS,
0.358280022660627,36.893247465596,5835.3267743289,34.44882,0,3.0663386808,10400,2018-04-16 08:02:57,13,0,16.732,5835.3267743289,34.44882,0.447388,3.0663386808,0,0,-4.026492,270.3, -5.6, 3.5,0,1,1024,1024,1349,1164,266.8,0,98,4.204,4.207,4.208,4.201,0,0,14.672,100.31,6,P-GPS,
0.35827994616447,36.8932474254973,5835.9829423289,35.104988,0,3.06201781452,10500,2018-04-16 08:02:58,13,0,16.732,5835.9829423289,35.104988,0.447388,3.0663386808,0,0,-3.802798,271.9, -6.3, 2.7,0,1,1024,1024,1351,1155,268.5,0,98,4.204,4.207,4.208,4.201,0,0,14.672,100.31,6,P-GPS,
0.358279892919237,36.8932473655452,5836.6391103289,35.761156,0,3.04824812904,10600,2018-04-16 08:02:58,13,0,16.732,5836.6391103289,35.761156,0.447388,3.0663386808,0,0,-3.802798,273.5, -6.3, 2.1,0,1,1024,1024,1352,1148,268.5,0,98,4.204,4.207,4.208,4.201,0,0,14.672,100.31,6,P-GPS,
0.358279870795197,36.8932472890184,5837.2952783289,36.417324,0,3.02499025428,10700,2018-04-16 08:02:58,13,0,16.732,5837.2952783289,36.417324,0.447388,3.0663386808,0,0,-3.802798,275, -6, 1.4,0,1,1024,1024,1352,1149,270.2,0,98,4.204,4.207,4.208,4.201,0,0,14.672,100.31,6,P-GPS,
0.358279846226048,36.893247192361,5837.9514463289,37.073492,0,2.99531177564,10800,2018-04-16 08:02:58,13,0,16.732,5837.9514463289,37.073492,0.447388,3.0663386808,0,0,-3.802798,276.4, -5.5, 1.1,0,1,1024,1024,1354,1148,271.7,0,98,4.204,4.207,4.208,4.201,0,0,14.672,100.31,6,P-GPS,
0.358279801320891,36.8932470798712,5838.6076143289,37.72966,0,2.963172667,10900,2018-04-16 08:02:58,13,0,16.732,5838.6076143289,37.72966,0.447388,3.0663386808,0,0,-4.026492,277.8, -5.4, 1,0,1,1024,1024,1355,1145,273.2,0,98,4.204,4.207,4.208,4.201,0,0,14.672,100.31,6,P-GPS,
0.358279747449521,36.8932469593545,5839.2637823289,38.385828,0,2.92989182604,11000,2018-04-16 08:02:58,13,0,16.732,5839.2637823289,38.385828,0.447388,3.0663386808,0,0,-4.026492,279.1, -5.3, 1.5,0,1,1024,1024,1354,1147,274.7,0,98,4.204,4.207,4.208,4.201,0,0,14.672,100.31,6,P-GPS,
0.358279677255442,36.893246824323,5839.9199503289,39.041996,0,2.89452765168,11100,2018-04-16 08:02:58,13,0,16.732,5839.9199503289,39.041996,0.447388,3.0663386808,0,0,-4.026492,280.4, -5.1, 1.6,0,1,1024,1024,1356,1146,276.2,0,98,4.204,4.207,4.208,4.201,0,0,14.672,100.31,6,P-GPS,
0.358279625281209,36.8932466965803,5840.2480343289,39.37008,0,2.85950140384,11200,2018-04-16 08:02:58,13,0,16.732,5840.2480343289,39.37008,0.447388,3.0663386808,0,0,-3.802798,281.6, -5.1, 1.3,0,1,1024,1024,1355,1147,277.6,0,98,4.204,4.207,4.208,4.201,0,0,14.672,100.31,6,P-GPS,
0.358279621688048,36.8932465953088,5840.9042023289,40.026248,0,2.82635835816,11300,2018-04-16 08:02:59,13,0,16.759,5840.9042023289,40.026248,0.447388,3.0663386808,0,0,-3.802798,282.9, -5.3, 1,0,1,1024,1024,1355,1144,280.3,0,98,4.202,4.209,4.209,4.2,0,0,13.528,100.31,6,P-GPS,
0.358279641242403,36.893246412187,5842.2165383289,41.338584,0,2.7626641304,11500,2018-04-16 08:02:59,13,0,16.759,5842.2165383289,41.338584,0.447388,3.0663386808,0,0,-3.802798,285.4, -5.2, 0.6,0,1,1024,1024,1361,1124,281.6,0,98,4.202,4.209,4.209,4.2,0,0,13.528,100.31,6,P-GPS,
0.35827965822056,36.8932463293699,5842.8727063289,41.994752,0,2.73265428692,11600,2018-04-16 08:02:59,13,0,16.759,5842.8727063289,41.994752,0.447388,3.0663386808,0,0,-3.802798,286.6, -5.3, 0.4,0,1,1024,1024,1425,1024,282.9,0,98,4.202,4.209,4.209,4.2,0,0,13.528,100.31,6,P-GPS,
0.358279695486687,36.8932462588012,5843.5288743289,42.65092,0,2.703576202,11700,2018-04-16 08:02:59,13,0,16.759,5843.5288743289,42.65092,0.447388,3.0663386808,0,0,-3.579104,287.6, -5.3, 0.1,0,1,1024,1024,1426,1024,283.7,0,98,4.202,4.209,4.209,4.2,0,0,13.528,100.31,6,P-GPS,
0.358279724976179,36.8932461825335,5843.8569583289,42.979004,0.223694,2.67380914068,11800,2018-04-16 08:02:59,13,0,16.759,5843.8569583289,42.979004,0.447388,3.0663386808,0,-0.223694,-4.026492,287.9, -4.2, 0.6,0,1,1024,1024,1426,1024,284.3,0,98,4.202,4.209,4.209,4.2,0,0,13.528,100.31,6,P-GPS,
0.358279765977142,36.8932461393168,5844.8412103289,43.963256,0,2.65320218464,11900,2018-04-16 08:02:59,13,0,16.759,5844.8412103289,43.963256,0.447388,3.0663386808,0,0,-4.697574,287.8, -4.1, 0.3,0,1,1024,1024,1426,1024,284.6,0,98,4.202,4.209,4.209,4.2,0,0,13.528,100.31,6,P-GPS,
0.358279804181252,36.8932461184335,5845.4973783289,44.619424,0,2.64043971704,12000,2018-04-16 08:02:59,13,0,16.759,5845.4973783289,44.619424,0.447388,3.0663386808,0,0,-4.921268,287.7, -5.2, 0,0,1,1024,1024,1427,1024,284.8,0,98,4.202,4.209,4.209,4.2,0,0,13.528,100.31,6,P-GPS,
0.358279879921811,36.8932460812853,5846.4816303289,45.603676,0,2.61665690788,12100,2018-04-16 08:02:59,13,0,16.759,5846.4816303289,45.603676,0.447388,3.0663386808,0,0,-5.144962,287.8, -5.4, -0.1,0,1,1024,1024,1427,1024,285,0,98,4.202,4.209,4.209,4.2,0,0,13.528,100.31,6,P-GPS,
0.35827995693907,36.89324603276,5847.1377983289,46.259844,0,2.58903879676,12200,2018-04-16 08:02:59,13,0,16.759,5847.1377983289,46.259844,0.447388,3.0663386808,0,0,-5.368656,287.6, -5.5, -0.8,0,1,1024,1024,1426,1024,285,0,98,4.202,4.209,4.209,4.2,0,0,13.528,100.31,6,P-GPS,
0.358280043410261,36.8932460286843,5848.1220503289,47.244096,0,2.57507554172,12300,2018-04-16 08:02:59,13,0,16.759,5848.1220503289,47.244096,0.447388,3.0663386808,0,0,-5.368656,287.7, -5.6, -2.2,0,1,1024,1024,1425,1024,285.2,0,98,4.202,4.209,4.209,4.2,0,0,13.528,100.31,6,P-GPS,
0.358280073868677,36.8932459982506,5849.1063023289,48.228348,0,2.56049548876,12400,2018-04-16 08:02:59,13,0,16.705,5849.1063023289,48.228348,0.447388,3.0663386808,0,0,-5.368656,287.8, -5.6, -1.2,0,1,1024,1024,1423,1024,285.3,0,98,4.195,4.198,4.2,4.194,0,0,14.596,100.31,6,P-GPS,
0.358280064838141,36.8932459421971,5849.7624703289,48.884516,0,2.54299876904,12500,2018-04-16 08:03:00,13,0,16.705,5849.7624703289,48.884516,0.447388,3.0663386808,0,0,-5.144962,287.8, -5.4, 0.1,0,1,1024,1024,1424,1024,285.5,0,98,4.195,4.198,4.2,4.194,0,0,14.596,100.31,6,P-GPS,
0.358280055393166,36.8932458742861,5850.7467223289,49.868768,0,2.52165034316,12600,2018-04-16 08:03:00,13,0,16.705,5850.7467223289,49.868768,0.447388,3.0663386808,0,0,-5.144962,287.8, -5, 0.4,0,1,1024,1024,1424,1024,285.6,0,98,4.195,4.198,4.2,4.194,0,0,14.596,100.31,6,P-GPS,
0.358280038861202,36.8932458542319,5851.4028903289,50.524936,0,2.51737868948,12700,2018-04-16 08:03:00,13,0,16.705,5851.4028903289,50.524936,0.447388,3.0663386808,0,0,-5.144962,287.7, -5, 0.6,0,1,1024,1024,1424,1024,285.7,0,98,4.195,4.198,4.2,4.194,0,0,14.596,100.31,6,P-GPS,
0.35828003350525,36.8932458356407,5852.3871423289,51.509188,0,2.51196858432,12800,2018-04-16 08:03:00,13,0,16.705,5852.3871423289,51.509188,0.447388,3.0663386808,0,0,-5.368656,287.8, -5, 0,0,1,1024,1024,1424,1024,285.8,0,98,4.195,4.198,4.2,4.194,0,0,14.596,100.31,6,P-GPS,
0.35828003357283,36.8932458040095,5853.3713943289,52.49344,0,2.50141412204,12900,2018-04-16 08:03:00,13,0,16.705,5853.3713943289,52.49344,0.447388,3.0663386808,0,0,-5.368656,287.8, -5.3, 0.3,0,1,1024,1024,1424,1024,285.9,0,98,4.195,4.198,4.2,4.194,0,0,14.596,100.31,6,P-GPS,
0.358280024009793,36.8932457771169,5854.3556463289,53.477692,0,2.49388459424,13000,2018-04-16 08:03:00,13,0,16.705,5854.3556463289,53.477692,0.447388,3.0663386808,0,0,-5.59235,287.8, -5.4, 0.6,0,1,1024,1024,1422,1024,286,0,98,4.195,4.198,4.2,4.194,0,0,14.596,100.31,6,P-GPS,
0.358280018214161,36.8932458337315,5855.3398983289,54.461944,0,2.5135991618,13100,2018-04-16 08:03:00,13,0,16.705,5855.3398983289,54.461944,0.447388,3.0663386808,0,0,-5.816044,287.7, -5.4, 0.6,0,1,1024,1024,1421,1024,286.1,0,98,4.195,4.198,4.2,4.194,0,0,14.596,100.31,6,P-GPS,
0.358280008791984,36.8932458822152,5855.9960663289,55.118112,0,2.53115821748,13200,2018-04-16 08:03:00,13,0,16.705,5855.9960663289,55.118112,0.447388,3.0663386808,0,0,-5.59235,287.7, -5.8, 1,0,1,1024,1024,1424,1024,286.1,0,98,4.195,4.198,4.2,4.194,0,0,14.596,100.31,6,P-GPS,
0.358280025690347,36.8932459512667,5856.9803183289,56.102364,0,2.55172580344,13300,2018-04-16 08:03:00,13,0,16.705,5856.9803183289,56.102364,0.447388,3.0663386808,0,0,-5.368656,287.8, -6.1, 0.9,0,1,1024,1024,1424,1024,286.2,0,98,4.195,4.198,4.2,4.194,0,0,14.596,100.31,6,P-GPS,
0.358280064982258,36.8932460033345,5857.9645703289,57.086616,0,2.56347449148,13400,2018-04-16 08:03:01,13,0,16.705,5857.9645703289,57.086616,0.447388,3.0663386808,0,0,-5.368656,287.8, -6.3, 0.3,0,1,1024,1024,1425,1024,286.3,0,98,4.195,4.198,4.2,4.194,0,0,14.596,100.31,6,P-GPS,
0.358280124681829,36.8932460767547,5858.9488223289,58.070868,0,2.579724492,13500,2018-04-16 08:03:01,14,0,16.705,5858.9488223289,58.070868,0.447388,3.0663386808,0,0,-5.59235,287.9, -6.2, -0.3,0,1,1024,1024,1438,1024,286.3,0,98,4.195,4.198,4.2,4.194,0,0,14.596,100.31,6,P-GPS,
0.358280175806829,36.8932461255845,5859.6049903289,58.727036,0,2.5891733112,13600,2018-04-16 08:03:01,14,0,16.705,5859.6049903289,58.727036,0.447388,3.0663386808,0,0,-5.368656,287.9, -5.9, -0.2,0,1,1024,1024,1448,1024,286.4,0,98,4.195,4.198,4.2,4.194,0,0,14.596,100.31,6,P-GPS,
0.358280271181537,36.8932462264482,5860.5892423289,59.711288,0,2.61071530664,13700,2018-04-16 08:03:01,14,0,16.705,5860.5892423289,59.711288,0.447388,3.0663386808,0,0,-5.368656,287.9, -5.9, 0,0,1,1024,1024,1451,1024,286.4,0,98,4.195,4.198,4.2,4.194,0,0,14.596,100.31,6,P-GPS,
0.358280349006504,36.8932462990984,5861.5734943289,60.69554,0,2.62558079268,13800,2018-04-16 08:03:01,14,0,16.705,5861.5734943289,60.69554,0.447388,3.0663386808,0,0,-5.368656,287.8, -5.8, 0.3,0,1,1024,1024,1451,1024,286.4,0,98,4.195,4.198,4.2,4.194,0,0,14.596,100.31,6,P-GPS,
0.358280431666321,36.893246377044,5862.2296623289,61.351708,0,2.64217200056,13900,2018-04-16 08:03:01,14,0,16.705,5862.2296623289,61.351708,0.447388,3.0663386808,0,0,-5.816044,287.8, -6, 0.2,0,1,1024,1024,1455,1024,286.5,0,98,4.195,4.198,4.2,4.194,0,0,14.596,100.31,6,P-GPS,
0.358280521672049,36.8932464457644,5863.2139143289,62.33596,0,2.65526255216,14000,2018-04-16 08:03:01,14,0,16.705,5863.2139143289,62.33596,0.447388,3.0663386808,0,0,-5.816044,287.8, -6.3, -0.5,0,1,1024,1024,1469,1024,286.5,0,98,4.195,4.198,4.2,4.194,0,0,14.596,100.31,6,P-GPS,
0.358280616453189,36.893246522247,5864.1981663289,63.320212,0,2.67110244768,14100,2018-04-16 08:03:01,14,0,16.705,5864.1981663289,63.320212,0.447388,3.0663386808,0,0,-5.816044,287.9, -6.2, -0.8,0,1,1024,1024,1477,1024,286.6,0,98,4.195,4.198,4.2,4.194,0,0,14.596,100.31,6,P-GPS,
0.358280696472485,36.8932465668312,5865.1824183289,64.304464,0,2.67799877336,14200,2018-04-16 08:03:01,14,0,16.705,5865.1824183289,64.304464,0.447388,3.0663386808,0,0,-6.039738,287.9, -5.8, -0.5,0,1,1024,1024,1475,1024,286.6,0,98,4.195,4.198,4.2,4.194,0,0,14.596,100.31,6,P-GPS,
0.358280796620976,36.8932466580692,5866.1666703289,65.288716,0,2.69961622812,14300,2018-04-16 08:03:01,14,0,16.705,5866.1666703289,65.288716,0.447388,3.0663386808,0,0,-6.039738,287.9, -6, -1,0,1,1024,1024,1476,1024,286.6,0,98,4.195,4.198,4.2,4.194,0,0,14.596,100.31,6,P-GPS,
0.35828088135136,36.8932467342106,5867.1509223289,66.272968,0,2.71810704236,14400,2018-04-16 08:03:01,14,0,16.652,5867.1509223289,66.272968,0.447388,3.0663386808,0,0,-6.263432,287.9, -6.3, -1.7,0,1,1024,1024,1481,1024,286.7,0,98,4.186,4.192,4.194,4.194,0,0,15.69,100.31,6,P-GPS,
0.358280917276463,36.8932468513984,5868.1351743289,67.25722,0,2.75605979948,14500,2018-04-16 08:03:02,14,0,16.652,5868.1351743289,67.25722,0.447388,3.0663386808,0,0,-6.039738,288, -6.8, -1.6,0,1,1024,1024,1482,1024,286.7,0,98,4.186,4.192,4.194,4.194,0,0,15.69,100.31,6,P-GPS,
0.358280917607851,36.8932469207327,5869.1194263289,68.241472,0,2.7805119,14600,2018-04-16 08:03:02,14,0,16.652,5869.1194263289,68.241472,0.447388,3.0663386808,0,0,-6.039738,287.9, -6.9, -0.4,0,1,1024,1024,1489,1024,286.7,0,98,4.186,4.192,4.194,4.194,0,0,15.69,100.31,6,P-GPS,
0.358280860981968,36.8932469713882,5870.1036783289,69.225724,0,2.80361885612,14700,2018-04-16 08:03:02,14,0,16.652,5870.1036783289,69.225724,0.447388,3.0663386808,0,0,-6.263432,287.9, -6.9, 0.2,0,1,1024,1024,1502,1024,286.8,0,98,4.186,4.192,4.194,4.194,0,0,15.69,100.31,6,P-GPS,
0.358280826511066,36.8932469849189,5871.0879303289,70.209976,0,2.8116306674,14800,2018-04-16 08:03:02,14,0,16.652,5871.0879303289,70.209976,0.447388,3.0663386808,0,0,-6.263432,287.8, -6.5, 0.5,0,1,1024,1024,1511,1024,286.8,0,98,4.186,4.192,4.194,4.194,0,0,15.69,100.31,6,P-GPS,
0.358280845436028,36.8932469968579,5872.0721823289,71.194228,0,2.81405520816,14900,2018-04-16 08:03:02,14,0,16.652,5872.0721823289,71.194228,0.447388,3.0663386808,0,0,-6.71082,287.8, -5.9, 0.4,0,1,1024,1024,1513,1024,286.8,0,98,4.186,4.192,4.194,4.194,0,0,15.69,100.31,6,P-GPS,
0.358280879660221,36.8932469866543,5873.0564343289,72.17848,0,2.80727371188,15000,2018-04-16 08:03:02,14,0,16.652,5873.0564343289,72.17848,0.447388,3.0663386808,0,0,-6.934514,287.8, -6, 0.1,0,1,1024,1024,1549,1024,286.9,0,98,4.186,4.192,4.194,4.194,0,0,15.69,100.31,6,P-GPS,
0.358280920159623,36.893247007526,5874.0406863289,73.162732,0,2.81094825268,15100,2018-04-16 08:03:02,14,0,16.652,5874.0406863289,73.162732,0.447388,3.0663386808,0,0,-7.158208,287.8, -6, -0.1,0,1,1024,1024,1590,1024,286.9,0,98,4.186,4.192,4.194,4.194,0,0,15.69,100.31,6,P-GPS,
0.358280957668388,36.8932469950884,5875.3530223289,74.475068,0,2.80319234692,15200,2018-04-16 08:03:02,14,0,16.652,5875.3530223289,74.475068,0.447388,3.0663386808,0,0,-7.381902,287.8, -5, -0.1,0,1,1024,1024,1595,1024,286.9,0,98,4.186,4.192,4.194,4.194,0,0,15.69,100.31,6,P-GPS,
0.358280968650614,36.8932469874443,5876.6653583289,75.787404,0,2.79951452528,15300,2018-04-16 08:03:02,14,0,16.652,5876.6653583289,75.787404,0.447388,3.0663386808,0,0,-8.052984,287.9, -4.1, 0,0,1,1024,1024,1596,1024,286.9,0,98,4.186,4.192,4.194,4.194,0,0,15.69,100.31,6,P-GPS,
0.358280971186916,36.8932469771156,5877.9776943289,77.09974,0,2.79563329156,15400,2018-04-16 08:03:02,14,0,16.598,5877.9776943289,77.09974,0.447388,3.0663386808,0,0,-8.500372,287.9, -5.1, 0.3,0,1,1024,1024,1595,1024,286.9,0,97,4.184,4.185,4.186,4.181,0,0,15.438,100.31,6,P-GPS,
0.358280947922151,36.8932470090171,5879.2900303289,78.412076,0,2.80898631036,15500,2018-04-16 08:03:03,14,0,16.598,5879.2900303289,78.412076,0.447388,3.0663386808,0,0,-8.724066,287.8, -6.3, 0.4,0,1,1024,1024,1600,1024,286.9,0,97,4.184,4.185,4.186,4.181,0,0,15.438,100.31,6,P-GPS,
0.358280945161938,36.8932470100782,5880.6023663289,79.724412,0,2.80960638912,15600,2018-04-16 08:03:03,14,0,16.598,5880.6023663289,79.724412,0.447388,3.0663386808,0,0,-9.171454,287.8, -6.8, 0.2,0,1,1024,1024,1602,1024,287,0,97,4.184,4.185,4.186,4.181,0,0,15.438,100.31,6,P-GPS,
0.358280941867596,36.8932470184199,5882.2427863289,81.364832,0,2.81285113988,15700,2018-04-16 08:03:03,14,0,16.598,5882.2427863289,81.364832,0.447388,3.0663386808,0,0,-9.395148,287.8, -6.8, 0,0,1,1024,1024,1611,1024,287,0,97,4.184,4.185,4.186,4.181,0,0,15.438,100.31,6,P-GPS,
0.358280948004387,36.8932469869453,5883.5551223289,82.677168,0,2.80117134948,15800,2018-04-16 08:03:03,14,0,16.598,5883.5551223289,82.677168,0.447388,3.0663386808,0,0,-9.395148,287.9, -6.5, 0.4,0,1,1024,1024,1611,1024,287,0,97,4.184,4.185,4.186,4.181,0,0,15.438,100.31,6,P-GPS,
0.358280949815217,36.8932469608389,5885.1955423289,84.317588,0,2.79177502372,15900,2018-04-16 08:03:03,14,0,16.598,5885.1955423289,84.317588,0.447388,3.0663386808,0,0,-9.395148,287.9, -6.2, 0.9,0,1,1024,1024,1621,1024,287,0,97,4.184,4.185,4.186,4.181,0,0,15.438,100.31,6,P-GPS,
0.358280978008468,36.8932469143554,5886.5078783289,85.629924,0,2.77281504936,16000,2018-04-16 08:03:03,14,0,16.598,5886.5078783289,85.629924,0.447388,3.0663386808,0,0,-9.618842,287.8, -6.2, 0.4,0,1,1024,1024,1622,1024,287,0,97,4.184,4.185,4.186,4.181,0,0,15.438,100.31,6,P-GPS,
0.358281043107145,36.8932469358209,5888.1482983289,87.270344,0,2.77474746412,16100,2018-04-16 08:03:03,14,0,16.598,5888.1482983289,87.270344,0.447388,3.0663386808,0,0,-9.618842,287.9, -5.7, 0,0,1,1024,1024,1684,1024,287.1,0,97,4.184,4.185,4.186,4.181,0,0,15.438,100.31,6,P-GPS,
0.358281101932242,36.8932469320904,5889.4606343289,88.58268,0,2.76846793636,16200,2018-04-16 08:03:03,14,0,16.598,5889.4606343289,88.58268,0.447388,3.0663386808,0,0,-9.618842,287.9, -5.8, 0.2,0,1,1024,1024,1684,1024,287.1,0,97,4.184,4.185,4.186,4.181,0,0,15.438,100.31,6,P-GPS,
0.35828112928603,36.8932469661802,5891.1010543289,90.2231,0,2.77833998392,16300,2018-04-16 08:03:03,14,0,16.598,5891.1010543289,90.2231,0.447388,3.0663386808,0,0,-9.842536,287.9, -4.3, 0.5,0,1,1024,1024,1684,1024,287.1,0,97,4.184,4.185,4.186,4.181,0,0,15.438,100.31,6,P-GPS,
0.358281166330688,36.8932469712242,5892.7414743289,91.86352,0,2.77715560068,16400,2018-04-16 08:03:03,14,0,16.625,5892.7414743289,91.86352,0.447388,3.0663386808,0,0,-10.513618,287.9, -4.8, 0.3,0,1,1024,1024,1684,1024,287.1,0,97,4.184,4.185,4.186,4.181,0,0,17.42,100.31,6,P-GPS,
0.358281199138135,36.8932470031322,5894.3818943289,93.50394,0,2.7859416902,16500,2018-04-16 08:03:04,14,0,16.625,5894.3818943289,93.50394,0.447388,3.0663386808,0,0,-10.513618,287.9, -6.9, 0.4,0,1,1024,1024,1682,1024,287.1,0,97,4.184,4.185,4.186,4.181,0,0,17.42,100.31,6,P-GPS,
0.358281248063106,36.8932469950824,5896.0223143289,95.14436,0,2.77931767424,16600,2018-04-16 08:03:04,14,0,16.625,5896.0223143289,95.14436,0.447388,3.0663386808,0,0,-10.737312,287.9, -7.3, 0.3,0,1,1024,1024,1684,1024,287.1,0,97,4.184,4.185,4.186,4.181,0,0,17.42,100.31,6,P-GPS,
0.358281320664839,36.8932470131243,5897.6627343289,96.78478,0,2.78040363228,16700,2018-04-16 08:03:04,14,0,16.625,5897.6627343289,96.78478,0.447388,3.0663386808,0,0,-10.737312,287.9, -6.7, 0.1,0,1,1024,1024,1684,1024,287.2,0,97,4.184,4.185,4.186,4.181,0,0,17.42,100.31,6,P-GPS,
0.358281404475966,36.8932469837138,5899.3031543289,98.4252,0.223694,2.76398302808,16800,2018-04-16 08:03:04,14,0,16.625,5899.3031543289,98.4252,0.447388,3.0663386808,0,-0.223694,-10.961006,287.9, -6, 0.2,0,1,1024,1024,1684,1024,287.2,0,97,4.184,4.185,4.186,4.181,0,0,17.42,100.31,6,P-GPS,
0.358281484294963,36.8932469654286,5900.9435743289,100.06562,0.223694,2.75209654476,16900,2018-04-16 08:03:04,14,0,16.625,5900.9435743289,100.06562,0.447388,3.0663386808,0,-0.223694,-10.961006,287.9, -5.7, 0.3,0,1,1024,1024,1684,1024,287.2,0,97,4.184,4.185,4.186,4.181,0,0,17.42,100.31,6,P-GPS,
0.358281573315483,36.8932469249196,5902.5839943289,101.70604,0,2.73193250212,17000,2018-04-16 08:03:04,14,0,16.625,5902.5839943289,101.70604,0.447388,3.0663386808,0,0,-11.1847,287.9, -5.8, 0.1,0,1,1024,1024,1684,1024,287.2,0,97,4.184,4.185,4.186,4.181,0,0,17.42,100.31,6,P-GPS,
0.358281683699559,36.8932469021861,5904.2244143289,103.34646,0,2.71728355152,17100,2018-04-16 08:03:04,14,0,16.625,5904.2244143289,103.34646,0.447388,3.0663386808,0,0,-11.1847,287.9, -5.8, -0.1,0,1,1024,1024,1684,1024,287.2,0,97,4.184,4.185,4.186,4.181,0,0,17.42,100.31,6,P-GPS,
0.358281794177271,36.8932468519527,5906.1929183289,105.314964,0,2.69324483684,17200,2018-04-16 08:03:04,14,0,16.625,5906.1929183289,105.314964,0.447388,3.0663386808,0,0,-11.1847,287.9, -5.7, -0.1,0,1,1024,1024,1684,1024,287.2,0,97,4.184,4.185,4.186,4.181,0,0,17.42,100.31,6,P-GPS,
0.358281905791637,36.8932468554845,5907.8333383289,106.955384,0,2.68913066348,17300,2018-04-16 08:03:04,14,0,16.625,5907.8333383289,106.955384,0.447388,3.0663386808,0,0,-11.1847,287.9, -5.6, 0,0,1,1024,1024,1684,1024,287.2,0,97,4.184,4.185,4.186,4.181,0,0,17.42,100.31,6,P-GPS,
0.358282016388225,36.8932468335614,5909.4737583289,108.595804,0,2.67643709352,17400,2018-04-16 08:03:05,14,0,16.678,5909.4737583289,108.595804,0.447388,3.0663386808,0,0,-11.408394,287.9, -5.7, 0,0,1,1024,1024,1684,1024,287.2,0,97,4.172,4.18,4.179,4.167,0,0,17.42,100.31,6,P-GPS,
0.358282127902441,36.8932468222393,5911.1141783289,110.236224,0,2.66813656832,17500,2018-04-16 08:03:05,14,0,16.678,5911.1141783289,110.236224,0.447388,3.0663386808,0,0,-10.961006,287.9, -5.7, -0.1,0,1,1024,1024,1684,1024,287.2,0,97,4.172,4.18,4.179,4.167,0,0,17.42,100.31,6,P-GPS,
0.358282240294389,36.8932467845888,5912.7545983289,111.876644,0,2.65083997984,17600,2018-04-16 08:03:05,14,0,16.678,5912.7545983289,111.876644,0.447388,3.0663386808,0,0,-10.961006,287.9, -5.5, -0.4,0,1,1024,1024,1684,1024,287.3,0,97,4.172,4.18,4.179,4.167,0,0,17.42,100.31,6,P-GPS,
0.358282345193052,36.8932467554124,5914.3950183289,113.517064,0,2.63740494004,17700,2018-04-16 08:03:05,14,0,16.678,5914.3950183289,113.517064,0.447388,3.0663386808,0,0,-11.1847,287.9, -5.3, -0.4,0,1,1024,1024,1684,1024,287.3,0,97,4.172,4.18,4.179,4.167,0,0,17.42,100.31,6,P-GPS,
0.358282443773352,36.8932467127296,5916.3635223289,115.485568,0,2.61970480824,17800,2018-04-16 08:03:05,14,0,16.678,5916.3635223289,115.485568,0.447388,3.0663386808,0,0,-11.1847,287.9, -5.3, -0.4,0,1,1024,1024,1684,1024,287.3,0,97,4.172,4.18,4.179,4.167,0,0,17.42,100.31,6,P-GPS,
0.358282526132721,36.8932467206109,5918.0039423289,117.125988,0,2.62114837784,17900,2018-04-16 08:03:05,14,0,16.678,5918.0039423289,117.125988,0.447388,3.0663386808,0,0,-10.961006,287.9, -5.4, -0.4,0,1,1024,1024,1684,1024,287.3,0,97,4.172,4.18,4.179,4.167,0,0,17.42,100.31,6,P-GPS,
0.358282604843562,36.8932467097677,5919.6443623289,118.766408,0,2.61614837768,18000,2018-04-16 08:03:05,14,0,16.678,5919.6443623289,118.766408,0.447388,3.0663386808,0,0,-10.961006,287.9, -5.6, -0.3,0,1,1024,1024,1684,1024,287.3,0,97,4.172,4.18,4.179,4.167,0,0,17.42,100.31,6,P-GPS,
0.358282680230748,36.8932467032875,5921.2847823289,120.406828,0,2.61308079228,18100,2018-04-16 08:03:05,14,0,16.678,5921.2847823289,120.406828,0.447388,3.0663386808,0,0,-10.961006,287.9, -5.7, -0.4,0,1,1024,1024,1684,1024,287.3,-0.1,97,4.172,4.18,4.179,4.167,0,0,17.42,100.31,6,P-GPS,
0.358282756643854,36.8932466771834,5922.9252023289,122.047248,0,2.60313656624,18200,2018-04-16 08:03:05,14,0,16.678,5922.9252023289,122.047248,0.447388,3.0663386808,0,0,-10.737312,287.9, -5.5, -0.6,0,1,1024,1024,1684,1024,287.3,-1.9,97,4.172,4.18,4.179,4.167,0,0,17.42,100.31,6,P-GPS,
0.358282876753812,36.893246683518,5924.5656223289,123.687668,0,2.60538722248,18300,2018-04-16 08:03:05,14,0,16.678,5924.5656223289,123.687668,0.447388,3.0663386808,0,0,-10.961006,287.9, -5.4, -0.7,0,1,1024,1024,1684,1024,287.3,-6,97,4.172,4.18,4.179,4.167,0,0,17.42,100.31,6,P-GPS,
0.358282981352842,36.8932466673628,5926.2060423289,125.328088,0,2.60004273412,18400,2018-04-16 08:03:05,14,0,16.598,5926.2060423289,125.328088,0.447388,3.0663386808,0,0,-10.961006,287.9, -5.4, -0.7,0,1,1024,1024,1684,1024,287.3,-10.8,97,4.157,4.166,4.168,4.161,0,0,19.124,100.31,6,P-GPS,
0.358283080398877,36.8932466384373,5927.8464623289,126.968508,0,2.59053157896,18500,2018-04-16 08:03:06,14,0,16.598,5927.8464623289,126.968508,0.447388,3.0663386808,0,0,-10.737312,287.9, -5.3, -0.8,0,1,1024,1024,1684,1024,287.3,-10.8,97,4.157,4.166,4.168,4.161,0,0,19.124,100.31,6,P-GPS,
0.358283154417356,36.8932465916655,5929.4868823289,128.608928,0,2.5745899774,18600,2018-04-16 08:03:06,14,0,16.598,5929.4868823289,128.608928,0.447388,3.0663386808,0,0,-10.961006,287.9, -5.1, -0.5,0,1,1024,1024,1684,1024,287.3,-15.5,97,4.157,4.166,4.168,4.161,0,0,19.124,100.31,6,P-GPS,
0.358283194648879,36.8932465422482,5931.1273023289,130.249348,0,2.55730979312,18700,2018-04-16 08:03:06,14,0,16.598,5931.1273023289,130.249348,0.447388,3.0663386808,0,0,-10.961006,287.9, -5.1, -0.2,0,1,1024,1024,1684,1024,287.3,-18.8,97,4.157,4.166,4.168,4.161,0,0,19.124,100.31,6,P-GPS,
0.358283229333108,36.8932464907283,5932.7677223289,131.889768,0,2.5392389264,18800,2018-04-16 08:03:06,14,0,16.598,5932.7677223289,131.889768,0.447388,3.0663386808,0,0,-10.961006,287.9, -5.2, -0.1,0,1,1024,1024,1684,1024,287.3,-18.8,97,4.157,4.166,4.168,4.161,0,0,19.124,100.31,6,P-GPS,
0.358283258067816,36.8932464473114,5934.4081423289,133.530188,0,2.52405847972,18900,2018-04-16 08:03:06,14,0,16.598,5934.4081423289,133.530188,0.447388,3.0663386808,0,0,-10.961006,287.9, -5.2, -0.2,0,1,1024,1024,1684,1024,287.4,-18.8,97,4.157,4.166,4.168,4.161,0,0,19.124,100.31,6,P-GPS,
0.358283289127129,36.8932464014586,5936.0485623289,135.170608,0,2.50809719312,19000,2018-04-16 08:03:06,14,0,16.598,5936.0485623289,135.170608,0.447388,3.0663386808,0,0,-10.961006,287.9, -5.3, -0.4,0,1,1024,1024,1684,1024,287.4,-18.8,97,4.157,4.166,4.168,4.161,0,0,19.124,100.31,6,P-GPS,
0.358283329171381,36.8932463601694,5937.6889823289,136.811028,0,2.49410112968,19100,2018-04-16 08:03:06,14,0,16.598,5937.6889823289,136.811028,0.447388,3.0663386808,0,0,-10.737312,287.9, -5.1, -0.4,0,1,1024,1024,1684,1024,287.4,-18.8,97,4.157,4.166,4.168,4.161,0,0,19.124,100.31,6,P-GPS,
0.358283365617586,36.8932463112335,5939.3294023289,138.451448,0,2.47731635224,19200,2018-04-16 08:03:06,14,0,16.598,5939.3294023289,138.451448,0.447388,3.0663386808,0,0,-10.961006,287.9, -4.9, -0.3,0,1,1024,1024,1684,1024,287.4,-18.8,97,4.157,4.166,4.168,4.161,0,0,19.124,100.31,6,P-GPS,
0.358283409398303,36.893246267622,5940.9698223289,140.091868,0,2.46278223104,19300,2018-04-16 08:03:06,14,0,16.598,5940.9698223289,140.091868,0.447388,3.0663386808,0,0,-10.961006,287.9, -4.8, -0.5,0,1,1024,1024,1684,1024,287.4,-18.8,97,4.157,4.166,4.168,4.161,0,0,19.124,100.31,6,P-GPS,
0.358283447266139,36.8932462311379,5942.6102423289,141.732288,0,2.45076123328,19400,2018-04-16 08:03:06,14,0,16.518,5942.6102423289,141.732288,0.447388,3.0663386808,0,0,-10.961006,287.9, -5.1, -0.8,0,1,1024,1024,1684,1024,287.4,-18.8,97,4.16,4.163,4.165,4.157,0,0,17.904,100.31,6,P-GPS,
0.358283490571351,36.8932462001064,5944.2506623289,143.372708,0,2.44100401512,19500,2018-04-16 08:03:07,14,0,16.518,5944.2506623289,143.372708,0.447388,3.0663386808,0,0,-11.1847,287.9, -5.4, -0.9,0,1,1024,1024,1684,1024,287.4,-18.8,97,4.16,4.163,4.165,4.157,0,0,17.904,100.31,6,P-GPS,
0.358283519008054,36.8932461604518,5945.8910823289,145.013128,0,2.42766740052,19600,2018-04-16 08:03:07,14,0,16.518,5945.8910823289,145.013128,0.447388,3.0663386808,0,0,-11.1847,287.9, -5.4, -0.9,0,1,1024,1024,1684,1024,287.4,-18.8,97,4.16,4.163,4.165,4.157,0,0,17.904,100.31,6,P-GPS,
0.358283514778985,36.8932461451449,5947.5315023289,146.653548,0,2.42195217724,19700,2018-04-16 08:03:07,14,0,16.518,5947.5315023289,146.653548,0.447388,3.0663386808,0,0,-11.1847,287.9, -5.5, -0.8,0,1,1024,1024,1684,1024,287.4,-18.8,97,4.16,4.163,4.165,4.157,0,0,17.904,100.31,6,P-GPS,
0.35828350696571,36.8932461072012,5949.1719223289,148.293968,0,2.40788721616,19800,2018-04-16 08:03:07,14,0,16.518,5949.1719223289,148.293968,0.447388,3.0663386808,0,0,-10.961006,287.9, -5.2, -0.6,0,1,1024,1024,1684,1024,287.4,-18.8,97,4.16,4.163,4.165,4.157,0,0,17.904,100.31,6,P-GPS,
0.358283523295747,36.8932460490546,5950.8123423289,149.934388,0,2.38741477456,19900,2018-04-16 08:03:07,14,0,16.518,5950.8123423289,149.934388,0.447388,3.0663386808,0,0,-10.961006,287.9, -4.9, -0.5,0,1,1024,1024,1684,1024,287.4,-18.8,97,4.16,4.163,4.165,4.157,0,0,17.904,100.31,6,P-GPS,
0.358283538700013,36.8932459790255,5952.4527623289,151.574808,0,2.36262146668,20000,2018-04-16 08:03:07,14,0,16.518,5952.4527623289,151.574808,0.447388,3.0663386808,0,0,-10.961006,287.9, -4.6, -0.3,0,1,1024,1024,1684,1024,287.4,-18.8,97,4.16,4.163,4.165,4.157,0,0,17.904,100.31,6,P-GPS,
0.358283515658344,36.8932459499055,5954.0931823289,153.215228,0,2.3511483692,20100,2018-04-16 08:03:07,14,0,16.518,5954.0931823289,153.215228,0.447388,3.0663386808,0,0,-10.737312,287.9, -4.6, -0.5,0,1,1024,1024,1684,1024,287.4,-18.8,97,4.16,4.163,4.165,4.157,0,0,17.904,100.31,6,P-GPS,
0.358283500660375,36.893245913875,5955.7336023289,154.855648,0,2.33749679396,20200,2018-04-16 08:03:07,14,0,16.518,5955.7336023289,154.855648,0.447388,3.0663386808,0,0,-10.961006,287.9, -4.5, -0.6,0,1,1024,1024,1684,1024,287.4,-18.8,97,4.16,4.163,4.165,4.157,0,0,17.904,100.31,6,P-GPS,
0.358283489113893,36.8932458908217,5957.0459383289,156.167984,0,2.32869430024,20300,2018-04-16 08:03:07,14,0,16.491,5957.0459383289,156.167984,0.447388,3.0663386808,0,0,-10.737312,287.9, -4.3, -0.8,0,1,1024,1024,1684,1024,287.4,-18.8,97,4.16,4.163,4.165,4.157,0,0,17.904,100.31,6,P-GPS,
0.358283467938422,36.8932458398017,5960.3267783289,159.448824,0,2.309383276,20500,2018-04-16 08:03:08,14,0,16.491,5960.3267783289,159.448824,0.447388,3.0663386808,0,0,-10.737312,287.9, -4.5, -0.5,0,1,1024,1024,1684,1024,287.4,-18.8,97,4.16,4.163,4.165,4.157,0,0,17.904,100.31,6,P-GPS,
0.358283460586811,36.8932458166146,5961.9671983289,161.089244,0,2.30069561168,20600,2018-04-16 08:03:08,14,0,16.491,5961.9671983289,161.089244,0.447388,3.0663386808,0,0,-10.737312,287.9, -4.6, -0.6,0,1,1024,1024,1684,1024,287.4,-18.8,97,4.16,4.163,4.165,4.157,0,0,17.904,100.31,6,P-GPS,
0.358283461180379,36.893245833473,5963.6076183289,162.729664,0,2.30683734416,20700,2018-04-16 08:03:08,14,0,16.491,5963.6076183289,162.729664,0.447388,3.0663386808,0,0,-10.961006,287.9, -4.7, -1.2,0,1,1024,1024,1684,1024,287.4,-18.8,97,4.16,4.163,4.165,4.157,0,0,17.904,100.31,6,P-GPS,
0.358283456724142,36.893245836267,5965.2480383289,164.370084,0,2.30769036256,20800,2018-04-16 08:03:08,14,0,16.491,5965.2480383289,164.370084,0.447388,3.0663386808,0,0,-10.961006,287.9, -4.7, -1.2,0,1,1024,1024,1684,1024,287.4,-18.8,97,4.16,4.163,4.165,4.157,0,0,17.904,100.31,6,P-GPS,
0.358283440338738,36.8932458607761,5966.8884583289,166.010504,0,2.31600073028,20900,2018-04-16 08:03:08,14,0,16.491,5966.8884583289,166.010504,0.447388,3.0663386808,0,0,-11.1847,287.9, -4.7, -0.8,0,1,1024,1024,1684,1024,287.4,-18.8,97,4.16,4.163,4.165,4.157,0,0,17.904,100.31,6,P-GPS,
0.358283418376729,36.8932458759939,5968.5288783289,167.650924,0,2.3207677908,21000,2018-04-16 08:03:08,14,0,16.491,5968.5288783289,167.650924,0.447388,3.0663386808,0,0,-11.1847,287.9, -4.9, -0.7,0,1,1024,1024,1684,1024,287.5,-18.8,97,4.16,4.163,4.165,4.157,0,0,17.904,100.31,6,P-GPS,
0.358283361982899,36.8932459080802,5970.1692983289,169.291344,0,2.3306103108,21100,2018-04-16 08:03:08,14,0,16.491,5970.1692983289,169.291344,0.447388,3.0663386808,0,0,-11.1847,287.9, -5.1, -0.8,0,1,1024,1024,1684,1024,287.5,-18.8,97,4.16,4.163,4.165,4.157,0,0,17.904,100.31,6,P-GPS,
0.358283309333676,36.8932459234654,5971.8097183289,170.931764,0,2.33467527156,21200,2018-04-16 08:03:08,14,0,16.491,5971.8097183289,170.931764,0.447388,3.0663386808,0,0,-11.1847,287.9, -5.1, -0.6,0,1,1024,1024,1684,1024,287.5,-18.8,97,4.16,4.163,4.165,4.157,0,0,17.904,100.31,6,P-GPS,
0.358283235622973,36.8932459447628,5973.4501383289,172.572184,0,2.34055453684,21300,2018-04-16 08:03:08,14,0,16.491,5973.4501383289,172.572184,0.447388,3.0663386808,0,0,-11.1847,287.9, -5.2, -0.5,0,1,1024,1024,1684,1024,287.5,-18.8,97,4.16,4.163,4.165,4.157,0,0,17.904,100.31,6,P-GPS,
0.358283173813752,36.8932459522533,5975.0905583289,174.212604,0,2.34195545552,21400,2018-04-16 08:03:08,14,0,16.545,5975.0905583289,174.212604,0.447388,3.0663386808,0,0,-11.1847,287.9, -5.2, -0.5,0,1,1024,1024,1684,1024,287.5,-18.8,97,4.155,4.159,4.16,4.152,0,0,18.402,100.31,6,P-GPS,
0.358283139442185,36.893245960367,5976.7309783289,175.853024,0,2.34426516688,21500,2018-04-16 08:03:09,15,0,16.545,5976.7309783289,175.853024,0.447388,3.0663386808,0,0,-11.1847,287.9, -5.2, -0.5,0,1,1024,1024,1684,1024,287.5,-18.8,97,4.155,4.159,4.16,4.152,0,0,18.402,100.31,6,P-GPS,
0.358283105713038,36.8932459597328,5978.3713983289,177.493444,0,2.34346792276,21600,2018-04-16 08:03:09,15,0,16.545,5978.3713983289,177.493444,0.447388,3.0663386808,0,0,-11.1847,287.9, -5.2, -0.2,0,1,1024,1024,1684,1024,287.5,-18.8,97,4.155,4.159,4.16,4.152,0,0,18.402,100.31,6,P-GPS,
0.358283066171161,36.8932460013016,5980.0118183289,179.133864,0,2.35804141404,21700,2018-04-16 08:03:09,15,0,16.545,5980.0118183289,179.133864,0.447388,3.0663386808,0,0,-11.408394,287.9, -5.3, -0.2,0,1,1024,1024,1684,1024,287.5,-18.8,97,4.155,4.159,4.16,4.152,0,0,18.402,100.31,6,P-GPS,
