latitude,longitude,altitude(feet),ascent(feet),speed(mph),distance(feet),time(millisecond),datetime(utc),satellites,gpslevel,voltage(v),max_altitude(feet),max_ascent(feet),max_speed(mph),max_distance(feet), xSpeed(mph), ySpeed(mph), zSpeed(mph), compass_heading(degrees), pitch(degrees), roll(degrees),isPhoto,isVideo,rc_elevator,rc_aileron,rc_throttle,rc_rudder,gimbal_heading(degrees),gimbal_pitch(degrees),battery_percent,voltageCell1,voltageCell2,voltageCell3,voltageCell4,voltageCell5,voltageCell6,current(A),battery_temperature(f),flycStateRaw,flycState,message
0.341419678436308,36.9110526457055,5397.2689535525,0,0,0,0,2018-04-04 06:01:02,13,0,0,5397.2689535525,0,0,0,0,0,0,227.7, 0, -2.5,0,0,364,364,364,1684,232.2,0,99,4.286,4.289,4.284,4.285,0,0,0,78.71,41,Motors_Started,
0.341419758515042,36.9110526598387,5397.2689535525,0,0,0.0296682096108,100,2018-04-04 06:01:02,13,0,0,5397.2689535525,0,0,0.0296682096108,0,0,0,227.6, 0, -2.5,0,0,364,364,364,1684,232.2,0,99,4.286,4.289,4.284,4.285,0,0,0,78.71,41,Motors_Started,
0.341419813359407,36.9110526830239,5397.2689535525,0,0,0.051074804784,200,2018-04-04 06:01:02,13,0,0,5397.2689535525,0,0,0.051074804784,0,0,0,227.7, 0, -2.5,0,0,364,364,364,1684,232.2,0,99,4.286,4.289,4.284,4.285,0,0,0,78.71,41,Motors_Started,
0.341419872661638,36.9110527143795,5397.2689535525,0,0,0.075162075896,300,2018-04-04 06:01:02,13,0,17.123,5397.2689535525,0,0,0.075162075896,0,0,0,227.6, 0, -2.5,0,0,364,364,364,1684,232.2,0,99,4.286,4.289,4.284,4.285,0,0,1.52,78.71,41,Motors_Started,Setting new Return-To-Home altitude to 30m (98 ft). Setting new Maximum Flight Altitude to 150m (492 ft)
0.341419909972547,36.9110527253523,5397.2689535525,0,0,0.08933399236,400,2018-04-04 06:01:02,13,0,17.123,5397.2689535525,0,0,0.08933399236,0,0,0,227.7, 0, -2.5,0,0,364,364,364,1684,232.2,0,99,4.286,4.289,4.284,4.285,0,0,1.52,78.71,41,Motors_Started,
0.34141995704842,36.9110527390545,5397.2689535525,0,0,0.107205055924,500,2018-04-04 06:01:02,13,0,17.123,5397.2689535525,0,0,0.107205055924,0,0,0,227.7, 0, -2.5,0,0,364,364,364,1684,232.2,0,99,4.286,4.289,4.284,4.285,0,0,1.52,78.71,41,Motors_Started,
0.341419986968636,36.911052732542,5397.2689535525,0,0,0.116941276708,600,2018-04-04 06:01:02,13,0,17.123,5397.2689535525,0,0,0.116941276708,0,0,0,227.6, 0, -2.5,0,0,364,364,364,1684,232.2,0,99,4.286,4.289,4.284,4.285,0,0,1.52,78.71,41,Motors_Started,
0.341420028640518,36.9110527334172,5397.2689535525,0,0,0.131718180068,700,2018-04-04 06:01:02,13,0,17.123,5397.2689535525,0,0,0.131718180068,0,0,0,227.6, 0, -2.5,0,0,364,364,364,1684,232.2,0,99,4.286,4.289,4.284,4.285,0,0,1.52,78.71,41,Motors_Started,
0.341420057242508,36.9110527180357,5397.2689535525,0,0,0.140704072744,800,2018-04-04 06:01:03,13,0,17.123,5397.2689535525,0,0,0.140704072744,0,0,0,227.6, 0, -2.5,0,0,364,364,364,1684,232.2,0,99,4.286,4.289,4.284,4.285,0,0,1.52,78.71,41,Motors_Started,
0.341420096049143,36.911052713333,5397.2689535525,0,0,0.154350726724,900,2018-04-04 06:01:03,13,0,17.123,5397.2689535525,0,0,0.154350726724,0,0,0,227.6, 0, -2.5,0,0,364,364,364,1684,232.2,0,99,4.286,4.289,4.284,4.285,0,0,1.52,78.71,41,Motors_Started,
0.341420126871517,36.9110526973268,5397.2689535525,0,0,0.16469160632,1000,2018-04-04 06:01:03,13,0,17.123,5397.2689535525,0,0,0.16469160632,0,0,0,227.6, 0.1, -2.6,0,0,364,364,364,1684,232.2,0,99,4.286,4.289,4.284,4.285,0,0,1.52,78.71,41,Motors_Started,
0.341420165940331,36.9110526909545,5397.2689535525,0,0,0.178629926976,1100,2018-04-04 06:01:03,13,0,17.123,5397.2689535525,0,0,0.178629926976,0,0,0,227.6, 0.1, -2.6,0,0,364,364,364,1684,232.2,0,99,4.286,4.289,4.284,4.285,0,0,1.52,78.71,41,Motors_Started,
0.341420199266437,36.911052670518,5397.2689535525,0,0,0.190240163568,1200,2018-04-04 06:01:03,13,0,17.123,5397.2689535525,0,0,0.190240163568,0,0,0,227.6, 0, -2.5,0,0,364,364,364,1684,232.2,0,99,4.286,4.289,4.284,4.285,0,0,1.52,78.71,41,Motors_Started,
0.341420240689982,36.9110526657222,5397.2689535525,0,0,0.205267723104,1300,2018-04-04 06:01:03,13,0,17.096,5397.2689535525,0,0,0.205267723104,0,0,0,227.6, 0, -2.5,0,0,364,364,373,1676,232.2,0,99,4.286,4.289,4.284,4.285,0,0,1.526,78.71,41,Motors_Started,
0.341420278139308,36.9110526505446,5397.2689535525,0,0,0.218808405952,1400,2018-04-04 06:01:03,13,0,17.096,5397.2689535525,0,0,0.218808405952,0,0,0,227.6, 0.1, -2.6,0,0,613,551,503,1544,232.2,0,99,4.286,4.289,4.284,4.285,0,0,1.526,78.71,41,Motors_Started,
0.341420322990727,36.9110526461664,5397.2689535525,0,0,0.235165361856,1500,2018-04-04 06:01:03,13,0,17.096,5397.2689535525,0,0,0.235165361856,0,0,0,227.6, 0.1, -2.6,0,0,944,900,743,1226,231.9,0,99,4.286,4.289,4.284,4.285,0,0,1.526,78.71,41,Motors_Started,
0.341420366045972,36.9110526353114,5397.2689535525,0,0,0.250902567084,1600,2018-04-04 06:01:03,13,0,17.096,5397.2689535525,0,0,0.250902567084,0,0,0,227.6, 0, -2.5,0,0,1024,1024,1024,1024,230.7,0,99,4.286,4.289,4.284,4.285,0,0,1.526,78.71,10,Assisted_Takeoff,
0.341420412178162,36.9110526271314,5397.2689535525,0,0,0.267791019068,1700,2018-04-04 06:01:03,13,0,17.096,5397.2689535525,0,0,0.267791019068,0,0,0,227.6, 0, -2.5,0,0,1024,1024,1024,1024,229.6,0,99,4.286,4.289,4.284,4.285,0,0,1.526,78.71,10,Assisted_Takeoff,
0.341420428144241,36.9110526179214,5397.2689535525,0,0,0.273718184612,1800,2018-04-04 06:01:04,13,0,17.096,5397.2689535525,0,0,0.273718184612,0,0,0,227.6, 0, -2.5,0,0,1024,1024,1024,1024,229,0,99,4.286,4.289,4.284,4.285,0,0,1.526,78.71,10,Assisted_Takeoff,
0.341420445492869,36.9110526116433,5397.2689535525,0,0,0.280135835736,1900,2018-04-04 06:01:04,13,0,17.096,5397.2689535525,0,0,0.280135835736,0,0,0,227.6, 0, -2.5,0,0,1024,1024,1024,1024,228.7,0,99,4.286,4.289,4.284,4.285,0,0,1.526,78.71,10,Assisted_Takeoff,
0.341420464836341,36.9110526060028,5397.2689535525,0,0,0.287283145676,2000,2018-04-04 06:01:04,13,0,17.096,5397.2689535525,0,0,0.287283145676,0,0,0,227.6, 0, -2.5,0,0,1024,1024,1024,1024,228.6,0,99,4.286,4.289,4.284,4.285,0,0,1.526,78.71,10,Assisted_Takeoff,
0.341420493708653,36.9110526027733,5397.2689535525,0,0,0.297863854676,2100,2018-04-04 06:01:04,13,0,17.096,5397.2689535525,0,0,0.297863854676,0,0,0,227.6, 0, -2.5,0,0,1024,1024,1024,1024,228.4,0,99,4.286,4.289,4.284,4.285,0,0,1.526,78.71,10,Assisted_Takeoff,
0.34142049671069,36.9110525990475,5397.2689535525,0,0,0.299031833716,2200,2018-04-04 06:01:04,13,0,17.096,5397.2689535525,0,0,0.299031833716,0,0,0,227.6, 0, -2.5,0,0,1024,1024,1024,1024,228.3,0,99,4.286,4.289,4.284,4.285,0,0,1.526,78.71,10,Assisted_Takeoff,
0.341420504471854,36.9110525977863,5397.2689535525,0,0,0.301885180264,2300,2018-04-04 06:01:04,13,0,16.882,5397.2689535525,0,0,0.301885180264,0,0,0,227.6, 0, -2.5,0,0,1024,1024,1024,1024,228.2,0,99,4.251,4.262,4.259,4.256,0,0,4.274,78.71,10,Assisted_Takeoff,
0.341420545109674,36.9110525353175,5397.2689535525,0,0,0.31875985272,2500,2018-04-04 06:01:04,13,0,16.882,5397.2689535525,0,0,0.31875985272,0,0,0,227.6, 0, -2.5,0,0,1024,1024,1039,1024,228.2,0,99,4.251,4.262,4.259,4.256,0,0,4.274,78.71,10,Assisted_Takeoff,
0.34142058141339,36.9110525054715,5397.2689535525,0,0,0.3333989608,2600,2018-04-04 06:01:04,13,0,16.882,5397.2689535525,0,0,0.3333989608,0,0,0,227.6, 0, -2.5,0,0,1024,1024,1284,1024,228.1,0,99,4.251,4.262,4.259,4.256,0,0,4.274,78.71,10,Assisted_Takeoff,
0.341420638326694,36.9110525041112,5397.2689535525,0,0,0.35400591684,2800,2018-04-04 06:01:05,13,0,16.882,5397.2689535525,0,0,0.35400591684,0,0,0,227.6, 0, -2.6,0,0,1024,1024,1434,1024,228.1,0,99,4.251,4.262,4.259,4.256,0,0,4.274,78.71,10,Assisted_Takeoff,
0.34142065635194,36.9110525249866,5397.2689535525,0,0,0.35950132384,2900,2018-04-04 06:01:05,13,0,16.882,5397.2689535525,0,0,0.35950132384,0,0,0,227.6, 0.1, -2.6,0,0,1024,1024,1549,1024,228.1,0,99,4.251,4.262,4.259,4.256,0,0,4.274,78.71,10,Assisted_Takeoff,
0.341420655383016,36.9110525526379,5397.2689535525,0,0,0.35805119256,3000,2018-04-04 06:01:05,13,0,16.882,5397.2689535525,0,0,0.35950132384,0,0,0,227.5, 0.3, -2.6,0,0,1024,1024,1643,1005,228,0,99,4.251,4.262,4.259,4.256,0,0,4.274,78.71,10,Assisted_Takeoff,
0.341420658962336,36.9110525777615,5397.2689535525,0,0,0.35860237368,3100,2018-04-04 06:01:05,13,0,16.882,5397.2689535525,0,0,0.35950132384,0,0,0,227.4, 0.8, -2.2,0,0,1024,1024,1684,1024,228,0,99,4.251,4.262,4.259,4.256,0,0,4.274,78.71,10,Assisted_Takeoff,
0.341420661100483,36.9110526235459,5397.2689535525,0,0,0.35861549704,3200,2018-04-04 06:01:05,13,0,16.882,5397.2689535525,0,0,0.35950132384,0,0,0,227.5, 2.5, 0.3,0,0,1024,1024,1684,1024,228,0,99,4.251,4.262,4.259,4.256,0,0,4.274,78.71,10,Assisted_Takeoff,
0.341420680303909,36.9110526924089,5397.2689535525,0,0,0.3659284894,3300,2018-04-04 06:01:05,13,0,17.096,5397.2689535525,0,0,0.3659284894,0,0,-0.447388,227.5, 3.5, 2.2,0,0,1024,1024,1684,1024,228,0,99,4.251,4.262,4.259,4.256,0,0,4.274,78.71,6,P-GPS,
0.341420797450099,36.9110528046308,5397.2689535525,0,0.223694,0.4123687796,3400,2018-04-04 06:01:05,13,0,17.096,5397.2689535525,0,0.223694,0.4123687796,0.223694,0,-1.11847,227.4, 1.5, 1.7,0,0,1024,1024,1684,1024,227.9,0,99,4.251,4.262,4.259,4.256,0,0,4.274,78.71,6,P-GPS,Home Point Recorded. RTH Altitude:  30m.
0.341420974648418,36.9110529174276,5397.5970375525,0.328084,0.223694,0.4832021152,3500,2018-04-04 06:01:05,13,0,17.096,5397.5970375525,0.328084,0.223694,0.4832021152,0.223694,0,-1.789552,227.4, 0.1, 1,0,0,1024,1024,1684,1024,227.9,0,99,4.251,4.262,4.259,4.256,0,0,4.274,78.71,6,P-GPS,
0.341421174579816,36.9110530080948,5397.9251215525,0.656168,0.223694,0.56165028044,3600,2018-04-04 06:01:05,13,0,17.096,5397.9251215525,0.656168,0.223694,0.56165028044,0.223694,0,-2.460634,227.3, 0, 0,0,0,1024,1024,1684,1024,227.9,0,99,4.251,4.262,4.259,4.256,0,0,4.274,78.71,6,P-GPS,
0.341421383215246,36.9110530926589,5398.2532055525,0.984252,0.3131716,0.64300855076,3700,2018-04-04 06:01:06,13,0,17.096,5398.2532055525,0.984252,0.3131716,0.64300855076,0.223694,0.223694,-3.35541,227.4, 0, -1.8,0,0,1024,1024,1684,1024,227.9,0,99,4.251,4.262,4.259,4.256,0,0,4.274,78.71,6,P-GPS,
0.341421625174341,36.9110532956792,5398.9093735525,1.64042,0.4921268,0.74880907908,3800,2018-04-04 06:01:06,12,0,17.096,5398.9093735525,1.64042,0.4921268,0.74880907908,0.223694,0.447388,-4.47388,227.6, -0.9, -0.7,0,0,1024,1024,1684,1024,227.9,0,99,4.251,4.262,4.259,4.256,0,0,4.274,78.71,6,P-GPS,
0.341421825253112,36.9110535270552,5399.5655415525,2.296588,0.4921268,0.84669950216,3900,2018-04-04 06:01:06,12,0,17.096,5399.5655415525,2.296588,0.4921268,0.84669950216,0,0.223694,-5.368656,227.6, -2.1, 1.5,0,0,1024,1024,1684,1024,227.9,0,99,4.251,4.262,4.259,4.256,0,0,4.274,78.71,6,P-GPS,
0.341421917025702,36.911053686192,5400.5497935525,3.28084,0,0.9006561968,4000,2018-04-04 06:01:06,13,0,17.096,5400.5497935525,3.28084,0.4921268,0.9006561968,0,0,-6.71082,227.7, -1.9, 0.5,0,0,1024,1024,1684,1024,227.9,0,99,4.251,4.262,4.259,4.256,0,0,4.274,78.71,6,P-GPS,
0.341421969901279,36.9110537605601,5401.5340455525,4.265092,0,0.92973428172,4100,2018-04-04 06:01:06,13,0,17.096,5401.5340455525,4.265092,0.4921268,0.92973428172,0,0,-7.82929,227.8, -1.3, -0.7,0,0,1024,1024,1684,1024,227.9,0,99,4.251,4.262,4.259,4.256,0,0,4.274,78.71,6,P-GPS,
0.34142199794227,36.91105380702,5404.1587175525,6.889764,0,0.94641079144,4300,2018-04-04 06:01:06,13,0,16.267,5404.1587175525,6.889764,0.4921268,0.94641079144,0,0,-10.06623,227.7, 0.4, 1.9,0,0,1024,1024,1684,1024,227.9,0,99,4.251,4.251,4.235,4.238,0,0,2.398,78.71,6,P-GPS,
0.341422081314532,36.9110538576612,5405.7991375525,8.530184,0.223694,0.98188651436,4400,2018-04-04 06:01:06,13,0,16.267,5405.7991375525,8.530184,0.4921268,0.98188651436,0.223694,0,-10.737312,227.6, -0.7, 2.5,0,0,1024,1024,1684,1024,227.9,0,99,4.251,4.251,4.235,4.238,0,0,2.398,78.71,6,P-GPS,
0.341422266729979,36.9110539174256,5407.4395575525,10.170604,0.447388,1.052165388,4500,2018-04-04 06:01:06,13,0,16.267,5407.4395575525,10.170604,0.4921268,1.052165388,0.447388,0,-11.1847,227.4, -3.5, 0.5,0,0,1024,1024,1684,1024,227.9,0,99,4.251,4.251,4.235,4.238,0,0,2.398,78.71,6,P-GPS,
0.341422513044347,36.9110538932141,5409.0799775525,11.811024,0.447388,1.12992785768,4600,2018-04-04 06:01:06,13,0,16.267,5409.0799775525,11.811024,0.4921268,1.12992785768,0.447388,0,-11.632088,227.5, -5.4, -2.4,0,0,1024,1024,1684,1024,227.9,0,99,4.251,4.251,4.235,4.238,0,0,2.398,78.71,6,P-GPS,
0.341422714607446,36.9110538510378,5410.7203975525,13.451444,0.223694,1.19184058932,4700,2018-04-04 06:01:06,13,0,16.267,5410.7203975525,13.451444,0.4921268,1.19184058932,0.223694,0,-11.632088,227.5, -5.2, -3.7,0,0,1024,1024,1684,1024,227.8,0,99,4.251,4.251,4.235,4.238,0,0,2.398,78.71,6,P-GPS,
0.341422811538946,36.9110538044489,5412.6889015525,15.419948,0,1.21877956656,4800,2018-04-04 06:01:07,13,0,16.267,5412.6889015525,15.419948,0.4921268,1.21877956656,0,0,-11.632088,227.4, -3.5, -2.9,0,0,1024,1024,1684,1024,227.8,0,99,4.251,4.251,4.235,4.238,0,0,2.398,78.71,6,P-GPS,
0.341422856674528,36.9110538055859,5414.3293215525,17.060368,0,1.2343832416,4900,2018-04-04 06:01:07,13,0,16.267,5414.3293215525,17.060368,0.4921268,1.2343832416,0,0,-11.632088,227.4, -3, -1.5,0,0,1024,1024,1684,1024,227.8,0,99,4.251,4.251,4.235,4.238,0,0,2.398,78.71,6,P-GPS,
0.341422860040522,36.9110538230166,5415.9697415525,18.700788,0.223694,1.23772641756,5000,2018-04-04 06:01:07,13,0,16.267,5415.9697415525,18.700788,0.4921268,1.23772641756,0.223694,0,-11.408394,227.4, -3.4, -0.9,0,0,1024,1024,1684,1024,227.8,0,99,4.251,4.251,4.235,4.238,0,0,2.398,78.71,6,P-GPS,
0.341422871679011,36.9110538510769,5417.6101615525,20.341208,0.223694,1.24528875376,5100,2018-04-04 06:01:07,13,0,16.267,5417.6101615525,20.341208,0.4921268,1.24528875376,0.223694,0,-11.1847,227.4, -3.9, -1.1,0,0,1024,1024,1684,1024,227.8,0,99,4.251,4.251,4.235,4.238,0,0,2.398,78.71,6,P-GPS,
0.341422902572222,36.9110539179775,5419.2505815525,21.981628,0.223694,1.26459649716,5200,2018-04-04 06:01:07,13,0,16.267,5419.2505815525,21.981628,0.4921268,1.26459649716,0.223694,0,-11.1847,227.4, -4.1, -1.6,0,0,1024,1024,1684,1024,227.8,0,99,4.251,4.251,4.235,4.238,0,0,2.398,78.71,6,P-GPS,
0.341422926586886,36.911053989835,5420.8910015525,23.622048,0,1.28254269196,5300,2018-04-04 06:01:07,13,0,16.213,5420.8910015525,23.622048,0.4921268,1.28254269196,0,0,-10.961006,227.4, -4.1, -1.7,0,0,1024,1024,1684,1024,227.8,0,99,4.069,4.087,4.039,4.061,0,0,22.694,78.71,6,P-GPS,
0.341422902186281,36.9110540366075,5422.5314215525,25.262468,0,1.28098429296,5400,2018-04-04 06:01:07,13,0,16.213,5422.5314215525,25.262468,0.4921268,1.28254269196,0,0,-10.961006,227.5, -4.1, -1.4,0,0,1024,1024,1684,1024,227.8,0,99,4.069,4.087,4.039,4.061,0,0,22.694,78.71,6,P-GPS,
0.341422856917167,36.9110540663669,5424.1718415525,26.902888,0,1.27022969944,5500,2018-04-04 06:01:07,13,0,16.213,5424.1718415525,26.902888,0.4921268,1.28254269196,0,0,-10.961006,227.4, -3.8, -1.2,0,0,1024,1024,1684,1024,227.8,0,99,4.069,4.087,4.039,4.061,0,0,22.694,78.71,6,P-GPS,
0.341422791010781,36.9110541225929,5425.8122615525,28.543308,0,1.256971825,5600,2018-04-04 06:01:07,13,0,16.213,5425.8122615525,28.543308,0.4921268,1.28254269196,0,0,-10.961006,227.4, -3.7, -1.3,0,0,1024,1024,1684,1024,227.8,0,99,4.069,4.087,4.039,4.061,0,0,22.694,78.71,6,P-GPS,
0.341422716848185,36.9110541795786,5427.4526815525,30.183728,0,1.24180778252,5700,2018-04-04 06:01:07,13,0,16.213,5427.4526815525,30.183728,0.4921268,1.28254269196,0,0,-10.961006,227.4, -3.7, -1.4,0,0,1024,1024,1684,1024,227.8,0,99,4.069,4.087,4.039,4.061,0,0,22.694,78.71,6,P-GPS,
0.341422613000682,36.9110542450702,5429.0931015525,31.824148,0,1.2193569944,5800,2018-04-04 06:01:08,13,0,16.213,5429.0931015525,31.824148,0.4921268,1.28254269196,0,0,-10.961006,227.4, -3.7, -1.3,0,0,1024,1024,1684,1024,227.8,0,99,4.069,4.087,4.039,4.061,0,0,22.694,78.71,6,P-GPS,
0.341422495145305,36.9110543001598,5430.4054375525,33.136484,0,1.19183402764,5900,2018-04-04 06:01:08,13,0,16.213,5430.4054375525,33.136484,0.4921268,1.28254269196,0,0,-10.961006,227.4, -3.7, -1.1,0,0,1024,1024,1684,1024,227.8,0,99,4.069,4.087,4.039,4.061,0,0,22.694,78.71,6,P-GPS,
0.341422342254769,36.9110543267154,5432.0458575525,34.776904,0,1.14922575856,6000,2018-04-04 06:01:08,13,0,16.213,5432.0458575525,34.776904,0.4921268,1.28254269196,0,0,-10.961006,227.4, -3.6, -1,0,0,1024,1024,1684,1024,227.8,0,99,4.069,4.087,4.039,4.061,0,0,22.694,78.71,6,P-GPS,
0.341422180871898,36.9110543393315,5433.6862775525,36.417324,0,1.10245082268,6100,2018-04-04 06:01:08,13,0,16.213,5433.6862775525,36.417324,0.4921268,1.28254269196,0,0,-10.961006,227.4, -3.3, -0.9,0,0,1024,1024,1684,1024,227.8,0,99,4.069,4.087,4.039,4.061,0,0,22.694,78.71,6,P-GPS,
0.341422017373678,36.9110543542741,5435.3266975525,38.057744,0,1.05678809156,6200,2018-04-04 06:01:08,13,0,16.213,5435.3266975525,38.057744,0.4921268,1.28254269196,0,0,-10.961006,227.4, -3.1, -1,0,0,1024,1024,1684,1024,227.8,0,99,4.069,4.087,4.039,4.061,0,0,22.694,78.71,6,P-GPS,
0.341421857370913,36.9110543748192,5436.9671175525,39.698164,0,1.0148786414,6300,2018-04-04 06:01:08,13,0,16.293,5436.9671175525,39.698164,0.4921268,1.28254269196,0,0,-10.961006,227.4, -3, -0.9,0,0,1024,1024,1684,1024,227.8,0,99,4.1,4.116,4.072,4.093,0,0,17.004,78.71,6,P-GPS,
0.341421690430163,36.9110543879909,5438.6075375525,41.338584,0,0.971046619,6400,2018-04-04 06:01:08,13,0,16.293,5438.6075375525,41.338584,0.4921268,1.28254269196,0,0,-10.961006,227.4, -3, -0.6,0,0,1024,1024,1684,1024,227.8,0,99,4.1,4.116,4.072,4.093,0,0,17.004,78.71,6,P-GPS,
0.34142153201106,36.9110543984198,5440.2479575525,42.979004,0,0.93073493792,6500,2018-04-04 06:01:08,13,0,16.293,5440.2479575525,42.979004,0.4921268,1.28254269196,0,0,-10.961006,227.4, -2.9, -0.6,0,0,1024,1024,1684,1024,227.8,0,99,4.1,4.116,4.072,4.093,0,0,17.004,78.71,6,P-GPS,
0.341421388699031,36.9110543945356,5441.8883775525,44.619424,0,0.89245081596,6600,2018-04-04 06:01:08,13,0,16.293,5441.8883775525,44.619424,0.4921268,1.28254269196,0,0,-10.961006,227.4, -3, -0.9,0,0,1024,1024,1684,1024,227.8,0,99,4.1,4.116,4.072,4.093,0,0,17.004,78.71,6,P-GPS,
0.341421252226468,36.9110543964381,5443.5287975525,46.259844,0,0.8588911036,6700,2018-04-04 06:01:08,13,0,16.293,5443.5287975525,46.259844,0.4921268,1.28254269196,0,0,-10.961006,227.4, -3.2, -0.9,0,0,1024,1024,1684,1024,227.8,0,99,4.1,4.116,4.072,4.093,0,0,17.004,78.71,6,P-GPS,
0.341421114031825,36.9110543895594,5445.1692175525,47.900264,0,0.82409451456,6800,2018-04-04 06:01:09,13,0,16.293,5445.1692175525,47.900264,0.4921268,1.28254269196,0,0,-10.961006,227.4, -3.3, -0.9,0,0,1024,1024,1684,1024,227.8,0,99,4.1,4.116,4.072,4.093,0,0,17.004,78.71,6,P-GPS,
0.341420974307259,36.9110543874803,5446.8096375525,49.540684,0,0.79206367364,6900,2018-04-04 06:01:09,13,0,16.293,5446.8096375525,49.540684,0.4921268,1.28254269196,0,0,-10.961006,227.4, -3, -1,0,0,1024,1024,1684,1024,227.8,0,99,4.1,4.116,4.072,4.093,0,0,17.004,78.71,6,P-GPS,
0.34142083345581,36.9110543805812,5448.4500575525,51.181104,0,0.76040684848,7000,2018-04-04 06:01:09,13,0,16.293,5448.4500575525,51.181104,0.4921268,1.28254269196,0,0,-10.961006,227.4, -2.9, -0.9,0,0,1024,1024,1684,1024,227.8,0,99,4.1,4.116,4.072,4.093,0,0,17.004,78.71,6,P-GPS,
0.341420699123836,36.9110543829323,5450.0904775525,52.821524,0,0.73511813376,7100,2018-04-04 06:01:09,13,0,16.293,5450.0904775525,52.821524,0.4921268,1.28254269196,0,0,-10.961006,227.4, -2.9, -0.8,0,0,1024,1024,1684,1024,227.8,0,99,4.1,4.116,4.072,4.093,0,0,17.004,78.71,6,P-GPS,
0.341420563047799,36.9110543802996,5451.7308975525,54.461944,0,0.71040356604,7200,2018-04-04 06:01:09,13,0,16.293,5451.7308975525,54.461944,0.4921268,1.28254269196,0,0,-10.961006,227.4, -2.9, -0.8,0,0,1024,1024,1684,1024,227.8,0,99,4.1,4.116,4.072,4.093,0,0,17.004,78.71,6,P-GPS,
0.341420435964029,36.9110543845489,5453.3713175525,56.102364,0,0.6919947728,7300,2018-04-04 06:01:09,13,0,16.213,5453.3713175525,56.102364,0.4921268,1.28254269196,0,0,-11.1847,227.4, -2.9, -0.9,0,0,1024,1024,1684,1024,227.8,0,99,4.1,4.116,4.072,4.093,0,0,17.004,78.71,6,P-GPS,
0.341420297958286,36.911054386779,5455.0117375525,57.742784,0,0.67423558588,7400,2018-04-04 06:01:09,13,0,16.213,5455.0117375525,57.742784,0.4921268,1.28254269196,0,0,-11.1847,227.4, -2.8, -0.6,0,0,1024,1024,1684,1024,227.8,0,99,4.1,4.116,4.072,4.093,0,0,17.004,78.71,6,P-GPS,
0.341420168482332,36.9110544001778,5456.6521575525,59.383204,0,0.66460632048,7500,2018-04-04 06:01:09,13,0,16.213,5456.6521575525,59.383204,0.4921268,1.28254269196,0,0,-11.1847,227.4, -2.7, -0.4,0,0,1024,1024,1684,1024,227.8,0,99,4.1,4.116,4.072,4.093,0,0,17.004,78.71,6,P-GPS,
0.341420062509711,36.9110544073594,5458.2925775525,61.023624,0,0.6578248242,7600,2018-04-04 06:01:09,13,0,16.213,5458.2925775525,61.023624,0.4921268,1.28254269196,0,0,-11.1847,227.4, -2.8, -0.2,0,0,1024,1024,1684,1024,227.8,0,99,4.1,4.116,4.072,4.093,0,0,17.004,78.71,6,P-GPS,
0.341419972417675,36.911054419163,5459.9329975525,62.664044,0,0.65586288188,7700,2018-04-04 06:01:09,13,0,16.213,5459.9329975525,62.664044,0.4921268,1.28254269196,0,0,-11.1847,227.4, -2.7, -0.3,0,0,1024,1024,1684,1024,227.8,0,99,4.1,4.116,4.072,4.093,0,0,17.004,78.71,6,P-GPS,
0.341419869286688,36.911054416495,5461.5734175525,64.304464,0,0.6498031704,7800,2018-04-04 06:01:10,13,0,16.213,5461.5734175525,64.304464,0.4921268,1.28254269196,0,0,-10.961006,227.4, -2.5, -0.4,0,0,1024,1024,1684,1024,227.7,0,99,4.1,4.116,4.072,4.093,0,0,17.004,78.71,6,P-GPS,
0.341419771488855,36.9110544241081,5463.2138375525,65.944884,0,0.64972443024,7900,2018-04-04 06:01:10,13,0,16.213,5463.2138375525,65.944884,0.4921268,1.28254269196,0,0,-11.1847,227.4, -2.4, -0.2,0,0,1024,1024,1684,1024,227.7,0,99,4.1,4.116,4.072,4.093,0,0,17.004,78.71,6,P-GPS,
0.341419683902995,36.9110544517803,5464.8542575525,67.585304,0,0.65893702896,8000,2018-04-04 06:01:10,13,0,16.213,5464.8542575525,67.585304,0.4921268,1.28254269196,0,0,-10.961006,227.4, -2.4, -0.1,0,0,1024,1024,1684,1024,227.8,0,99,4.1,4.116,4.072,4.093,0,0,17.004,78.71,6,P-GPS,
0.34141961443276,36.9110544911843,5466.4946775525,69.225724,0,0.67371393232,8100,2018-04-04 06:01:10,13,0,16.213,5466.4946775525,69.225724,0.4921268,1.28254269196,0,0,-11.1847,227.4, -2.5, 0,0,0,1024,1024,1684,1024,227.7,0,99,4.1,4.116,4.072,4.093,0,0,17.004,78.71,6,P-GPS,
0.341419573259182,36.9110545196498,5468.4631815525,71.194228,0,0.68477036312,8200,2018-04-04 06:01:10,13,0,16.213,5468.4631815525,71.194228,0.4921268,1.28254269196,0,0,-11.1847,227.4, -2.4, 0,0,0,1024,1024,1684,1024,227.7,0,99,4.1,4.116,4.072,4.093,0,0,17.004,78.71,6,P-GPS,
0.341419551824788,36.9110545463563,5470.1036015525,72.834648,0,0.69497705636,8300,2018-04-04 06:01:10,13,0,16.213,5470.1036015525,72.834648,0.4921268,1.28254269196,0,0,-11.408394,227.4, -2.5, 0,0,0,1024,1024,1684,1024,227.7,0,99,4.091,4.108,4.065,4.086,0,0,17.68,78.71,6,P-GPS,
0.341419521965639,36.9110545847593,5471.7440215525,74.475068,0,0.70975067888,8400,2018-04-04 06:01:10,13,0,16.213,5471.7440215525,74.475068,0.4921268,1.28254269196,0,0,-11.408394,227.4, -2.7, 0,0,0,1024,1024,1684,1024,227.7,0,99,4.091,4.108,4.065,4.086,0,0,17.68,78.71,6,P-GPS,
0.34141949931724,36.9110546289725,5473.7125255525,76.443572,0,0.7265256138,8500,2018-04-04 06:01:10,13,0,16.213,5473.7125255525,76.443572,0.4921268,1.28254269196,0,0,-11.408394,227.4, -2.9, 0,0,0,1024,1024,1684,1024,227.7,0,99,4.091,4.108,4.065,4.086,0,0,17.68,78.71,6,P-GPS,
0.341419503702639,36.9110546499512,5475.3529455525,78.083992,0,0.73400920984,8600,2018-04-04 06:01:10,13,0,16.213,5475.3529455525,78.083992,0.4921268,1.28254269196,0,0,-11.1847,227.4, -2.9, 0,0,0,1024,1024,1684,1024,227.7,0,99,4.091,4.108,4.065,4.086,0,0,17.68,78.71,6,P-GPS,
0.341419524040276,36.9110546625962,5476.9933655525,79.724412,0,0.73800199212,8700,2018-04-04 06:01:10,13,0,16.213,5476.9933655525,79.724412,0.4921268,1.28254269196,0,0,-11.1847,227.4, -2.8, -0.1,0,0,1024,1024,1684,1024,227.7,0,99,4.091,4.108,4.065,4.086,0,0,17.68,78.71,6,P-GPS,
0.341419558917476,36.9110547077312,5478.9618695525,81.692916,0,0.75357942044,8800,2018-04-04 06:01:11,13,0,16.213,5478.9618695525,81.692916,0.4921268,1.28254269196,0,0,-11.1847,227.4, -2.7, -0.4,0,0,1024,1024,1684,1024,227.7,0,99,4.091,4.108,4.065,4.086,0,0,17.68,78.71,6,P-GPS,
0.341419596861035,36.9110547631549,5480.6022895525,83.333336,0,0.77311026096,8900,2018-04-04 06:01:11,13,0,16.213,5480.6022895525,83.333336,0.4921268,1.28254269196,0,0,-11.1847,227.4, -2.6, -0.4,0,0,1024,1024,1684,1024,227.7,0,99,4.091,4.108,4.065,4.086,0,0,17.68,78.71,6,P-GPS,
0.341419634434123,36.911054806716,5482.2427095525,84.973756,0,0.78859254492,9000,2018-04-04 06:01:11,13,0,16.213,5482.2427095525,84.973756,0.4921268,1.28254269196,0,0,-11.1847,227.5, -2.8, -0.3,0,0,1024,1024,1684,1024,227.7,0,99,4.091,4.108,4.065,4.086,0,0,17.68,78.71,6,P-GPS,
0.341419683430746,36.911054844922,5484.2112135525,86.94226,0,0.80237207292,9100,2018-04-04 06:01:11,13,0,16.213,5484.2112135525,86.94226,0.4921268,1.28254269196,0,0,-11.1847,227.5, -3.2, -0.4,0,0,1024,1024,1684,1024,227.7,0,99,4.091,4.108,4.065,4.086,0,0,17.68,78.71,6,P-GPS,
0.341419746830142,36.9110548585595,5485.8516335525,88.58268,0,0.80772968464,9200,2018-04-04 06:01:11,13,0,16.213,5485.8516335525,88.58268,0.4921268,1.28254269196,0,0,-11.1847,227.5, -3.4, -0.6,0,0,1024,1024,1684,1024,227.7,0,99,4.091,4.108,4.065,4.086,0,0,17.68,78.71,6,P-GPS,
0.341419809153137,36.9110548691832,5487.4920535525,90.2231,0,0.81262141708,9300,2018-04-04 06:01:11,13,0,16.24,5487.4920535525,90.2231,0.4921268,1.28254269196,0,0,-11.408394,227.5, -3.5, -0.6,0,0,1024,1024,1684,1024,227.7,0,99,4.088,4.105,4.06,4.083,0,0,17.258,78.71,6,P-GPS,
0.341419865006323,36.9110548812983,5489.4605575525,92.191604,0,0.81847443564,9400,2018-04-04 06:01:11,13,0,16.24,5489.4605575525,92.191604,0.4921268,1.28254269196,0,0,-11.1847,227.5, -3.4, -0.5,0,0,1024,1024,1684,1024,227.7,0,99,4.088,4.105,4.06,4.083,0,0,17.258,78.71,6,P-GPS,
0.341419916633697,36.9110548933138,5491.1009775525,93.832024,0,0.82461616812,9500,2018-04-04 06:01:11,13,0,16.24,5491.1009775525,93.832024,0.4921268,1.28254269196,0,0,-11.1847,227.5, -3.3, -0.6,0,0,1024,1024,1684,1024,227.7,0,99,4.088,4.105,4.06,4.083,0,0,17.258,78.71,6,P-GPS,
0.341419961327971,36.9110549128922,5492.7413975525,95.472444,0,0.83358270384,9600,2018-04-04 06:01:11,13,0,16.24,5492.7413975525,95.472444,0.4921268,1.28254269196,0,0,-11.1847,227.5, -3.2, -0.6,0,0,1024,1024,1684,1024,227.7,0,99,4.088,4.105,4.06,4.083,0,0,17.258,78.71,6,P-GPS,
0.341420003919924,36.9110549263295,5494.7099015525,97.440948,0,0.8405019954,9700,2018-04-04 06:01:11,13,0,16.24,5494.7099015525,97.440948,0.4921268,1.28254269196,0,0,-10.961006,227.5, -3.1, -0.5,0,0,1024,1024,1684,1024,227.7,0,99,4.088,4.105,4.06,4.083,0,0,17.258,78.71,6,P-GPS,
0.341420079123096,36.9110549243981,5496.3503215525,99.081368,0,0.84412076192,9800,2018-04-04 06:01:12,13,0,16.24,5496.3503215525,99.081368,0.4921268,1.28254269196,0,0,-10.961006,227.5, -2.9, -0.7,0,0,1024,1024,1684,1024,227.7,0,99,4.088,4.105,4.06,4.083,0,0,17.258,78.71,6,P-GPS,
0.341420158263846,36.9110549186499,5497.9907415525,100.721788,0,0.84754595888,9900,2018-04-04 06:01:12,13,0,16.24,5497.9907415525,100.721788,0.4921268,1.28254269196,0,0,-11.1847,227.5, -2.8, -1,0,0,1024,1024,1684,1024,227.7,0,99,4.088,4.105,4.06,4.083,0,0,17.258,78.71,6,P-GPS,
0.341420267186394,36.9110549156501,5499.9592455525,102.690292,0,0.8555774552,10000,2018-04-04 06:01:12,13,0,16.24,5499.9592455525,102.690292,0.4921268,1.28254269196,0,0,-11.1847,227.5, -3.1, -1.2,0,0,1024,1024,1684,1024,227.7,0,99,4.088,4.105,4.06,4.083,0,0,17.258,78.71,6,P-GPS,
0.341420360789355,36.9110549158128,5501.5996655525,104.330712,0,0.86483926652,10100,2018-04-04 06:01:12,13,0,16.24,5501.5996655525,104.330712,0.4921268,1.28254269196,0,0,-11.1847,227.5, -3.1, -1.1,0,0,1024,1024,1684,1024,227.7,0,99,4.088,4.105,4.06,4.083,0,0,17.258,78.71,6,P-GPS,
0.341420467153617,36.9110549211959,5503.5681695525,106.299216,0,0.87865488376,10200,2018-04-04 06:01:12,13,0,16.24,5503.5681695525,106.299216,0.4921268,1.28254269196,0,0,-11.1847,227.5, -3.1, -0.8,0,0,1024,1024,1684,1024,227.7,0,99,4.088,4.105,4.06,4.083,0,0,17.258,78.71,6,P-GPS,
0.341420556551121,36.9110549274011,5505.2085895525,107.939636,0,0.89198165584,10300,2018-04-04 06:01:12,13,0,16.213,5505.2085895525,107.939636,0.4921268,1.28254269196,0,0,-11.1847,227.5, -3.2, -0.7,0,0,1024,1024,1684,1024,227.7,0,99,4.079,4.097,4.052,4.074,0,0,17.66,78.71,6,P-GPS,
0.341420668408125,36.9110549550551,5506.8490095525,109.580056,0,0.91670606608,10400,2018-04-04 06:01:12,13,0,16.213,5506.8490095525,109.580056,0.4921268,1.28254269196,0,0,-11.1847,227.5, -3.3, -0.8,0,0,1024,1024,1684,1024,227.7,0,99,4.079,4.097,4.052,4.074,0,0,17.66,78.71,6,P-GPS,
0.341420764573443,36.9110549766387,5508.8175135525,111.54856,0,0.93821853396,10500,2018-04-04 06:01:12,13,0,16.213,5508.8175135525,111.54856,0.4921268,1.28254269196,0,0,-11.1847,227.5, -3.2, -1,0,0,1024,1024,1684,1024,227.7,0,99,4.079,4.097,4.052,4.074,0,0,17.66,78.71,6,P-GPS,
0.34142084827465,36.9110549915331,5510.4579335525,113.18898,0,0.9563812642,10600,2018-04-04 06:01:12,13,0,16.213,5510.4579335525,113.18898,0.4921268,1.28254269196,0,0,-11.1847,227.5, -3.2, -1.1,0,0,1024,1024,1684,1024,227.7,0,99,4.079,4.097,4.052,4.074,0,0,17.66,78.71,6,P-GPS,
0.341420915163802,36.9110550000745,5512.0983535525,114.8294,0,0.9702756216,10700,2018-04-04 06:01:12,13,0,16.213,5512.0983535525,114.8294,0.4921268,1.28254269196,0,0,-11.1847,227.5, -3.5, -1.2,0,0,1024,1024,1684,1024,227.7,0,99,4.079,4.097,4.052,4.074,0,0,17.66,78.71,6,P-GPS,
0.341421015873292,36.9110550077626,5514.0668575525,116.797904,0,0.99034123904,10800,2018-04-04 06:01:13,13,0,16.213,5514.0668575525,116.797904,0.4921268,1.28254269196,0,0,-10.961006,227.5, -3.4, -1.1,0,0,1024,1024,1684,1024,227.7,0,99,4.079,4.097,4.052,4.074,0,0,17.66,78.71,6,P-GPS,
0.341421102158026,36.9110550088493,5515.7072775525,118.438324,0,1.00656499284,10900,2018-04-04 06:01:13,13,0,16.213,5515.7072775525,118.438324,0.4921268,1.28254269196,0,0,-10.961006,227.5, -3.4, -1,0,0,1024,1024,1684,1024,227.7,0,99,4.079,4.097,4.052,4.074,0,0,17.66,78.71,6,P-GPS,
0.34142120493564,36.9110549985596,5517.3476975525,120.078744,0,1.02326446844,11000,2018-04-04 06:01:13,13,0,16.213,5517.3476975525,120.078744,0.4921268,1.28254269196,0,0,-11.1847,227.5, -3, -1.1,0,0,1024,1024,1684,1024,227.7,0,99,4.079,4.097,4.052,4.074,0,0,17.66,78.71,6,P-GPS,
0.341421278767662,36.9110549827081,5518.9881175525,121.719164,0,1.03339570236,11100,2018-04-04 06:01:13,13,0,16.213,5518.9881175525,121.719164,0.4921268,1.28254269196,0,0,-10.961006,227.5, -2.9, -1.1,0,0,1024,1024,1684,1024,227.7,0,99,4.079,4.097,4.052,4.074,0,0,17.66,78.71,6,P-GPS,
0.341421372443903,36.9110549714548,5520.6285375525,123.359584,0,1.04976381312,11200,2018-04-04 06:01:13,13,0,16.213,5520.6285375525,123.359584,0.4921268,1.28254269196,0,0,-10.961006,227.5, -2.7, -1.2,0,0,1024,1024,1684,1024,227.7,0,99,4.079,4.097,4.052,4.074,0,0,17.66,78.71,6,P-GPS,
0.341421445886728,36.9110549651639,5522.5970415525,125.328088,0,1.06393376108,11300,2018-04-04 06:01:13,13,0,16.16,5522.5970415525,125.328088,0.4921268,1.28254269196,0,0,-10.961006,227.5, -2.6, -1.1,0,0,1024,1024,1684,1024,227.7,0,99,4.079,4.097,4.052,4.074,0,0,17.66,78.71,6,P-GPS,
0.341421548259674,36.9110549467739,5524.2374615525,126.968508,0,1.08176184564,11400,2018-04-04 06:01:13,13,0,16.16,5524.2374615525,126.968508,0.4921268,1.28254269196,0,0,-10.961006,227.5, -2.8, -0.9,0,0,1024,1024,1684,1024,227.7,0,99,4.079,4.097,4.052,4.074,0,0,17.66,78.71,6,P-GPS,
0.341421631457692,36.9110549281195,5525.8778815525,128.608928,0,1.09597772536,11500,2018-04-04 06:01:13,13,0,16.16,5525.8778815525,128.608928,0.4921268,1.28254269196,0,0,-11.1847,227.5, -3, -1,0,0,1024,1024,1684,1024,227.7,0,99,4.079,4.097,4.052,4.074,0,0,17.66,78.71,6,P-GPS,
0.341421747938662,36.9110549107317,5527.5183015525,130.249348,0,1.11937995708,11600,2018-04-04 06:01:13,13,0,16.16,5527.5183015525,130.249348,0.4921268,1.28254269196,0,0,-10.961006,227.5, -3.2, -1.2,0,0,1024,1024,1684,1024,227.7,0,99,4.079,4.097,4.052,4.074,0,0,17.66,78.71,6,P-GPS,
0.34142189947189,36.9110548902401,5530.7991415525,133.530188,0,1.152066966,11800,2018-04-04 06:01:14,13,0,16.16,5530.7991415525,133.530188,0.4921268,1.28254269196,0,0,-10.961006,227.5, -2.8, -1,0,0,1024,1024,1684,1024,227.7,0,99,4.079,4.097,4.052,4.074,0,0,17.66,78.71,6,P-GPS,
0.341422007392945,36.91105489747,5534.0799815525,136.811028,0,1.18192589084,12000,2018-04-04 06:01:14,13,0,16.16,5534.0799815525,136.811028,0.4921268,1.28254269196,0,0,-10.961006,227.5, -2.9, -0.8,0,0,1024,1024,1684,1024,227.7,0,99,4.079,4.097,4.052,4.074,0,0,17.66,78.71,6,P-GPS,
0.34142205559163,36.9110549028905,5535.7204015525,138.451448,0,1.19599085192,12100,2018-04-04 06:01:14,13,0,16.16,5535.7204015525,138.451448,0.4921268,1.28254269196,0,0,-10.961006,227.5, -3, -0.9,0,0,1024,1024,1684,1024,227.7,0,99,4.079,4.097,4.052,4.074,0,0,17.66,78.71,6,P-GPS,
0.341422142684886,36.9110548745459,5537.3608215525,140.091868,0,1.21227038,12200,2018-04-04 06:01:14,13,0,16.16,5537.3608215525,140.091868,0.4921268,1.28254269196,0,0,-10.961006,227.5, -3, -1,0,0,1024,1024,1684,1024,227.7,0,99,4.079,4.097,4.052,4.074,0,0,17.66,78.71,6,P-GPS,
0.341422214327466,36.9110548461318,5539.0012415525,141.732288,0,1.22496394996,12300,2018-04-04 06:01:14,13,0,16.106,5539.0012415525,141.732288,0.4921268,1.28254269196,0,0,-10.961006,227.5, -2.9, -1.1,0,0,1024,1024,1684,1024,227.7,0,99,4.071,4.086,4.039,4.064,0,0,17.772,78.71,6,P-GPS,
0.341422287525209,36.9110548230461,5540.6416615525,143.372708,0,1.23984255936,12400,2018-04-04 06:01:14,13,0,16.106,5540.6416615525,143.372708,0.4921268,1.28254269196,0,0,-10.961006,227.5, -2.8, -1.2,0,0,1024,1024,1684,1024,227.7,0,99,4.071,4.086,4.039,4.064,0,0,17.772,78.71,6,P-GPS,
0.341422332066409,36.9110548152221,5542.6101655525,145.341212,0,1.25055450196,12500,2018-04-04 06:01:14,13,0,16.106,5542.6101655525,145.341212,0.4921268,1.28254269196,0,0,-10.961006,227.5, -2.8, -1,0,0,1024,1024,1684,1024,227.7,0,99,4.071,4.086,4.039,4.064,0,0,17.772,78.71,6,P-GPS,
0.341422412743596,36.9110548478801,5544.2505855525,146.981632,0,1.28091867616,12600,2018-04-04 06:01:14,13,0,16.106,5544.2505855525,146.981632,0.4921268,1.28254269196,0,0,-11.1847,227.5, -2.9, -0.9,0,0,1024,1024,1684,1024,227.7,0,99,4.071,4.086,4.039,4.064,0,0,17.772,78.71,6,P-GPS,
0.341422479758952,36.9110548858527,5545.8910055525,148.622052,0,1.3086614592,12700,2018-04-04 06:01:14,13,0,16.106,5545.8910055525,148.622052,0.4921268,1.3086614592,0,0,-11.1847,227.5, -2.9, -0.9,0,0,1024,1024,1684,1024,227.7,0,99,4.071,4.086,4.039,4.064,0,0,17.772,78.71,6,P-GPS,
0.341422561644444,36.9110548969004,5547.5314255525,150.262472,0,1.33459978024,12800,2018-04-04 06:01:15,13,0,16.106,5547.5314255525,150.262472,0.4921268,1.33459978024,0,0,-11.1847,227.5, -3.1, -1,0,0,1024,1024,1684,1024,227.7,0,99,4.071,4.086,4.039,4.064,0,0,17.772,78.71,6,P-GPS,
0.341422623535087,36.9110549027898,5549.1718455525,151.902892,0,1.35377629004,12900,2018-04-04 06:01:15,13,0,16.106,5549.1718455525,151.902892,0.4921268,1.35377629004,0,0,-11.1847,227.5, -3.2, -0.9,0,0,1024,1024,1684,1024,227.7,0,99,4.071,4.086,4.039,4.064,0,0,17.772,78.71,6,P-GPS,
0.341422696823209,36.9110549275211,5551.1403495525,153.871396,0,1.38051841688,13000,2018-04-04 06:01:15,13,0,16.106,5551.1403495525,153.871396,0.4921268,1.38051841688,0,0,-11.1847,227.5, -3.3, -1,0,0,1024,1024,1684,1024,227.7,0,99,4.071,4.086,4.039,4.064,0,0,17.772,78.71,6,P-GPS,
0.341422752625099,36.9110549585593,5552.7807695525,155.511816,0,1.4035925646,13100,2018-04-04 06:01:15,13,0,16.106,5552.7807695525,155.511816,0.4921268,1.4035925646,0,0,-11.1847,227.5, -3.5, -1,0,0,1024,1024,1684,1024,227.7,0,99,4.071,4.086,4.039,4.064,0,0,17.772,78.71,6,P-GPS,
0.341422781391562,36.9110549469474,5554.4211895525,157.152236,0,1.4094652682,13200,2018-04-04 06:01:15,13,0,16.106,5554.4211895525,157.152236,0.4921268,1.4094652682,0,0,-10.961006,227.5, -3.4, -1.1,0,0,1024,1024,1684,1024,227.7,0,99,4.071,4.086,4.039,4.064,0,0,17.772,78.71,6,P-GPS,
0.341422788165889,36.9110549273401,5556.0616095525,158.792656,0,1.40720805028,13300,2018-04-04 06:01:15,13,0,16.106,5556.0616095525,158.792656,0.4921268,1.4094652682,0,0,-10.961006,227.5, -3.2, -1.1,0,0,1024,1024,1684,1024,227.7,0,99,4.071,4.086,4.039,4.064,0,0,17.772,78.71,6,P-GPS,
0.341422801646149,36.9110549288251,5557.7020295525,160.433076,0,1.41149610816,13400,2018-04-04 06:01:15,13,0,16.106,5557.7020295525,160.433076,0.4921268,1.41149610816,0,0,-10.961006,227.5, -3.2, -1,0,0,1024,1024,1684,1024,227.7,0,99,4.071,4.086,4.039,4.064,0,0,17.772,78.71,6,P-GPS,
0.34142280980791,36.9110549465748,5559.3424495525,162.073496,0,1.41772642332,13500,2018-04-04 06:01:15,13,0,16.106,5559.3424495525,162.073496,0.4921268,1.41772642332,0,0,-10.961006,227.5, -3.3, -0.9,0,0,1024,1024,1684,1024,227.7,0,99,4.071,4.086,4.039,4.064,0,0,17.772,78.71,6,P-GPS,
0.341422835740881,36.911054957843,5560.9828695525,163.713916,0,1.42778547876,13600,2018-04-04 06:01:15,13,0,16.106,5560.9828695525,163.713916,0.4921268,1.42778547876,0,0,-11.1847,227.5, -3.3, -0.9,0,0,1024,1024,1684,1024,227.7,0,99,4.071,4.086,4.039,4.064,0,0,17.772,78.71,6,P-GPS,
0.341422857669508,36.9110549667184,5562.6232895525,165.354336,0,1.4361549016,13700,2018-04-04 06:01:15,13,0,16.106,5562.6232895525,165.354336,0.4921268,1.4361549016,0,0,-11.1847,227.5, -3.3, -1,0,0,1024,1024,1684,1024,227.7,0,99,4.071,4.086,4.039,4.064,0,0,17.772,78.71,6,P-GPS,
0.341422877008909,36.9110549676766,5564.2637095525,166.994756,0,1.44206697528,13800,2018-04-04 06:01:16,13,0,16.106,5564.2637095525,166.994756,0.4921268,1.44206697528,0,0,-11.408394,227.5, -3.4, -1,0,0,1024,1024,1684,1024,227.7,0,99,4.071,4.086,4.039,4.064,0,0,17.772,78.71,6,P-GPS,
0.341422878464738,36.9110549693553,5565.9041295525,168.635176,0,1.44285437688,13900,2018-04-04 06:01:16,13,0,16.106,5565.9041295525,168.635176,0.4921268,1.44285437688,0,0,-11.1847,227.5, -3.3, -1,0,0,1024,1024,1684,1024,227.7,0,99,4.071,4.086,4.039,4.064,0,0,17.772,78.71,6,P-GPS,
0.341422905488766,36.9110549609532,5567.8726335525,170.60368,0,1.44905516448,14000,2018-04-04 06:01:16,13,0,16.106,5567.8726335525,170.60368,0.4921268,1.44905516448,0,0,-10.961006,227.5, -3.5, -0.9,0,0,1024,1024,1684,1024,227.7,0,99,4.071,4.086,4.039,4.064,0,0,17.772,78.71,6,P-GPS,
0.341422931552012,36.9110549266721,5571.1534735525,173.88452,0,1.44957681804,14200,2018-04-04 06:01:16,13,0,16.106,5571.1534735525,173.88452,0.4921268,1.44957681804,0,0,-11.1847,227.5, -3, -1.1,0,0,1024,1024,1684,1024,227.7,0,99,4.071,4.086,4.039,4.064,0,0,17.772,78.71,6,P-GPS,
0.341422923263232,36.9110549043069,5572.7938935525,175.52494,0,1.44242458684,14300,2018-04-04 06:01:16,13,0,16.106,5572.7938935525,175.52494,0.4921268,1.44957681804,0,0,-11.1847,227.5, -2.5, -1.2,0,0,1024,1024,1684,1024,227.7,0,98,4.065,4.082,4.037,4.062,0,0,17.674,80.51,6,P-GPS,
0.341422921369351,36.9110548945804,5574.4343135525,177.16536,0,1.43983272324,14400,2018-04-04 06:01:16,13,0,16.106,5574.4343135525,177.16536,0.4921268,1.44957681804,0,0,-10.961006,227.5, -2.6, -1,0,0,1024,1024,1684,1024,227.7,0,98,4.065,4.082,4.037,4.062,0,0,17.674,80.51,6,P-GPS,
0.34142291523826,36.9110549032481,5576.0747335525,178.80578,0,1.43980319568,14500,2018-04-04 06:01:16,13,0,16.106,5576.0747335525,178.80578,0.4921268,1.44957681804,0,0,-11.1847,227.5, -3.1, -0.9,0,0,1024,1024,1684,1024,227.7,0,98,4.065,4.082,4.037,4.062,0,0,17.674,80.51,6,P-GPS,
0.341422950430563,36.9110549211744,5577.7151535525,180.4462,0,1.45407484968,14600,2018-04-04 06:01:16,13,0,16.106,5577.7151535525,180.4462,0.4921268,1.45407484968,0,0,-10.961006,227.5, -3.4, -0.8,0,0,1024,1024,1684,1024,227.7,0,98,4.065,4.082,4.037,4.062,0,0,17.674,80.51,6,P-GPS,
0.341422970797512,36.9110549337595,5579.3555735525,182.08662,0,1.46279860324,14700,2018-04-04 06:01:16,13,0,16.106,5579.3555735525,182.08662,0.4921268,1.46279860324,0,0,-11.1847,227.5, -3.2, -0.8,0,0,1024,1024,1684,1024,227.7,0,98,4.065,4.082,4.037,4.062,0,0,17.674,80.51,6,P-GPS,
0.341422992439533,36.9110549369489,5580.9959935525,183.72704,0,1.46995083444,14800,2018-04-04 06:01:17,13,0,16.106,5580.9959935525,183.72704,0.4921268,1.46995083444,0,0,-11.1847,227.5, -3, -0.8,0,0,1024,1024,1684,1024,227.7,0,98,4.065,4.082,4.037,4.062,0,0,17.674,80.51,6,P-GPS,
0.341422997083855,36.9110549389199,5582.6364135525,185.36746,0,1.4717520156,14900,2018-04-04 06:01:17,13,0,16.106,5582.6364135525,185.36746,0.4921268,1.4717520156,0,0,-11.1847,227.5, -2.9, -0.9,0,0,1024,1024,1684,1024,227.7,0,98,4.065,4.082,4.037,4.062,0,0,17.674,80.51,6,P-GPS,
0.341423008103536,36.9110549392475,5584.2768335525,187.00788,0,1.4751312808,15000,2018-04-04 06:01:17,13,0,16.106,5584.2768335525,187.00788,0.4921268,1.4751312808,0,0,-10.961006,227.5, -3.1, -0.7,0,0,1024,1024,1684,1024,227.7,0,98,4.065,4.082,4.037,4.062,0,0,17.674,80.51,6,P-GPS,
0.341423005761833,36.9110549408256,5586.2453375525,188.976384,0,1.4747539842,15100,2018-04-04 06:01:17,13,0,16.106,5586.2453375525,188.976384,0.4921268,1.4751312808,0,0,-11.1847,227.5, -3.2, -0.4,0,0,1024,1024,1684,1024,227.7,0,98,4.065,4.082,4.037,4.062,0,0,17.674,80.51,6,P-GPS,
0.341423012728317,36.9110549285028,5587.8857575525,190.616804,0,1.47430122828,15200,2018-04-04 06:01:17,13,0,16.16,5587.8857575525,190.616804,0.4921268,1.4751312808,0,0,-11.1847,227.5, -3, -0.6,0,0,1024,1024,1684,1024,227.7,0,98,4.063,4.08,4.035,4.06,0,0,17.674,80.51,6,P-GPS,
0.341423031434253,36.9110548880989,5592.8070175525,195.538064,0,1.47169296048,15500,2018-04-04 06:01:17,13,0,16.16,5592.8070175525,195.538064,0.4921268,1.4751312808,0,0,-10.961006,227.5, -2.9, -1,0,0,1024,1024,1684,1024,227.7,0,98,4.063,4.08,4.035,4.06,0,0,17.674,80.51,6,P-GPS,
0.341423040369525,36.9110548626771,5594.4474375525,197.178484,0,1.46927826224,15600,2018-04-04 06:01:17,13,0,16.16,5594.4474375525,197.178484,0.4921268,1.4751312808,0,0,-11.1847,227.5, -3.1, -1,0,0,1024,1024,1684,1024,227.7,0,98,4.063,4.08,4.035,4.06,0,0,17.674,80.51,6,P-GPS,
0.341423033375358,36.9110548365123,5596.0878575525,198.818904,0,1.46190621476,15700,2018-04-04 06:01:17,13,0,16.16,5596.0878575525,198.818904,0.4921268,1.4751312808,0,0,-10.961006,227.5, -3.1, -0.7,0,0,1024,1024,1684,1024,227.7,0,98,4.063,4.08,4.035,4.06,0,0,17.674,80.51,6,P-GPS,
0.341423025211968,36.9110548090682,5597.7282775525,200.459324,0,1.4539534586,15800,2018-04-04 06:01:18,13,0,16.16,5597.7282775525,200.459324,0.4921268,1.4751312808,0,0,-11.1847,227.5, -2.9, -0.6,0,0,1024,1024,1684,1024,227.7,0,98,4.063,4.08,4.035,4.06,0,0,17.674,80.51,6,P-GPS,
0.341423010811638,36.911054785748,5599.3686975525,202.099744,0,1.4449311486,15900,2018-04-04 06:01:18,13,0,16.16,5599.3686975525,202.099744,0.4921268,1.4751312808,0,0,-10.961006,227.5, -2.7, -0.5,0,0,1024,1024,1684,1024,227.7,0,98,4.063,4.08,4.035,4.06,0,0,17.674,80.51,6,P-GPS,
0.341423011676342,36.9110547642769,5601.0091175525,203.740164,0,1.4409777364,16000,2018-04-04 06:01:18,13,0,16.16,5601.0091175525,203.740164,0.4921268,1.4751312808,0,0,-11.1847,227.5, -2.6, -0.6,0,0,1024,1024,1684,1024,227.7,0,98,4.063,4.08,4.035,4.06,0,0,17.674,80.51,6,P-GPS,
0.341423011754507,36.9110547461096,5602.6495375525,205.380584,0,1.43745739508,16100,2018-04-04 06:01:18,13,0,16.16,5602.6495375525,205.380584,0.4921268,1.4751312808,0,0,-11.1847,227.5, -2.8, -0.7,0,0,1024,1024,1684,1024,227.7,0,98,4.063,4.08,4.035,4.06,0,0,17.674,80.51,6,P-GPS,
0.341423025825892,36.911054734654,5604.6180415525,207.349088,0,1.43958666024,16200,2018-04-04 06:01:18,13,0,16.16,5604.6180415525,207.349088,0.4921268,1.4751312808,0,0,-10.961006,227.5, -2.7, -0.8,0,0,1024,1024,1684,1024,227.7,0,98,4.063,4.08,4.035,4.06,0,0,17.674,80.51,6,P-GPS,
0.341423033727102,36.9110547235828,5605.9303775525,208.661424,0,1.43990162088,16300,2018-04-04 06:01:18,13,0,16.133,5605.9303775525,208.661424,0.4921268,1.4751312808,0,0,-10.961006,227.5, -2.5, -0.9,0,0,1024,1024,1684,1024,227.7,0,98,4.057,4.074,4.028,4.053,0,0,17.73,80.51,6,P-GPS,
0.341423079354474,36.9110547286232,5607.5707975525,210.301844,0,1.45504269748,16400,2018-04-04 06:01:18,13,0,16.133,5607.5707975525,210.301844,0.4921268,1.4751312808,0,0,-10.961006,227.5, -2.6, -1,0,0,1024,1024,1684,1024,227.7,0,98,4.057,4.074,4.028,4.053,0,0,17.73,80.51,6,P-GPS,
0.341423120847227,36.9110547386956,5609.2112175525,211.942264,0,1.46987865596,16500,2018-04-04 06:01:18,13,0,16.133,5609.2112175525,211.942264,0.4921268,1.4751312808,0,0,-10.961006,227.5, -2.8, -1,0,0,1024,1024,1684,1024,227.7,0,98,4.057,4.074,4.028,4.053,0,0,17.73,80.51,6,P-GPS,
0.341423159724699,36.9110547363809,5610.8516375525,213.582684,0,1.48158141224,16600,2018-04-04 06:01:18,13,0,16.133,5610.8516375525,213.582684,0.4921268,1.48158141224,0,0,-10.737312,227.5, -3.1, -1,0,0,1024,1024,1684,1024,227.7,0,98,4.057,4.074,4.028,4.053,0,0,17.73,80.51,6,P-GPS,
0.341423177585473,36.9110547284808,5612.4920575525,215.223104,0,1.4856955856,16700,2018-04-04 06:01:18,13,0,16.133,5612.4920575525,215.223104,0.4921268,1.4856955856,0,0,-10.961006,227.5, -3.1, -0.9,0,0,1024,1024,1684,1024,227.7,0,98,4.057,4.074,4.028,4.053,0,0,17.73,80.51,6,P-GPS,
0.341423185884024,36.9110547454041,5614.1324775525,216.863524,0,1.49146002148,16800,2018-04-04 06:01:19,13,0,16.133,5614.1324775525,216.863524,0.4921268,1.49146002148,0,0,-10.961006,227.5, -3, -0.7,0,0,1024,1024,1684,1024,227.7,0,98,4.057,4.074,4.028,4.053,0,0,17.73,80.51,6,P-GPS,
0.341423179557519,36.9110547679202,5615.7728975525,218.503944,0,1.49372380108,16900,2018-04-04 06:01:19,13,0,16.133,5615.7728975525,218.503944,0.4921268,1.49372380108,0,0,-11.1847,227.5, -2.9, -0.5,0,0,1024,1024,1684,1024,227.7,0,98,4.057,4.074,4.028,4.053,0,0,17.73,80.51,6,P-GPS,
0.341423203803421,36.9110547871249,5617.4133175525,220.144364,0,1.504921308,17000,2018-04-04 06:01:19,13,0,16.133,5617.4133175525,220.144364,0.4921268,1.504921308,0,0,-11.1847,227.5, -2.9, -0.6,0,0,1024,1024,1684,1024,227.7,0,98,4.057,4.074,4.028,4.053,0,0,17.73,80.51,6,P-GPS,
0.341423228370128,36.911054792798,5619.0537375525,221.784784,0,1.51365818492,17100,2018-04-04 06:01:19,13,0,16.133,5619.0537375525,221.784784,0.4921268,1.51365818492,0,0,-10.961006,227.5, -2.9, -0.6,0,0,1024,1024,1684,1024,227.7,0,98,4.057,4.074,4.028,4.053,0,0,17.73,80.51,6,P-GPS,
0.341423230055567,36.9110547942048,5620.6941575525,223.425204,0,1.51444886736,17200,2018-04-04 06:01:19,13,0,16.133,5620.6941575525,223.425204,0.4921268,1.51444886736,0,0,-10.961006,227.5, -2.9, -0.7,0,0,1024,1024,1684,1024,227.7,0,98,4.057,4.074,4.028,4.053,0,0,17.73,80.51,6,P-GPS,
0.341423216352211,36.9110547895905,5622.6626615525,225.393708,0,1.5093012294,17300,2018-04-04 06:01:19,13,0,16.079,5622.6626615525,225.393708,0.4921268,1.51444886736,0,0,-11.1847,227.5, -2.9, -0.9,0,0,1024,1024,1684,1024,227.7,0,98,4.048,4.068,4.02,4.046,0,0,18.174,80.51,6,P-GPS,
0.341423225891636,36.9110547833263,5623.9749975525,226.706044,0,1.51109912972,17400,2018-04-04 06:01:19,13,0,16.079,5623.9749975525,226.706044,0.4921268,1.51444886736,0,0,-10.961006,227.5, -2.8, -1.1,0,0,1024,1024,1684,1024,227.7,0,98,4.048,4.068,4.02,4.046,0,0,18.174,80.51,6,P-GPS,
0.341423232293049,36.9110547802365,5625.6154175525,228.346464,0,1.5125164526,17500,2018-04-04 06:01:19,13,0,16.079,5625.6154175525,228.346464,0.4921268,1.51444886736,0,0,-10.961006,227.5, -2.7, -0.8,0,0,1024,1024,1684,1024,227.7,0,98,4.048,4.068,4.02,4.046,0,0,18.174,80.51,6,P-GPS,
0.341423209957311,36.9110547572547,5627.5839215525,230.314968,0,1.50121723964,17600,2018-04-04 06:01:19,13,0,16.079,5627.5839215525,230.314968,0.4921268,1.51444886736,0,0,-11.1847,227.5, -2.7, -0.6,0,0,1024,1024,1684,1024,227.7,0,98,4.048,4.068,4.02,4.046,0,0,18.174,80.51,6,P-GPS,
0.341423176308773,36.911054732804,5629.2243415525,231.955388,0,1.48610240976,17700,2018-04-04 06:01:19,13,0,16.079,5629.2243415525,231.955388,0.4921268,1.51444886736,0,0,-10.961006,227.5, -2.7, -0.6,0,0,1024,1024,1684,1024,227.7,0,98,4.048,4.068,4.02,4.046,0,0,18.174,80.51,6,P-GPS,
0.341423181273899,36.9110547085749,5630.5366775525,233.267724,0,1.4831529346,17800,2018-04-04 06:01:20,13,0,16.079,5630.5366775525,233.267724,0.4921268,1.51444886736,0,0,-10.961006,227.5, -2.8, -0.7,0,0,1024,1024,1684,1024,227.7,0,98,4.048,4.068,4.02,4.046,0,0,18.174,80.51,6,P-GPS,
0.341423192373373,36.9110546909001,5632.1770975525,234.908144,0,1.48339243592,17900,2018-04-04 06:01:20,13,0,16.079,5632.1770975525,234.908144,0.4921268,1.51444886736,0,0,-10.961006,227.5, -2.9, -0.9,0,0,1024,1024,1684,1024,227.7,0,98,4.048,4.068,4.02,4.046,0,0,18.174,80.51,6,P-GPS,
0.341423205819435,36.911054673296,5633.8175175525,236.548564,0,1.48442261968,18000,2018-04-04 06:01:20,13,0,16.079,5633.8175175525,236.548564,0.4921268,1.51444886736,0,0,-10.961006,227.5, -2.7, -0.9,0,0,1024,1024,1684,1024,227.7,0,98,4.048,4.068,4.02,4.046,0,0,18.174,80.51,6,P-GPS,
0.341423188846163,36.9110546434719,5638.7387775525,241.469824,0,1.47364506028,18300,2018-04-04 06:01:20,13,0,16.079,5638.7387775525,241.469824,0.4921268,1.51444886736,0,0,-11.1847,227.5, -2.3, -0.7,0,0,1024,1024,1684,1024,227.7,0,98,4.048,4.068,4.02,4.046,0,0,18.352,80.51,6,P-GPS,
0.34142317508744,36.9110546201399,5640.3791975525,243.110244,0,1.46507878704,18400,2018-04-04 06:01:20,13,0,16.079,5640.3791975525,243.110244,0.4921268,1.51444886736,0,0,-10.961006,227.5, -2.5, -1,0,0,1024,1024,1684,1024,227.7,0,98,4.048,4.068,4.02,4.046,0,0,18.352,80.51,6,P-GPS,
0.34142314945736,36.9110545963487,5642.3477015525,245.078748,0,1.45267065016,18500,2018-04-04 06:01:20,13,0,16.079,5642.3477015525,245.078748,0.4921268,1.51444886736,0,0,-11.1847,227.5, -2.6, -1,0,0,1024,1024,1684,1024,227.7,0,98,4.048,4.068,4.02,4.046,0,0,18.352,80.51,6,P-GPS,
0.341423155902741,36.9110545829832,5645.3004575525,248.031504,0,1.45234256616,18700,2018-04-04 06:01:20,13,0,16.079,5645.3004575525,248.031504,0.4921268,1.51444886736,0,0,-10.961006,227.5, -2.5, -0.6,0,0,1024,1024,1684,1024,227.7,0,98,4.048,4.068,4.02,4.046,0,0,18.352,80.51,6,P-GPS,
0.341423142972896,36.9110545851522,5646.9408775525,249.671924,0,1.44860897024,18800,2018-04-04 06:01:21,13,0,16.079,5646.9408775525,249.671924,0.4921268,1.51444886736,0,0,-10.961006,227.5, -2.5, -0.6,0,0,1024,1024,1684,1024,227.7,0,98,4.048,4.068,4.02,4.046,0,0,18.352,80.51,6,P-GPS,
0.341423119878303,36.9110545877999,5648.5812975525,251.312344,0,1.44173889128,18900,2018-04-04 06:01:21,13,0,16.079,5648.5812975525,251.312344,0.4921268,1.51444886736,0,0,-11.1847,227.5, -2.6, -0.7,0,0,1024,1024,1684,1024,227.7,0,98,4.048,4.068,4.02,4.046,0,0,18.352,80.51,6,P-GPS,
0.341423112514479,36.9110545939805,5650.5498015525,253.280848,0,1.44050857628,19000,2018-04-04 06:01:21,13,0,16.079,5650.5498015525,253.280848,0.4921268,1.51444886736,0,0,-11.1847,227.5, -2.6, -0.6,0,0,1024,1024,1684,1024,227.7,0,98,4.048,4.068,4.02,4.046,0,0,18.352,80.51,6,P-GPS,
0.341423105225564,36.9110545985799,5652.1902215525,254.921268,0,1.43902891744,19100,2018-04-04 06:01:21,13,0,16.079,5652.1902215525,254.921268,0.4921268,1.51444886736,0,0,-11.1847,227.5, -2.8, -0.7,0,0,1024,1024,1684,1024,227.7,0,98,4.048,4.068,4.02,4.046,0,0,18.352,80.51,6,P-GPS,
0.341423112932989,36.9110546339252,5653.8306415525,256.561688,0,1.44789046628,19200,2018-04-04 06:01:21,13,0,16.079,5653.8306415525,256.561688,0.4921268,1.51444886736,0,0,-11.1847,227.5, -3, -0.8,0,0,1024,1024,1684,1024,227.7,0,98,4.048,4.068,4.02,4.046,0,0,18.352,80.51,6,P-GPS,
0.341423109454633,36.911054667869,5655.4710615525,258.202108,0,1.45303810424,19300,2018-04-04 06:01:21,13,0,16.053,5655.4710615525,258.202108,0.4921268,1.51444886736,0,0,-11.1847,227.5, -2.8, -0.8,0,0,1024,1024,1684,1024,227.7,0,98,4.042,4.06,4.013,4.04,0,0,18.352,80.51,6,P-GPS,
0.341423113711386,36.9110547003408,5657.1114815525,259.842528,0,1.46042327508,19400,2018-04-04 06:01:21,13,0,16.053,5657.1114815525,259.842528,0.4921268,1.51444886736,0,0,-11.1847,227.5, -2.7, -0.8,0,0,1024,1024,1684,1024,227.7,0,98,4.042,4.06,4.013,4.04,0,0,18.352,80.51,6,P-GPS,
0.341423113398724,36.9110547175798,5660.3923215525,263.123368,0,1.46356303896,19600,2018-04-04 06:01:21,13,0,16.053,5660.3923215525,263.123368,0.4921268,1.51444886736,0,0,-10.737312,227.5, -3, -0.9,0,0,1024,1024,1684,1024,227.7,0,98,4.042,4.06,4.013,4.04,0,0,18.352,80.51,6,P-GPS,
0.341423093850883,36.911054712246,5663.6731615525,266.404208,0,1.45645345868,19800,2018-04-04 06:01:22,13,0,16.053,5663.6731615525,266.404208,0.4921268,1.51444886736,0,0,-11.1847,227.5, -2.8, -0.3,0,0,1024,1024,1684,1024,227.7,0,98,4.042,4.06,4.013,4.04,0,0,18.352,80.51,6,P-GPS,
0.341423079074382,36.9110547207467,5665.3135815525,268.044628,0,1.45345477092,19900,2018-04-04 06:01:22,13,0,16.053,5665.3135815525,268.044628,0.4921268,1.51444886736,0,0,-11.1847,227.5, -2.8, -0.6,0,0,1024,1024,1684,1024,227.7,0,98,4.042,4.06,4.013,4.04,0,0,18.352,80.51,6,P-GPS,
0.341423079040185,36.9110547157341,5666.9540015525,269.685048,0,1.4524934848,20000,2018-04-04 06:01:22,13,0,16.053,5666.9540015525,269.685048,0.4921268,1.51444886736,0,0,-11.1847,227.5, -2.9, -1.1,0,0,1024,1024,1684,1024,227.7,0,98,4.042,4.06,4.013,4.04,0,0,18.352,80.51,6,P-GPS,
0.341423058039771,36.9110547085942,5668.5944215525,271.325468,0,1.44459650292,20100,2018-04-04 06:01:22,13,0,16.053,5668.5944215525,271.325468,0.4921268,1.51444886736,0,0,-11.1847,227.4, -2.7, -0.9,0,0,1024,1024,1684,1024,227.7,0,98,4.042,4.06,4.013,4.04,0,0,18.352,80.51,6,P-GPS,
0.341423039206816,36.9110546758515,5670.2348415525,272.965888,0,1.43252301172,20200,2018-04-04 06:01:22,13,0,16.053,5670.2348415525,272.965888,0.4921268,1.51444886736,0,0,-11.1847,227.5, -2.2, -0.4,0,0,1024,1024,1684,1024,227.7,0,98,4.042,4.06,4.013,4.04,0,0,18.352,80.51,6,P-GPS,
0.341423013641874,36.9110546463764,5671.8752615525,274.606308,0,1.41898626588,20300,2018-04-04 06:01:22,13,0,15.999,5671.8752615525,274.606308,0.4921268,1.51444886736,0,0,-11.1847,227.4, -2.1, -0.3,0,0,1024,1024,1684,1024,227.7,0,98,4.04,4.058,4.009,4.035,0,0,18.548,80.51,6,P-GPS,
0.341423029454065,36.9110546266279,5673.5156815525,276.246728,0,1.42025595096,20400,2018-04-04 06:01:22,13,0,15.999,5673.5156815525,276.246728,0.4921268,1.51444886736,0,0,-11.1847,227.4, -2.4, -0.5,0,0,1024,1024,1684,1024,227.7,0,98,4.04,4.058,4.009,4.035,0,0,18.548,80.51,6,P-GPS,
0.341423046875159,36.9110546220124,5675.1561015525,277.887148,0,1.42487865452,20500,2018-04-04 06:01:22,13,0,15.999,5675.1561015525,277.887148,0.4921268,1.51444886736,0,0,-11.1847,227.5, -2.9, -0.7,0,0,1024,1024,1684,1024,227.7,0,98,4.04,4.058,4.009,4.035,0,0,18.548,80.51,6,P-GPS,
0.341423084847216,36.9110546196367,5676.7965215525,279.527568,0,1.43640752628,20600,2018-04-04 06:01:22,13,0,15.999,5676.7965215525,279.527568,0.4921268,1.51444886736,0,0,-10.961006,227.5, -3, -0.8,0,0,1024,1024,1684,1024,227.7,0,98,4.04,4.058,4.009,4.035,0,0,18.548,80.51,6,P-GPS,
0.341423104649095,36.9110546209996,5678.4369415525,281.167988,0,1.442913432,20700,2018-04-04 06:01:22,13,0,15.999,5678.4369415525,281.167988,0.4921268,1.51444886736,0,0,-11.1847,227.5, -3, -0.8,0,0,1024,1024,1684,1024,227.7,0,98,4.04,4.058,4.009,4.035,0,0,18.548,80.51,6,P-GPS,
0.341423122736222,36.9110546212084,5680.0773615525,282.808408,0,1.4486713062,20800,2018-04-04 06:01:23,13,0,15.999,5680.0773615525,282.808408,0.4921268,1.51444886736,0,0,-11.1847,227.5, -3.2, -0.8,0,0,1024,1024,1684,1024,227.7,0,98,4.04,4.058,4.009,4.035,0,0,18.548,80.51,6,P-GPS,
0.34142312277042,36.9110546189548,5681.7177815525,284.448828,0,1.44827432456,20900,2018-04-04 06:01:23,13,0,15.999,5681.7177815525,284.448828,0.4921268,1.51444886736,0,0,-11.1847,227.5, -3.1, -0.8,0,0,1024,1024,1684,1024,227.7,0,98,4.04,4.058,4.009,4.035,0,0,18.548,80.51,6,P-GPS,
0.34142314867245,36.9110546401926,5683.6862855525,286.417332,0,1.46032813072,21000,2018-04-04 06:01:23,13,0,15.999,5683.6862855525,286.417332,0.4921268,1.51444886736,0,0,-11.1847,227.5, -3, -0.8,0,0,1024,1024,1684,1024,227.7,0,98,4.04,4.058,4.009,4.035,0,0,18.548,80.51,6,P-GPS,
0.341423157407424,36.9110546624068,5685.3267055525,288.057752,0,1.46713915456,21100,2018-04-04 06:01:23,13,0,15.999,5685.3267055525,288.057752,0.4921268,1.51444886736,0,0,-10.961006,227.5, -2.9, -0.6,0,0,1024,1024,1684,1024,227.7,0,98,4.04,4.058,4.009,4.035,0,0,18.548,80.51,6,P-GPS,
0.341423170381237,36.9110546545741,5686.9671255525,289.698172,0,1.46980975832,21200,2018-04-04 06:01:23,13,0,15.999,5686.9671255525,289.698172,0.4921268,1.51444886736,0,0,-10.961006,227.5, -2.8, -0.7,0,0,1024,1024,1684,1024,227.7,0,98,4.04,4.058,4.009,4.035,0,0,18.548,80.51,6,P-GPS,
0.341423163872346,36.9110546331201,5688.6075455525,291.338592,0,1.46385831456,21300,2018-04-04 06:01:23,13,0,15.999,5688.6075455525,291.338592,0.4921268,1.51444886736,0,0,-10.961006,227.5, -2.4, -0.7,0,0,1024,1024,1684,1024,227.7,0,98,4.04,4.058,4.009,4.035,0,0,18.548,80.51,6,P-GPS,
0.341423167433753,36.9110546167493,5690.2479655525,292.979012,0,1.4620407292,21400,2018-04-04 06:01:23,13,0,15.999,5690.2479655525,292.979012,0.4921268,1.51444886736,0,0,-10.961006,227.5, -2.5, -0.5,0,0,1024,1024,1684,1024,227.7,0,98,4.04,4.058,4.009,4.035,0,0,18.548,80.51,6,P-GPS,
0.341423162190164,36.9110546112956,5691.5603015525,294.291348,0,1.45939637216,21500,2018-04-04 06:01:23,13,0,15.999,5691.5603015525,294.291348,0.4921268,1.51444886736,0,0,-10.961006,227.5, -2.8, -0.6,0,0,1024,1024,1684,1024,227.7,0,98,4.04,4.058,4.009,4.035,0,0,18.548,80.51,6,P-GPS,
0.341423167505405,36.9110546051663,5693.2007215525,295.931768,0,1.45998692336,21600,2018-04-04 06:01:23,13,0,15.999,5693.2007215525,295.931768,0.4921268,1.51444886736,0,0,-10.961006,227.5, -3, -0.7,0,0,1024,1024,1684,1024,227.7,0,98,4.04,4.058,4.009,4.035,0,0,18.548,80.51,6,P-GPS,
0.341423151442433,36.9110545979033,5695.1692255525,297.900272,0,1.45357944284,21700,2018-04-04 06:01:23,13,0,15.999,5695.1692255525,297.900272,0.4921268,1.51444886736,0,0,-10.961006,227.5, -2.7, -0.5,0,0,1024,1024,1684,1024,227.7,0,98,4.04,4.058,4.009,4.035,0,0,18.548,80.51,6,P-GPS,
0.341423140123119,36.9110545858256,5696.4815615525,299.212608,0,1.44782156864,21800,2018-04-04 06:01:24,13,0,15.999,5696.4815615525,299.212608,0.4921268,1.51444886736,0,0,-10.961006,227.5, -2.4, -0.3,0,0,1024,1024,1684,1024,227.7,0,98,4.04,4.058,4.009,4.035,0,0,18.548,80.51,6,P-GPS,
0.341423125437811,36.9110545721346,5698.1219815525,300.853028,0,1.44070870752,21900,2018-04-04 06:01:24,13,0,15.999,5698.1219815525,300.853028,0.4921268,1.51444886736,0,0,-10.961006,227.5, -2.6, -0.5,0,0,1024,1024,1684,1024,227.7,0,98,4.04,4.058,4.009,4.035,0,0,18.548,80.51,6,P-GPS,
0.3414231644651,36.9110545606084,5699.7624015525,302.493448,0,1.45112537452,22000,2018-04-04 06:01:24,13,0,15.999,5699.7624015525,302.493448,0.4921268,1.51444886736,0,0,-10.961006,227.5, -2.5, -0.5,0,0,1024,1024,1684,1024,227.7,0,98,4.04,4.058,4.009,4.035,0,0,18.548,80.51,6,P-GPS,
0.341423203813192,36.9110545477717,5701.4028215525,304.133868,0,1.46149610976,22100,2018-04-04 06:01:24,13,0,15.999,5701.4028215525,304.133868,0.4921268,1.51444886736,0,0,-10.961006,227.5, -2.5, -0.7,0,0,1024,1024,1684,1024,227.7,0,98,4.04,4.058,4.009,4.035,0,0,18.548,80.51,6,P-GPS,
0.341423267337164,36.9110545454046,5703.3713255525,306.102372,0,1.4815289188,22200,2018-04-04 06:01:24,13,0,15.999,5703.3713255525,306.102372,0.4921268,1.51444886736,0,0,-11.1847,227.5, -2.7, -0.9,0,0,1024,1024,1465,1024,227.7,0,98,4.04,4.058,4.009,4.035,0,0,18.548,80.51,6,P-GPS,
0.341423312954766,36.9110545437323,5705.0117455525,307.742792,0,1.49597773816,22300,2018-04-04 06:01:24,13,0,16.026,5705.0117455525,307.742792,0.4921268,1.51444886736,0,0,-11.1847,227.5, -2.9, -1.1,0,0,1024,1024,1060,1024,227.7,0,98,4.037,4.055,4.007,4.035,0,0,18.336,80.51,6,P-GPS,
0.341423396664929,36.9110545543164,5706.6521655525,309.383212,0,1.52487209604,22400,2018-04-04 06:01:24,13,0,16.026,5706.6521655525,309.383212,0.4921268,1.52487209604,0,0,-10.513618,227.5, -4.8, -1.9,0,0,1024,1024,1024,1024,227.7,0,98,4.037,4.055,4.007,4.035,0,0,18.336,80.51,6,P-GPS,
0.34142345923789,36.9110545633063,5707.9645015525,310.695548,0,1.54669952456,22500,2018-04-04 06:01:24,13,0,16.026,5707.9645015525,310.695548,0.4921268,1.54669952456,0,0,-9.395148,227.6, -6.5, -2.5,0,0,1024,1024,1012,1024,227.7,0,98,4.037,4.055,4.007,4.035,0,0,18.336,80.51,6,P-GPS,
0.341423484451088,36.9110545668083,5709.2768375525,312.007884,0,1.55548561408,22600,2018-04-04 06:01:25,13,0,16.026,5709.2768375525,312.007884,0.4921268,1.55548561408,0,0,-8.052984,227.6, -5.7, -2,0,0,1024,1024,400,1024,227.7,0,98,4.037,4.055,4.007,4.035,0,0,18.336,80.51,6,P-GPS,
