latitude,longitude,altitude(feet),ascent(feet),speed(mph),distance(feet),time(millisecond),datetime(utc),satellites,voltage(v),max_altitude(feet),max_ascent(feet),max_speed(mph),max_distance(feet),compass_heading(degrees), pitch(degrees), roll(degrees),isPhoto,isVideo,rc_elevator,rc_aileron,rc_throttle,rc_rudder,gimbal_heading(degrees),gimbal_pitch(degrees),battery_percent,voltageCell1,voltageCell2,voltageCell3,voltageCell4,voltageCell5,voltageCell6,battery_temperature(f),flycStateRaw,flycState,message
0.307992690791099,36.8793975366782,5801.602446478,0,0,0,100,2017-11-14 13:55:31,16,0,5801.602446478,0,0,0,6.2, -1.8, 0.4,0,0,1024,1024,1024,1024,10.7,0,100,4.298,4.3,4.3,4.3,0,0,76.91,41,Motors_Started,
0.307992714877821,36.879397531569,5801.602446478,0,0,0.0089835632796,200,2017-11-14 13:55:31,16,0,5801.602446478,0,0,0.0089835632796,6.2, -1.9, 0.4,0,0,1024,1024,1024,1024,10.7,0,100,4.298,4.3,4.3,4.3,0,0,76.91,41,Motors_Started,
0.307992731847836,36.8793975139016,5801.602446478,0,0,0.0171301186584,300,2017-11-14 13:55:31,16,0,5801.602446478,0,0,0.0171301186584,6.2, -1.8, 0.4,0,0,1024,1024,1024,1024,10.7,0,100,4.298,4.3,4.3,4.3,0,0,76.91,41,Motors_Started,
0.307992740177938,36.8793974969125,5801.602446478,0,0,0.0231336621576,400,2017-11-14 13:55:31,16,0,5801.602446478,0,0,0.0231336621576,6.2, -1.8, 0.4,0,0,1024,1024,1024,1024,10.7,0,100,4.298,4.3,4.3,4.3,0,0,76.91,41,Motors_Started,
0.307992747289353,36.8793974872777,5801.602446478,0,0,0.0273816937896,500,2017-11-14 13:55:31,16,0,5801.602446478,0,0,0.0273816937896,6.2, -1.9, 0.4,0,0,1024,1024,1024,1024,10.7,0,100,4.298,4.3,4.3,4.3,0,0,76.91,41,Motors_Started,
0.307992769606771,36.8793975037711,5801.602446478,0,0,0.0311615495536,600,2017-11-14 13:55:31,16,17.189,5801.602446478,0,0,0.0311615495536,6.2, -1.9, 0.4,0,0,1024,1024,1024,1024,10.7,0,100,4.298,4.3,4.3,4.3,0,0,76.91,41,Motors_Started,Setting new Return-To-Home altitude to 30m (98 ft). Setting new Maximum Flight Altitude to 150m (492 ft)
0.307992800279328,36.8793975289962,5801.602446478,0,0,0.040044948788,700,2017-11-14 13:55:31,16,17.189,5801.602446478,0,0,0.040044948788,6.1, -1.9, 0.4,0,0,1024,1024,1024,1024,10.7,0,100,4.298,4.3,4.3,4.3,0,0,76.91,41,Motors_Started,
0.307992823838434,36.8793975579648,5801.602446478,0,0,0.049159450392,800,2017-11-14 13:55:31,16,17.189,5801.602446478,0,0,0.049159450392,6.1, -1.9, 0.5,0,0,374,364,465,1639,10.7,0,100,4.298,4.3,4.3,4.3,0,0,76.91,41,Motors_Started,
0.307992840428207,36.8793975770748,5801.602446478,0,0,0.056549542492,900,2017-11-14 13:55:31,16,17.189,5801.602446478,0,0,0.056549542492,6.1, -1.9, 0.5,0,0,1024,1024,1024,1024,10.7,0,100,4.298,4.3,4.3,4.3,0,0,76.91,41,Motors_Started,
0.307992847499929,36.8793975978719,5801.602446478,0,0,0.06137959514,1000,2017-11-14 13:55:32,16,17.189,5801.602446478,0,0,0.06137959514,6.1, -1.9, 0.5,0,0,1024,1024,1024,1024,9.3,0,100,4.298,4.3,4.3,4.3,0,0,76.91,41,Motors_Started,
0.307992851722281,36.879397606994,5801.602446478,0,0,0.064075461368,1100,2017-11-14 13:55:32,16,17.189,5801.602446478,0,0,0.064075461368,6.1, -1.9, 0.4,0,0,1024,1024,1024,1024,8,0,100,4.298,4.3,4.3,4.3,0,0,76.91,41,Motors_Started,
0.307992869490844,36.8793976160452,5801.602446478,0,0,0.071339569212,1200,2017-11-14 13:55:32,16,17.189,5801.602446478,0,0,0.071339569212,6.1, -1.8, 0.4,0,0,1024,1024,1024,1024,7.5,0,100,4.298,4.3,4.3,4.3,0,0,76.91,41,Motors_Started,
0.307992897815999,36.8793976222739,5801.602446478,0,0,0.081734254584,1300,2017-11-14 13:55:32,16,17.189,5801.602446478,0,0,0.081734254584,6.1, -1.8, 0.4,0,0,1024,1024,1024,1024,7.2,0,100,4.298,4.3,4.3,4.3,0,0,76.91,41,Motors_Started,
0.307992919996627,36.8793976247877,5801.602446478,0,0,0.089591210216,1400,2017-11-14 13:55:32,16,17.189,5801.602446478,0,0,0.089591210216,6.1, -1.6, 0.3,0,0,1024,1024,1024,1024,7,0,100,4.298,4.3,4.3,4.3,0,0,76.91,41,Motors_Started,
0.307992933755758,36.8793976278572,5801.602446478,0,0,0.09468176156,1500,2017-11-14 13:55:32,16,17.189,5801.602446478,0,0,0.09468176156,6.1, -1.7, 0.3,0,0,1024,1024,1024,1024,6.9,0,100,4.298,4.3,4.3,4.3,0,0,76.91,10,Assisted_Takeoff,
0.30799294477727,36.8793976319464,5801.602446478,0,0,0.098970803692,1600,2017-11-14 13:55:32,16,17.189,5801.602446478,0,0,0.098970803692,6.1, -1.9, 0.4,0,0,1024,1024,1024,1024,6.8,0,100,4.298,4.3,4.3,4.3,0,0,76.91,10,Assisted_Takeoff,
0.307992950713152,36.8793976351228,5801.602446478,0,0,0.101406171224,1700,2017-11-14 13:55:32,16,17.189,5801.602446478,0,0,0.101406171224,6.1, -1.7, 0.3,0,0,1024,1024,1024,1024,6.7,0,100,4.298,4.3,4.3,4.3,0,0,76.91,10,Assisted_Takeoff,
0.307992946006542,36.8793976323202,5801.602446478,0,0,0.099438651476,1800,2017-11-14 13:55:32,16,17.189,5801.602446478,0,0,0.101406171224,6.1, -1.8, 0.4,0,0,1024,1024,1034,1024,6.7,0,100,4.298,4.3,4.3,4.3,0,0,76.91,10,Assisted_Takeoff,
0.307992946424034,36.8793976346523,5801.602446478,0,0,0.099882549128,1900,2017-11-14 13:55:32,16,17.189,5801.602446478,0,0,0.101406171224,6.1, -1.8, 0.4,0,0,1024,1024,1046,1024,6.7,0,100,4.298,4.3,4.3,4.3,0,0,76.91,10,Assisted_Takeoff,
0.307992955698226,36.8793976286894,5801.602446478,0,0,0.102314963904,2000,2017-11-14 13:55:33,16,17.189,5801.602446478,0,0,0.102314963904,6.1, -1.7, 0.3,0,0,1024,1024,1075,1024,6.6,0,100,4.298,4.3,4.3,4.3,0,0,76.91,10,Assisted_Takeoff,
0.307992982296416,36.8793976287567,5801.602446478,0,0,0.111535108556,2100,2017-11-14 13:55:33,16,17.189,5801.602446478,0,0,0.111535108556,6.1, -1.8, 0.4,0,0,1024,1024,1147,1024,6.6,0,100,4.298,4.3,4.3,4.3,0,0,76.91,10,Assisted_Takeoff,
0.307993005001608,36.8793976257913,5801.602446478,0,0,0.119160764968,2200,2017-11-14 13:55:33,16,17.189,5801.602446478,0,0,0.119160764968,6.1, -1.8, 0.3,0,0,1024,1024,1200,1024,6.6,0,100,4.298,4.3,4.3,4.3,0,0,76.91,10,Assisted_Takeoff,
0.307993016340056,36.8793976226565,5801.602446478,0,0,0.122848757212,2300,2017-11-14 13:55:33,16,17.189,5801.602446478,0,0,0.122848757212,6.1, -1.6, 0.2,0,0,1024,1024,1260,1024,6.5,0,100,4.298,4.3,4.3,4.3,0,0,76.91,10,Assisted_Takeoff,
0.307993022310949,36.8793976179881,5801.602446478,0,0,0.124539702148,2400,2017-11-14 13:55:33,16,17.189,5801.602446478,0,0,0.124539702148,6.1, -1.6, 0.2,0,0,1024,1024,1357,1024,6.5,0,100,4.298,4.3,4.3,4.3,0,0,76.91,10,Assisted_Takeoff,
0.307993023459206,36.8793976135193,5801.602446478,0,0,0.124569557792,2500,2017-11-14 13:55:33,16,17.189,5801.602446478,0,0,0.124569557792,6, -1.3, 0.1,0,0,1024,1024,1390,1024,6.5,0,100,4.298,4.3,4.3,4.3,0,0,76.91,10,Assisted_Takeoff,
0.307993041180137,36.8793976076408,5801.602446478,0,0,0.13043471546,2600,2017-11-14 13:55:33,16,17.162,5801.602446478,0,0,0.13043471546,5.9, -0.7, 0,0,0,1024,1024,1421,1024,6.5,0,100,4.278,4.278,4.271,4.275,0,0,76.91,10,Assisted_Takeoff,
0.307993054474754,36.8793975948382,5801.602446478,0,0,0.134375660468,2700,2017-11-14 13:55:33,16,17.162,5801.602446478,0,0,0.134375660468,5.7, 2.5, -0.1,0,0,1024,1024,1474,1024,6.5,0,100,4.278,4.278,4.271,4.275,0,0,76.91,10,Assisted_Takeoff,
0.307993035302676,36.8793975504437,5801.602446478,0,0.223694,0.125795279616,2800,2017-11-14 13:55:33,16,17.162,5801.602446478,0,0.223694,0.134375660468,5.9, 6.4, -0.8,0,0,1024,1024,1495,1024,6.4,0,100,4.278,4.278,4.271,4.275,0,0,76.91,10,Assisted_Takeoff,
0.307992883966897,36.879397447272,5801.602446478,0,0.70687304,0.07766240406,2900,2017-11-14 13:55:33,16,17.162,5801.602446478,0,0.70687304,0.134375660468,6.1, 4.5, -0.6,0,0,1024,1024,1516,1024,6.4,0,100,4.278,4.278,4.271,4.275,0,0,76.91,6,GPS_Atti,
0.307992587994351,36.8793972734621,5801.602446478,0,0.80753534,0.103096788076,3000,2017-11-14 13:55:34,16,17.162,5801.602446478,0,0.80753534,0.134375660468,6.1, 1.2, -0.2,0,0,1024,1024,1559,1024,6.4,0,100,4.278,4.278,4.271,4.275,0,0,76.91,6,GPS_Atti,
0.3079922284101,36.8793970435559,5801.930530478,0.328084,0.80753534,0.246633538076,3100,2017-11-14 13:55:34,16,17.162,5801.930530478,0.328084,0.80753534,0.246633538076,6, -0.6, 0.2,0,0,1024,1024,1591,1047,6.4,0,100,4.278,4.278,4.271,4.275,0,0,76.91,6,GPS_Atti,
0.307991852148955,36.879396730077,5802.258614478,0.656168,0.94846256,0.42453085348,3200,2017-11-14 13:55:34,16,17.162,5802.258614478,0.656168,0.94846256,0.42453085348,5.9, -2.3, 1.3,0,0,1024,1024,1597,1066,6.4,0,100,4.278,4.278,4.271,4.275,0,0,76.91,6,GPS_Atti,
0.307991484202135,36.8793963644619,5802.914782478,1.312336,0.94846256,0.613763143,3300,2017-11-14 13:55:34,16,17.162,5802.914782478,1.312336,0.94846256,0.613763143,5.9, -2.9, 2.6,0,0,1024,1024,1594,1075,6.4,0,100,4.278,4.278,4.271,4.275,0,0,76.91,6,GPS_Atti,
0.307991101800942,36.8793959705174,5803.570950478,1.968504,0.94846256,0.81400593156,3400,2017-11-14 13:55:34,16,17.162,5803.570950478,1.968504,0.94846256,0.81400593156,6.3, -3.8, 3.6,0,0,1024,1024,1604,1081,6.5,0,100,4.278,4.278,4.271,4.275,0,0,76.91,6,GPS_Atti,
0.307990706964772,36.8793956181752,5804.227118478,2.624672,0.99991218,1.00688651516,3500,2017-11-14 13:55:34,16,17.162,5804.227118478,2.624672,0.99991218,1.00688651516,6.5, -4.9, 2.5,0,0,1024,1024,1660,1063,6.7,0,100,4.278,4.278,4.271,4.275,0,0,76.91,6,GPS_Atti,
0.307990337709224,36.8793952415662,5805.211370478,3.608924,0.94846256,1.1992618494,3600,2017-11-14 13:55:34,15,17.162,5805.211370478,3.608924,0.99991218,1.1992618494,7.1, -5.1, 3,0,0,1024,1024,1684,1059,6.8,0,100,4.278,4.278,4.271,4.275,0,0,76.91,6,GPS_Atti,
0.307990002007421,36.8793948424294,5806.523706478,4.92126,0.94846256,1.3887467636,3700,2017-11-14 13:55:34,15,17.162,5806.523706478,4.92126,0.99991218,1.3887467636,7.8, -5.3, 4.9,0,0,1024,1024,1684,1090,6.9,0,100,4.278,4.278,4.271,4.275,0,0,76.91,6,GPS_Atti,
0.307989699555653,36.8793944734493,5807.507958478,5.905512,0.80753534,1.5620735408,3800,2017-11-14 13:55:34,16,17.162,5807.507958478,5.905512,0.99991218,1.5620735408,8.1, -5.4, 5.1,0,0,1024,1024,1684,1115,7.2,0,100,4.278,4.278,4.271,4.275,0,0,76.91,6,GPS_Atti,
0.307989414202495,36.8793941835475,5809.148378478,7.545932,0.80753534,1.71048561904,3900,2017-11-14 13:55:34,16,17.162,5809.148378478,7.545932,0.99991218,1.71048561904,8.4, -6.3, 4,0,0,1024,1024,1684,1115,7.2,0,100,4.278,4.278,4.271,4.275,0,0,76.91,6,GPS_Atti,
0.307989122723131,36.8793939298774,5810.460714478,8.858268,0.80753534,1.85104008548,4000,2017-11-14 13:55:35,15,17.162,5810.460714478,8.858268,0.99991218,1.85104008548,9, -6.1, 3,0,0,1024,1024,1684,1091,7.7,0,100,4.278,4.278,4.271,4.275,0,0,76.91,6,GPS_Atti,
0.307988844281701,36.8793936926849,5812.101134478,10.498688,0.63305402,1.9840387774,4100,2017-11-14 13:55:35,15,17.162,5812.101134478,10.498688,0.99991218,1.9840387774,9.9, -6.5, 3.1,0,0,1024,1024,1684,1032,8.1,0,100,4.278,4.278,4.271,4.275,0,0,76.91,6,GPS_Atti,
0.307988554431799,36.8793934736083,5813.741554478,12.139108,0.63305402,2.1154200152,4200,2017-11-14 13:55:35,15,17.162,5813.741554478,12.139108,0.99991218,2.1154200152,10.3, -6.9, 4.5,0,0,1024,1024,1684,1043,8.3,0,100,4.278,4.278,4.271,4.275,0,0,76.91,6,GPS_Atti,
0.307988290588453,36.8793932772427,5815.381974478,13.779528,0.50107456,2.23435702688,4300,2017-11-14 13:55:35,15,17.162,5815.381974478,13.779528,0.99991218,2.23435702688,10.3, -6.7, 4.7,0,0,1024,1024,1684,1090,8.5,0,100,4.278,4.278,4.271,4.275,0,0,76.91,6,GPS_Atti,
0.307988042318323,36.8793930749894,5817.022394478,15.419948,0.50107456,2.35078419596,4400,2017-11-14 13:55:35,15,17.162,5817.022394478,15.419948,0.99991218,2.35078419596,10.4, -6.3, 4.1,0,0,1024,1024,1684,1085,8.9,0,100,4.278,4.278,4.271,4.275,0,0,76.91,6,GPS_Atti,
0.307987839645237,36.8793928555354,5818.662814478,17.060368,0.50107456,2.45958669288,4500,2017-11-14 13:55:35,15,17.162,5818.662814478,17.060368,0.99991218,2.45958669288,11, -5.8, 3.2,0,0,1024,1024,1684,1088,9.2,-0.1,100,4.278,4.278,4.271,4.275,0,0,76.91,6,GPS_Atti,
0.307987658933346,36.8793925980412,5820.631318478,19.028872,0.63305402,2.57235572536,4600,2017-11-14 13:55:35,15,16.622,5820.631318478,19.028872,0.99991218,2.57235572536,11.5, -5.5, 3,0,0,1024,1024,1684,1088,9.6,-0.6,100,4.258,4.262,4.257,4.253,0,0,76.91,6,GPS_Atti,
0.307987497366664,36.8793923126774,5822.271738478,20.669292,0.63305402,2.68755586028,4700,2017-11-14 13:55:35,15,16.622,5822.271738478,20.669292,0.99991218,2.68755586028,12.1, -5.5, 3.1,0,0,1024,1024,1684,1102,10,-1.6,100,4.258,4.262,4.257,4.253,0,0,76.91,6,GPS_Atti,Home Point Recorded. RTH Altitude:  30m.
0.307987326941654,36.8793919477773,5823.912158478,22.309712,0.63305402,2.8262468096,4800,2017-11-14 13:55:35,15,16.622,5823.912158478,22.309712,0.99991218,2.8262468096,12.6, -5.3, 3.5,0,0,1024,1024,1684,1171,10.6,-2.8,100,4.258,4.262,4.257,4.253,0,0,76.91,6,GPS_Atti,
0.307987162471864,36.8793915604825,5825.552578478,23.950132,0.63305402,2.97024615804,4900,2017-11-14 13:55:35,15,16.622,5825.552578478,23.950132,0.99991218,2.97024615804,13.5, -5.6, 3.7,0,0,1024,1024,1684,1196,11.8,-4,100,4.258,4.262,4.257,4.253,0,0,76.91,6,GPS_Atti,
0.307987033815221,36.879391167459,5827.192998478,25.590552,0.80753534,3.10801847216,5000,2017-11-14 13:55:36,15,16.622,5827.192998478,25.590552,0.99991218,3.10801847216,15.2, -6.1, 4.8,0,0,1024,1024,1684,1174,13.2,-5.2,100,4.258,4.262,4.257,4.253,0,0,76.91,6,GPS_Atti,
0.307986932751544,36.8793907985361,5828.833418478,27.230972,0.63305402,3.23373369928,5100,2017-11-14 13:55:36,15,16.622,5828.833418478,27.230972,0.99991218,3.23373369928,17.4, -6.1, 5.4,0,0,1024,1024,1684,1140,14.7,-5.9,100,4.258,4.262,4.257,4.253,0,0,76.91,6,GPS_Atti,
0.307986827664389,36.879390450303,5830.473838478,28.871392,0.63305402,3.355643152,5200,2017-11-14 13:55:36,15,16.622,5830.473838478,28.871392,0.99991218,3.355643152,19.1, -6.4, 4.8,0,0,1024,1024,1684,1117,16,-5.9,100,4.258,4.262,4.257,4.253,0,0,76.91,6,GPS_Atti,
0.307986723211513,36.8793901353084,5832.114258478,30.511812,0.63305402,3.4687665152,5300,2017-11-14 13:55:36,15,16.622,5832.114258478,30.511812,0.99991218,3.4687665152,20.3, -6.2, 4,0,0,1024,1024,1684,1110,17.2,-5.9,100,4.258,4.262,4.257,4.253,0,0,76.91,6,GPS_Atti,
0.307986650315846,36.8793898450284,5833.754678478,32.152232,0.50107456,3.5682087756,5400,2017-11-14 13:55:36,15,16.622,5833.754678478,32.152232,0.99991218,3.5682087756,21.2, -5.5, 3.2,0,0,1024,1024,1684,1095,18.1,-5.9,100,4.258,4.262,4.257,4.253,0,0,76.91,6,GPS_Atti,
0.307986591767177,36.8793895584972,5835.395098478,33.792652,0.50107456,3.6639108784,5500,2017-11-14 13:55:36,15,16.622,5835.395098478,33.792652,0.99991218,3.6639108784,22.1, -5, 2.8,0,0,1024,1024,1684,1086,18.1,-5.9,100,4.258,4.262,4.257,4.253,0,0,76.91,6,GPS_Atti,
0.307986538494667,36.8793892599078,5836.707434478,35.104988,0.50107456,3.762631354,5600,2017-11-14 13:55:36,15,16.622,5836.707434478,35.104988,0.99991218,3.762631354,22.7, -5.2, 3.1,0,0,1024,1024,1684,1056,18.9,-5.9,100,4.258,4.262,4.257,4.253,0,0,76.91,6,GPS_Atti,
0.307986479632931,36.8793889542081,5838.675938478,37.073492,0.50107456,3.8652560292,5700,2017-11-14 13:55:36,15,16.622,5838.675938478,37.073492,0.99991218,3.8652560292,23.2, -6, 3.5,0,0,1024,1024,1684,1032,19.4,-5.9,100,4.258,4.262,4.257,4.253,0,0,76.91,6,GPS_Atti,
0.307986446713528,36.8793886677545,5839.988274478,38.385828,0.50107456,3.9572835912,5800,2017-11-14 13:55:36,15,16.622,5839.988274478,38.385828,0.99991218,3.9572835912,23.4, -5.3, 4.7,0,0,1024,1024,1684,1025,19.8,-5.9,100,4.258,4.262,4.257,4.253,0,0,76.91,6,GPS_Atti,
0.307986417732517,36.8793884299709,5841.628694478,40.026248,0.31540854,4.0345473732,5900,2017-11-14 13:55:36,15,16.622,5841.628694478,40.026248,0.99991218,4.0345473732,23.4, -5.4, 3.8,0,0,1024,1024,1684,1024,20.2,-5.9,100,4.258,4.262,4.257,4.253,0,0,76.91,6,GPS_Atti,
0.307986383001878,36.8793882334533,5843.269114478,41.666668,0.31540854,4.100885958,6000,2017-11-14 13:55:37,15,16.622,5843.269114478,41.666668,0.99991218,4.100885958,23.5, -4.8, 2.1,0,0,1024,1024,1684,1033,20.5,-6.1,100,4.258,4.262,4.257,4.253,0,0,76.91,6,GPS_Atti,
0.30798633533203,36.8793880191017,5844.909534478,43.307088,0.50107456,4.1754594512,6100,2017-11-14 13:55:37,15,16.622,5844.909534478,43.307088,0.99991218,4.1754594512,23.6, -4.6, 2.2,0,0,1024,1024,1684,1029,20.7,-6.3,100,4.258,4.262,4.257,4.253,0,0,76.91,6,GPS_Atti,
0.30798626354574,36.8793877843148,5846.549954478,44.947508,0.50107456,4.261319034,6200,2017-11-14 13:55:37,15,16.622,5846.549954478,44.947508,0.99991218,4.261319034,23.6, -5.9, 2.8,0,0,1024,1024,1684,1030,21,-6.4,100,4.258,4.262,4.257,4.253,0,0,76.91,6,GPS_Atti,
0.307986165056633,36.8793875405862,5848.190374478,46.587928,0.50107456,4.3553807168,6300,2017-11-14 13:55:37,15,16.622,5848.190374478,46.587928,0.99991218,4.3553807168,23.5, -6.7, 2.8,0,0,1024,1024,1684,1027,21,-6.4,100,4.258,4.262,4.257,4.253,0,0,76.91,6,GPS_Atti,
0.307986050420689,36.8793873013285,5849.830794478,48.228348,0.50107456,4.4513780952,6400,2017-11-14 13:55:37,15,16.622,5849.830794478,48.228348,0.99991218,4.4513780952,23.5, -7.2, 3.1,0,0,1024,1024,1684,1028,21.3,-6.4,100,4.258,4.262,4.257,4.253,0,0,76.91,6,GPS_Atti,
0.307985932597067,36.879387078181,5851.471214478,49.868768,0.31540854,4.5430775732,6500,2017-11-14 13:55:37,15,16.622,5851.471214478,49.868768,0.99991218,4.5430775732,23.5, -7.2, 3.6,0,0,1024,1024,1684,1024,21.5,-6.6,100,4.258,4.262,4.257,4.253,0,0,76.91,6,GPS_Atti,
0.307985804596483,36.8793868753769,5853.111634478,51.509188,0.31540854,4.630577576,6600,2017-11-14 13:55:37,15,16.406,5853.111634478,51.509188,0.99991218,4.630577576,23.5, -7.7, 3.3,0,0,1024,1024,1684,1024,21.6,-6.6,100,4.125,4.148,4.133,4.136,0,0,76.91,6,GPS_Atti,
0.307985686782631,36.8793867005141,5854.752054478,53.149608,0.31540854,4.7074804656,6700,2017-11-14 13:55:37,15,16.406,5854.752054478,53.149608,0.99991218,4.7074804656,23.4, -8.1, 2.6,0,0,1024,1024,1684,1024,21.6,-6.6,100,4.125,4.148,4.133,4.136,0,0,76.91,6,GPS_Atti,
0.30798557307083,36.8793865514675,5856.720558478,55.118112,0.31540854,4.7756563208,6800,2017-11-14 13:55:37,15,16.406,5856.720558478,55.118112,0.99991218,4.7756563208,23.4, -7.3, 1.5,0,0,1024,1024,1684,1022,21.8,-6.6,100,4.125,4.148,4.133,4.136,0,0,76.91,6,GPS_Atti,
0.307985484380477,36.8793864039487,5858.360978478,56.758532,0.223694,4.8384515984,6900,2017-11-14 13:55:37,15,16.406,5858.360978478,56.758532,0.99991218,4.8384515984,23.4, -7.3, 1.6,0,0,1024,1024,1684,996,21.9,-6.6,100,4.125,4.148,4.133,4.136,0,0,76.91,6,GPS_Atti,
0.307985395635165,36.8793862256782,5860.001398478,58.398952,0.223694,4.9106300784,7000,2017-11-14 13:55:38,15,16.406,5860.001398478,58.398952,0.99991218,4.9106300784,23.4, -7.3, 2.5,0,0,1024,1024,1684,981,21.9,-6.6,100,4.125,4.148,4.133,4.136,0,0,76.91,6,GPS_Atti,
0.307985336469723,36.8793860545239,5861.641818478,60.039372,0.223694,4.9748361172,7100,2017-11-14 13:55:38,15,16.406,5861.641818478,60.039372,0.99991218,4.9748361172,23.3, -6.8, 3.1,0,0,1024,1024,1684,936,22,-6.6,100,4.125,4.148,4.133,4.136,0,0,76.91,6,GPS_Atti,
0.307985292306729,36.8793859293729,5863.282238478,61.679792,0.223694,5.021981788,7200,2017-11-14 13:55:38,15,16.406,5863.282238478,61.679792,0.99991218,5.021981788,23, -6.5, 3.6,0,0,1024,1024,1684,903,22,-6.6,100,4.125,4.148,4.133,4.136,0,0,76.91,6,GPS_Atti,
0.307985267858899,36.8793858476783,5864.922658478,63.320212,0,5.0519358572,7300,2017-11-14 13:55:38,15,16.406,5864.922658478,63.320212,0.99991218,5.0519358572,22.2, -6.4, 3.7,0,0,1024,1024,1684,890,21.5,-6.6,100,4.125,4.148,4.133,4.136,0,0,76.91,6,GPS_Atti,
0.307985231774209,36.8793857879543,5866.891162478,65.288716,0,5.0773951756,7400,2017-11-14 13:55:38,15,16.406,5866.891162478,65.288716,0.99991218,5.0773951756,21.2, -6.2, 3.7,0,0,1024,1024,1684,906,20.9,-6.6,100,4.125,4.148,4.133,4.136,0,0,76.91,6,GPS_Atti,
0.307985190950339,36.8793857360478,5868.531582478,66.929136,0,5.1013453076,7500,2017-11-14 13:55:38,15,16.406,5868.531582478,66.929136,0.99991218,5.1013453076,19.8, -6.1, 4.2,0,0,1024,1024,1684,953,20.2,-6.6,100,4.125,4.148,4.133,4.136,0,0,76.91,6,GPS_Atti,
0.307985113847994,36.8793856993105,5870.172002478,68.569556,0,5.127788878,7600,2017-11-14 13:55:38,15,16.406,5870.172002478,68.569556,0.99991218,5.127788878,18.4, -6.1, 3.9,0,0,1024,1024,1684,986,19.6,-6.7,100,4.125,4.148,4.133,4.136,0,0,76.91,6,GPS_Atti,
0.307984951148526,36.8793856336148,5873.780926478,72.17848,0,5.180118276,7800,2017-11-14 13:55:38,15,16.406,5873.780926478,72.17848,0.99991218,5.180118276,17.1, -6.6, 3,0,0,1024,1024,1684,1010,19.6,-6.7,100,4.125,4.148,4.133,4.136,0,0,76.91,6,GPS_Atti,
0.30798489717375,36.8793855686963,5875.749430478,74.146984,0,5.2106957048,7900,2017-11-14 13:55:38,15,16.406,5875.749430478,74.146984,0.99991218,5.2106957048,16.9, -6.2, 3.9,0,0,1024,1024,1684,1024,19.3,-7.2,100,4.125,4.148,4.133,4.136,0,0,76.91,6,GPS_Atti,
0.307984833757662,36.8793854811177,5877.389850478,75.787404,0,5.2500985932,8000,2017-11-14 13:55:39,16,16.406,5877.389850478,75.787404,0.99991218,5.2500985932,16.9, -6.7, 4.7,0,0,1024,1024,1684,1024,19.3,-7.3,100,4.125,4.148,4.133,4.136,0,0,76.91,6,GPS_Atti,
0.307984768628044,36.8793853997378,5879.358354478,77.755908,0,5.2879594868,8100,2017-11-14 13:55:39,16,16.406,5879.358354478,77.755908,0.99991218,5.2879594868,16.9, -6.5, 4.4,0,0,1024,1024,1684,1024,19.2,-7.3,100,4.125,4.148,4.133,4.136,0,0,76.91,6,GPS_Atti,
0.307984684095517,36.8793853466975,5880.998774478,79.396328,0,5.321030354,8200,2017-11-14 13:55:39,16,16.406,5880.998774478,79.396328,0.99991218,5.321030354,16.9, -6.9, 4.3,0,0,1024,1024,1684,1024,19.2,-7.3,100,4.125,4.148,4.133,4.136,0,0,76.91,6,GPS_Atti,
0.307984592501648,36.8793852981773,5882.967278478,81.364832,0,5.3541996464,8300,2017-11-14 13:55:39,16,16.406,5882.967278478,81.364832,0.99991218,5.3541996464,16.8, -7.7, 5,0,0,1024,1024,1684,1024,19.1,-7.3,100,4.125,4.148,4.133,4.136,0,0,76.91,6,GPS_Atti,
0.307984514494703,36.8793852733792,5884.607698478,83.005252,0,5.3774936104,8400,2017-11-14 13:55:39,16,16.406,5884.607698478,83.005252,0.99991218,5.3774936104,16.8, -7.7, 5.5,0,0,1024,1024,1684,1024,19.1,-7.3,100,4.125,4.148,4.133,4.136,0,0,76.91,6,GPS_Atti,
0.307984445545163,36.8793852736811,5886.248118478,84.645672,0,5.391404372,8500,2017-11-14 13:55:39,16,16.406,5886.248118478,84.645672,0.99991218,5.391404372,16.8, -7.6, 4.9,0,0,1024,1024,1684,1025,19,-7.3,100,4.125,4.148,4.133,4.136,0,0,76.91,6,GPS_Atti,
0.307984373383517,36.8793853081252,5888.216622478,86.614176,0,5.3957350808,8600,2017-11-14 13:55:39,16,16.406,5888.216622478,86.614176,0.99991218,5.3957350808,16.8, -7.7, 4.1,0,0,1024,1024,1684,1041,19,-7.3,100,4.125,4.148,4.133,4.136,0,0,76.91,6,GPS_Atti,
0.307984307089969,36.8793853436346,5889.857042478,88.254596,0,5.3986878368,8700,2017-11-14 13:55:39,16,16.406,5889.857042478,88.254596,0.99991218,5.3986878368,16.9, -7.5, 3.8,0,0,1024,1024,1684,1035,19,-7.4,100,4.125,4.148,4.133,4.136,0,0,76.91,6,GPS_Atti,
0.307984262771458,36.8793854108762,5891.497462478,89.895016,0,5.3876970228,8800,2017-11-14 13:55:39,16,16.406,5891.497462478,89.895016,0.99991218,5.3986878368,16.9, -7.3, 3.9,0,0,1024,1024,1684,1035,19,-7.4,100,4.125,4.148,4.133,4.136,0,0,76.91,6,GPS_Atti,
0.307984227894259,36.8793854846067,5893.465966478,91.86352,0,5.3729332428,8900,2017-11-14 13:55:39,16,16.406,5893.465966478,91.86352,0.99991218,5.3986878368,16.9, -7.5, 3.6,0,0,1024,1024,1684,1048,18.9,-7.4,100,4.125,4.148,4.133,4.136,0,0,76.91,6,GPS_Atti,
0.307984206146796,36.879385574106,5895.106386478,93.50394,0,5.3508531896,9000,2017-11-14 13:55:40,16,16.406,5895.106386478,93.50394,0.99991218,5.3986878368,16.9, -7.5, 3.5,0,0,1024,1024,1684,1059,18.9,-7.5,100,4.125,4.148,4.133,4.136,0,0,76.91,6,GPS_Atti,
0.307984199109068,36.8793856502485,5896.746806478,95.14436,0,5.3296917716,9100,2017-11-14 13:55:40,16,16.406,5896.746806478,95.14436,0.99991218,5.3986878368,16.9, -7.1, 3.7,0,0,1024,1024,1684,1077,18.8,-7.5,100,4.125,4.148,4.133,4.136,0,0,76.91,6,GPS_Atti,
0.307984169077304,36.8793857388966,5898.387226478,96.78478,0,5.3098098812,9200,2017-11-14 13:55:40,16,16.406,5898.387226478,96.78478,0.99991218,5.3986878368,17, -7, 3.6,0,0,1024,1024,1684,1075,18.9,-7.5,100,4.125,4.148,4.133,4.136,0,0,76.91,6,GPS_Atti,
0.307984138505304,36.8793858185486,5900.355730478,98.753284,0,5.2928479384,9300,2017-11-14 13:55:40,16,16.406,5900.355730478,98.753284,0.99991218,5.3986878368,17.3, -6.7, 3.6,0,0,1024,1024,1684,1070,19,-7.9,100,4.125,4.148,4.133,4.136,0,0,76.91,6,GPS_Atti,
0.30798411485704,36.8793859215673,5901.996150478,100.393704,0,5.2676510872,9400,2017-11-14 13:55:40,16,16.406,5901.996150478,100.393704,0.99991218,5.3986878368,17.7, -6.7, 3.4,0,0,1024,1024,1684,1080,19.2,-7.9,100,4.125,4.148,4.133,4.136,0,0,76.91,6,GPS_Atti,
0.307984067516545,36.8793861745789,5905.605074478,104.002628,0,5.2041340248,9600,2017-11-14 13:55:40,16,16.46,5905.605074478,104.002628,0.99991218,5.3986878368,18.4, -6.6, 2.7,0,0,1024,1024,1684,1084,19.3,-8,99,4.134,4.153,4.135,4.143,0,0,76.91,6,GPS_Atti,
0.307984021418145,36.8793863072861,5907.245494478,105.643048,0,5.1758859924,9700,2017-11-14 13:55:40,16,16.46,5907.245494478,105.643048,0.99991218,5.3986878368,18.8, -6.9, 2.7,0,0,1024,1024,1684,1075,19.5,-8.1,99,4.134,4.153,4.135,4.143,0,0,76.91,6,GPS_Atti,
0.307983977441201,36.8793864553028,5909.213998478,107.611552,0,5.1431432092,9800,2017-11-14 13:55:40,16,16.46,5909.213998478,107.611552,0.99991218,5.3986878368,19.2, -7.6, 2.5,0,0,1024,1024,1684,1077,19.7,-8.3,99,4.134,4.153,4.135,4.143,0,0,76.91,6,GPS_Atti,
0.307983952576896,36.8793865688143,5910.854418478,109.251972,0,5.116305938,9900,2017-11-14 13:55:40,16,16.46,5910.854418478,109.251972,0.99991218,5.3986878368,19.7, -7.5, 2.5,0,0,1024,1024,1684,1074,19.8,-8.3,99,4.134,4.153,4.135,4.143,0,0,76.91,6,GPS_Atti,
0.307983932776239,36.8793866786815,5912.822922478,111.220476,0,5.089567092,10000,2017-11-14 13:55:41,16,16.46,5912.822922478,111.220476,0.99991218,5.3986878368,20, -7.1, 2.3,0,0,1024,1024,1684,1068,20,-8.3,99,4.134,4.153,4.135,4.143,0,0,76.91,6,GPS_Atti,
0.307983923445662,36.8793867478042,5914.463342478,112.860896,0,5.0721130232,10100,2017-11-14 13:55:41,16,16.46,5914.463342478,112.860896,0.99991218,5.3986878368,20.5, -7.2, 2.6,0,0,1024,1024,1684,1065,20,-8.3,99,4.134,4.153,4.135,4.143,0,0,76.91,6,GPS_Atti,
0.30798391338432,36.8793868234425,5916.431846478,114.8294,0,5.0530513428,10200,2017-11-14 13:55:41,16,16.46,5916.431846478,114.8294,0.99991218,5.3986878368,21, -7, 3.4,0,0,1024,1024,1684,1069,20.1,-8.3,99,4.134,4.153,4.135,4.143,0,0,76.91,6,GPS_Atti,
0.307983908252279,36.8793868946924,5918.072266478,116.46982,0,5.0341537044,10300,2017-11-14 13:55:41,16,16.46,5918.072266478,116.46982,0.99991218,5.3986878368,21.3, -6.9, 3.5,0,0,1024,1024,1684,1070,20.2,-8.4,99,4.134,4.153,4.135,4.143,0,0,76.91,6,GPS_Atti,
0.307983865880573,36.8793870045008,5920.040770478,118.438324,0,5.0132219452,10400,2017-11-14 13:55:41,16,16.46,5920.040770478,118.438324,0.99991218,5.3986878368,21.7, -7.2, 3.2,0,0,1024,1024,1684,1068,20.3,-9.5,99,4.134,4.153,4.135,4.143,0,0,76.91,6,GPS_Atti,
0.307983823157938,36.8793871068022,5921.681190478,120.078744,0,4.994750816,10500,2017-11-14 13:55:41,16,16.46,5921.681190478,120.078744,0.99991218,5.3986878368,22.1, -7.4, 3,0,0,1024,1024,1684,1062,20.5,-10.1,99,4.134,4.153,4.135,4.143,0,0,76.91,6,GPS_Atti,
0.307983773532329,36.87938723274,5923.649694478,122.047248,0,4.9716865108,10600,2017-11-14 13:55:41,16,16.433,5923.649694478,122.047248,0.99991218,5.3986878368,22.4, -7.8, 2.5,0,0,1024,1024,1684,1059,20.7,-10.1,99,4.112,4.139,4.124,4.131,0,0,76.91,6,GPS_Atti,
0.307983749260778,36.8793873258846,5925.290114478,123.687668,0,4.9518702372,10700,2017-11-14 13:55:41,16,16.433,5925.290114478,123.687668,0.99991218,5.3986878368,22.7, -7.6, 2.3,0,0,1024,1024,1684,1054,21,-10.1,99,4.112,4.139,4.124,4.131,0,0,76.91,6,GPS_Atti,
0.307983689171602,36.879387511297,5928.899038478,127.296592,0,4.9157809972,10900,2017-11-14 13:55:41,16,16.433,5928.899038478,127.296592,0.99991218,5.3986878368,23.2, -7.7, 2.9,0,0,1024,1024,1684,1041,21.1,-10.1,99,4.112,4.139,4.124,4.131,0,0,76.91,6,GPS_Atti,
0.307983665074294,36.8793875715756,5930.867542478,129.265096,0,4.905347926,11000,2017-11-14 13:55:42,16,16.433,5930.867542478,129.265096,0.99991218,5.3986878368,23.3, -7.8, 3.3,0,0,1024,1024,1684,1041,21.3,-10.1,99,4.112,4.139,4.124,4.131,0,0,76.91,6,GPS_Atti,
0.307983658718477,36.8793875959529,5932.507962478,130.905516,0,4.9003282408,11100,2017-11-14 13:55:42,16,16.433,5932.507962478,130.905516,0.99991218,5.3986878368,23.4, -7.8, 3.7,0,0,1024,1024,1684,1030,21.5,-10.1,99,4.112,4.139,4.124,4.131,0,0,76.91,6,GPS_Atti,
0.30798365213875,36.8793876487362,5934.148382478,132.545936,0,4.8876970068,11200,2017-11-14 13:55:42,16,16.433,5934.148382478,132.545936,0.99991218,5.3986878368,23.4, -7.7, 3.7,0,0,1024,1024,1684,1030,21.6,-10.1,99,4.112,4.139,4.124,4.131,0,0,76.91,6,GPS_Atti,
0.307983651509763,36.8793877028707,5935.788802478,134.186356,0,4.8732941192,11300,2017-11-14 13:55:42,16,16.433,5935.788802478,134.186356,0.99991218,5.3986878368,23.4, -7.6, 3.3,0,0,1024,1024,1684,1024,21.7,-10.1,99,4.112,4.139,4.124,4.131,0,0,76.91,6,GPS_Atti,
0.307983629937765,36.8793877935294,5937.429222478,135.826776,0,4.8543636724,11400,2017-11-14 13:55:42,16,16.433,5937.429222478,135.826776,0.99991218,5.3986878368,23.5, -7.5, 2.7,0,0,1024,1024,1684,1024,21.8,-10.1,99,4.112,4.139,4.124,4.131,0,0,76.91,6,GPS_Atti,
0.307983613464019,36.8793878711986,5939.397726478,137.79528,0,4.837762622,11500,2017-11-14 13:55:42,16,16.433,5939.397726478,137.79528,0.99991218,5.3986878368,23.5, -7.3, 2.6,0,0,1024,1024,1684,1013,21.9,-10.1,99,4.112,4.139,4.124,4.131,0,0,76.91,6,GPS_Atti,
0.307983600282579,36.8793879557121,5941.038146478,139.4357,0,4.8186353248,11600,2017-11-14 13:55:42,16,16.433,5941.038146478,139.4357,0.99991218,5.3986878368,23.5, -7.4, 2.9,0,0,1024,1024,1684,984,21.9,-10.1,99,4.112,4.139,4.124,4.131,0,0,76.91,6,GPS_Atti,
0.30798360574438,36.8793880239954,5942.678566478,141.07612,0,4.799212752,11700,2017-11-14 13:55:42,16,16.433,5942.678566478,141.07612,0.99991218,5.3986878368,23.5, -7.3, 2.9,0,0,1024,1024,1684,970,22,-10.1,99,4.112,4.139,4.124,4.131,0,0,76.91,6,GPS_Atti,
0.307983610294253,36.8793881001037,5944.318986478,142.71654,0,4.7780185256,11800,2017-11-14 13:55:42,16,16.433,5944.318986478,142.71654,0.99991218,5.3986878368,23.2, -7.1, 2.6,0,0,1024,1024,1684,978,22,-10.1,99,4.112,4.139,4.124,4.131,0,0,76.91,6,GPS_Atti,
0.307983623230612,36.8793881610589,5946.287490478,144.685044,0,4.7587271864,11900,2017-11-14 13:55:42,16,16.433,5946.287490478,144.685044,0.99991218,5.3986878368,22.8, -7, 2.7,0,0,1024,1024,1684,1005,21.9,-10.1,99,4.112,4.139,4.124,4.131,0,0,76.91,6,GPS_Atti,
0.307983624793104,36.8793882172874,5947.927910478,146.325464,0,4.743602514,12000,2017-11-14 13:55:43,16,16.433,5947.927910478,146.325464,0.99991218,5.3986878368,22.5, -6.9, 2.9,0,0,1024,1024,1684,976,21.9,-10.1,99,4.112,4.139,4.124,4.131,0,0,76.91,6,GPS_Atti,
0.307983626299822,36.879388262325,5949.568330478,147.965884,0,4.731463406,12100,2017-11-14 13:55:43,16,16.433,5949.568330478,147.965884,0.99991218,5.3986878368,22.5, -6.8, 3,0,0,1024,1024,1684,959,21.9,-10.1,99,4.112,4.139,4.124,4.131,0,0,76.91,6,GPS_Atti,
0.307983606165333,36.8793883078144,5951.536834478,149.934388,0,4.7247704924,12200,2017-11-14 13:55:43,16,16.433,5951.536834478,149.934388,0.99991218,5.3986878368,22.1, -7, 2.8,0,0,1024,1024,1684,1024,21.7,-10.1,99,4.112,4.139,4.124,4.131,0,0,76.91,6,GPS_Atti,
0.307983586514492,36.8793883397158,5953.177254478,151.574808,0,4.7215224608,12300,2017-11-14 13:55:43,16,16.433,5953.177254478,151.574808,0.99991218,5.3986878368,21.7, -7.3, 2.9,0,0,1024,1024,1684,1024,21.7,-10.1,99,4.112,4.139,4.124,4.131,0,0,76.91,6,GPS_Atti,
0.307983558235748,36.8793883412564,5955.145758478,153.543312,0,4.7283794164,12400,2017-11-14 13:55:43,16,16.433,5955.145758478,153.543312,0.99991218,5.3986878368,21.6, -7.8, 3.2,0,0,1024,1024,1684,1024,21.7,-10.1,99,4.112,4.139,4.124,4.131,0,0,76.91,6,GPS_Atti,
0.307983538886576,36.8793883289553,5956.786178478,155.183732,0,4.736548708,12500,2017-11-14 13:55:43,16,16.433,5956.786178478,155.183732,0.99991218,5.3986878368,21.6, -7.7, 3.2,0,0,1024,1024,1684,1024,21.7,-10.1,99,4.112,4.139,4.124,4.131,0,0,76.91,6,GPS_Atti,
0.307983523514065,36.879388303319,5958.754682478,157.152236,0,4.7471458212,12600,2017-11-14 13:55:43,16,16.433,5958.754682478,157.152236,0.99991218,5.3986878368,21.6, -7.5, 3.2,0,0,1024,1024,1684,1024,21.7,-10.1,99,4.112,4.139,4.124,4.131,0,0,76.91,6,GPS_Atti,
0.307983511042627,36.8793882692313,5960.395102478,158.792656,0,4.7591536956,12700,2017-11-14 13:55:43,16,16.433,5960.395102478,158.792656,0.99991218,5.3986878368,21.6, -8.2, 2.9,0,0,1024,1024,1684,1024,21.7,-10.1,99,4.112,4.139,4.124,4.131,0,0,76.91,6,GPS_Atti,
0.307983498212116,36.8793881993699,5962.363606478,160.76116,0.223694,4.7805775808,12800,2017-11-14 13:55:43,16,16.433,5962.363606478,160.76116,0.99991218,5.3986878368,21.5, -8.7, 3.6,0,0,1024,1024,1684,1024,21.7,-10.1,99,4.112,4.139,4.124,4.131,0,0,76.91,6,GPS_Atti,
0.307983499346327,36.8793881078334,5964.332110478,162.729664,0.223694,4.8041668204,12900,2017-11-14 13:55:43,16,16.433,5964.332110478,162.729664,0.99991218,5.3986878368,21.5, -8.3, 4.3,0,0,1024,1024,1684,1024,21.7,-10.1,99,4.112,4.139,4.124,4.131,0,0,76.91,6,GPS_Atti,
0.307983483987658,36.8793879797757,5965.972530478,164.370084,0.223694,4.8416012048,13000,2017-11-14 13:55:44,16,16.433,5965.972530478,164.370084,0.99991218,5.3986878368,21.5, -8.2, 4.7,0,0,1024,1024,1684,1024,21.7,-10.1,99,4.112,4.139,4.124,4.131,0,0,76.91,6,GPS_Atti,
0.307983455898627,36.8793878351186,5967.612950478,166.010504,0.223694,4.88681118,13100,2017-11-14 13:55:44,16,16.433,5967.612950478,166.010504,0.99991218,5.3986878368,21.5, -8.4, 4.9,0,0,1024,1024,1684,1024,21.7,-10.1,99,4.112,4.139,4.124,4.131,0,0,76.91,6,GPS_Atti,
0.30798342228103,36.8793876707005,5969.581454478,167.979008,0.223694,4.938812494,13200,2017-11-14 13:55:44,16,16.433,5969.581454478,167.979008,0.99991218,5.3986878368,21.5, -8.8, 5.1,0,0,1024,1024,1684,1022,21.7,-10.1,99,4.112,4.139,4.124,4.131,0,0,76.91,6,GPS_Atti,
0.307983398149932,36.8793875055276,5971.221874478,169.619428,0.223694,4.9889109208,13300,2017-11-14 13:55:44,16,16.433,5971.221874478,169.619428,0.99991218,5.3986878368,21.4, -9.3, 5.8,0,0,1024,1024,1684,1018,21.8,-10.1,99,4.112,4.139,4.124,4.131,0,0,76.91,6,GPS_Atti,
0.307983357904567,36.8793873476294,5972.862294478,171.259848,0.223694,5.0412075104,13400,2017-11-14 13:55:44,16,16.433,5972.862294478,171.259848,0.99991218,5.3986878368,21.4, -9.5, 6.3,0,0,1024,1024,1684,1015,21.8,-10.1,99,4.112,4.139,4.124,4.131,0,0,76.91,6,GPS_Atti,
0.307983322766817,36.8793872219645,5974.830798478,173.228352,0.223694,5.0837271968,13500,2017-11-14 13:55:44,16,16.433,5974.830798478,173.228352,0.99991218,5.3986878368,21.4, -9.3, 6.4,0,0,1024,1024,1684,1023,21.8,-10.1,99,4.112,4.139,4.124,4.131,0,0,76.91,6,GPS_Atti,
0.307983298060065,36.8793871218386,5976.471218478,174.868772,0.223694,5.1168636808,13600,2017-11-14 13:55:44,16,16.406,5976.471218478,174.868772,0.99991218,5.3986878368,21.4, -9.1, 6.4,0,0,1024,1024,1684,1024,21.8,-10.1,99,4.112,4.139,4.123,4.13,0,0,76.91,6,GPS_Atti,
0.3079832840929,36.8793870425528,5978.111638478,176.509192,0,5.1417652564,13700,2017-11-14 13:55:44,16,16.406,5978.111638478,176.509192,0.99991218,5.3986878368,21.4, -9, 6.3,0,0,1024,1024,1684,1024,21.8,-10.1,99,4.112,4.139,4.123,4.13,0,0,76.91,6,GPS_Atti,
0.30798324899179,36.8793869729451,5980.080142478,178.477696,0,5.1692586956,13800,2017-11-14 13:55:44,16,16.406,5980.080142478,178.477696,0.99991218,5.3986878368,21.4, -9.2, 5.8,0,0,1024,1024,1684,1024,21.8,-10.1,99,4.112,4.139,4.123,4.13,0,0,76.91,6,GPS_Atti,
0.307983210822691,36.8793869090202,5981.720562478,180.118116,0,5.1959319248,13900,2017-11-14 13:55:44,16,16.406,5981.720562478,180.118116,0.99991218,5.3986878368,21.4, -9.2, 5.4,0,0,1024,1024,1684,1024,21.8,-10.1,99,4.112,4.139,4.123,4.13,0,0,76.91,6,GPS_Atti,
0.307983161041158,36.8793868319451,5983.360982478,181.758536,0,5.229002792,14000,2017-11-14 13:55:45,16,16.406,5983.360982478,181.758536,0.99991218,5.3986878368,21.4, -9.2, 5.5,0,0,1024,1024,1684,1024,21.8,-10.1,99,4.112,4.139,4.123,4.13,0,0,76.91,6,GPS_Atti,
0.307983119652626,36.8793867587446,5985.329486478,183.72704,0,5.2589896696,14100,2017-11-14 13:55:45,16,16.406,5985.329486478,183.72704,0.99991218,5.3986878368,21.4, -9.4, 5.6,0,0,1024,1024,1684,1024,21.8,-10.1,99,4.112,4.139,4.123,4.13,0,0,76.91,6,GPS_Atti,
0.307983067424356,36.8793866556606,5986.969906478,185.36746,0,5.2997705108,14200,2017-11-14 13:55:45,16,16.406,5986.969906478,185.36746,0.99991218,5.3986878368,21.4, -9.4, 6,0,0,1024,1024,1684,1024,21.8,-10.1,99,4.112,4.139,4.123,4.13,0,0,76.91,6,GPS_Atti,
0.307982973942714,36.8793864640377,5990.250746478,188.6483,0,5.3747705132,14400,2017-11-14 13:55:45,16,16.406,5990.250746478,188.6483,0.99991218,5.3986878368,21.3, -9.6, 6,0,0,1024,1024,1684,1024,21.8,-10.1,99,4.112,4.139,4.123,4.13,0,0,76.91,6,GPS_Atti,
0.30798293576303,36.8793863808913,5991.891166478,190.28872,0,5.4067587032,14500,2017-11-14 13:55:45,16,16.406,5991.891166478,190.28872,0.99991218,5.4067587032,21.4, -9.7, 6,0,0,1024,1024,1684,1029,21.9,-10.1,99,4.112,4.139,4.123,4.13,0,0,76.91,6,GPS_Atti,
0.307982892663003,36.8793862884662,5993.531586478,191.92914,0,5.4425198592,14600,2017-11-14 13:55:45,16,16.406,5993.531586478,191.92914,0.99991218,5.4425198592,21.3, -10, 6.1,0,0,1024,1024,1684,1031,21.9,-10.1,99,4.112,4.139,4.123,4.13,0,0,76.91,6,GPS_Atti,
0.307982871650376,36.8793862205468,5995.172006478,193.56956,0,5.4662403324,14700,2017-11-14 13:55:45,16,16.406,5995.172006478,193.56956,0.99991218,5.4662403324,21.3, -10, 6.1,0,0,1024,1024,1684,1024,21.9,-10.1,99,4.112,4.139,4.123,4.13,0,0,76.91,6,GPS_Atti,
0.307982830675468,36.879386145189,5997.140510478,195.538064,0,5.4968177612,14800,2017-11-14 13:55:45,16,16.406,5997.140510478,195.538064,0.99991218,5.4968177612,21.3, -9.6, 6.1,0,0,1024,1024,1684,1024,21.9,-10.1,99,4.112,4.139,4.123,4.13,0,0,76.91,6,GPS_Atti,
0.307982802492802,36.8793860917216,5998.780930478,197.178484,0,5.5183072632,14900,2017-11-14 13:55:45,16,16.406,5998.780930478,197.178484,0.99991218,5.5183072632,21.4, -9.3, 6.2,0,0,1024,1024,1684,1024,21.9,-10.1,99,4.112,4.139,4.123,4.13,0,0,76.91,6,GPS_Atti,
0.307982757042115,36.8793860393483,6000.421350478,198.818904,0,5.5436025396,15000,2017-11-14 13:55:46,16,16.406,6000.421350478,198.818904,0.99991218,5.5436025396,21.4, -9.3, 6.3,0,0,1024,1024,1684,1024,21.9,-10.1,99,4.112,4.139,4.123,4.13,0,0,76.91,6,GPS_Atti,
0.307982727242405,36.8793860136295,6002.061770478,200.459324,0,5.5578085768,15100,2017-11-14 13:55:46,16,16.406,6002.061770478,200.459324,0.99991218,5.5578085768,21.4, -9.2, 6.3,0,0,1024,1024,1684,1024,21.9,-10.1,99,4.112,4.139,4.123,4.13,0,0,76.91,6,GPS_Atti,
0.307982687261662,36.8793859821284,6003.702190478,202.099744,0,5.5760500472,15200,2017-11-14 13:55:46,16,16.406,6003.702190478,202.099744,0.99991218,5.5760500472,21.4, -9.1, 6.1,0,0,1024,1024,1684,1024,21.9,-10.1,99,4.112,4.139,4.123,4.13,0,0,76.91,6,GPS_Atti,
0.30798268709556,36.8793859730209,6005.342610478,203.740164,0,5.5786091024,15300,2017-11-14 13:55:46,16,16.406,6005.342610478,203.740164,0.99991218,5.5786091024,21.4, -9, 6,0,0,1024,1024,1684,942,21.9,-10.1,99,4.112,4.139,4.123,4.13,0,0,76.91,6,GPS_Atti,
0.30798265655735,36.8793859778054,6008.623450478,207.021004,0,5.5845802312,15500,2017-11-14 13:55:46,16,16.406,6008.623450478,207.021004,0.99991218,5.5845802312,21.4, -8.5, 6.1,0,0,1024,1024,1684,954,21.7,-10.1,99,4.112,4.139,4.123,4.13,0,0,76.91,6,GPS_Atti,
0.307982636239254,36.8793860067178,6010.263870478,208.661424,0,5.5814962416,15600,2017-11-14 13:55:46,16,16.325,6010.263870478,208.661424,0.99991218,5.5845802312,21, -8.5, 6.2,0,0,1024,1024,1684,1011,21.4,-10.1,99,4.106,4.129,4.112,4.12,0,0,76.91,6,GPS_Atti,
0.307982628585568,36.8793860573085,6012.232374478,210.629928,0,5.5694227504,15700,2017-11-14 13:55:46,16,16.325,6012.232374478,210.629928,0.99991218,5.5845802312,20.2, -8.8, 6.2,0,0,1024,1024,1684,1011,21.3,-10.1,99,4.106,4.129,4.112,4.12,0,0,76.91,6,GPS_Atti,
0.307982603842175,36.8793861080502,6013.872794478,212.270348,0,5.5614831176,15800,2017-11-14 13:55:46,16,16.325,6013.872794478,212.270348,0.99991218,5.5845802312,19.8, -8.8, 6,0,0,1024,1024,1684,1024,21.3,-10.1,99,4.106,4.129,4.112,4.12,0,0,76.91,6,GPS_Atti,
0.307982595355539,36.8793861645742,6015.513214478,213.910768,0,5.5480972904,15900,2017-11-14 13:55:46,16,16.325,6015.513214478,213.910768,0.99991218,5.5845802312,19.8, -8.9, 5.8,0,0,1024,1024,1684,1024,21.3,-10.1,99,4.106,4.129,4.112,4.12,0,0,76.91,6,GPS_Atti,
0.307982556035945,36.8793862313962,6017.153634478,215.551188,0,5.5394686812,16000,2017-11-14 13:55:47,16,16.325,6017.153634478,215.551188,0.99991218,5.5845802312,19.8, -8.9, 5.7,0,0,1024,1024,1684,1024,21.3,-10.1,99,4.106,4.129,4.112,4.12,0,0,76.91,6,GPS_Atti,
0.307982537759104,36.8793863128039,6019.122138478,217.519692,0,5.5218505704,16100,2017-11-14 13:55:47,16,16.325,6019.122138478,217.519692,0.99991218,5.5845802312,19.8, -8.9, 5.7,0,0,1024,1024,1684,1024,21.3,-10.1,99,4.106,4.129,4.112,4.12,0,0,76.91,6,GPS_Atti,
0.30798249025495,36.8793864119792,6020.762558478,219.160112,0,5.5067587064,16200,2017-11-14 13:55:47,16,16.325,6020.762558478,219.160112,0.99991218,5.5845802312,19.9, -8.8, 5.6,0,0,1024,1024,1684,1024,21.3,-10.1,99,4.106,4.129,4.112,4.12,0,0,76.91,6,GPS_Atti,
0.307982467494188,36.8793865237991,6022.402978478,220.800532,0,5.4824148736,16300,2017-11-14 13:55:47,16,16.325,6022.402978478,220.800532,0.99991218,5.5845802312,19.8, -8.8, 5.3,0,0,1024,1024,1684,1024,21.3,-10.1,99,4.106,4.129,4.112,4.12,0,0,76.91,6,GPS_Atti,
0.307982441394302,36.8793866205313,6024.043398478,222.440952,0,5.4631235344,16400,2017-11-14 13:55:47,16,16.325,6024.043398478,222.440952,0.99991218,5.5845802312,19.8, -8.6, 5,0,0,1024,1024,1684,1024,21.3,-10.1,99,4.106,4.129,4.112,4.12,0,0,76.91,6,GPS_Atti,
0.307982455499884,36.8793866969768,6026.011902478,224.409456,0,5.4392718276,16500,2017-11-14 13:55:47,16,16.325,6026.011902478,224.409456,0.99991218,5.5845802312,19.8, -8.3, 5.2,0,0,1024,1024,1684,1024,21.3,-10.1,99,4.106,4.129,4.112,4.12,0,0,76.91,6,GPS_Atti,
0.307982456678877,36.8793867550799,6027.652322478,226.049876,0,5.4235894124,16600,2017-11-14 13:55:47,16,16.352,6027.652322478,226.049876,0.99991218,5.5845802312,19.9, -8.1, 5.9,0,0,1024,1024,1684,1024,21.3,-10.1,99,4.101,4.127,4.109,4.116,0,0,76.91,6,GPS_Atti,
0.307982470107841,36.8793868163573,6029.292742478,227.690296,0,5.4040027976,16700,2017-11-14 13:55:47,16,16.352,6029.292742478,227.690296,0.99991218,5.5845802312,19.9, -8.3, 6,0,0,1024,1024,1684,1024,21.2,-10.2,99,4.101,4.127,4.109,4.116,0,0,76.91,6,GPS_Atti,
0.307982453874697,36.8793868656045,6030.933162478,229.330716,0,5.3951117212,16800,2017-11-14 13:55:47,16,16.352,6030.933162478,229.330716,0.99991218,5.5845802312,19.9, -8.6, 5.9,0,0,1024,1024,1684,1024,21.2,-10.4,99,4.101,4.127,4.109,4.116,0,0,76.91,6,GPS_Atti,
0.307982452155874,36.8793869144074,6032.573582478,230.971136,0,5.382710146,16900,2017-11-14 13:55:47,16,16.352,6032.573582478,230.971136,0.99991218,5.5845802312,19.9, -8.5, 5.9,0,0,1024,1024,1684,1024,21.2,-10.5,99,4.101,4.127,4.109,4.116,0,0,76.91,6,GPS_Atti,
0.307982427608709,36.8793869544871,6034.542086478,232.93964,0,5.378445054,17000,2017-11-14 13:55:48,16,16.352,6034.542086478,232.93964,0.99991218,5.5845802312,19.9, -8.6, 6,0,0,1024,1024,1684,1024,21.2,-10.7,99,4.101,4.127,4.109,4.116,0,0,76.91,6,GPS_Atti,
0.307982421983249,36.8793870045565,6036.182506478,234.58006,0,5.3667652636,17100,2017-11-14 13:55:48,16,16.352,6036.182506478,234.58006,0.99991218,5.5845802312,19.8, -8.6, 5.9,0,0,1024,1024,1684,1024,21.2,-10.8,99,4.101,4.127,4.109,4.116,0,0,76.91,6,GPS_Atti,
0.307982374919589,36.8793870699899,6037.822926478,236.22048,0,5.3617455784,17200,2017-11-14 13:55:48,16,16.352,6037.822926478,236.22048,0.99991218,5.5845802312,19.9, -8.5, 5.7,0,0,1024,1024,1684,1024,21.2,-11,99,4.101,4.127,4.109,4.116,0,0,76.91,6,GPS_Atti,
0.307982326446511,36.8793871424229,6039.463346478,237.8609,0,5.3554135572,17300,2017-11-14 13:55:48,16,16.352,6039.463346478,237.8609,0.99991218,5.5845802312,19.9, -8.7, 5.5,0,0,1024,1024,1684,1024,21.2,-11.1,99,4.101,4.127,4.109,4.116,0,0,76.91,6,GPS_Atti,
0.307982263415144,36.8793872011255,6041.431850478,239.829404,0,5.3565946596,17400,2017-11-14 13:55:48,16,16.352,6041.431850478,239.829404,0.99991218,5.5845802312,19.8, -9.1, 5.5,0,0,1024,1024,1684,1024,21.2,-11.3,99,4.101,4.127,4.109,4.116,0,0,76.91,6,GPS_Atti,
0.307982232832965,36.8793872500183,6043.072270478,241.469824,0,5.3520014836,17500,2017-11-14 13:55:48,16,16.352,6043.072270478,241.469824,0.99991218,5.5845802312,19.8, -9.3, 5.6,0,0,1024,1024,1684,1024,21.2,-11.5,99,4.101,4.127,4.109,4.116,0,0,76.91,6,GPS_Atti,
0.307982189058762,36.8793872936716,6044.712690478,243.110244,0,5.3522639508,17600,2017-11-14 13:55:48,16,16.379,6044.712690478,243.110244,0.99991218,5.5845802312,19.8, -9.3, 5.8,0,0,1024,1024,1684,1024,21.2,-11.6,99,4.095,4.123,4.105,4.112,0,0,78.71,6,GPS_Atti,
0.307982172047222,36.8793873418257,6046.353110478,244.750664,0,5.3444555516,17700,2017-11-14 13:55:48,16,16.379,6046.353110478,244.750664,0.99991218,5.5845802312,19.8, -9.2, 5.7,0,0,1024,1024,1684,1024,21.2,-11.6,99,4.095,4.123,4.105,4.112,0,0,78.71,6,GPS_Atti,
0.307982148003246,36.8793873899959,6047.993530478,246.391084,0,5.3385500396,17800,2017-11-14 13:55:48,16,16.379,6047.993530478,246.391084,0.99991218,5.5845802312,19.8, -9, 5.6,0,0,1024,1024,1684,1024,21.2,-11.6,99,4.095,4.123,4.105,4.112,0,0,78.71,6,GPS_Atti,
0.307982140718402,36.8793874388662,6049.633950478,248.031504,0,5.3281497768,17900,2017-11-14 13:55:48,16,16.379,6049.633950478,248.031504,0.99991218,5.5845802312,19.9, -8.8, 5.6,0,0,1024,1024,1684,1024,21.2,-11.6,99,4.095,4.123,4.105,4.112,0,0,78.71,6,GPS_Atti,
0.307982097632217,36.8793874834499,6051.274370478,249.671924,0,5.3282810104,18000,2017-11-14 13:55:49,16,16.379,6051.274370478,249.671924,0.99991218,5.5845802312,19.9, -8.6, 5.9,0,0,1024,1024,1684,1024,21.2,-11.6,99,4.095,4.123,4.105,4.112,0,0,78.71,6,GPS_Atti,
0.307982077519305,36.8793875344014,6052.914790478,251.312344,0,5.320866312,18100,2017-11-14 13:55:49,16,16.379,6052.914790478,251.312344,0.99991218,5.5845802312,19.9, -8.5, 5.9,0,0,1024,1024,1684,1024,21.2,-11.6,99,4.095,4.123,4.105,4.112,0,0,78.71,6,GPS_Atti,
0.30798203662989,36.8793875860628,6054.555210478,252.952764,0,5.3188321912,18200,2017-11-14 13:55:49,16,16.379,6054.555210478,252.952764,0.99991218,5.5845802312,19.9, -8.5, 5.6,0,0,1024,1024,1684,1024,21.2,-11.6,99,4.095,4.123,4.105,4.112,0,0,78.71,6,GPS_Atti,
0.307982013440034,36.8793876312792,6056.195630478,254.593184,0,5.3137796976,18300,2017-11-14 13:55:49,16,16.379,6056.195630478,254.593184,0.99991218,5.5845802312,19.9, -8.5, 5.6,0,0,1024,1024,1684,1024,21.2,-11.6,99,4.095,4.123,4.105,4.112,0,0,78.71,6,GPS_Atti,
0.307981969064121,36.8793876873043,6058.164134478,256.561688,0,5.3118111936,18400,2017-11-14 13:55:49,16,16.379,6058.164134478,256.561688,0.99991218,5.5845802312,19.8, -8.8, 5.8,0,0,1024,1024,1684,1024,21.2,-11.6,99,4.095,4.123,4.105,4.112,0,0,78.71,6,GPS_Atti,
0.307981940842372,36.8793877429418,6059.804554478,258.202108,0,5.3057088312,18500,2017-11-14 13:55:49,16,16.379,6059.804554478,258.202108,0.99991218,5.5845802312,19.8, -9.3, 5.6,0,0,1024,1024,1684,1024,21.2,-11.6,99,4.095,4.123,4.105,4.112,0,0,78.71,6,GPS_Atti,
0.307981888601888,36.879387766589,6061.444974478,259.842528,0,5.3140421648,18600,2017-11-14 13:55:49,16,16.325,6061.444974478,259.842528,0.99991218,5.5845802312,19.8, -9.6, 5.9,0,0,1024,1024,1684,1024,21.2,-11.6,99,4.095,4.123,4.105,4.112,0,0,78.71,6,GPS_Atti,
0.307981855371046,36.8793877666393,6063.085394478,261.482948,0,5.3230316664,18700,2017-11-14 13:55:49,16,16.325,6063.085394478,261.482948,0.99991218,5.5845802312,19.7, -9.8, 6.5,0,0,1024,1024,1684,1024,21.2,-11.6,99,4.095,4.123,4.105,4.112,0,0,78.71,6,GPS_Atti,
0.307981811728747,36.8793877848469,6065.053898478,263.451452,0,5.3304135564,18800,2017-11-14 13:55:49,16,16.325,6065.053898478,263.451452,0.99991218,5.5845802312,19.7, -9.6, 6.5,0,0,1024,1024,1684,1054,21.2,-11.6,99,4.095,4.123,4.105,4.112,0,0,78.71,6,GPS_Atti,
0.307981791646775,36.8793878257424,6066.694318478,265.091872,0,5.325951614,18900,2017-11-14 13:55:49,16,16.325,6066.694318478,265.091872,0.99991218,5.5845802312,19.8, -9.2, 6,0,0,1024,1024,1684,1098,21.2,-11.6,99,4.095,4.123,4.105,4.112,0,0,78.71,6,GPS_Atti,
0.307981749246165,36.879387858283,6068.334738478,266.732292,0,5.3296261548,19000,2017-11-14 13:55:50,16,16.325,6068.334738478,266.732292,0.99991218,5.5845802312,20, -9, 5.9,0,0,1024,1024,1684,1091,21.5,-11.6,99,4.095,4.123,4.105,4.112,0,0,78.71,6,GPS_Atti,
0.307981728284834,36.8793878824237,6069.975158478,268.372712,0,5.3295277296,19100,2017-11-14 13:55:50,16,16.325,6069.975158478,268.372712,0.99991218,5.5845802312,20.5, -9.1, 5.8,0,0,1024,1024,1684,1120,22.2,-11.6,99,4.095,4.123,4.105,4.112,0,0,78.71,6,GPS_Atti,
0.307981704890607,36.8793878898611,6073.255998478,271.653552,0,5.334153714,19300,2017-11-14 13:55:50,16,16.325,6073.255998478,271.653552,0.99991218,5.5845802312,21.9, -9.3, 5.9,0,0,1024,1024,1684,1168,22.2,-11.6,99,4.095,4.123,4.105,4.112,0,0,78.71,6,GPS_Atti,
0.307981679282511,36.8793878999514,6074.896418478,273.293972,0,5.33874689,19400,2017-11-14 13:55:50,16,16.325,6074.896418478,273.293972,0.99991218,5.5845802312,22.9, -9.4, 6,0,0,1024,1024,1684,1194,22.7,-11.6,99,4.095,4.123,4.105,4.112,0,0,78.71,6,GPS_Atti,
0.307981668184665,36.8793879284827,6076.536838478,274.934392,0,5.3349411156,19500,2017-11-14 13:55:50,16,16.325,6076.536838478,274.934392,0.99991218,5.5845802312,24.4, -9.3, 5.8,0,0,1024,1024,1684,1203,23.7,-11.6,99,4.095,4.123,4.105,4.112,0,0,78.71,6,GPS_Atti,
0.307981640585797,36.8793879522658,6078.177258478,276.574812,0,5.3368440028,19600,2017-11-14 13:55:50,16,16.325,6078.177258478,276.574812,0.99991218,5.5845802312,26.6, -9.4, 5.5,0,0,1024,1024,1684,1218,24.9,-11.6,99,4.095,4.123,4.105,4.112,0,0,78.71,6,GPS_Atti,
0.307981644429739,36.8793879794235,6079.817678478,278.215232,0,5.3292980708,19700,2017-11-14 13:55:50,16,16.325,6079.817678478,278.215232,0.99991218,5.5845802312,29, -9.5, 5.2,0,0,1024,1024,1684,1223,26.3,-11.6,99,4.095,4.123,4.105,4.112,0,0,78.71,6,GPS_Atti,
0.307981620025063,36.8793879978826,6081.458098478,279.855652,0,5.3316602756,19800,2017-11-14 13:55:50,16,16.325,6081.458098478,279.855652,0.99991218,5.5845802312,31.6, -9.8, 5,0,0,1024,1024,1684,1228,28.3,-11.6,99,4.095,4.123,4.105,4.112,0,0,78.71,6,GPS_Atti,
0.307981600707646,36.8793880277457,6083.426602478,281.824156,0,5.329888622,19900,2017-11-14 13:55:50,16,16.325,6083.426602478,281.824156,0.99991218,5.5845802312,34.4, -9.7, 4.5,0,0,1024,1024,1684,1220,30.7,-11.6,99,4.095,4.123,4.105,4.112,0,0,78.71,6,GPS_Atti,
0.307981564566774,36.8793880815365,6085.067022478,283.464576,0,5.3271655248,20000,2017-11-14 13:55:51,16,16.325,6085.067022478,283.464576,0.99991218,5.5845802312,37.3, -9.5, 3.6,0,0,1024,1024,1684,1220,33.3,-11.6,99,4.095,4.123,4.105,4.112,0,0,78.71,6,GPS_Atti,
0.30798156098094,36.8793881577079,6086.707442478,285.104996,0,5.3102363904,20100,2017-11-14 13:55:51,16,16.325,6086.707442478,285.104996,0.99991218,5.5845802312,40.1, -9.6, 3,0,0,1024,1024,1684,1216,36,-11.6,99,4.095,4.123,4.105,4.112,0,0,78.71,6,GPS_Atti,
0.307981491540017,36.8793883262863,6089.988282478,288.385836,0,5.2903545,20300,2017-11-14 13:55:51,16,16.325,6089.988282478,288.385836,0.99991218,5.5845802312,45.5, -9.4, 1.6,0,0,1024,1024,1684,1216,36,-11.6,99,4.095,4.123,4.105,4.112,0,0,78.71,6,GPS_Atti,
0.307981455363319,36.8793883950921,6091.628702478,290.026256,0,5.2846786468,20400,2017-11-14 13:55:51,16,16.325,6091.628702478,290.026256,0.99991218,5.5845802312,48.2, -9.3, 1.2,0,0,1024,1024,1684,1208,36,-11.6,99,4.095,4.123,4.105,4.112,0,0,78.71,6,GPS_Atti,
0.307981443084037,36.8793884543729,6093.269122478,291.666676,0,5.2745408512,20500,2017-11-14 13:55:51,16,16.325,6093.269122478,291.666676,0.99991218,5.5845802312,50.8, -9.7, 0.7,0,0,1024,1024,1684,1138,44.8,-11.6,99,4.095,4.123,4.105,4.112,0,0,78.71,6,GPS_Atti,
0.307981417690082,36.8793884711373,6094.909542478,293.307096,0,5.277887308,20600,2017-11-14 13:55:51,16,16.298,6094.909542478,293.307096,0.99991218,5.5845802312,53.2, -10.1, 0.3,0,0,1024,1024,1684,1051,47.9,-11.6,99,4.085,4.112,4.092,4.103,0,0,78.71,6,GPS_Atti,
0.307981419965018,36.8793884828891,6096.549962478,294.947516,0,5.2745736596,20700,2017-11-14 13:55:51,16,16.298,6096.549962478,294.947516,0.99991218,5.5845802312,54.9, -10.2, 0,0,0,1024,1024,1684,1059,49.8,-11.6,99,4.085,4.112,4.092,4.103,0,0,78.71,6,GPS_Atti,
0.307981396604989,36.8793884830925,6098.190382478,296.587936,0,5.281168148,20800,2017-11-14 13:55:51,16,16.298,6098.190382478,296.587936,0.99991218,5.5845802312,55.4, -10, 0.4,0,0,1024,1024,1684,1119,51.2,-11.6,99,4.085,4.112,4.092,4.103,0,0,78.71,6,GPS_Atti,
0.307981384962429,36.87938850961,6099.830802478,298.228356,0,5.2784450508,20900,2017-11-14 13:55:51,16,16.298,6099.830802478,298.228356,0.99991218,5.5845802312,55.7, -9.5, 0.8,0,0,1024,1024,1684,1149,51.2,-11.6,99,4.085,4.112,4.092,4.103,0,0,78.71,6,GPS_Atti,
0.307981308460572,36.8793885378308,6101.471222478,299.868776,0,5.2938978072,21000,2017-11-14 13:55:52,16,16.298,6101.471222478,299.868776,0.99991218,5.5845802312,56.5, -10.1, -0.2,0,0,1024,1024,1684,1141,52.5,-11.6,99,4.085,4.112,4.092,4.103,0,0,78.71,6,GPS_Atti,
0.307981235512795,36.8793885881453,6103.111642478,301.509196,0,5.30347786,21100,2017-11-14 13:55:52,16,16.298,6103.111642478,301.509196,0.99991218,5.5845802312,57.7, -10.6, -1.6,0,0,1024,1024,1684,1130,53.8,-11.6,99,4.085,4.112,4.092,4.103,0,0,78.71,6,GPS_Atti,
0.30798115175215,36.8793886113622,6104.752062478,303.149616,0,5.3224083068,21200,2017-11-14 13:55:52,16,16.298,6104.752062478,303.149616,0.99991218,5.5845802312,58.9, -10.2, -2,0,0,1024,1024,1684,1120,54.8,-11.6,99,4.085,4.112,4.092,4.103,0,0,78.71,6,GPS_Atti,
0.307981128668956,36.8793886346582,6106.392482478,304.790036,0,5.3238846848,21300,2017-11-14 13:55:52,16,16.298,6106.392482478,304.790036,0.99991218,5.5845802312,60.1, -10, -1.6,0,0,1024,1024,1684,1126,55.8,-11.6,99,4.085,4.112,4.092,4.103,0,0,78.71,6,GPS_Atti,
0.307981096617107,36.8793886484196,6108.032902478,306.430456,0,5.3300854724,21400,2017-11-14 13:55:52,16,16.298,6108.032902478,306.430456,0.99991218,5.5845802312,61.1, -10.1, -1.2,0,0,1024,1024,1684,1145,56.9,-11.6,99,4.085,4.112,4.092,4.103,0,0,78.71,6,GPS_Atti,
0.307981083655507,36.8793886826453,6109.673322478,308.070876,0,5.326279698,21500,2017-11-14 13:55:52,16,16.298,6109.673322478,308.070876,0.99991218,5.5845802312,62.1, -10, -1.6,0,0,1024,1024,1684,1162,58.1,-11.6,99,4.085,4.112,4.092,4.103,0,0,78.71,6,GPS_Atti,
0.307981025424792,36.8793886982727,6111.313742478,309.711296,0,5.339731142,21600,2017-11-14 13:55:52,16,16.325,6111.313742478,309.711296,0.99991218,5.5845802312,63.3, -10.2, -2,0,0,1024,1024,1684,1167,59.5,-11.6,98,4.085,4.112,4.09,4.099,0,0,78.71,6,GPS_Atti,
0.307980987404696,36.8793887256584,6112.954162478,311.351716,0,5.3447836356,21700,2017-11-14 13:55:52,16,16.325,6112.954162478,311.351716,0.99991218,5.5845802312,64.9, -10, -2.6,0,0,1024,1024,1684,1174,60.9,-11.6,98,4.085,4.112,4.09,4.099,0,0,78.71,6,GPS_Atti,
0.307980928345103,36.8793887389894,6114.922666478,313.32022,0,5.359088098,21800,2017-11-14 13:55:52,16,16.325,6114.922666478,313.32022,0.99991218,5.5845802312,66.5, -9.5, -2.8,0,0,1024,1024,1684,1179,62.5,-11.6,98,4.085,4.112,4.09,4.099,0,0,78.71,6,GPS_Atti,
0.307980881964576,36.8793887488785,6116.563086478,314.96064,0,5.3705054212,21900,2017-11-14 13:55:52,16,16.325,6116.563086478,314.96064,0.99991218,5.5845802312,68.4, -9.5, -3.1,0,0,1024,1024,1684,1183,64.2,-11.6,98,4.085,4.112,4.09,4.099,0,0,78.71,6,GPS_Atti,
0.307980795887469,36.8793887184983,6118.203506478,316.60106,0,5.4023295692,22000,2017-11-14 13:55:53,17,16.325,6118.203506478,316.60106,0.99991218,5.5845802312,70.2, -9.7, -3.6,0,0,1024,1024,1684,1181,66.1,-11.6,98,4.085,4.112,4.09,4.099,0,0,78.71,6,GPS_Atti,
0.307980736713071,36.8793886892894,6119.843926478,318.24148,0,5.426017234,22100,2017-11-14 13:55:53,17,16.325,6119.843926478,318.24148,0.99991218,5.5845802312,72.3, -10.2, -3.9,0,0,1024,1024,1684,1174,68,-11.6,98,4.085,4.112,4.09,4.099,0,0,78.71,6,GPS_Atti,
0.307980640971963,36.8793886056645,6121.484346478,319.8819,0,5.4722442696,22200,2017-11-14 13:55:53,17,16.325,6121.484346478,319.8819,0.99991218,5.5845802312,74.4, -10.5, -4.5,0,0,1024,1024,1684,1174,69.9,-11.6,98,4.085,4.112,4.09,4.099,0,0,78.71,6,GPS_Atti,
0.307980594558866,36.8793885519561,6123.452850478,321.850404,0,5.4975067376,22300,2017-11-14 13:55:53,17,16.325,6123.452850478,321.850404,0.99991218,5.5845802312,76.3, -10.4, -5.1,0,0,1024,1024,1684,1174,71.9,-11.6,98,4.085,4.112,4.09,4.099,0,0,78.71,6,GPS_Atti,
0.307980516357729,36.8793884722914,6125.093270478,323.490824,0,5.5377626444,22400,2017-11-14 13:55:53,17,16.325,6125.093270478,323.490824,0.99991218,5.5845802312,78.2, -10.1, -5.4,0,0,1024,1024,1684,1122,71.9,-11.6,98,4.085,4.112,4.09,4.099,0,0,78.71,6,GPS_Atti,
0.307980474158231,36.8793884184749,6126.733690478,325.131244,0,5.56184401,22500,2017-11-14 13:55:53,17,16.325,6126.733690478,325.131244,0.99991218,5.5845802312,80, -9.7, -5.3,0,0,1024,1024,1684,1035,73.8,-11.6,98,4.085,4.112,4.09,4.099,0,0,78.71,6,GPS_Atti,
0.307980416110716,36.8793883318277,6128.374110478,326.771664,0,5.5977363996,22600,2017-11-14 13:55:53,17,16.271,6128.374110478,326.771664,0.99991218,5.5977363996,81.5, -10, -5.1,0,0,1024,1024,1684,1024,75.3,-11.6,98,4.085,4.112,4.09,4.099,0,0,78.71,6,GPS_Atti,
0.307980396008389,36.8793882692966,6130.342614478,328.740168,0,5.617290206,22700,2017-11-14 13:55:53,17,16.271,6130.342614478,328.740168,0.99991218,5.617290206,81.9, -10.4, -5,0,0,1024,1024,1684,1024,76.3,-11.6,98,4.085,4.112,4.09,4.099,0,0,78.71,6,GPS_Atti,
0.307980340071338,36.8793881714714,6131.983034478,330.380588,0,5.6551182912,22800,2017-11-14 13:55:53,17,16.271,6131.983034478,330.380588,0.99991218,5.6551182912,81.9, -10.5, -5.3,0,0,1024,1024,1684,1024,77,-11.6,98,4.085,4.112,4.09,4.099,0,0,78.71,6,GPS_Atti,
0.307980320427418,36.8793881036634,6133.623454478,332.021008,0,5.6757875832,22900,2017-11-14 13:55:53,17,16.271,6133.623454478,332.021008,0.99991218,5.6757875832,81.9, -10.5, -5.3,0,0,1024,1024,1684,1024,77.5,-11.6,98,4.085,4.112,4.09,4.099,0,0,78.71,6,GPS_Atti,
0.307980298430396,36.8793880115113,6135.263874478,333.661428,0.223694,5.702592046,23000,2017-11-14 13:55:54,17,16.271,6135.263874478,333.661428,0.99991218,5.702592046,81.9, -10.3, -5.4,0,0,1024,1024,1684,1024,77.8,-11.6,98,4.085,4.112,4.09,4.099,0,0,78.71,6,GPS_Atti,
0.307980316703167,36.8793879615682,6136.904294478,335.301848,0.223694,5.7084319412,23100,2017-11-14 13:55:54,17,16.271,6136.904294478,335.301848,0.99991218,5.7084319412,81.9, -9.8, -5.2,0,0,1024,1024,1684,1024,78,-11.6,98,4.085,4.112,4.09,4.099,0,0,78.71,6,GPS_Atti,
0.307980323275567,36.879387873177,6138.216630478,336.614184,0.223694,5.7263453276,23200,2017-11-14 13:55:54,17,16.271,6138.216630478,336.614184,0.99991218,5.7263453276,81.8, -9.5, -5,0,0,1024,1024,1684,1024,78.2,-11.6,98,4.085,4.112,4.09,4.099,0,0,78.71,6,GPS_Atti,
0.307980352657582,36.879387813998,6139.857050478,338.254604,0.223694,5.7312337792,23300,2017-11-14 13:55:54,17,16.271,6139.857050478,338.254604,0.99991218,5.7312337792,81.8, -9.6, -5,0,0,1024,1024,1684,1024,78.4,-11.6,98,4.085,4.112,4.09,4.099,0,0,78.71,6,GPS_Atti,
0.307980354581588,36.8793877010474,6141.497470478,339.895024,0.223694,5.7562993968,23400,2017-11-14 13:55:54,17,16.271,6141.497470478,339.895024,0.99991218,5.7562993968,81.9, -9.8, -5.3,0,0,1024,1024,1684,1024,78.6,-11.6,98,4.085,4.112,4.09,4.099,0,0,78.71,6,GPS_Atti,
0.307980385145854,36.87938762574,6143.137890478,341.535444,0.223694,5.764763964,23500,2017-11-14 13:55:54,17,16.271,6143.137890478,341.535444,0.99991218,5.764763964,81.8, -9.4, -5.1,0,0,1024,1024,1684,1024,78.7,-11.6,98,4.085,4.112,4.09,4.099,0,0,78.71,6,GPS_Atti,
0.307980400181277,36.8793874688717,6144.778310478,343.175864,0.223694,5.796588112,23600,2017-11-14 13:55:54,17,16.298,6144.778310478,343.175864,0.99991218,5.796588112,81.9, -9.8, -4.2,0,0,1024,1024,1684,1024,78.8,-11.6,98,4.072,4.1,4.081,4.09,0,0,78.71,6,GPS_Atti,
0.307980419854509,36.8793873430387,6146.418730478,344.816284,0,5.8202757768,23700,2017-11-14 13:55:54,17,16.298,6146.418730478,344.816284,0.99991218,5.8202757768,81.9, -10.3, -4.1,0,0,1024,1024,1684,1004,79,-11.6,98,4.072,4.1,4.081,4.09,0,0,78.71,6,GPS_Atti,
