latitude,longitude,altitude(feet),ascent(feet),speed(mph),distance(feet),time(millisecond),datetime(utc),satellites,voltage(v),max_altitude(feet),max_ascent(feet),max_speed(mph),max_distance(feet),compass_heading(degrees), pitch(degrees), roll(degrees),isPhoto,isVideo,rc_elevator,rc_aileron,rc_throttle,rc_rudder,gimbal_heading(degrees),gimbal_pitch(degrees),battery_percent,voltageCell1,voltageCell2,voltageCell3,voltageCell4,voltageCell5,voltageCell6,battery_temperature(f),flycStateRaw,flycState,message
0.0712982061176619,36.9597190631806,5907.1696411292,0,0,0,100,2017-11-02 04:29:12,18,16.97,5907.1696411292,0,0,0,216.2, -0.5, 0,0,0,364,364,364,1684,220.8,-1.1,98,4.258,4.259,4.26,4.258,0,0,69.71,41,Motors_Started,Setting new Return-To-Home altitude to 30m (98 ft). Setting new Maximum Flight Altitude to 100m (328 ft)
0.0712982072364029,36.959719049102,5907.1696411292,0,0,0.0051527560704,200,2017-11-02 04:29:12,18,16.97,5907.1696411292,0,0,0.0051527560704,216.2, -0.5, 0,0,0,364,364,364,1684,220.8,-1.2,98,4.258,4.259,4.26,4.258,0,0,69.71,41,Motors_Started,
0.0712982142790161,36.9597190410765,5907.1696411292,0,0,0.0085968178604,300,2017-11-02 04:29:12,18,16.97,5907.1696411292,0,0,0.0085968178604,216.3, -0.5, 0,0,0,364,364,364,1684,220.8,-1.2,98,4.258,4.259,4.26,4.258,0,0,69.71,41,Motors_Started,
0.0712982266527478,36.9597190151084,5907.1696411292,0,0,0.0190723103216,500,2017-11-02 04:29:12,18,16.97,5907.1696411292,0,0,0.0190723103216,216.2, -0.5, 0,0,0,364,364,364,1684,220.8,-1.2,98,4.258,4.259,4.26,4.258,0,0,69.71,41,Motors_Started,
0.0712982323681791,36.9597189838528,5907.1696411292,0,0,0.0304861558312,600,2017-11-02 04:29:13,18,16.97,5907.1696411292,0,0,0.0304861558312,216.3, -0.5, 0,0,0,364,364,364,1684,220.8,-1.1,98,4.258,4.259,4.26,4.258,0,0,69.71,41,Motors_Started,
0.0712982201035532,36.959718957362,5907.1696411292,0,0,0.0389435708,700,2017-11-02 04:29:13,18,16.97,5907.1696411292,0,0,0.0389435708,216.2, -0.5, 0,0,0,364,364,364,1684,220.8,-1.1,98,4.258,4.259,4.26,4.258,0,0,69.71,41,Motors_Started,
0.0712981973993799,36.9597189403991,5907.1696411292,0,0,0.044909450256,800,2017-11-02 04:29:13,18,16.97,5907.1696411292,0,0,0.044909450256,216.2, -0.5, 0,0,0,364,364,364,1684,220.8,-1.2,98,4.258,4.259,4.26,4.258,0,0,69.71,41,Motors_Started,
0.0712981748564225,36.9597189316843,5907.1696411292,0,0,0.049313321788,900,2017-11-02 04:29:13,18,16.97,5907.1696411292,0,0,0.049313321788,216.2, -0.4, 0,0,0,364,364,364,1684,220.8,-1.2,98,4.258,4.259,4.26,4.258,0,0,69.71,41,Motors_Started,
0.0712981621793931,36.9597189252473,5907.1696411292,0,0,0.05281660274,1000,2017-11-02 04:29:13,18,16.97,5907.1696411292,0,0,0.05281660274,216.2, -0.4, 0,0,0,364,364,364,1684,220.7,-1.1,98,4.258,4.259,4.26,4.258,0,0,69.71,41,Motors_Started,
0.0712981523472553,36.959718908337,5907.1696411292,0,0,0.059803807688,1100,2017-11-02 04:29:13,18,16.97,5907.1696411292,0,0,0.059803807688,216.2, -0.3, 0,0,0,364,364,364,1684,220.7,-1.2,98,4.258,4.258,4.26,4.258,0,0,69.71,41,Motors_Started,
0.0712981437160951,36.9597188786137,5907.1696411292,0,0,0.071083663692,1200,2017-11-02 04:29:13,18,16.97,5907.1696411292,0,0,0.071083663692,216.2, -0.5, 0,0,0,364,364,364,1684,220.7,-1.2,98,4.258,4.258,4.26,4.258,0,0,69.71,41,Motors_Started,
0.0712981394023469,36.9597188497023,5907.1696411292,0,0,0.081602364816,1300,2017-11-02 04:29:13,18,16.97,5907.1696411292,0,0,0.081602364816,216.2, -0.4, 0,0,0,364,364,364,1684,220.7,-1.1,98,4.258,4.258,4.26,4.258,0,0,69.71,41,Motors_Started,
0.0712981374942177,36.9597188342422,5907.1696411292,0,0,0.08719980594,1400,2017-11-02 04:29:13,18,16.97,5907.1696411292,0,0,0.08719980594,216.2, -0.3, 0,0,0,364,364,364,1684,220.7,-1.2,98,4.258,4.258,4.26,4.258,0,0,69.71,41,Motors_Started,
0.0712981394243309,36.9597188277371,5907.1696411292,0,0,0.089281170836,1500,2017-11-02 04:29:13,18,16.97,5907.1696411292,0,0,0.089281170836,216.2, -0.2, -0.1,0,0,364,364,364,1684,220.7,-1.2,98,4.258,4.258,4.26,4.258,0,0,69.71,41,Motors_Started,
0.0712981397316997,36.959718822262,5907.1696411292,0,0,0.091174871684,1600,2017-11-02 04:29:14,18,16.97,5907.1696411292,0,0,0.091174871684,216.2, -0.3, 0,0,0,364,364,364,1684,220.7,-1.1,98,4.258,4.258,4.26,4.258,0,0,69.71,10,Assisted_Takeoff,
0.0712981411671731,36.9597188222336,5907.1696411292,0,0,0.091047247008,1700,2017-11-02 04:29:14,18,16.97,5907.1696411292,0,0,0.091174871684,216.3, -0.3, 0,0,0,364,364,364,1684,220.7,-1.1,98,4.258,4.258,4.26,4.258,0,0,69.71,10,Assisted_Takeoff,
0.0712981419366129,36.9597188216756,5907.1696411292,0,0,0.09117126276,1800,2017-11-02 04:29:14,18,16.97,5907.1696411292,0,0,0.091174871684,216.2, -0.4, 0,0,0,364,364,364,1684,220.7,-1.2,98,4.258,4.258,4.26,4.258,0,0,69.71,10,Assisted_Takeoff,
0.0712981456262599,36.9597188294739,5907.1696411292,0,0,0.088077758724,1900,2017-11-02 04:29:14,18,16.97,5907.1696411292,0,0,0.091174871684,216.2, -0.4, -0.1,0,0,364,364,364,1684,220.7,-1.2,98,4.258,4.258,4.26,4.258,0,0,69.71,10,Assisted_Takeoff,
0.0712981467588427,36.9597188305,5907.1696411292,0,0,0.087612207528,2000,2017-11-02 04:29:14,18,16.97,5907.1696411292,0,0,0.091174871684,216.2, -0.4, 0,0,0,364,364,364,1684,220.7,-1.2,98,4.258,4.258,4.26,4.258,0,0,69.71,10,Assisted_Takeoff,
0.0712981303885023,36.959718819175,5907.1696411292,0,0,0.093214241828,2100,2017-11-02 04:29:14,18,16.943,5907.1696411292,0,0,0.093214241828,216.2, -0.4, -0.1,0,0,364,364,364,1684,220.7,-1.1,98,4.253,4.246,4.239,4.234,0,0,69.71,10,Assisted_Takeoff,
0.0712981033327195,36.9597187931036,5907.1696411292,0,0,0.105432089988,2200,2017-11-02 04:29:14,18,16.943,5907.1696411292,0,0,0.105432089988,216.2, -0.4, -0.1,0,0,364,364,364,1684,220.7,-1.2,98,4.253,4.246,4.239,4.234,0,0,69.71,10,Assisted_Takeoff,
0.0712980765313811,36.9597187702241,5907.1696411292,0,0,0.11687500374,2300,2017-11-02 04:29:14,18,16.943,5907.1696411292,0,0,0.11687500374,216.2, -0.4, 0,0,0,364,364,364,1684,220.7,-1.1,98,4.253,4.246,4.239,4.234,0,0,69.71,10,Assisted_Takeoff,
0.0712980608515009,36.9597187556098,5907.1696411292,0,0,0.124103350428,2400,2017-11-02 04:29:14,18,16.943,5907.1696411292,0,0,0.124103350428,216.2, -0.4, -0.1,0,0,364,364,364,1684,220.7,-1.2,98,4.253,4.246,4.239,4.234,0,0,69.71,10,Assisted_Takeoff,
0.0712980475613624,36.9597187473645,5907.1696411292,0,0,0.128931762656,2500,2017-11-02 04:29:14,18,16.943,5907.1696411292,0,0,0.128931762656,216.2, -0.4, 0,0,0,378,369,437,1578,220.7,-1.1,98,4.253,4.246,4.239,4.234,0,0,69.71,10,Assisted_Takeoff,
0.0712980392473415,36.9597187415379,5907.1696411292,0,0,0.132204072472,2600,2017-11-02 04:29:15,18,16.943,5907.1696411292,0,0,0.132204072472,216.2, -0.4, -0.1,0,0,453,439,605,1351,220.4,-1.1,98,4.253,4.246,4.239,4.234,0,0,69.71,10,Assisted_Takeoff,
0.0712980150918175,36.9597187203724,5907.1696411292,0,0,0.143181106944,2700,2017-11-02 04:29:15,18,16.943,5907.1696411292,0,0,0.143181106944,216.2, -0.4, -0.1,0,0,633,625,711,1194,219.5,-1.2,98,4.253,4.246,4.239,4.234,0,0,69.71,10,Assisted_Takeoff,
0.0712979825669056,36.9597186903755,5907.1696411292,0,0,0.158597774104,2800,2017-11-02 04:29:15,18,16.943,5907.1696411292,0,0,0.158597774104,216.2, -0.4, -0.1,0,0,772,736,873,1024,218.6,-1.1,98,4.253,4.246,4.239,4.234,0,0,69.71,10,Assisted_Takeoff,
0.0712979514550759,36.9597186620465,5907.1696411292,0,0,0.173355976676,2900,2017-11-02 04:29:15,18,16.943,5907.1696411292,0,0,0.173355976676,216.2, -0.4, -0.1,0,0,1024,1024,1024,1024,217.8,-1.1,98,4.253,4.246,4.239,4.234,0,0,69.71,10,Assisted_Takeoff,
0.0712979324987664,36.9597186445652,5907.1696411292,0,0,0.182463260432,3000,2017-11-02 04:29:15,18,16.943,5907.1696411292,0,0,0.182463260432,216.2, -0.4, -0.1,0,0,1024,1024,1024,1024,217.4,-1.1,98,4.253,4.246,4.239,4.234,0,0,69.71,10,Assisted_Takeoff,
0.0712979195115184,36.9597186336816,5907.1696411292,0,0,0.188388129388,3100,2017-11-02 04:29:15,18,16.943,5907.1696411292,0,0,0.188388129388,216.2, -0.5, -0.1,0,0,1024,1024,1024,1024,217.2,-1.2,98,4.253,4.246,4.239,4.234,0,0,69.71,10,Assisted_Takeoff,
0.0712979103409361,36.9597186257874,5907.1696411292,0,0,0.192644691204,3200,2017-11-02 04:29:15,18,16.943,5907.1696411292,0,0,0.192644691204,216.2, -0.5, 0,0,0,1024,1024,1024,1024,217.2,-1.2,98,4.253,4.246,4.239,4.234,0,0,69.71,10,Assisted_Takeoff,
0.071297908052158,36.9597186260525,5907.1696411292,0,0,0.193033798828,3300,2017-11-02 04:29:15,18,16.943,5907.1696411292,0,0,0.193033798828,216.2, -0.5, 0,0,0,1024,1024,1024,1024,217.1,-1.1,98,4.253,4.246,4.239,4.234,0,0,69.71,10,Assisted_Takeoff,
0.0712979054360628,36.9597186250694,5907.1696411292,0,0,0.193868772608,3400,2017-11-02 04:29:15,18,16.943,5907.1696411292,0,0,0.193868772608,216.2, -0.5, 0,0,0,1024,1024,1024,1024,217,-1.1,98,4.253,4.246,4.239,4.234,0,0,69.71,10,Assisted_Takeoff,
0.0712979096028438,36.95971863174,5907.1696411292,0,0,0.191001974616,3500,2017-11-02 04:29:15,18,16.943,5907.1696411292,0,0,0.193868772608,216.2, -0.5, 0,0,0,1024,1024,1024,1024,216.9,-1.1,98,4.253,4.246,4.239,4.234,0,0,69.71,10,Assisted_Takeoff,
0.0712979112121536,36.9597186352123,5907.1696411292,0,0,0.189625334152,3600,2017-11-02 04:29:16,18,16.943,5907.1696411292,0,0,0.193868772608,216.2, -0.5, 0,0,0,1024,1024,1024,1024,216.8,-1.2,98,4.253,4.246,4.239,4.234,0,0,69.71,10,Assisted_Takeoff,
0.0712979187209089,36.959718644727,5907.1696411292,0,0,0.185212604352,3700,2017-11-02 04:29:16,18,16.943,5907.1696411292,0,0,0.193868772608,216.2, -0.5, 0,0,0,1024,1024,1024,1024,216.7,-1.2,98,4.253,4.246,4.239,4.234,0,0,69.71,10,Assisted_Takeoff,
0.0712979306960789,36.9597186594752,5907.1696411292,0,0,0.178304467648,3900,2017-11-02 04:29:16,18,16.943,5907.1696411292,0,0,0.193868772608,216.2, -0.5, 0,0,0,1024,1024,1024,1024,216.7,-1.1,98,4.253,4.246,4.239,4.234,0,0,69.71,10,Assisted_Takeoff,
0.0712979345660761,36.9597186632628,5907.1696411292,0,0,0.176367787796,4000,2017-11-02 04:29:16,18,16.943,5907.1696411292,0,0,0.193868772608,216.2, -0.5, 0,0,0,1024,1024,1024,1024,216.7,-1.2,98,4.253,4.246,4.239,4.234,0,0,69.71,10,Assisted_Takeoff,
0.0712979201576036,36.9597186702975,5907.1696411292,0,0,0.177292000424,4100,2017-11-02 04:29:16,18,16.89,5907.1696411292,0,0,0.193868772608,216.2, -0.5, 0,0,0,1024,1024,1024,1024,216.6,-1.1,98,4.233,4.232,4.232,4.23,0,0,69.71,10,Assisted_Takeoff,
0.0712978933220679,36.9597186735344,5907.1696411292,0,0,0.182302499272,4200,2017-11-02 04:29:16,18,16.89,5907.1696411292,0,0,0.193868772608,216.2, -0.5, 0,0,0,1024,1024,1024,1024,216.6,-1.1,98,4.233,4.232,4.232,4.23,0,0,69.71,10,Assisted_Takeoff,
0.0712978674574919,36.959718678465,5907.1696411292,0,0,0.1869996779,4300,2017-11-02 04:29:16,18,16.89,5907.1696411292,0,0,0.193868772608,216.2, -0.5, 0,0,0,1024,1024,1024,1024,216.6,-1.2,98,4.233,4.232,4.232,4.23,0,0,69.71,10,Assisted_Takeoff,
0.0712978514226109,36.9597186815434,5907.1696411292,0,0,0.190091541516,4400,2017-11-02 04:29:16,18,16.89,5907.1696411292,0,0,0.193868772608,216.2, -0.5, 0,0,0,1024,1024,1024,1024,216.6,-1.1,98,4.233,4.232,4.232,4.23,0,0,69.71,10,Assisted_Takeoff,
0.0712978383559763,36.9597186854248,5907.1696411292,0,0,0.192351384108,4500,2017-11-02 04:29:16,18,16.89,5907.1696411292,0,0,0.193868772608,216.2, -0.5, 0,0,0,1024,1024,1024,1024,216.6,-1.1,98,4.233,4.232,4.232,4.23,0,0,69.71,10,Assisted_Takeoff,
0.07129782963688,36.9597186879151,5907.1696411292,0,0,0.193941279172,4600,2017-11-02 04:29:17,18,16.89,5907.1696411292,0,0,0.193941279172,216.2, -0.5, 0,0,0,1024,1024,1024,1024,216.6,-1.1,98,4.233,4.232,4.232,4.23,0,0,69.71,10,Assisted_Takeoff,
0.0712978256744687,36.9597186904782,5907.1696411292,0,0,0.194312342176,4700,2017-11-02 04:29:17,18,16.89,5907.1696411292,0,0,0.194312342176,216.2, -0.5, 0,0,0,1024,1024,1051,1024,216.6,-1.2,98,4.233,4.232,4.232,4.23,0,0,69.71,10,Assisted_Takeoff,
0.0712978214006174,36.9597186914648,5907.1696411292,0,0,0.19517881202,4800,2017-11-02 04:29:17,18,16.89,5907.1696411292,0,0,0.19517881202,216.2, -0.5, 0,0,0,1024,1024,1099,1024,216.6,-1.2,98,4.233,4.232,4.232,4.23,0,0,69.71,10,Assisted_Takeoff,
0.0712978220743861,36.9597186932579,5907.1696411292,0,0,0.194547906488,4900,2017-11-02 04:29:17,18,16.89,5907.1696411292,0,0,0.19517881202,216.2, -0.5, 0,0,0,1024,1024,1144,1024,216.6,-1.2,98,4.233,4.232,4.232,4.23,0,0,69.71,10,Assisted_Takeoff,
0.0712978226471913,36.9597186944608,5907.1696411292,0,0,0.19409285398,5000,2017-11-02 04:29:17,18,16.89,5907.1696411292,0,0,0.19517881202,216.2, -0.4, -0.1,0,0,1024,1024,1213,1024,216.5,-1.2,98,4.233,4.232,4.232,4.23,0,0,69.71,10,Assisted_Takeoff,
0.0712978283638439,36.9597186969905,5907.1696411292,0,0,0.191951449712,5100,2017-11-02 04:29:17,18,16.943,5907.1696411292,0,0,0.19517881202,216.2, -0.4, 0,0,0,1024,1024,1246,1024,216.5,-1.2,98,4.246,4.246,4.247,4.23,0,0,69.71,10,Assisted_Takeoff,
0.0712978314078129,36.9597186984367,5907.1696411292,0,0,0.190787079596,5200,2017-11-02 04:29:17,18,16.943,5907.1696411292,0,0,0.19517881202,216.1, -0.3, -0.1,0,0,1024,1024,1247,1024,216.5,-1.1,98,4.246,4.246,4.247,4.23,0,0,69.71,10,Assisted_Takeoff,
0.0712978175493474,36.9597186796052,5907.1696411292,0,0,0.199207355456,5300,2017-11-02 04:29:17,18,16.943,5907.1696411292,0,0,0.199207355456,216.1, -0.2, -0.1,0,0,1024,1024,1246,1024,216.5,-1.1,98,4.246,4.246,4.247,4.23,0,0,69.71,10,Assisted_Takeoff,
0.0712977912113013,36.9597186531639,5907.1696411292,0,0,0.212823497624,5400,2017-11-02 04:29:17,18,16.943,5907.1696411292,0,0,0.212823497624,216.1, 0.3, -0.1,0,0,1024,1024,1245,1024,216.5,-1.1,98,4.246,4.246,4.247,4.23,0,0,69.71,10,Assisted_Takeoff,
0.0712977829326991,36.9597186343354,5907.1696411292,0,0,0.21981792042,5500,2017-11-02 04:29:17,18,16.943,5907.1696411292,0,0,0.21981792042,216.5, 2.9, 0,0,0,1024,1024,1242,1024,216.5,-1.1,98,4.246,4.246,4.247,4.23,0,0,69.71,10,Assisted_Takeoff,
0.0712978339542922,36.959718648806,5907.1696411292,0,0.223694,0.203208996004,5600,2017-11-02 04:29:18,18,16.943,5907.1696411292,0,0.223694,0.21981792042,216.7, 6.6, 1.7,0,0,1024,1024,1242,1024,216.5,-1.1,98,4.246,4.246,4.247,4.23,0,0,69.71,10,Assisted_Takeoff,
0.0712980268463334,36.959718711622,5907.1696411292,0,0.70687304,0.143979991484,5700,2017-11-02 04:29:18,18,16.943,5907.1696411292,0,0.70687304,0.21981792042,216.8, 6.9, 2.2,0,0,1024,1024,1246,1024,216.5,-1.2,98,4.246,4.246,4.247,4.23,0,0,69.71,6,GPS_Atti,
0.0712984079449753,36.9597188330287,5907.1696411292,0,1.1408394,0.111684386776,5800,2017-11-02 04:29:18,18,16.943,5907.1696411292,0,1.1408394,0.21981792042,216.7, 2, 1.3,0,0,1024,1024,1246,1024,216.5,-1.2,98,4.246,4.246,4.247,4.23,0,0,69.71,6,GPS_Atti,
0.0712989151645693,36.9597189546559,5907.1696411292,0,1.1408394,0.261708013624,5900,2017-11-02 04:29:18,18,16.943,5907.1696411292,0,1.1408394,0.261708013624,216.8, -1.7, 0.1,0,0,1024,1024,1265,1024,216.5,-1.1,98,4.246,4.246,4.247,4.23,0,0,69.71,6,GPS_Atti,
0.0712994394172803,36.9597190233084,5907.4977251292,0.328084,1.11847,0.45020342648,6000,2017-11-02 04:29:18,18,16.943,5907.4977251292,0.328084,1.1408394,0.45020342648,216.8, -3, -1.1,0,0,1024,1024,1307,1024,216.5,-1.1,98,4.246,4.246,4.247,4.23,0,0,69.71,6,GPS_Atti,
0.0712999394994042,36.9597190578341,5907.8258091292,0.656168,1.11847,0.63242784176,6100,2017-11-02 04:29:18,18,16.943,5907.8258091292,0.656168,1.1408394,0.63242784176,216.8, -3.2, -2.7,0,0,1024,1024,1335,1024,216.5,-1.2,98,4.233,4.232,4.233,4.222,0,0,69.71,6,GPS_Atti,Home Point Recorded. RTH Altitude:  30m.
0.0713003861339606,36.9597190921837,5907.8258091292,0.656168,0.894776,0.79544950052,6200,2017-11-02 04:29:18,18,16.943,5907.8258091292,0.656168,1.1408394,0.79544950052,216.6, -3.2, -3.2,0,0,1024,1024,1324,1024,216.5,-1.2,98,4.233,4.232,4.233,4.222,0,0,69.71,6,GPS_Atti,
0.071300811202626,36.9597191630794,5908.1538931292,0.984252,0.894776,0.95116144776,6300,2017-11-02 04:29:18,18,16.943,5908.1538931292,0.984252,1.1408394,0.95116144776,216.6, -3.7, -2.5,0,0,1024,1024,1327,1024,216.5,-1.2,98,4.233,4.232,4.233,4.222,0,0,69.71,6,GPS_Atti,
0.0713012409603958,36.9597192474552,5908.4819771292,1.312336,0.894776,1.1093012166,6400,2017-11-02 04:29:18,18,16.943,5908.4819771292,1.312336,1.1408394,1.1093012166,216.6, -4.9, -2,0,0,1024,1024,1344,1024,216.5,-1.2,98,4.233,4.232,4.233,4.222,0,0,69.71,6,GPS_Atti,
0.0713016606519392,36.9597193013119,5908.8100611292,1.64042,0.894776,1.26337602468,6500,2017-11-02 04:29:18,18,16.943,5908.8100611292,1.64042,1.1408394,1.26337602468,216.6, -6.8, -1.6,0,0,1024,1024,1358,1024,216.5,-1.2,98,4.233,4.232,4.233,4.222,0,0,69.71,6,GPS_Atti,
0.0713020377971262,36.9597192716737,5909.4662291292,2.296588,0.894776,1.40005253824,6600,2017-11-02 04:29:19,18,16.943,5909.4662291292,2.296588,1.1408394,1.40005253824,216.8, -6.6, -3.3,0,0,1024,1024,1360,1024,216.5,-1.1,98,4.233,4.232,4.233,4.222,0,0,69.71,6,GPS_Atti,
0.071302316361199,36.9597191473744,5909.7943131292,2.624672,0.671082,1.4999344312,6700,2017-11-02 04:29:19,18,16.943,5909.7943131292,2.624672,1.1408394,1.4999344312,216.8, -4.6, -4.6,0,0,1024,1024,1357,1024,216.5,-1.1,98,4.233,4.232,4.233,4.222,0,0,69.71,6,GPS_Atti,Obstacle Avoided. Revise Flight Route
0.0713025349464225,36.9597190185286,5910.4504811292,3.28084,0.671082,1.57945543112,6800,2017-11-02 04:29:19,18,16.943,5910.4504811292,3.28084,1.1408394,1.57945543112,216.6, -2.8, -4.9,0,0,1024,1024,1373,1024,216.5,-1.1,98,4.233,4.232,4.233,4.222,0,0,69.71,6,GPS_Atti,
0.0713027769853106,36.9597189301772,5911.1066491292,3.937008,0.671082,1.66838588016,6900,2017-11-02 04:29:19,18,16.943,5911.1066491292,3.937008,1.1408394,1.66838588016,216.6, -2.7, -4.1,0,0,1024,1024,1386,1024,216.5,-1.2,98,4.233,4.232,4.233,4.222,0,0,69.71,6,GPS_Atti,
0.0713031025194078,36.959718904092,5911.7628171292,4.593176,0.894776,1.78739178948,7000,2017-11-02 04:29:19,18,16.943,5911.7628171292,4.593176,1.1408394,1.78739178948,216.6, -4.3, -3.9,0,0,1024,1024,1393,1024,216.5,-1.2,98,4.233,4.232,4.233,4.222,0,0,69.71,6,GPS_Atti,
0.0713034511814809,36.9597189166942,5912.4189851292,5.249344,0.894776,1.91440622924,7100,2017-11-02 04:29:19,18,16.008,5912.4189851292,5.249344,1.1408394,1.91440622924,216.6, -5.9, -3.3,0,0,1024,1024,1393,1024,216.5,-1.2,98,4.233,4.232,4.233,4.222,0,0,69.71,6,GPS_Atti,
0.0713038114405179,36.959718931049,5913.0751531292,5.905512,0.894776,2.04566607596,7200,2017-11-02 04:29:19,18,16.008,5913.0751531292,5.905512,1.1408394,2.04566607596,216.7, -6.4, -3.7,0,0,1024,1024,1381,1024,216.5,-1.2,98,4.233,4.232,4.233,4.222,0,0,69.71,6,GPS_Atti,
0.0713042132069639,36.9597189458421,5913.7313211292,6.56168,0.894776,2.19209980768,7300,2017-11-02 04:29:19,18,16.008,5913.7313211292,6.56168,1.1408394,2.19209980768,216.7, -6.1, -5,0,0,1024,1024,1377,1024,216.5,-1.2,98,4.233,4.232,4.233,4.222,0,0,69.71,6,GPS_Atti,
0.0713046394285677,36.9597189606875,5914.3874891292,7.217848,0.894776,2.34748695176,7400,2017-11-02 04:29:19,18,16.008,5914.3874891292,7.217848,1.1408394,2.34748695176,216.8, -6.7, -5.7,0,0,1024,1024,1374,1024,216.5,-1.2,98,4.233,4.232,4.233,4.222,0,0,69.71,6,GPS_Atti,
0.0713050446863976,36.9597189742034,5915.0436571292,7.874016,0.894776,2.4952592662,7500,2017-11-02 04:29:19,18,16.008,5915.0436571292,7.874016,1.1408394,2.4952592662,217, -7.5, -5,0,0,1024,1024,1375,1024,216.5,-1.2,98,4.233,4.232,4.233,4.222,0,0,69.71,6,GPS_Atti,
0.0713054073791442,36.9597189458437,5915.6998251292,8.530184,0.894776,2.62772646204,7600,2017-11-02 04:29:20,18,16.008,5915.6998251292,8.530184,1.1408394,2.62772646204,217, -7.3, -4.8,0,0,1024,1024,1372,1024,216.5,-1.2,98,4.233,4.232,4.233,4.222,0,0,69.71,6,GPS_Atti,
0.0713057280637351,36.9597189020916,5916.3559931292,9.186352,0.894776,2.74500664952,7700,2017-11-02 04:29:20,18,16.008,5916.3559931292,9.186352,1.1408394,2.74500664952,216.8, -6.3, -5.3,0,0,1024,1024,1362,1024,216.5,-1.1,98,4.233,4.232,4.233,4.222,0,0,69.71,6,GPS_Atti,
0.0713060205241348,36.9597188572568,5917.0121611292,9.84252,0.894776,2.85207030124,7800,2017-11-02 04:29:20,18,16.008,5917.0121611292,9.84252,1.1408394,2.85207030124,216.8, -5.7, -6,0,0,1024,1024,1367,1024,216.5,-1.2,98,4.233,4.232,4.233,4.222,0,0,69.71,6,GPS_Atti,
0.0713063176386273,36.9597188740715,5917.6683291292,10.498688,0.894776,2.96028880864,7900,2017-11-02 04:29:20,18,16.008,5917.6683291292,10.498688,1.1408394,2.96028880864,216.8, -6.2, -5.6,0,0,1024,1024,1369,1024,216.5,-1.1,98,4.233,4.232,4.233,4.222,0,0,69.71,6,GPS_Atti,
0.0713066154500939,36.9597189176826,5918.6525811292,11.48294,0.894776,3.06859917956,8000,2017-11-02 04:29:20,18,16.008,5918.6525811292,11.48294,1.1408394,3.06859917956,216.8, -5.8, -4.8,0,0,1024,1024,1360,1024,216.5,-1.2,98,4.233,4.232,4.233,4.222,0,0,69.71,6,GPS_Atti,
0.0713069151269431,36.9597189609139,5919.3087491292,12.139108,0.894776,3.17769695208,8100,2017-11-02 04:29:20,18,16.008,5919.3087491292,12.139108,1.1408394,3.17769695208,216.8, -6.4, -4.9,0,0,1024,1024,1364,1024,216.5,-1.1,98,4.026,4.029,4.028,4.016,0,0,69.71,6,GPS_Atti,
0.0713072214592429,36.9597189721437,5919.9649171292,12.795276,0.894776,3.2894029924,8200,2017-11-02 04:29:20,18,16.008,5919.9649171292,12.795276,1.1408394,3.2894029924,216.8, -6.8, -5.4,0,0,1024,1024,1374,1024,216.5,-1.2,98,4.026,4.029,4.028,4.016,0,0,69.71,6,GPS_Atti,
0.0713075269129972,36.9597190277834,5920.2930011292,13.12336,0.671082,3.4007218936,8300,2017-11-02 04:29:20,18,16.008,5920.2930011292,13.12336,1.1408394,3.4007218936,216.8, -6.4, -5.1,0,0,1024,1024,1368,1024,216.5,-1.2,98,4.026,4.029,4.028,4.016,0,0,69.71,6,GPS_Atti,
0.0713078318456494,36.9597190956954,5920.9491691292,13.779528,0.671082,3.511975178,8400,2017-11-02 04:29:20,18,16.008,5920.9491691292,13.779528,1.1408394,3.511975178,216.9, -6.7, -4.6,0,0,1024,1024,1366,1024,216.5,-1.2,98,4.026,4.029,4.028,4.016,0,0,69.71,6,GPS_Atti,
0.0713081633056543,36.9597191308008,5921.9334211292,14.76378,0.894776,3.6329725572,8500,2017-11-02 04:29:20,18,16.008,5921.9334211292,14.76378,1.1408394,3.6329725572,217, -6.8, -4.8,0,0,1024,1024,1371,1024,216.5,-1.2,98,4.026,4.029,4.028,4.016,0,0,69.71,6,GPS_Atti,
0.0713085039907945,36.9597191085918,5922.5895891292,15.419948,0.894776,3.757217968,8600,2017-11-02 04:29:21,18,16.008,5922.5895891292,15.419948,1.1408394,3.757217968,217, -6.9, -5.3,0,0,1024,1024,1367,1024,216.5,-1.2,98,4.026,4.029,4.028,4.016,0,0,69.71,6,GPS_Atti,
0.0713088334331573,36.9597190753273,5923.2457571292,16.076116,0.671082,3.8773623288,8700,2017-11-02 04:29:21,18,16.008,5923.2457571292,16.076116,1.1408394,3.8773623288,217, -6.5, -5.6,0,0,1024,1024,1367,1024,216.5,-1.2,98,4.026,4.029,4.028,4.016,0,0,69.71,6,GPS_Atti,
0.0713091407205395,36.9597190440882,5923.9019251292,16.732284,0.671082,3.98950144,8800,2017-11-02 04:29:21,18,16.008,5923.9019251292,16.732284,1.1408394,3.98950144,217, -6.5, -6,0,0,1024,1024,1359,1024,216.5,-1.2,98,4.026,4.029,4.028,4.016,0,0,69.71,6,GPS_Atti,
0.0713094348533511,36.9597190301012,5924.5580931292,17.388452,0.671082,4.0968177164,8900,2017-11-02 04:29:21,18,16.008,5924.5580931292,17.388452,1.1408394,4.0968177164,216.9, -6.8, -6.2,0,0,1024,1024,1340,1024,216.5,-1.2,98,4.026,4.029,4.028,4.016,0,0,69.71,6,GPS_Atti,
0.0713097038120469,36.9597190399655,5925.2142611292,18.04462,0.671082,4.1949476408,9000,2017-11-02 04:29:21,18,16.008,5925.2142611292,18.04462,1.1408394,4.1949476408,216.9, -6.7, -6,0,0,1024,1024,1327,1024,216.5,-1.2,98,4.026,4.029,4.028,4.016,0,0,69.71,6,GPS_Atti,
0.0713099478360083,36.9597190541136,5925.8704291292,18.700788,0.671082,4.28395683,9100,2017-11-02 04:29:21,18,16.061,5925.8704291292,18.700788,1.1408394,4.28395683,216.9, -6.7, -5.7,0,0,1024,1024,1344,1024,216.5,-1.2,98,4.036,4.046,4.045,4.034,0,0,69.71,6,GPS_Atti,
0.0713101692848506,36.9597190808608,5926.1985131292,19.028872,0.671082,4.3647639192,9200,2017-11-02 04:29:21,18,16.061,5926.1985131292,19.028872,1.1408394,4.3647639192,216.9, -6.9, -4.6,0,0,1024,1024,1348,1024,216.5,-1.1,98,4.036,4.046,4.045,4.034,0,0,69.71,6,GPS_Atti,
0.0713103829643865,36.9597191603162,5926.8546811292,19.68504,0.671082,4.4428479112,9300,2017-11-02 04:29:21,18,16.061,5926.8546811292,19.68504,1.1408394,4.4428479112,216.7, -5.8, -3.9,0,0,1024,1024,1355,1024,216.5,-1.1,98,4.036,4.046,4.045,4.034,0,0,69.71,6,GPS_Atti,
0.0713106065025224,36.9597192546069,5927.5108491292,20.341208,0.671082,4.5248032944,9400,2017-11-02 04:29:21,18,16.061,5927.5108491292,20.341208,1.1408394,4.5248032944,216.8, -5.8, -3.9,0,0,1024,1024,1359,1024,216.5,-1.2,98,4.036,4.046,4.045,4.034,0,0,69.71,6,GPS_Atti,
0.0713108836702045,36.9597193472911,5928.1670171292,20.997376,0.671082,4.6265749512,9500,2017-11-02 04:29:21,18,16.061,5928.1670171292,20.997376,1.1408394,4.6265749512,216.8, -6.3, -4.3,0,0,1024,1024,1383,1024,216.5,-1.2,98,4.036,4.046,4.045,4.034,0,0,69.71,6,GPS_Atti,
0.0713111658323243,36.9597193953566,5928.8231851292,21.653544,0.671082,4.7298886028,9600,2017-11-02 04:29:22,18,16.061,5928.8231851292,21.653544,1.1408394,4.7298886028,216.7, -6.3, -4.9,0,0,1024,1024,1387,1024,216.5,-1.2,98,4.036,4.046,4.045,4.034,0,0,69.71,6,GPS_Atti,
0.0713114511536254,36.9597194552139,5929.4793531292,22.309712,0.447388,4.8345473988,9700,2017-11-02 04:29:22,18,16.061,5929.4793531292,22.309712,1.1408394,4.8345473988,216.8, -6.4, -5,0,0,1024,1024,1388,1024,216.5,-1.2,98,4.036,4.046,4.045,4.034,0,0,69.71,6,GPS_Atti,
0.0713117177803895,36.9597195044123,5930.1355211292,22.96588,0.447388,4.9323492392,9800,2017-11-02 04:29:22,18,16.061,5930.1355211292,22.96588,1.1408394,4.9323492392,216.9, -6.4, -5.1,0,0,1024,1024,1390,1024,216.5,-1.2,98,4.036,4.046,4.045,4.034,0,0,69.71,6,GPS_Atti,
0.0713120053375442,36.9597195887059,5931.1197731292,23.950132,0.671082,5.0382875628,9900,2017-11-02 04:29:22,18,16.061,5931.1197731292,23.950132,1.1408394,5.0382875628,217, -7.1, -5,0,0,1024,1024,1407,1024,216.5,-1.2,98,4.036,4.046,4.045,4.034,0,0,69.71,6,GPS_Atti,
0.0713122981057197,36.9597196686182,5931.7759411292,24.6063,0.671082,5.1461943904,10000,2017-11-02 04:29:22,18,16.061,5931.7759411292,24.6063,1.1408394,5.1461943904,217.1, -8.1, -5,0,0,1024,1024,1394,1024,216.5,-1.2,98,4.036,4.046,4.045,4.034,0,0,69.71,6,GPS_Atti,
0.0713126054696388,36.9597197225373,5932.4321091292,25.262468,0.671082,5.2590880948,10100,2017-11-02 04:29:22,18,16.195,5932.4321091292,25.262468,1.1408394,5.2590880948,217, -7.5, -5.2,0,0,1024,1024,1390,1024,216.5,-1.2,98,4.041,4.052,4.052,4.034,0,0,69.71,6,GPS_Atti,
0.071312911814152,36.9597197391866,5933.0882771292,25.918636,0.671082,5.3710303556,10200,2017-11-02 04:29:22,18,16.195,5933.0882771292,25.918636,1.1408394,5.3710303556,217, -7.3, -5.7,0,0,1024,1024,1394,1024,216.5,-1.2,98,4.041,4.052,4.052,4.034,0,0,69.71,6,GPS_Atti,
0.0713132084580242,36.95971974919,5934.0725291292,26.902888,0.671082,5.4792980756,10300,2017-11-02 04:29:22,18,16.195,5934.0725291292,26.902888,1.1408394,5.4792980756,217.1, -7.2, -5.7,0,0,1024,1024,1394,1024,216.5,-1.2,98,4.041,4.052,4.052,4.034,0,0,69.71,6,GPS_Atti,
0.0713134684163101,36.9597197561846,5934.7286971292,27.559056,0.671082,5.5741799684,10400,2017-11-02 04:29:22,18,16.195,5934.7286971292,27.559056,1.1408394,5.5741799684,217.1, -7.4, -5.4,0,0,1024,1024,1387,1024,216.5,-1.2,98,4.041,4.052,4.052,4.034,0,0,69.71,6,GPS_Atti,
0.0713137348509178,36.959719751567,5935.3848651292,28.215224,0.671082,5.6712272156,10500,2017-11-02 04:29:22,18,16.195,5935.3848651292,28.215224,1.1408394,5.6712272156,217.1, -7.5, -5.4,0,0,1024,1024,1389,1024,216.5,-1.2,98,4.041,4.052,4.052,4.034,0,0,69.71,6,GPS_Atti,
0.0713139902055925,36.9597197377352,5936.3691171292,29.199476,0.671082,5.7640749876,10600,2017-11-02 04:29:23,18,16.195,5936.3691171292,29.199476,1.1408394,5.7640749876,217.2, -7.8, -5.3,0,0,1024,1024,1369,1024,216.5,-1.2,98,4.041,4.052,4.052,4.034,0,0,69.71,6,GPS_Atti,
0.0713142439513645,36.9597197187761,5937.0252851292,29.855644,0.671082,5.8562665916,10700,2017-11-02 04:29:23,18,16.195,5937.0252851292,29.855644,1.1408394,5.8562665916,217.1, -7.9, -5.7,0,0,1024,1024,1353,1024,216.5,-1.2,98,4.041,4.052,4.052,4.034,0,0,69.71,6,GPS_Atti,
0.0713144707382462,36.9597196944993,5937.6814531292,30.511812,0.671082,5.9386156756,10800,2017-11-02 04:29:23,18,16.195,5937.6814531292,30.511812,1.1408394,5.9386156756,217.1, -7.7, -6.3,0,0,1024,1024,1345,1024,216.5,-1.2,98,4.041,4.052,4.052,4.034,0,0,69.71,6,GPS_Atti,
0.0713146869793246,36.9597196945344,5938.3376211292,31.16798,0.447388,6.0174542608,10900,2017-11-02 04:29:23,18,16.195,5938.3376211292,31.16798,1.1408394,6.0174542608,217.1, -7.7, -6.7,0,0,1024,1024,1336,1024,216.5,-0.1,98,4.041,4.052,4.052,4.034,0,0,69.71,6,GPS_Atti,
0.0713148602962476,36.9597197076427,5938.9937891292,31.824148,0.447388,6.0808072812,11000,2017-11-02 04:29:23,18,16.195,5938.9937891292,31.824148,1.1408394,6.0808072812,217, -7.5, -6.4,0,0,1024,1024,1343,1024,216.5,-4.8,98,4.041,4.052,4.052,4.034,0,0,69.71,6,GPS_Atti,
0.0713149925014735,36.9597197256671,5939.6499571292,32.480316,0.447388,6.129265288,11100,2017-11-02 04:29:23,18,16.088,5939.6499571292,32.480316,1.1408394,6.129265288,217, -7.6, -6.1,0,0,1024,1024,1358,1024,216.5,-10.5,98,4.041,4.052,4.052,4.034,0,0,69.71,6,GPS_Atti,
0.071315084327802,36.9597197189207,5940.3061251292,33.136484,0.223694,6.1626642392,11200,2017-11-02 04:29:23,18,16.088,5940.3061251292,33.136484,1.1408394,6.1626642392,217, -7, -6.1,0,0,1024,1024,1358,1024,216.5,-16.1,98,4.041,4.052,4.052,4.034,0,0,69.71,6,GPS_Atti,
0.0713151898428308,36.9597197252317,5940.9622931292,33.792652,0.223694,6.2012141092,11300,2017-11-02 04:29:23,18,16.088,5940.9622931292,33.792652,1.1408394,6.2012141092,216.9, -6.4, -5.7,0,0,1024,1024,1350,1024,216.5,-16.1,98,4.041,4.052,4.052,4.034,0,0,69.71,6,GPS_Atti,
0.071315323725354,36.9597197476551,5941.6184611292,34.44882,0.223694,6.250328284,11400,2017-11-02 04:29:23,18,16.088,5941.6184611292,34.44882,1.1408394,6.250328284,216.9, -6.9, -5.6,0,0,1024,1024,1354,1024,216.5,-21.7,98,4.041,4.052,4.052,4.034,0,0,69.71,6,GPS_Atti,
0.0713154479968008,36.9597197972731,5942.2746291292,35.104988,0.223694,6.2963912776,11500,2017-11-02 04:29:23,18,16.088,5942.2746291292,35.104988,1.1408394,6.2963912776,217, -7.8, -5.6,0,0,1024,1024,1362,1024,216.5,-27.4,98,4.041,4.052,4.052,4.034,0,0,69.71,6,GPS_Atti,
0.0713155204511595,36.9597198521276,5942.9307971292,35.761156,0.223694,6.3236878664,11600,2017-11-02 04:29:24,18,16.088,5942.9307971292,35.761156,1.1408394,6.3236878664,217, -7.8, -5.6,0,0,1024,1024,1368,1024,216.5,-33,98,4.041,4.052,4.052,4.034,0,0,69.71,6,GPS_Atti,
0.0713156034692345,36.9597199156929,5943.5869651292,36.417324,0.223694,6.3550198884,11700,2017-11-02 04:29:24,18,16.088,5943.5869651292,36.417324,1.1408394,6.3550198884,217, -7.4, -5.8,0,0,1024,1024,1358,1024,216.5,-38.7,98,4.041,4.052,4.052,4.034,0,0,69.71,6,GPS_Atti,
0.0713156835805369,36.9597199613442,5944.2431331292,37.073492,0.223694,6.3850723828,11800,2017-11-02 04:29:24,18,16.088,5944.2431331292,37.073492,1.1408394,6.3850723828,217, -7.3, -6.1,0,0,1024,1024,1358,1024,216.5,-44.3,98,4.041,4.052,4.052,4.034,0,0,69.71,6,GPS_Atti,
0.071315743870419,36.9597200081443,5944.8993011292,37.72966,0,6.4079070292,11900,2017-11-02 04:29:24,18,16.088,5944.8993011292,37.72966,1.1408394,6.4079070292,217.1, -7.6, -6.1,0,0,1024,1024,1346,1024,216.5,-50,98,4.041,4.052,4.052,4.034,0,0,69.71,6,GPS_Atti,
0.0713157674144623,36.959720035992,5945.5554691292,38.385828,0,6.4170605728,12000,2017-11-02 04:29:24,18,16.088,5945.5554691292,38.385828,1.1408394,6.4170605728,217.1, -7.9, -6.1,0,0,1024,1024,1335,1024,216.5,-55.6,98,4.041,4.052,4.052,4.034,0,0,69.71,6,GPS_Atti,
0.0713157885109543,36.9597200730081,5946.2116371292,39.041996,0,6.4254923316,12100,2017-11-02 04:29:24,18,15.981,5946.2116371292,39.041996,1.1408394,6.4254923316,217, -7.4, -5.8,0,0,1024,1024,1337,1024,216.5,-61.2,98,4.005,4.015,4.016,4,0,0,69.71,6,GPS_Atti,
0.0713158038118141,36.9597201127386,5946.8678051292,39.698164,0,6.431922778,12200,2017-11-02 04:29:24,18,15.981,5946.8678051292,39.698164,1.1408394,6.431922778,217, -7.5, -5.8,0,0,1024,1024,1335,1024,216.5,-66.9,98,4.005,4.015,4.016,4,0,0,69.71,6,GPS_Atti,
0.0713158330130718,36.9597201469257,5947.5239731292,40.354332,0,6.4433072928,12300,2017-11-02 04:29:24,18,15.981,5947.5239731292,40.354332,1.1408394,6.4433072928,217, -7.4, -5.5,0,0,1024,1024,1341,1024,216.5,-72.5,98,4.005,4.015,4.016,4,0,0,69.71,6,GPS_Atti,
0.0713158432950672,36.9597201588294,5948.1801411292,41.0105,0,6.4473099176,12400,2017-11-02 04:29:24,18,15.981,5948.1801411292,41.0105,1.1408394,6.4473099176,217, -7.4, -5.5,0,0,1024,1024,1340,1024,216.5,-78.2,98,4.005,4.015,4.016,4,0,0,69.71,6,GPS_Atti,
0.0713158513363237,36.9597201910614,5948.8363091292,41.666668,0,6.4509844584,12500,2017-11-02 04:29:24,18,15.981,5948.8363091292,41.666668,1.1408394,6.4509844584,216.9, -7, -5.4,0,0,1024,1024,1344,1024,216.5,-78.2,98,4.005,4.015,4.016,4,0,0,69.71,6,GPS_Atti,
0.071315836164111,36.9597202402668,5949.1643931292,41.994752,0,6.4466209412,12600,2017-11-02 04:29:25,18,15.981,5949.1643931292,41.994752,1.1408394,6.4509844584,216.9, -6.8, -5.5,0,0,1024,1024,1344,1024,216.5,-83.8,98,4.005,4.015,4.016,4,0,0,69.71,6,GPS_Atti,
0.0713158487129004,36.9597203090438,5949.8205611292,42.65092,0,6.452920154,12700,2017-11-02 04:29:25,18,15.981,5949.8205611292,42.65092,1.1408394,6.452920154,216.9, -7.1, -5.3,0,0,1024,1024,1343,1024,216.5,-89.4,98,4.005,4.015,4.016,4,0,0,69.71,6,GPS_Atti,
0.071315849089071,36.9597203592563,5950.4767291292,43.307088,0,6.4543637236,12800,2017-11-02 04:29:25,18,15.981,5950.4767291292,43.307088,1.1408394,6.4543637236,217, -7.1, -4.9,0,0,1024,1024,1347,1024,216.5,-89.9,98,4.005,4.015,4.016,4,0,0,69.71,6,GPS_Atti,
0.0713158619912328,36.9597204155424,5951.1328971292,43.963256,0,6.4605973196,12900,2017-11-02 04:29:25,18,15.981,5951.1328971292,43.963256,1.1408394,6.4605973196,216.9, -7, -4.8,0,0,1024,1024,1342,1024,216.5,-89.9,98,4.005,4.015,4.016,4,0,0,69.71,6,GPS_Atti,
0.0713158459136052,36.9597204388592,5951.7890651292,44.619424,0,6.4554135924,13000,2017-11-02 04:29:25,18,15.981,5951.7890651292,44.619424,1.1408394,6.4605973196,216.9, -6.5, -5.3,0,0,1024,1024,1342,1024,216.5,-89.9,98,4.005,4.015,4.016,4,0,0,69.71,6,GPS_Atti,
0.0713158414142144,36.9597204558666,5952.4452331292,45.275592,0,6.4542652984,13100,2017-11-02 04:29:25,18,15.821,5952.4452331292,45.275592,1.1408394,6.4605973196,216.8, -6, -5.4,0,0,1024,1024,1346,1024,216.5,-89.9,98,3.998,4.007,4.015,4,0,0,69.71,6,GPS_Atti,
0.0713158299564824,36.9597204657167,5953.1014011292,45.93176,0,6.4503610988,13200,2017-11-02 04:29:25,18,15.821,5953.1014011292,45.93176,1.1408394,6.4605973196,216.8, -6.1, -5.4,0,0,1024,1024,1338,1024,216.5,-90,98,3.998,4.007,4.015,4,0,0,69.71,6,GPS_Atti,
0.0713158243041533,36.9597205063882,5953.7575691292,46.587928,0,6.4495080804,13300,2017-11-02 04:29:25,18,15.821,5953.7575691292,46.587928,1.1408394,6.4605973196,216.7, -6.1, -5.2,0,0,1024,1024,1338,1024,216.5,-89.9,98,3.998,4.007,4.015,4,0,0,69.71,6,GPS_Atti,
0.0713157957510163,36.9597205637495,5954.4137371292,47.244096,0,6.4408794712,13400,2017-11-02 04:29:25,18,15.821,5954.4137371292,47.244096,1.1408394,6.4605973196,216.8, -6.3, -5,0,0,1024,1024,1324,1024,216.5,-90,98,3.998,4.007,4.015,4,0,0,69.71,6,GPS_Atti,
0.0713157799762793,36.9597206456378,5955.0699051292,47.900264,0,6.4377626732,13500,2017-11-02 04:29:25,18,15.821,5955.0699051292,47.900264,1.1408394,6.4605973196,216.9, -7.5, -4.9,0,0,1024,1024,1324,1024,216.5,-90,98,3.998,4.007,4.015,4,0,0,69.71,6,GPS_Atti,
0.0713157570363887,36.9597207059982,5955.7260731292,48.556432,0,6.431430652,13600,2017-11-02 04:29:26,18,15.821,5955.7260731292,48.556432,1.1408394,6.4605973196,216.9, -7.6, -4.6,0,0,1024,1024,1324,1024,216.5,-89.9,98,3.998,4.007,4.015,4,0,0,69.71,6,GPS_Atti,
0.0713157693913933,36.9597207733121,5956.3822411292,49.2126,0,6.4382547992,13700,2017-11-02 04:29:26,17,15.821,5956.3822411292,49.2126,1.1408394,6.4605973196,216.9, -7.2, -4.7,0,0,1024,1024,1314,1024,216.5,-89.9,98,3.998,4.007,4.015,4,0,0,69.71,6,GPS_Atti,
0.0713157952038591,36.9597208121131,5957.0384091292,49.868768,0,6.4490159544,13800,2017-11-02 04:29:26,17,15.821,5957.0384091292,49.868768,1.1408394,6.4605973196,216.8, -7.2, -5.3,0,0,1024,1024,1326,1024,216.5,-89.9,98,3.998,4.007,4.015,4,0,0,69.71,6,GPS_Atti,
0.0713158547039459,36.9597208553318,5957.6945771292,50.524936,0,6.4721786848,13900,2017-11-02 04:29:26,18,15.821,5957.6945771292,50.524936,1.1408394,6.4721786848,216.8, -6.8, -5.7,0,0,1024,1024,1365,1024,216.5,-90,98,3.998,4.007,4.015,4,0,0,69.71,6,GPS_Atti,
0.0713159039676337,36.9597208823715,5958.0226611292,50.85302,0,6.4910763232,14000,2017-11-02 04:29:26,18,15.821,5958.0226611292,50.85302,1.1408394,6.4910763232,216.8, -6.7, -5.4,0,0,1024,1024,1370,1024,216.5,-90,98,3.998,4.007,4.015,4,0,0,69.71,6,GPS_Atti,
0.0713159884773633,36.9597209049164,5958.6788291292,51.509188,0,6.5225723872,14100,2017-11-02 04:29:26,18,15.847,5958.6788291292,51.509188,1.1408394,6.5225723872,216.8, -6.7, -4.7,0,0,1024,1024,1360,1024,216.5,-89.9,98,4,4.008,4.022,4.015,0,0,69.71,6,GPS_Atti,
0.0713160625943634,36.9597208811428,5959.6630811292,52.49344,0,6.5485894484,14200,2017-11-02 04:29:26,18,15.847,5959.6630811292,52.49344,1.1408394,6.5485894484,217, -7.5, -5.6,0,0,1024,1024,1365,1024,216.5,-90,98,4,4.008,4.022,4.015,0,0,69.71,6,GPS_Atti,
0.0713162102730641,36.9597208328426,5960.3192491292,53.149608,0.223694,6.6004595288,14300,2017-11-02 04:29:26,17,15.847,5960.3192491292,53.149608,1.1408394,6.6004595288,217.1, -7.7, -6.6,0,0,1024,1024,1374,1024,216.5,-89.9,98,4,4.008,4.022,4.015,0,0,69.71,6,GPS_Atti,
0.0713163141335938,36.9597207594219,5960.9754171292,53.805776,0.223694,6.6356301336,14400,2017-11-02 04:29:26,17,15.847,5960.9754171292,53.805776,1.1408394,6.6356301336,217, -6.5, -7,0,0,1024,1024,1373,1024,216.5,-90,98,4,4.008,4.022,4.015,0,0,69.71,6,GPS_Atti,
0.0713164189728183,36.959720690403,5962.2877531292,55.118112,0,6.671424098,14600,2017-11-02 04:29:27,18,15.847,5962.2877531292,55.118112,1.1408394,6.671424098,217, -6.2, -7.1,0,0,1024,1024,1372,1024,216.5,-89.9,98,4,4.008,4.022,4.015,0,0,69.71,6,GPS_Atti,
0.071316481542522,36.9597207386566,5962.9439211292,55.77428,0,6.6957351224,14700,2017-11-02 04:29:27,18,15.847,5962.9439211292,55.77428,1.1408394,6.6957351224,217, -6.6, -7.1,0,0,1024,1024,1374,1024,216.4,-90,98,4,4.008,4.022,4.015,0,0,69.71,6,GPS_Atti,
0.071316541589766,36.9597208109266,5963.6000891292,56.430448,0,6.7200133384,14800,2017-11-02 04:29:27,18,15.847,5963.6000891292,56.430448,1.1408394,6.7200133384,217.1, -7.1, -7,0,0,1024,1024,1371,1024,216.4,-90,98,4,4.008,4.022,4.015,0,0,69.71,6,GPS_Atti,
0.0713165864810816,36.9597208946523,5964.2562571292,57.086616,0,6.7392718692,14900,2017-11-02 04:29:27,18,15.847,5964.2562571292,57.086616,1.1408394,6.7392718692,217.1, -7.3, -5.9,0,0,1024,1024,1367,1024,216.5,-89.9,98,4,4.008,4.022,4.015,0,0,69.71,6,GPS_Atti,
0.0713165730773591,36.9597209171247,5964.9124251292,57.742784,0,6.735236436,15000,2017-11-02 04:29:27,18,15.847,5964.9124251292,57.742784,1.1408394,6.7392718692,217, -6.5, -5.9,0,0,1024,1024,1360,1024,216.5,-90,98,4,4.008,4.022,4.015,0,0,69.71,6,GPS_Atti,
0.0713165769188585,36.9597209536705,5965.5685931292,58.398952,0,6.7379595332,15100,2017-11-02 04:29:27,18,16.008,5965.5685931292,58.398952,1.1408394,6.7392718692,217.1, -6.7, -6.3,0,0,1024,1024,1358,1024,216.4,-90,98,4,4.008,4.022,4.015,0,0,69.71,6,GPS_Atti,
0.0713165777575072,36.9597209894386,5966.2247611292,59.05512,0,6.7396327616,15200,2017-11-02 04:29:27,18,16.008,5966.2247611292,59.05512,1.1408394,6.7396327616,217.1, -7.1, -5.6,0,0,1024,1024,1358,1024,216.4,-90,98,4,4.008,4.022,4.015,0,0,69.71,6,GPS_Atti,
0.0713166113034535,36.9597209908293,5966.8809291292,59.711288,0,6.7518374864,15300,2017-11-02 04:29:27,18,16.008,5966.8809291292,59.711288,1.1408394,6.7518374864,217.2, -7, -6.1,0,0,1024,1024,1363,1024,216.4,-90,98,4,4.008,4.022,4.015,0,0,69.71,6,GPS_Atti,
0.0713166534720108,36.9597209273481,5967.5370971292,60.367456,0.223694,6.7647968044,15400,2017-11-02 04:29:27,18,16.008,5967.5370971292,60.367456,1.1408394,6.7647968044,217.1, -5.7, -6.6,0,0,1024,1024,1359,1024,216.5,-89.9,98,4,4.008,4.022,4.015,0,0,69.71,6,GPS_Atti,
0.0713167224773252,36.9597208599262,5968.1932651292,61.023624,0.223694,6.787401792,15500,2017-11-02 04:29:27,18,16.008,5968.1932651292,61.023624,1.1408394,6.787401792,217, -5.4, -7.8,0,0,1024,1024,1353,1024,216.4,-90,98,4,4.008,4.022,4.015,0,0,69.71,6,GPS_Atti,
0.0713167815947276,36.9597208029854,5969.1775171292,62.007876,0,6.80692279,15600,2017-11-02 04:29:28,18,16.008,5969.1775171292,62.007876,1.1408394,6.80692279,217.2, -6.6, -8.2,0,0,1024,1024,1355,1024,216.5,-90,98,4,4.008,4.022,4.015,0,0,69.71,6,GPS_Atti,
0.0713168400640093,36.9597207274161,5969.8336851292,62.664044,0.223694,6.8256563864,15700,2017-11-02 04:29:28,18,16.008,5969.8336851292,62.664044,1.1408394,6.8256563864,217.3, -7.2, -8.4,0,0,1024,1024,1349,1024,216.4,-90,98,4,4.008,4.022,4.015,0,0,69.71,6,GPS_Atti,
0.0713168777787723,36.9597206162589,5970.4898531292,63.320212,0.223694,6.8358597988,15800,2017-11-02 04:29:28,18,16.008,5970.4898531292,63.320212,1.1408394,6.8358597988,217.3, -7, -8.5,0,0,1024,1024,1346,1024,216.4,-89.9,98,4,4.008,4.022,4.015,0,0,69.71,6,GPS_Atti,
0.0713169158224809,36.9597205206303,5971.1460211292,63.97638,0.223694,6.8469162296,15900,2017-11-02 04:29:28,18,16.008,5971.1460211292,63.97638,1.1408394,6.8469162296,217.3, -6.7, -9.1,0,0,1024,1024,1345,1024,216.4,-90,98,4,4.008,4.022,4.015,0,0,69.71,6,GPS_Atti,
0.0713169509121922,36.9597204584416,5972.1302731292,64.960632,0.223694,6.857939852,16000,2017-11-02 04:29:28,18,16.008,5972.1302731292,64.960632,1.1408394,6.857939852,217.2, -6.7, -9.2,0,0,1024,1024,1346,1024,216.5,-90,98,4,4.008,4.022,4.015,0,0,69.71,6,GPS_Atti,
0.0713170039050167,36.9597203880276,5972.4583571292,65.288716,0,6.8753611124,16100,2017-11-02 04:29:28,18,15.954,5972.4583571292,65.288716,1.1408394,6.8753611124,217.2, -6.7, -8.8,0,0,1024,1024,1346,1024,216.4,-90,98,3.986,4,4.007,3.991,0,0,69.71,6,GPS_Atti,
0.0713170572072456,36.9597203031203,5973.1145251292,65.944884,0,6.8926839476,16200,2017-11-02 04:29:28,18,15.954,5973.1145251292,65.944884,1.1408394,6.8926839476,217.2, -6.8, -8.7,0,0,1024,1024,1346,1024,216.4,-90,98,3.986,4,4.007,3.991,0,0,69.71,6,GPS_Atti,
0.0713171146913187,36.9597202384195,5973.7706931292,66.601052,0,6.9121065204,16300,2017-11-02 04:29:28,18,15.954,5973.7706931292,66.601052,1.1408394,6.9121065204,217.2, -6.8, -8.8,0,0,1024,1024,1346,1024,216.4,-90,98,3.986,4,4.007,3.991,0,0,69.71,6,GPS_Atti,
0.0713171397823838,36.9597202089988,5974.4268611292,67.25722,0,6.9205710876,16400,2017-11-02 04:29:28,18,15.954,5974.4268611292,67.25722,1.1408394,6.9205710876,217.2, -7, -8.5,0,0,1024,1024,1345,1024,216.4,-90,98,3.986,4,4.007,3.991,0,0,69.71,6,GPS_Atti,
0.0713171660980388,36.9597201793234,5975.0830291292,67.913388,0,6.9295277808,16500,2017-11-02 04:29:28,18,15.954,5975.0830291292,67.913388,1.1408394,6.9295277808,217.1, -7.1, -8.4,0,0,1024,1024,1339,1024,216.4,-90,98,3.986,4,4.007,3.991,0,0,69.71,6,GPS_Atti,
0.0713171615351387,36.9597201477102,5975.7391971292,68.569556,0,6.9271983844,16600,2017-11-02 04:29:29,18,15.954,5975.7391971292,68.569556,1.1408394,6.9295277808,217.1, -7.1, -8.2,0,0,1024,1024,1335,1024,216.4,-90,98,3.986,4,4.007,3.991,0,0,69.71,6,GPS_Atti,
0.0713171540866359,36.959720135867,5976.0672811292,68.89764,0,6.92421282,16700,2017-11-02 04:29:29,18,15.954,5976.0672811292,68.89764,1.1408394,6.9295277808,217.1, -6.9, -8,0,0,1024,1024,1354,1024,216.4,-89.9,98,3.986,4,4.007,3.991,0,0,69.71,6,GPS_Atti,
0.0713171155039123,36.9597201514548,5976.7234491292,69.553808,0,6.9104989088,16800,2017-11-02 04:29:29,18,15.954,5976.7234491292,69.553808,1.1408394,6.9295277808,217.2, -6.8, -7.1,0,0,1024,1024,1370,1024,216.4,-90,98,3.986,4,4.007,3.991,0,0,69.71,6,GPS_Atti,
0.0713171285786891,36.9597201973406,5977.3796171292,70.209976,0,6.9162403788,16900,2017-11-02 04:29:29,18,15.954,5977.3796171292,70.209976,1.1408394,6.9295277808,217.1, -6.4, -6.6,0,0,1024,1024,1358,1024,216.4,-89.9,98,3.986,4,4.007,3.991,0,0,69.71,6,GPS_Atti,
0.0713171322915414,36.9597202403149,5978.0357851292,70.866144,0,6.9185369668,17000,2017-11-02 04:29:29,18,15.954,5978.0357851292,70.866144,1.1408394,6.9295277808,217, -6.1, -6.6,0,0,1024,1024,1336,1024,216.4,-90,98,3.986,4,4.007,3.991,0,0,69.71,6,GPS_Atti,
0.0713171582082276,36.9597202798951,5978.6919531292,71.522312,0,6.9289044212,17100,2017-11-02 04:29:29,18,15.981,5978.6919531292,71.522312,1.1408394,6.9295277808,217.1, -6.6, -6.9,0,0,1024,1024,1329,1024,216.4,-90,98,4.015,4.017,4.028,4.006,0,0,69.71,6,GPS_Atti,
0.0713171593302255,36.9597202975129,5979.3481211292,72.17848,0,6.9297246312,17200,2017-11-02 04:29:29,18,15.981,5979.3481211292,72.17848,1.1408394,6.9297246312,217.2, -7.5, -7.6,0,0,1024,1024,1341,1024,216.4,-90,98,4.015,4.017,4.028,4.006,0,0,69.71,6,GPS_Atti,
0.0713171882171936,36.9597203251966,5980.0042891292,72.834648,0,6.9409122956,17300,2017-11-02 04:29:29,18,15.981,5980.0042891292,72.834648,1.1408394,6.9409122956,217.2, -7.7, -7.6,0,0,1024,1024,1345,1024,216.4,-89.9,98,4.015,4.017,4.028,4.006,0,0,69.71,6,GPS_Atti,
0.0713172014124753,36.959720347089,5980.6604571292,73.490816,0,6.9462272564,17400,2017-11-02 04:29:29,18,15.981,5980.6604571292,73.490816,1.1408394,6.9462272564,217.1, -7.1, -7.6,0,0,1024,1024,1350,1024,216.4,-89.9,98,4.015,4.017,4.028,4.006,0,0,69.71,6,GPS_Atti,
0.0713172357400748,36.9597203864809,5981.3166251292,74.146984,0,6.9597115088,17500,2017-11-02 04:29:29,18,15.981,5981.3166251292,74.146984,1.1408394,6.9597115088,217.1, -6.9, -7.4,0,0,1024,1024,1338,1024,216.4,-89.9,98,4.015,4.017,4.028,4.006,0,0,69.71,6,GPS_Atti,
0.0713172577859496,36.9597204209906,5981.9727931292,74.803152,0,6.9686353936,17600,2017-11-02 04:29:30,18,15.981,5981.9727931292,74.803152,1.1408394,6.9686353936,217, -6.9, -7.6,0,0,1024,1024,1305,1024,216.4,-90,98,4.015,4.017,4.028,4.006,0,0,69.71,6,GPS_Atti,
0.0713173190496412,36.9597204589086,5982.6289611292,75.45932,0,6.9918965492,17700,2017-11-02 04:29:30,18,15.981,5982.6289611292,75.45932,1.1408394,6.9918965492,217.1, -7.8, -8.4,0,0,1024,1024,1322,1024,216.4,-90,98,4.015,4.017,4.028,4.006,0,0,69.71,6,GPS_Atti,
0.0713173814337023,36.9597204914235,5983.2851291292,76.115488,0,7.0154857888,17800,2017-11-02 04:29:30,18,15.981,5983.2851291292,76.115488,1.1408394,7.0154857888,217.3, -8.6, -8.6,0,0,1024,1024,1361,1024,216.4,-89.9,98,4.015,4.017,4.028,4.006,0,0,69.71,6,GPS_Atti,
0.0713174468173572,36.9597205663978,5983.9412971292,76.771656,0,7.041338808,17900,2017-11-02 04:29:30,18,15.981,5983.9412971292,76.771656,1.1408394,7.041338808,217.2, -8.5, -8.1,0,0,1024,1024,1385,1024,216.4,-89.9,98,4.015,4.017,4.028,4.006,0,0,69.71,6,GPS_Atti,
0.0713174399485804,36.9597206541542,5984.2693811292,77.09974,0,7.0414044248,18000,2017-11-02 04:29:30,18,15.981,5984.2693811292,77.09974,1.1408394,7.0414044248,217, -7.3, -7,0,0,1024,1024,1398,1024,216.4,-90,98,4.015,4.017,4.028,4.006,0,0,69.71,6,GPS_Atti,
0.0713174668977001,36.9597207846684,5984.9255491292,77.755908,0,7.055282378,18100,2017-11-02 04:29:30,18,15.794,5984.9255491292,77.755908,1.1408394,7.055282378,216.9, -6.7, -6.2,0,0,1024,1024,1400,1024,216.4,-90,98,3.987,3.984,4.001,3.989,0,0,69.71,6,GPS_Atti,
0.0713175007107113,36.9597209014277,5985.5817171292,78.412076,0,7.0714897276,18200,2017-11-02 04:29:30,18,15.794,5985.5817171292,78.412076,1.1408394,7.0714897276,216.9, -7.3, -6.4,0,0,1024,1024,1390,1024,216.4,-90,98,3.987,3.984,4.001,3.989,0,0,69.71,6,GPS_Atti,
0.071317559341209,36.9597209954397,5986.2378851292,79.068244,0,7.096128836,18300,2017-11-02 04:29:30,18,15.794,5986.2378851292,79.068244,1.1408394,7.096128836,217.1, -8.1, -6.7,0,0,1024,1024,1395,1024,216.4,-90,98,3.987,3.984,4.001,3.989,0,0,69.71,6,GPS_Atti,
0.0713175798856584,36.9597210350616,5986.8940531292,79.724412,0,7.1050199124,18400,2017-11-02 04:29:30,18,15.794,5986.8940531292,79.724412,1.1408394,7.1050199124,217.1, -8.5, -7.2,0,0,1024,1024,1394,1024,216.4,-90,98,3.987,3.984,4.001,3.989,0,0,69.71,6,GPS_Atti,
0.0713176176655591,36.9597210903561,5987.5502211292,80.38058,0,7.1208007528,18500,2017-11-02 04:29:30,18,15.794,5987.5502211292,80.38058,1.1408394,7.1208007528,217.1, -8.3, -8,0,0,1024,1024,1393,1024,216.4,-90,98,3.987,3.984,4.001,3.989,0,0,69.71,6,GPS_Atti,
0.071317629764898,36.9597211630576,5988.5344731292,81.364832,0,7.1279857924,18600,2017-11-02 04:29:31,18,15.794,5988.5344731292,81.364832,1.1408394,7.1279857924,217.1, -8.2, -7.9,0,0,1024,1024,1389,1024,216.4,-90,98,3.987,3.984,4.001,3.989,0,0,69.71,6,GPS_Atti,
0.0713176418968058,36.9597212583395,5989.1906411292,82.021,0,7.1362207008,18700,2017-11-02 04:29:31,18,15.794,5989.1906411292,82.021,1.1408394,7.1362207008,217.1, -8.3, -7.1,0,0,1024,1024,1387,1024,216.4,-90,98,3.987,3.984,4.001,3.989,0,0,69.71,6,GPS_Atti,
0.0713176156202335,36.9597213212833,5989.8468091292,82.677168,0,7.1292981284,18800,2017-11-02 04:29:31,18,15.794,5989.8468091292,82.677168,1.1408394,7.1362207008,217.1, -7.9, -6.8,0,0,1024,1024,1390,1024,216.4,-90,98,3.987,3.984,4.001,3.989,0,0,69.71,6,GPS_Atti,
0.0713175481261151,36.9597213715536,5991.4872291292,84.317588,0,7.1069884164,19000,2017-11-02 04:29:31,18,15.794,5991.4872291292,84.317588,1.1408394,7.1362207008,217.1, -7.9, -7.1,0,0,1024,1024,1394,1024,216.4,-89.9,98,3.987,3.984,4.001,3.989,0,0,69.71,6,GPS_Atti,
0.0713175221084654,36.9597214095578,5992.1433971292,84.973756,0,7.099245634,19100,2017-11-02 04:29:31,18,15.821,5992.1433971292,84.973756,1.1408394,7.1362207008,217.1, -8.1, -7.1,0,0,1024,1024,1410,1024,216.4,-90,98,3.987,3.984,4.001,3.989,0,0,69.71,6,GPS_Atti,
0.0713174962048067,36.9597214558483,5993.1276491292,85.958008,0,7.0918965524,19200,2017-11-02 04:29:31,18,15.821,5993.1276491292,85.958008,1.1408394,7.1362207008,217.2, -8.4, -7.1,0,0,1024,1024,1409,1024,216.4,-89.9,98,3.987,3.984,4.001,3.989,0,0,69.71,6,GPS_Atti,
0.0713174887302488,36.9597214864875,5993.7838171292,86.614176,0,7.0905842164,19300,2017-11-02 04:29:31,18,15.821,5993.7838171292,86.614176,1.1408394,7.1362207008,217.1, -7.7, -6.8,0,0,1024,1024,1409,1024,216.4,-89.9,98,3.987,3.984,4.001,3.989,0,0,69.71,6,GPS_Atti,
0.0713174717097521,36.9597214875897,5994.4399851292,87.270344,0,7.084481854,19400,2017-11-02 04:29:31,18,15.821,5994.4399851292,87.270344,1.1408394,7.1362207008,217.1, -7.4, -6.7,0,0,1024,1024,1402,1024,216.4,-90,98,3.987,3.984,4.001,3.989,0,0,69.71,6,GPS_Atti,
0.0713174991816024,36.9597215204413,5995.4242371292,88.254596,0,7.0959319856,19500,2017-11-02 04:29:31,18,15.821,5995.4242371292,88.254596,1.1408394,7.1362207008,217.2, -8.1, -6.8,0,0,1024,1024,1405,1024,216.4,-90,98,3.987,3.984,4.001,3.989,0,0,69.71,6,GPS_Atti,
0.0713175069004269,36.9597215447882,5996.0804051292,88.910764,0,7.0998361852,19600,2017-11-02 04:29:31,18,15.821,5996.0804051292,88.910764,1.1408394,7.1362207008,217.1, -8.4, -7.4,0,0,1024,1024,1404,1024,216.4,-90,98,3.987,3.984,4.001,3.989,0,0,69.71,6,GPS_Atti,
0.0713175317944503,36.9597215609678,5996.7365731292,89.566932,0,7.1096130884,19700,2017-11-02 04:29:32,18,15.821,5996.7365731292,89.566932,1.1408394,7.1362207008,217.1, -8.2, -8.2,0,0,1024,1024,1406,1024,216.4,-90,98,3.987,3.984,4.001,3.989,0,0,69.71,6,GPS_Atti,
0.0713175261812038,36.9597215675218,5997.3927411292,90.2231,0,7.1078742432,19800,2017-11-02 04:29:32,18,15.821,5997.3927411292,90.2231,1.1408394,7.1362207008,217.1, -7.9, -7.8,0,0,1024,1024,1406,1024,216.4,-89.9,98,3.987,3.984,4.001,3.989,0,0,69.71,6,GPS_Atti,
0.0713175223543605,36.9597216211623,5998.0489091292,90.879268,0,7.1090553456,19900,2017-11-02 04:29:32,18,15.821,5998.0489091292,90.879268,1.1408394,7.1362207008,217, -7.3, -6.7,0,0,1024,1024,1409,1024,216.4,-90,98,3.987,3.984,4.001,3.989,0,0,69.71,6,GPS_Atti,
0.071317505052143,36.9597216892592,5999.0331611292,91.86352,0,7.1061025896,20000,2017-11-02 04:29:32,18,15.821,5999.0331611292,91.86352,1.1408394,7.1362207008,217, -7.5, -6.5,0,0,1024,1024,1409,1024,216.4,-90,98,3.987,3.984,4.001,3.989,0,0,69.71,6,GPS_Atti,
0.0713175699847189,36.9597217829541,5999.6893291292,92.519688,0,7.1342521968,20100,2017-11-02 04:29:32,18,15.874,5999.6893291292,92.519688,1.1408394,7.1362207008,217.1, -8.3, -7.1,0,0,1024,1024,1385,1024,216.4,-90,98,3.984,3.991,4,3.981,0,0,69.71,6,GPS_Atti,
0.0713176747995168,36.9597220227665,6001.3297491292,94.160108,0,7.1847443244,20300,2017-11-02 04:29:32,18,15.874,6001.3297491292,94.160108,1.1408394,7.1847443244,217.3, -9.4, -6.3,0,0,1024,1024,1389,1024,216.4,-90,98,3.984,3.991,4,3.981,0,0,69.71,6,GPS_Atti,
0.0713176600995528,36.9597221659373,6001.9859171292,94.816276,0,7.1874674216,20400,2017-11-02 04:29:32,18,15.874,6001.9859171292,94.816276,1.1408394,7.1874674216,217.3, -9.5, -6.3,0,0,1024,1024,1388,1024,216.4,-89.9,98,3.984,3.991,4,3.981,0,0,69.71,6,GPS_Atti,
0.0713176430367166,36.9597222948851,6002.6420851292,95.472444,0,7.1889109912,20500,2017-11-02 04:29:32,17,15.874,6002.6420851292,95.472444,1.1408394,7.1889109912,217.1, -8.5, -6.1,0,0,1024,1024,1391,1024,216.4,-89.9,98,3.984,3.991,4,3.981,0,0,69.71,6,GPS_Atti,
0.0713176099679044,36.9597223465027,6003.6263371292,96.456696,0,7.18011834,20600,2017-11-02 04:29:33,17,15.874,6003.6263371292,96.456696,1.1408394,7.1889109912,217.1, -8.3, -6.3,0,0,1024,1024,1396,1024,216.4,-90,98,3.984,3.991,4,3.981,0,0,69.71,6,GPS_Atti,
0.0713175651384696,36.9597224621833,6004.2825051292,97.112864,0,7.1711616468,20700,2017-11-02 04:29:33,18,15.874,6004.2825051292,97.112864,1.1408394,7.1889109912,217.1, -8.4, -6.6,0,0,1024,1024,1409,1024,216.4,-89.9,98,3.984,3.991,4,3.981,0,0,69.71,6,GPS_Atti,
0.071317481964064,36.959722573556,6005.2667571292,98.097116,0.223694,7.148458234,20800,2017-11-02 04:29:33,18,15.874,6005.2667571292,98.097116,1.1408394,7.1889109912,217.1, -8, -6.6,0,0,1024,1024,1417,1024,216.4,-89.9,98,3.984,3.991,4,3.981,0,0,69.71,6,GPS_Atti,
0.0713174347163899,36.9597227205156,6005.9229251292,98.753284,0.223694,7.1413060028,20900,2017-11-02 04:29:33,18,15.874,6005.9229251292,98.753284,1.1408394,7.1889109912,217, -7.8, -5.9,0,0,1024,1024,1414,1024,216.4,-90,98,3.984,3.991,4,3.981,0,0,69.71,6,GPS_Atti,
0.0713174172464427,36.9597228207399,6006.9071771292,99.737536,0,7.1419949792,21000,2017-11-02 04:29:33,18,15.874,6006.9071771292,99.737536,1.1408394,7.1889109912,217, -8.3, -5.6,0,0,1024,1024,1415,1024,216.4,-90,98,3.984,3.991,4,3.981,0,0,69.71,6,GPS_Atti,
0.071317469009792,36.9597228757394,6007.5633451292,100.393704,0,7.1644031164,21100,2017-11-02 04:29:33,18,15.821,6007.5633451292,100.393704,1.1408394,7.1889109912,217.1, -8.9, -5.9,0,0,1024,1024,1414,1024,216.4,-90,98,3.977,3.986,3.981,3.96,0,0,69.71,6,GPS_Atti,
0.071317536557649,36.9597228525278,6008.2195131292,101.049872,0,7.1869424872,21200,2017-11-02 04:29:33,18,15.821,6008.2195131292,101.049872,1.1408394,7.1889109912,217.2, -9.4, -6.3,0,0,1024,1024,1410,1024,216.4,-90,98,3.977,3.986,3.981,3.96,0,0,69.71,6,GPS_Atti,
0.0713176833586184,36.9597228175528,6009.2037651292,102.034124,0.223694,7.2370737224,21300,2017-11-02 04:29:33,18,15.821,6009.2037651292,102.034124,1.1408394,7.2370737224,217.2, -9.4, -7.2,0,0,1024,1024,1412,1024,216.4,-90,98,3.977,3.986,3.981,3.96,0,0,69.71,6,GPS_Atti,
0.0713178179804552,36.959722771493,6010.1880171292,103.018376,0.223694,7.282152464,21400,2017-11-02 04:29:33,18,15.821,6010.1880171292,103.018376,1.1408394,7.282152464,217.2, -8.9, -8,0,0,1024,1024,1415,1024,216.4,-90,98,3.977,3.986,3.981,3.96,0,0,69.71,6,GPS_Atti,
0.0713179903105412,36.9597227575033,6010.8441851292,103.674544,0,7.343012046,21500,2017-11-02 04:29:33,18,15.821,6010.8441851292,103.674544,1.1408394,7.343012046,217.3, -8.7, -8.2,0,0,1024,1024,1416,1024,216.4,-90,98,3.977,3.986,3.981,3.96,0,0,69.71,6,GPS_Atti,
0.0713181102861526,36.959722749497,6011.8284371292,104.658796,0,7.3855317324,21600,2017-11-02 04:29:34,18,15.821,6011.8284371292,104.658796,1.1408394,7.3855317324,217.4, -9.2, -8.3,0,0,1024,1024,1419,1024,216.4,-90,98,3.977,3.986,3.981,3.96,0,0,69.71,6,GPS_Atti,
0.0713182369009303,36.9597227558461,6012.4846051292,105.314964,0,7.4313650672,21700,2017-11-02 04:29:34,18,15.821,6012.4846051292,105.314964,1.1408394,7.4313650672,217.4, -9.5, -8.6,0,0,1024,1024,1420,1024,216.4,-90,98,3.977,3.986,3.981,3.96,0,0,69.71,6,GPS_Atti,
0.0713183100783182,36.9597227440098,6013.4688571292,106.299216,0,7.456857194,21800,2017-11-02 04:29:34,18,15.821,6013.4688571292,106.299216,1.1408394,7.456857194,217.5, -9.6, -8.4,0,0,1024,1024,1420,1024,216.4,-90,98,3.977,3.986,3.981,3.96,0,0,69.71,6,GPS_Atti,
0.0713183882257171,36.9597227574835,6014.1250251292,106.955384,0,7.4857613944,21900,2017-11-02 04:29:34,18,15.821,6014.1250251292,106.955384,1.1408394,7.4857613944,217.4, -9.7, -8.3,0,0,1024,1024,1420,1024,216.4,-90,98,3.977,3.986,3.981,3.96,0,0,69.71,6,GPS_Atti,
0.0713184314690475,36.9597227584005,6015.1092771292,107.939636,0,7.5013453844,22000,2017-11-02 04:29:34,18,15.821,6015.1092771292,107.939636,1.1408394,7.5013453844,217.4, -9.5, -8.1,0,0,1024,1024,1442,1024,216.3,-90,98,3.977,3.986,3.981,3.96,0,0,69.71,6,GPS_Atti,
0.0713185393616045,36.9597227830327,6015.7654451292,108.595804,0,7.5416997164,22100,2017-11-02 04:29:34,18,15.794,6015.7654451292,108.595804,1.1408394,7.5416997164,217.4, -9.4, -7.8,0,0,1024,1024,1439,1024,216.3,-89.9,98,3.977,3.986,3.981,3.96,0,0,69.71,6,GPS_Atti,
0.071318626027394,36.9597227857027,6016.7496971292,109.580056,0,7.5729661216,22200,2017-11-02 04:29:34,18,15.794,6016.7496971292,109.580056,1.1408394,7.5729661216,217.2, -8.7, -7.6,0,0,1024,1024,1438,1024,216.3,-90,98,3.977,3.986,3.981,3.96,0,0,69.71,6,GPS_Atti,
0.0713187433095591,36.9597228069418,6017.4058651292,110.236224,0,7.61647006,22300,2017-11-02 04:29:34,18,15.794,6017.4058651292,110.236224,1.1408394,7.61647006,217.3, -9.5, -7.9,0,0,1024,1024,1434,1024,216.3,-90,98,3.977,3.986,3.981,3.96,0,0,69.71,6,GPS_Atti,
0.0713188311315439,36.9597228182139,6018.3901171292,111.220476,0,7.6487207172,22400,2017-11-02 04:29:34,18,15.794,6018.3901171292,111.220476,1.1408394,7.6487207172,217.4, -9.9, -8.4,0,0,1024,1024,1431,1024,216.3,-90,98,3.977,3.986,3.981,3.96,0,0,69.71,6,GPS_Atti,
0.0713189347103527,36.9597228660293,6019.3743691292,112.204728,0,7.6890422408,22500,2017-11-02 04:29:34,18,15.794,6019.3743691292,112.204728,1.1408394,7.6890422408,217.3, -9.9, -8.4,0,0,1024,1024,1432,1024,216.3,-90,98,3.977,3.986,3.981,3.96,0,0,69.71,6,GPS_Atti,
0.071318967416022,36.9597229069937,6020.0305371292,112.860896,0,7.7034779368,22600,2017-11-02 04:29:35,18,15.794,6020.0305371292,112.860896,1.1408394,7.7034779368,217.3, -9.1, -8.1,0,0,1024,1024,1434,1024,216.3,-90,98,3.977,3.986,3.981,3.96,0,0,69.71,6,GPS_Atti,
0.0713190377745733,36.9597229970936,6021.0147891292,113.845148,0,7.734744342,22700,2017-11-02 04:29:35,18,15.794,6021.0147891292,113.845148,1.1408394,7.734744342,217.2, -9.3, -7.9,0,0,1024,1024,1417,1024,216.3,-90,98,3.977,3.986,3.981,3.96,0,0,69.71,6,GPS_Atti,
0.0713190839132771,36.959723097889,6021.6709571292,114.501316,0,7.758202348,22800,2017-11-02 04:29:35,18,15.794,6021.6709571292,114.501316,1.1408394,7.758202348,217.1, -9.8, -7.3,0,0,1024,1024,1428,1024,216.3,-90,98,3.977,3.986,3.981,3.96,0,0,69.71,6,GPS_Atti,
0.0713191777556193,36.9597232359446,6022.6552091292,115.485568,0,7.8014766276,22900,2017-11-02 04:29:35,18,15.794,6022.6552091292,115.485568,1.1408394,7.8014766276,217.2, -10.8, -7.2,0,0,1024,1024,1427,1024,216.3,-90,98,3.977,3.986,3.981,3.96,0,0,69.71,6,GPS_Atti,
0.0713192411232605,36.9597233571569,6023.6394611292,116.46982,0,7.8328742664,23000,2017-11-02 04:29:35,18,15.794,6023.6394611292,116.46982,1.1408394,7.8328742664,217.2, -11.2, -7.1,0,0,1024,1024,1416,1024,216.3,-90,98,3.977,3.986,3.981,3.96,0,0,69.71,6,GPS_Atti,
0.0713193215602518,36.9597234892061,6024.2956291292,117.125988,0,7.871391328,23100,2017-11-02 04:29:35,18,15.5,6024.2956291292,117.125988,1.1408394,7.871391328,217.3, -11.2, -6.4,0,0,1024,1024,1416,1024,216.3,-90,98,3.952,3.966,3.971,3.947,0,0,69.71,6,GPS_Atti,
0.0713193652204638,36.9597235912343,6025.2798811292,118.11024,0,7.894685292,23200,2017-11-02 04:29:35,18,15.5,6025.2798811292,118.11024,1.1408394,7.894685292,217.3, -11.5, -5.7,0,0,1024,1024,1407,1024,216.3,-90,98,3.952,3.966,3.971,3.947,0,0,69.71,6,GPS_Atti,
0.0713194656124077,36.9597237046443,6025.9360491292,118.766408,0,7.9392062908,23300,2017-11-02 04:29:35,18,15.5,6025.9360491292,118.766408,1.1408394,7.9392062908,217.4, -11.8, -5.6,0,0,1024,1024,1419,1024,216.3,-90,98,3.952,3.966,3.971,3.947,0,0,69.71,6,GPS_Atti,
