latitude,longitude,altitude(feet),ascent(feet),speed(mph),distance(feet),time(millisecond),datetime(utc),satellites,gpslevel,voltage(v),max_altitude(feet),max_ascent(feet),max_speed(mph),max_distance(feet), xSpeed(mph), ySpeed(mph), zSpeed(mph), compass_heading(degrees), pitch(degrees), roll(degrees),isPhoto,isVideo,rc_elevator,rc_aileron,rc_throttle,rc_rudder,gimbal_heading(degrees),gimbal_pitch(degrees),battery_percent,voltageCell1,voltageCell2,voltageCell3,voltageCell4,voltageCell5,voltageCell6,current(A),battery_temperature(f),flycStateRaw,flycState,message
0.334221223081991,36.9066009199749,5381.1987650461,0,0,0,0,2018-04-02 05:19:31,14,0,0,5381.1987650461,0,0,0,0,0,0,252.5, 0.9, -2.4,0,0,364,364,364,1684,257.1,0,99,4.297,4.295,4.299,4.293,0,0,0,76.91,41,Motors_Started,
0.334221185191966,36.9066009293106,5381.1987650461,0,0,0.0142375660724,100,2018-04-02 05:19:31,14,0,0,5381.1987650461,0,0,0.0142375660724,0,0,0,252.5, 0.9, -2.4,0,0,364,364,364,1684,257.1,0,99,4.297,4.295,4.299,4.293,0,0,0,76.91,41,Motors_Started,
0.334221150097166,36.906600936449,5381.1987650461,0,0,0.0272983604536,200,2018-04-02 05:19:31,14,0,0,5381.1987650461,0,0,0.0272983604536,0,0,0,252.5, 0.9, -2.4,0,0,364,364,364,1684,257.1,0,99,4.297,4.295,4.299,4.293,0,0,0,76.91,41,Motors_Started,
0.334221095878123,36.906600934137,5381.1987650461,0,0,0.046696851888,300,2018-04-02 05:19:31,14,0,17.125,5381.1987650461,0,0,0.046696851888,0,0,0,252.4, 0.9, -2.4,0,0,364,364,364,1684,257,0,99,4.297,4.295,4.299,4.293,0,0,1.406,76.91,41,Motors_Started,Setting new Return-To-Home altitude to 30m (98 ft). Setting new Maximum Flight Altitude to 150m (492 ft)
0.334221049015983,36.9066009333329,5381.1987650461,0,0,0.063694555844,400,2018-04-02 05:19:31,14,0,17.125,5381.1987650461,0,0,0.063694555844,0,0,0,252.5, 0.9, -2.4,0,0,364,364,364,1684,257,0,99,4.297,4.295,4.299,4.293,0,0,1.406,76.91,41,Motors_Started,
0.334220986142371,36.9066009256887,5381.1987650461,0,0,0.086472443712,500,2018-04-02 05:19:31,14,0,17.125,5381.1987650461,0,0,0.086472443712,0,0,0,252.5, 0.9, -2.4,0,0,364,364,364,1664,257,0,99,4.297,4.295,4.299,4.293,0,0,1.406,76.91,41,Motors_Started,
0.334220931995489,36.9066009204877,5381.1987650461,0,0,0.106202759304,600,2018-04-02 05:19:31,14,0,17.125,5381.1987650461,0,0,0.106202759304,0,0,0,252.4, 0.9, -2.4,0,0,382,364,389,1632,257,0,99,4.297,4.295,4.299,4.293,0,0,1.406,76.91,41,Motors_Started,
0.334220867814236,36.9066009116843,5381.1987650461,0,0,0.129654531708,700,2018-04-02 05:19:31,14,0,17.125,5381.1987650461,0,0,0.129654531708,0,0,0,252.4, 0.9, -2.4,0,0,492,430,478,1585,257,0,99,4.297,4.295,4.299,4.293,0,0,1.406,76.91,41,Motors_Started,
0.334220810795491,36.9066009043382,5381.1987650461,0,0,0.150530516628,800,2018-04-02 05:19:31,14,0,17.125,5381.1987650461,0,0,0.150530516628,0,0,0,252.5, 0.9, -2.4,0,0,823,735,658,1454,257,0,99,4.297,4.295,4.299,4.293,0,0,1.406,76.91,41,Motors_Started,
0.334220746207993,36.9066008956416,5381.1987650461,0,0,0.174213588252,900,2018-04-02 05:19:32,14,0,17.125,5381.1987650461,0,0,0.174213588252,0,0,0,252.4, 0.9, -2.4,0,0,907,763,1024,1024,256.7,0,99,4.297,4.295,4.299,4.293,0,0,1.406,76.91,41,Motors_Started,
0.334220689152302,36.9066008881502,5381.1987650461,0,0,0.195149612544,1000,2018-04-02 05:19:32,14,0,17.125,5381.1987650461,0,0,0.195149612544,0,0,0,252.5, 0.9, -2.4,0,0,1024,1024,1024,1024,255.6,0,99,4.297,4.295,4.299,4.293,0,0,1.406,76.91,41,Motors_Started,
0.334220661618316,36.9066009169953,5381.1987650461,0,0,0.204852696844,1100,2018-04-02 05:19:32,14,0,17.125,5381.1987650461,0,0,0.204852696844,0,0,0,252.4, 0.9, -2.4,0,0,1024,1024,1024,1024,254,0,99,4.297,4.295,4.299,4.293,0,0,1.406,76.91,41,Motors_Started,
0.334220602179245,36.9066009597285,5381.1987650461,0,0,0.22699967918,1300,2018-04-02 05:19:32,14,0,17.151,5381.1987650461,0,0,0.22699967918,0,0,0,252.4, 0.9, -2.4,0,0,1024,1024,1024,1024,253.7,0,99,4.297,4.295,4.299,4.293,0,0,1.404,76.91,41,Motors_Started,
0.334220566775295,36.906600972331,5381.1987650461,0,0,0.240213918448,1400,2018-04-02 05:19:32,14,0,17.151,5381.1987650461,0,0,0.240213918448,0,0,0,252.4, 0.9, -2.4,0,0,1024,1024,1024,1024,253.5,0,99,4.297,4.295,4.299,4.293,0,0,1.404,76.91,41,Motors_Started,
0.334220558481885,36.9066009824089,5381.1987650461,0,0,0.24354659572,1500,2018-04-02 05:19:32,14,0,17.151,5381.1987650461,0,0,0.24354659572,0,0,0,252.4, 0.9, -2.4,0,0,1024,1024,1024,1024,253.4,0,99,4.297,4.295,4.299,4.293,0,0,1.404,76.91,41,Motors_Started,
0.334220545639517,36.9066009867372,5381.1987650461,0,0,0.248361884588,1600,2018-04-02 05:19:32,14,0,17.151,5381.1987650461,0,0,0.248361884588,0,0,0,252.4, 0.9, -2.4,0,0,1024,1024,1024,1024,253.3,0,99,4.297,4.295,4.299,4.293,0,0,1.404,76.91,10,Assisted_Takeoff,
0.334220521121512,36.9066009878292,5381.1987650461,0,0,0.257303485924,1700,2018-04-02 05:19:32,14,0,17.151,5381.1987650461,0,0,0.257303485924,0,0,0,252.4, 0.9, -2.4,0,0,1024,1024,1024,1024,253.2,0,99,4.297,4.295,4.299,4.293,0,0,1.404,76.91,10,Assisted_Takeoff,
0.334220493356847,36.9066009870819,5381.1987650461,0,0,0.267363197532,1800,2018-04-02 05:19:33,14,0,17.151,5381.1987650461,0,0,0.267363197532,0,0,0,252.4, 0.9, -2.4,0,0,1024,1024,1024,1024,253.1,0,99,4.297,4.295,4.299,4.293,0,0,1.404,76.91,10,Assisted_Takeoff,
0.334220486627964,36.9066009851556,5381.1987650461,0,0,0.269745087372,1900,2018-04-02 05:19:33,14,0,17.151,5381.1987650461,0,0,0.269745087372,0,0,0,252.4, 0.9, -2.4,0,0,1024,1024,1024,1024,253.1,0,99,4.297,4.295,4.299,4.293,0,0,1.404,76.91,10,Assisted_Takeoff,
0.334220476970782,36.9066009811994,5381.1987650461,0,0,0.27313321084,2000,2018-04-02 05:19:33,14,0,17.151,5381.1987650461,0,0,0.27313321084,0,0,0,252.4, 0.9, -2.4,0,0,1024,1024,1024,1024,253,0,99,4.297,4.295,4.299,4.293,0,0,1.404,76.91,10,Assisted_Takeoff,
0.33422048664262,36.9066009768985,5381.1987650461,0,0,0.269490822272,2100,2018-04-02 05:19:33,14,0,17.151,5381.1987650461,0,0,0.27313321084,0,0,0,252.4, 0.9, -2.4,0,0,1024,1024,1024,1024,253,0,99,4.297,4.295,4.299,4.293,0,0,1.404,76.91,10,Assisted_Takeoff,
0.334220489262786,36.9066009705784,5381.1987650461,0,0,0.26836943116,2200,2018-04-02 05:19:33,14,0,17.151,5381.1987650461,0,0,0.27313321084,0,0,0,252.4, 0.9, -2.4,0,0,1024,1024,1024,1024,253,0,99,4.297,4.295,4.299,4.293,0,0,1.404,76.91,10,Assisted_Takeoff,
0.334220472397908,36.9066009653492,5381.1987650461,0,0,0.27438649172,2300,2018-04-02 05:19:33,14,0,17.098,5381.1987650461,0,0,0.27438649172,0,0,0,252.4, 0.9, -2.4,0,0,1024,1024,1024,1024,253,0,99,4.298,4.29,4.29,4.279,0,0,3.224,76.91,10,Assisted_Takeoff,
0.334220451695753,36.9066009578097,5381.1987650461,0,0,0.28177822424,2400,2018-04-02 05:19:33,14,0,17.098,5381.1987650461,0,0,0.28177822424,0,0,0,252.4, 0.9, -2.4,0,0,1024,1024,1024,1024,253,0,99,4.298,4.29,4.29,4.279,0,0,3.224,76.91,10,Assisted_Takeoff,
0.334220443744469,36.9066009536361,5381.1987650461,0,0,0.284605980236,2500,2018-04-02 05:19:33,14,0,17.098,5381.1987650461,0,0,0.284605980236,0,0,0,252.4, 0.9, -2.4,0,0,1024,1024,1024,1024,252.9,0,99,4.298,4.29,4.29,4.279,0,0,3.224,76.91,10,Assisted_Takeoff,
0.334220435599959,36.9066009457457,5381.1987650461,0,0,0.287466216548,2600,2018-04-02 05:19:33,14,0,17.098,5381.1987650461,0,0,0.287466216548,0,0,0,252.4, 0.9, -2.4,0,0,1024,1024,1024,1024,252.9,0,99,4.298,4.29,4.29,4.279,0,0,3.224,76.91,10,Assisted_Takeoff,
0.334220405229427,36.9066009423435,5381.1987650461,0,0,0.298504602728,2700,2018-04-02 05:19:33,14,0,17.098,5381.1987650461,0,0,0.298504602728,0,0,0,252.4, 0.9, -2.4,0,0,1024,1024,1024,1024,252.9,0,99,4.298,4.29,4.29,4.279,0,0,3.224,76.91,10,Assisted_Takeoff,
0.334220376489019,36.9066009348548,5381.1987650461,0,0,0.308926519072,2800,2018-04-02 05:19:33,14,0,17.098,5381.1987650461,0,0,0.308926519072,0,0,0,252.4, 0.9, -2.4,0,0,1024,1024,1024,1024,252.9,0,99,4.298,4.29,4.29,4.279,0,0,3.224,76.91,10,Assisted_Takeoff,
0.334220359895429,36.9066009327452,5381.1987650461,0,0,0.314967529764,2900,2018-04-02 05:19:34,14,0,17.098,5381.1987650461,0,0,0.314967529764,0,0,0,252.4, 0.9, -2.4,0,0,1024,1024,1024,1024,252.9,0,99,4.298,4.29,4.29,4.279,0,0,3.224,76.91,10,Assisted_Takeoff,
0.334220346650989,36.9066009254714,5381.1987650461,0,0,0.319771663776,3000,2018-04-02 05:19:34,14,0,17.098,5381.1987650461,0,0,0.319771663776,0,0,0,252.4, 0.9, -2.4,0,0,1024,1024,1024,1024,252.9,0,99,4.298,4.29,4.29,4.279,0,0,3.224,76.91,10,Assisted_Takeoff,
0.334220311043763,36.9066008906456,5381.1987650461,0,0,0.33292980068,3100,2018-04-02 05:19:34,14,0,17.098,5381.1987650461,0,0,0.33292980068,0,0,0,252.4, 0.9, -2.4,0,0,1024,1024,1024,1024,252.9,0,99,4.298,4.29,4.29,4.279,0,0,3.224,76.91,10,Assisted_Takeoff,
0.334220278443485,36.9066008540768,5381.1987650461,0,0,0.3454888562,3200,2018-04-02 05:19:34,14,0,17.098,5381.1987650461,0,0,0.3454888562,0,0,0,252.4, 0.9, -2.4,0,0,1024,1024,1024,1024,252.9,0,99,4.298,4.29,4.29,4.279,0,0,3.224,76.91,10,Assisted_Takeoff,
0.334220258863201,36.9066008281628,5381.1987650461,0,0,0.35338583808,3300,2018-04-02 05:19:34,14,0,17.098,5381.1987650461,0,0,0.35338583808,0,0,0,252.4, 0.9, -2.4,0,0,1024,1024,1024,1024,252.8,0,99,4.298,4.29,4.29,4.279,0,0,3.224,76.91,10,Assisted_Takeoff,
0.334220242943024,36.9066008028692,5381.1987650461,0,0,0.36014764932,3400,2018-04-02 05:19:34,14,0,17.098,5381.1987650461,0,0,0.36014764932,0,0,0,252.4, 0.9, -2.4,0,0,1024,1024,1024,1024,252.8,0,99,4.298,4.29,4.29,4.279,0,0,3.224,76.91,10,Assisted_Takeoff,
0.334220205519854,36.9066007570163,5381.1987650461,0,0,0.37598754484,3500,2018-04-02 05:19:34,14,0,17.098,5381.1987650461,0,0,0.37598754484,0,0,0,252.4, 0.9, -2.4,0,0,1024,1024,1024,1024,252.8,0,99,4.298,4.29,4.29,4.279,0,0,3.224,76.91,10,Assisted_Takeoff,
0.334220171003915,36.9066007108398,5381.1987650461,0,0,0.39136156108,3600,2018-04-02 05:19:34,14,0,17.098,5381.1987650461,0,0,0.39136156108,0,0,0,252.4, 0.8, -2.4,0,0,1024,1024,1024,1024,252.8,0,99,4.298,4.29,4.29,4.279,0,0,3.224,76.91,10,Assisted_Takeoff,
0.334220150429161,36.9066006830297,5381.1987650461,0,0,0.40079069524,3700,2018-04-02 05:19:34,14,0,17.098,5381.1987650461,0,0,0.40079069524,0,0,0,252.3, 0.8, -2.4,0,0,1024,1024,1024,1024,252.8,0,99,4.298,4.29,4.29,4.279,0,0,3.224,76.91,10,Assisted_Takeoff,
0.334220133218315,36.9066006543139,5381.1987650461,0,0,0.40927822832,3800,2018-04-02 05:19:35,14,0,17.098,5381.1987650461,0,0,0.40927822832,0,0,0,252.3, 0.8, -2.4,0,0,1024,1024,1024,1024,252.8,0,99,4.298,4.29,4.29,4.279,0,0,3.224,76.91,10,Assisted_Takeoff,
0.33422009626532,36.9066006468206,5381.1987650461,0,0,0.42302494792,3900,2018-04-02 05:19:35,14,0,17.098,5381.1987650461,0,0,0.42302494792,0,0,0,252.3, 0.8, -2.4,0,0,1024,1024,1024,1024,252.8,0,99,4.298,4.29,4.29,4.279,0,0,3.224,76.91,10,Assisted_Takeoff,
0.334220061180151,36.9066006325006,5381.1987650461,0,0,0.43670276988,4000,2018-04-02 05:19:35,14,0,17.098,5381.1987650461,0,0,0.43670276988,0,0,0,252.3, 0.8, -2.4,0,0,1024,1024,1024,1024,252.8,0,99,4.298,4.29,4.29,4.279,0,0,3.224,76.91,10,Assisted_Takeoff,
0.334220041503904,36.9066006039151,5381.1987650461,0,0,0.44625329512,4100,2018-04-02 05:19:35,14,0,17.098,5381.1987650461,0,0,0.44625329512,0,0,0,252.3, 0.8, -2.4,0,0,1024,1024,1024,1024,252.8,0,99,4.298,4.29,4.29,4.279,0,0,3.224,76.91,10,Assisted_Takeoff,
0.33422002483809,36.9066005679146,5381.1987650461,0,0,0.45565618256,4200,2018-04-02 05:19:35,14,0,17.098,5381.1987650461,0,0,0.45565618256,0,0,0,252.3, 0.8, -2.4,0,0,1024,1024,1024,1024,252.8,0,99,4.298,4.29,4.29,4.279,0,0,3.224,76.91,10,Assisted_Takeoff,
0.334219989131033,36.9066005533365,5381.1987650461,0,0,0.46965880768,4300,2018-04-02 05:19:35,14,0,17.098,5381.1987650461,0,0,0.46965880768,0,0,0,252.3, 0.8, -2.4,0,0,1024,1024,1024,1024,252.8,0,99,4.292,4.289,4.293,4.287,0,0,1.728,76.91,10,Assisted_Takeoff,
0.334219954514591,36.9066005332823,5381.1987650461,0,0,0.48386156404,4400,2018-04-02 05:19:35,14,0,17.098,5381.1987650461,0,0,0.48386156404,0,0,0,252.3, 0.8, -2.4,0,0,1024,1024,1024,1024,252.8,0,99,4.292,4.289,4.293,4.287,0,0,1.728,76.91,10,Assisted_Takeoff,
0.334219936182311,36.9066005340255,5381.1987650461,0,0,0.49018374272,4500,2018-04-02 05:19:35,14,0,17.098,5381.1987650461,0,0,0.49018374272,0,0,0,252.3, 0.8, -2.4,0,0,1024,1024,1024,1024,252.8,0,99,4.292,4.289,4.293,4.287,0,0,1.728,76.91,10,Assisted_Takeoff,
0.33421991947503,36.9066005237682,5381.1987650461,0,0,0.49710303428,4600,2018-04-02 05:19:35,14,0,17.098,5381.1987650461,0,0,0.49710303428,0,0,0,252.3, 0.8, -2.4,0,0,1024,1024,1024,1024,252.8,0,99,4.292,4.289,4.293,4.287,0,0,1.728,76.91,10,Assisted_Takeoff,
0.334219918258163,36.9066005330655,5381.1987650461,0,0,0.49655185316,4700,2018-04-02 05:19:35,14,0,17.098,5381.1987650461,0,0,0.49710303428,0,0,0,252.3, 0.8, -2.4,0,0,1024,1024,1025,1024,252.8,0,99,4.292,4.289,4.293,4.287,0,0,1.728,76.91,10,Assisted_Takeoff,
0.334219913339605,36.9066005296333,5381.1987650461,0,0,0.49862862488,4800,2018-04-02 05:19:35,14,0,17.098,5381.1987650461,0,0,0.49862862488,0,0,0,252.3, 0.8, -2.4,0,0,1024,1024,1049,1024,252.8,0,99,4.292,4.289,4.293,4.287,0,0,1.728,76.91,10,Assisted_Takeoff,
0.334219921908536,36.9066005440101,5381.1987650461,0,0,0.49415027828,4900,2018-04-02 05:19:36,13,0,17.098,5381.1987650461,0,0,0.49862862488,0,0,0,252.3, 0.8, -2.4,0,0,1024,1024,1074,1024,252.8,0,99,4.292,4.289,4.293,4.287,0,0,1.728,76.91,10,Assisted_Takeoff,
0.334219923569377,36.906600543095,5381.1987650461,0,0,0.49366143312,5000,2018-04-02 05:19:36,13,0,17.098,5381.1987650461,0,0,0.49862862488,0,0,0,252.3, 0.8, -2.4,0,0,1024,1024,1074,1024,252.8,0,99,4.292,4.289,4.293,4.287,0,0,1.728,76.91,10,Assisted_Takeoff,
0.334219935538365,36.9066005572812,5381.1987650461,0,0,0.4880413542,5100,2018-04-02 05:19:36,13,0,17.098,5381.1987650461,0,0,0.49862862488,0,0,0,252.3, 0.8, -2.4,0,0,1024,1024,1087,1024,252.8,0,99,4.292,4.289,4.293,4.287,0,0,1.728,76.91,10,Assisted_Takeoff,
0.334219940865457,36.9066005575839,5381.1987650461,0,0,0.48614174784,5200,2018-04-02 05:19:36,13,0,17.098,5381.1987650461,0,0,0.49862862488,0,0,0,252.3, 0.8, -2.4,0,0,1024,1024,1102,1024,252.8,0,99,4.292,4.289,4.293,4.287,0,0,1.728,76.91,10,Assisted_Takeoff,
0.334219917479664,36.9066005705512,5381.1987650461,0,0,0.49311353284,5300,2018-04-02 05:19:36,13,0,17.125,5381.1987650461,0,0,0.49862862488,0,0,0,252.3, 0.8, -2.4,0,0,1024,1024,1103,1024,252.8,0,99,4.292,4.29,4.294,4.288,0,0,1.85,76.91,10,Assisted_Takeoff,
0.334219893677721,36.906600570483,5381.1987650461,0,0,0.50151248324,5400,2018-04-02 05:19:36,13,0,17.125,5381.1987650461,0,0,0.50151248324,0,0,0,252.3, 0.8, -2.4,0,0,1024,1024,1104,1024,252.8,0,99,4.292,4.29,4.294,4.288,0,0,1.85,76.91,10,Assisted_Takeoff,
0.334219877711947,36.906600581005,5381.1987650461,0,0,0.50619752276,5500,2018-04-02 05:19:36,13,0,17.125,5381.1987650461,0,0,0.50619752276,0,0,0,252.3, 0.8, -2.4,0,0,1024,1024,1105,1024,252.8,0,99,4.292,4.29,4.294,4.288,0,0,1.85,76.91,10,Assisted_Takeoff,
0.334219863529713,36.9066005796445,5381.1987650461,0,0,0.5113353182,5600,2018-04-02 05:19:36,13,0,17.125,5381.1987650461,0,0,0.5113353182,0,0,0,252.4, 0.8, -2.4,0,0,1024,1024,1105,1024,252.8,0,99,4.292,4.29,4.294,4.288,0,0,1.85,76.91,10,Assisted_Takeoff,
0.334219893872234,36.9066005516011,5381.1987650461,0,0,0.50324148592,5700,2018-04-02 05:19:36,13,0,17.125,5381.1987650461,0,0,0.5113353182,0,0,0,252.4, 0.8, -2.4,0,0,1024,1024,1109,1024,252.8,0,99,4.292,4.29,4.294,4.288,0,0,1.85,76.91,10,Assisted_Takeoff,
0.334219915862033,36.9066005185551,5381.1987650461,0,0,0.4989173388,5800,2018-04-02 05:19:36,13,0,17.125,5381.1987650461,0,0,0.5113353182,0,0,0,252.4, 0.8, -2.4,0,0,1024,1024,1126,1024,252.8,0,99,4.292,4.29,4.294,4.288,0,0,1.85,76.91,10,Assisted_Takeoff,
0.334219942216407,36.9066004997757,5381.1987650461,0,0,0.49182744356,5900,2018-04-02 05:19:37,13,0,17.125,5381.1987650461,0,0,0.5113353182,0,0,0,252.3, 0.8, -2.4,0,0,1024,1024,1146,1024,252.8,0,99,4.292,4.29,4.294,4.288,0,0,1.85,76.91,10,Assisted_Takeoff,
0.334219958351415,36.9066004788829,5381.1987650461,0,0,0.48869424136,6000,2018-04-02 05:19:37,13,0,17.125,5381.1987650461,0,0,0.5113353182,0,0,0,252.3, 0.9, -2.4,0,0,1024,1024,1155,1024,252.8,0,99,4.292,4.29,4.294,4.288,0,0,1.85,76.91,10,Assisted_Takeoff,
0.334219935998922,36.9066004751751,5381.1987650461,0,0,0.49684056708,6100,2018-04-02 05:19:37,13,0,17.125,5381.1987650461,0,0,0.5113353182,0,0,0,252.2, 1.1, -2.3,0,0,1024,1024,1161,1024,252.8,0,99,4.292,4.29,4.294,4.288,0,0,1.85,76.91,10,Assisted_Takeoff,
0.334219884378517,36.9066004781664,5381.1987650461,0,0,0.5143372868,6200,2018-04-02 05:19:37,13,0,17.125,5381.1987650461,0,0,0.5143372868,0,0,0,252.2, 1.7, -1.4,0,0,1024,1024,1181,1023,252.8,0,99,4.292,4.29,4.294,4.288,0,0,1.85,76.91,10,Assisted_Takeoff,
0.334219809150352,36.9066004888303,5381.1987650461,0,0,0.5393208834,6300,2018-04-02 05:19:37,14,0,17.125,5381.1987650461,0,0,0.5393208834,0,0,-0.223694,252.1, 2.2, -0.7,0,0,1024,1024,1199,1022,252.8,0,99,4.292,4.29,4.294,4.288,0,0,3.108,76.91,10,Assisted_Takeoff,
0.334219727320977,36.9066005337713,5381.1987650461,0,0.223694,0.56362534612,6400,2018-04-02 05:19:37,14,0,17.125,5381.1987650461,0,0.223694,0.56362534612,0,0.223694,-0.447388,252.2, 1.2, 0,0,0,1024,1024,1206,1022,252.8,0,99,4.292,4.29,4.294,4.288,0,0,3.108,76.91,6,P-GPS,Home Point Recorded. RTH Altitude:  30m.
0.334219634216918,36.9066006048798,5381.1987650461,0,0.223694,0.59098427088,6500,2018-04-02 05:19:37,14,0,17.125,5381.1987650461,0,0.223694,0.59098427088,0,0.223694,-0.671082,252.2, 0.5, 0.5,0,0,1024,1024,1211,1022,252.8,0,99,4.292,4.29,4.294,4.288,0,0,3.108,76.91,6,P-GPS,
0.334219545239043,36.9066006709012,5381.1987650461,0,0.223694,0.61886813004,6600,2018-04-02 05:19:37,14,0,17.125,5381.1987650461,0,0.223694,0.61886813004,0,0.223694,-0.894776,252.2, 0.3, 0.8,0,0,1024,1024,1223,1023,252.7,0,99,4.292,4.29,4.294,4.288,0,0,3.108,76.91,6,P-GPS,
0.334219449308273,36.9066007310423,5381.5268490461,0.328084,0.223694,0.6508202308,6700,2018-04-02 05:19:37,14,0,17.125,5381.5268490461,0.328084,0.223694,0.6508202308,0,0.223694,-1.11847,252.2, 0, 0.8,0,0,1024,1024,1230,1023,252.7,0,99,4.292,4.29,4.294,4.288,0,0,3.108,76.91,6,P-GPS,Obstacle Avoided. Revise Flight Route
0.33421936542987,36.9066007781703,5381.5268490461,0.328084,0,0.67973427372,6800,2018-04-02 05:19:37,14,0,17.125,5381.5268490461,0.328084,0.223694,0.67973427372,0,0,-1.342164,252.2, -0.1, 0.9,0,0,1024,1024,1234,1023,252.7,0,99,4.292,4.29,4.294,4.288,0,0,3.108,76.91,6,P-GPS,
0.334219345523822,36.9066008360655,5381.8549330461,0.656168,0,0.68570868336,6900,2018-04-02 05:19:38,14,0,17.125,5381.8549330461,0.656168,0.223694,0.68570868336,0,0,-1.342164,252.2, -0.3, 1.2,0,0,1024,1024,1226,1023,252.7,0,99,4.292,4.29,4.294,4.288,0,0,3.108,76.91,6,P-GPS,
0.334219335860686,36.9066008710113,5382.1830170461,0.984252,0,0.68878283044,7000,2018-04-02 05:19:38,14,0,17.125,5382.1830170461,0.984252,0.223694,0.68878283044,0,0,-1.565858,252.3, -0.4, 0.9,0,0,1024,1024,1234,1023,252.7,0,99,4.292,4.29,4.294,4.288,0,0,3.108,76.91,6,P-GPS,
0.334219310873383,36.9066008578844,5382.1830170461,0.984252,0,0.69803479924,7100,2018-04-02 05:19:38,14,0,17.125,5382.1830170461,0.984252,0.223694,0.69803479924,0,0,-1.565858,252.3, -0.6, 0.7,0,1,1024,1024,1241,1023,252.7,0,99,4.292,4.29,4.294,4.288,0,0,3.108,76.91,6,P-GPS,
0.334219279792087,36.9066008249681,5382.5111010461,1.312336,0,0.70985566576,7200,2018-04-02 05:19:38,14,0,17.125,5382.5111010461,1.312336,0.223694,0.70985566576,0,0,-1.565858,252.3, -0.4, 0.8,0,1,1024,1024,1242,1022,252.7,0,99,4.292,4.29,4.294,4.288,0,0,3.108,76.91,6,P-GPS,
0.334219247749347,36.9066008011222,5382.8391850461,1.64042,0,0.72200133544,7300,2018-04-02 05:19:38,14,0,16.859,5382.8391850461,1.64042,0.223694,0.72200133544,0,0,-1.789552,252.3, -0.3, 0.8,0,1,1024,1024,1239,1023,252.7,0,99,4.283,4.281,4.284,4.276,0,0,3.108,76.91,6,P-GPS,
0.334219223537489,36.9066007612805,5383.1672690461,1.968504,0,0.73182745124,7400,2018-04-02 05:19:38,14,0,16.859,5383.1672690461,1.968504,0.223694,0.73182745124,0,0,-1.789552,252.2, -0.1, 0.5,0,1,1024,1024,1234,1023,252.7,0,99,4.283,4.281,4.284,4.276,0,0,3.108,76.91,6,P-GPS,
0.334219223642066,36.9066007944094,5383.4953530461,2.296588,0,0.73093178192,7500,2018-04-02 05:19:38,14,0,16.859,5383.4953530461,2.296588,0.223694,0.73182745124,0,0,-2.013246,252.2, 0, 0.4,0,1,1024,1024,1234,1022,252.7,0,99,4.283,4.281,4.284,4.276,0,0,3.108,76.91,6,P-GPS,
0.334219226675959,36.9066008075494,5383.8234370461,2.624672,0,0.72954070576,7600,2018-04-02 05:19:38,14,0,16.859,5383.8234370461,2.624672,0.223694,0.73182745124,0,0,-2.013246,252.2, 0, 0.3,0,1,1024,1024,1236,1022,252.7,0,99,4.283,4.281,4.284,4.276,0,0,3.108,76.91,6,P-GPS,
0.334219207284855,36.9066008063404,5384.1515210461,2.952756,0,0.736630601,7700,2018-04-02 05:19:39,14,0,16.859,5384.1515210461,2.952756,0.223694,0.736630601,0,0,-2.013246,252.2, 0, 0.2,0,1,1024,1024,1239,1023,252.7,0,99,4.283,4.281,4.284,4.276,0,0,3.108,76.91,6,P-GPS,
0.334219184917362,36.9066007774953,5384.4796050461,3.28084,0,0.74543637556,7800,2018-04-02 05:19:39,14,0,16.859,5384.4796050461,3.28084,0.223694,0.74543637556,0,0,-2.013246,252.2, 0, 0.3,0,1,1024,1024,1242,1017,252.7,0,99,4.283,4.281,4.284,4.276,0,0,3.108,76.91,6,P-GPS,
0.334219137725818,36.9066007677045,5384.4796050461,3.28084,0,0.76286747848,7900,2018-04-02 05:19:39,15,0,16.859,5384.4796050461,3.28084,0.223694,0.76286747848,0,0,-2.013246,252.2, 0, 0.2,0,1,1024,1024,1248,1007,252.7,0,99,4.283,4.281,4.284,4.276,0,0,3.108,76.91,6,P-GPS,
0.334219090535292,36.9066007389924,5384.8076890461,3.608924,0,0.7808563242,8000,2018-04-02 05:19:39,15,0,16.859,5384.8076890461,3.608924,0.223694,0.7808563242,0,0,-2.013246,252.2, 0, 0.1,0,1,1024,1024,1260,1005,252.7,0,99,4.283,4.281,4.284,4.276,0,0,3.108,76.91,6,P-GPS,
0.334219045608405,36.906600730397,5385.1357730461,3.937008,0,0.79745409376,8100,2018-04-02 05:19:39,15,0,16.859,5385.1357730461,3.937008,0.223694,0.79745409376,0,0,-2.013246,252.1, 0.3, 0.3,0,1,1024,1024,1247,1006,252.7,0,99,4.283,4.281,4.284,4.276,0,0,3.108,76.91,6,P-GPS,
0.334219007099573,36.9066006913479,5385.4638570461,4.265092,0,0.81279202076,8200,2018-04-02 05:19:39,15,0,16.859,5385.4638570461,4.265092,0.223694,0.81279202076,0,0,-2.013246,252.1, 0.6, 0.4,0,1,1024,1024,1249,1008,252.7,0,99,4.283,4.281,4.284,4.276,0,0,3.108,76.91,6,P-GPS,
0.334218990537788,36.9066006831164,5385.7919410461,4.593176,0,0.81911419944,8300,2018-04-02 05:19:39,15,0,16.7,5385.7919410461,4.593176,0.223694,0.81911419944,0,0,-2.23694,252.2, 0.7, 0.2,0,1,1024,1024,1244,1006,252.7,0,99,4.207,4.206,4.211,4.203,0,0,12.326,76.91,6,P-GPS,
0.334218975378603,36.9066006540411,5386.1200250461,4.92126,0,0.82579398968,8400,2018-04-02 05:19:39,15,0,16.7,5386.1200250461,4.92126,0.223694,0.82579398968,0,0,-2.23694,252.2, 0.8, 0,0,1,1024,1024,1249,1006,252.7,0,99,4.207,4.206,4.211,4.203,0,0,12.326,76.91,6,P-GPS,
0.334218947060369,36.9066006356661,5386.4481090461,5.249344,0,0.83685698216,8500,2018-04-02 05:19:39,15,0,16.7,5386.4481090461,5.249344,0.223694,0.83685698216,0,0,-2.23694,252.2, 0.7, 0,0,1,1024,1024,1279,1015,252.7,0,99,4.207,4.206,4.211,4.203,0,0,12.326,76.91,6,P-GPS,
0.334218910279722,36.9066005996621,5386.7761930461,5.577428,0,0.85187994852,8600,2018-04-02 05:19:39,15,0,16.7,5386.7761930461,5.577428,0.223694,0.85187994852,0,0,-2.013246,252.2, 0.6, 0.2,0,1,1024,1024,1295,1016,252.7,0,99,4.207,4.206,4.211,4.203,0,0,12.326,76.91,6,P-GPS,
0.334218889537519,36.9066006010582,5387.1042770461,5.905512,0,0.85930777028,8700,2018-04-02 05:19:39,15,0,16.7,5387.1042770461,5.905512,0.223694,0.85930777028,0,0,-2.23694,252.2, 0.8, 0.3,0,1,1024,1024,1304,1019,252.7,0,99,4.207,4.206,4.211,4.203,0,0,12.326,76.91,6,P-GPS,
0.33421887055607,36.9066005822303,5387.4323610461,6.233596,0,0.86711945032,8800,2018-04-02 05:19:39,15,0,16.7,5387.4323610461,6.233596,0.223694,0.86711945032,0,0,-2.460634,252.2, 0.9, 0.3,0,1,1024,1024,1304,1022,252.7,0,99,4.207,4.206,4.211,4.203,0,0,12.326,76.91,6,P-GPS,
0.334218877347089,36.9066006037618,5388.0885290461,6.889764,0,0.86357942396,8900,2018-04-02 05:19:40,15,0,16.7,5388.0885290461,6.889764,0.223694,0.86711945032,0,0,-2.684328,252.2, 0.8, 0.2,0,1,1024,1024,1301,1022,252.7,0,99,4.207,4.206,4.211,4.203,0,0,12.326,76.91,6,P-GPS,
0.334218879712098,36.9066005988037,5388.4166130461,7.217848,0,0.86296918772,9000,2018-04-02 05:19:40,15,0,16.7,5388.4166130461,7.217848,0.223694,0.86711945032,0,0,-2.908022,252.2, 0.6, 0.2,0,1,1024,1024,1299,1023,252.7,0,99,4.207,4.206,4.211,4.203,0,0,12.326,76.91,6,P-GPS,
0.334218867492763,36.9066005895541,5388.7446970461,7.545932,0,0.8678477968,9100,2018-04-02 05:19:40,15,0,16.7,5388.7446970461,7.545932,0.223694,0.8678477968,0,0,-2.908022,252.2, 0.6, 0,0,1,1024,1024,1299,1024,252.7,0,99,4.207,4.206,4.211,4.203,0,0,12.326,76.91,6,P-GPS,
0.334218849667612,36.9066005613635,5389.4008650461,8.2021,0,0.87576774456,9200,2018-04-02 05:19:40,15,0,16.7,5389.4008650461,8.2021,0.223694,0.87576774456,0,0,-2.908022,252.1, 0.7, -0.2,0,1,1024,1024,1301,1024,252.7,0,99,4.207,4.206,4.211,4.203,0,0,12.326,76.91,6,P-GPS,
0.334218836569121,36.9066005341072,5389.7289490461,8.530184,0,0.88202430644,9300,2018-04-02 05:19:40,15,0,16.7,5389.7289490461,8.530184,0.223694,0.88202430644,0,0,-3.131716,252.1, 0.7, 0,0,1,1024,1024,1288,1023,252.6,0,99,4.196,4.198,4.206,4.2,0,0,12.616,76.91,6,P-GPS,
0.334218818061142,36.906600503449,5390.0570330461,8.858268,0,0.89053152456,9400,2018-04-02 05:19:40,15,0,16.7,5390.0570330461,8.858268,0.223694,0.89053152456,0,0,-3.131716,252.2, 0.8, 0,0,1,1024,1024,1292,1023,252.6,0,99,4.196,4.198,4.206,4.2,0,0,12.616,76.91,6,P-GPS,
0.334218778563844,36.9066005475073,5390.7132010461,9.514436,0,0.90217522572,9500,2018-04-02 05:19:40,15,0,16.7,5390.7132010461,9.514436,0.223694,0.90217522572,0,0,-3.131716,252.2, 0.6, 0.1,0,1,1024,1024,1291,1023,252.6,0,99,4.196,4.198,4.206,4.2,0,0,12.616,76.91,6,P-GPS,
0.334218739204963,36.9066005840191,5391.0412850461,9.84252,0,0.91449149908,9600,2018-04-02 05:19:40,15,0,16.7,5391.0412850461,9.84252,0.223694,0.91449149908,0,0,-2.908022,252.3, 0.3, 0.3,0,1,1024,1024,1279,1024,252.6,0,99,4.196,4.198,4.206,4.2,0,0,12.616,76.91,6,P-GPS,
0.334218721819288,36.9066006378727,5391.6974530461,10.498688,0,0.91836945196,9700,2018-04-02 05:19:40,15,0,16.7,5391.6974530461,10.498688,0.223694,0.91836945196,0,0,-2.908022,252.3, 0.3, 0.2,0,1,1024,1024,1275,1024,252.6,0,99,4.196,4.198,4.206,4.2,0,0,12.616,76.91,6,P-GPS,
0.334218708690467,36.906600666528,5392.0255370461,10.826772,0,0.92202430772,9800,2018-04-02 05:19:40,15,0,16.7,5392.0255370461,10.826772,0.223694,0.92202430772,0,0,-2.908022,252.2, 0.2, 0,0,1,1024,1024,1278,1024,252.6,0,99,4.196,4.198,4.206,4.2,0,0,12.616,76.91,6,P-GPS,
0.334218713225276,36.9066007359358,5392.3536210461,11.154856,0,0.91817916324,9900,2018-04-02 05:19:41,15,0,16.7,5392.3536210461,11.154856,0.223694,0.92202430772,0,0,-2.684328,252.2, 0, 0,0,1,1024,1024,1278,1024,252.6,0,99,4.196,4.198,4.206,4.2,0,0,12.616,76.91,6,P-GPS,
0.334218711010491,36.9066007773393,5393.0097890461,11.811024,0,0.91800527872,10000,2018-04-02 05:19:41,15,0,16.7,5393.0097890461,11.811024,0.223694,0.92202430772,0,0,-2.684328,252.2, 0, 0,0,1,1024,1024,1276,1024,252.6,0,99,4.196,4.198,4.206,4.2,0,0,12.616,76.91,6,P-GPS,
0.334218686204912,36.9066008136921,5393.3378730461,12.139108,0,0.92639110576,10100,2018-04-02 05:19:41,15,0,16.7,5393.3378730461,12.139108,0.223694,0.92639110576,0,0,-2.684328,252.1, 0, 0,0,1,1024,1024,1272,1024,252.6,0,99,4.196,4.198,4.206,4.2,0,0,12.616,76.91,6,P-GPS,
0.33421865869632,36.9066008329522,5393.6659570461,12.467192,0,0.93615160476,10200,2018-04-02 05:19:41,15,0,16.7,5393.6659570461,12.467192,0.223694,0.93615160476,0,0,-2.460634,252.2, 0, 0,0,1,1024,1024,1276,1024,252.6,0,99,4.196,4.198,4.206,4.2,0,0,12.616,76.91,6,P-GPS,
0.33421864090903,36.9066008854536,5393.9940410461,12.795276,0,0.94218835036,10300,2018-04-02 05:19:41,15,0,16.7,5393.9940410461,12.795276,0.223694,0.94218835036,0,0,-2.460634,252.2, 0, 0,0,1,1024,1024,1278,1024,252.6,0,99,4.196,4.198,4.206,4.2,0,0,12.616,76.91,6,P-GPS,
0.334218620938912,36.9066009214938,5394.3221250461,13.12336,0,0.94938979416,10400,2018-04-02 05:19:41,15,0,16.7,5394.3221250461,13.12336,0.223694,0.94938979416,0,0,-2.684328,252.2, -0.1, 0,0,1,1024,1024,1276,1024,252.6,0,99,4.196,4.198,4.206,4.2,0,0,12.616,76.91,6,P-GPS,
0.334218576487277,36.9066010249221,5394.9782930461,13.779528,0,0.96636814116,10500,2018-04-02 05:19:41,15,0,16.7,5394.9782930461,13.779528,0.223694,0.96636814116,0,0,-2.684328,252.2, -0.2, 0,0,1,1024,1024,1277,1024,252.6,0,99,4.196,4.198,4.206,4.2,0,0,12.616,76.91,6,P-GPS,
0.334218530989569,36.9066011005743,5395.3063770461,14.107612,0,0.984416042,10600,2018-04-02 05:19:41,15,0,16.7,5395.3063770461,14.107612,0.223694,0.984416042,0,0,-2.684328,252.2, -0.3, 0.2,0,1,1024,1024,1301,1023,252.6,0,99,4.196,4.198,4.206,4.2,0,0,12.616,76.91,6,P-GPS,
0.334218539172195,36.9066011916342,5395.6344610461,14.435696,0,0.98422575328,10700,2018-04-02 05:19:41,15,0,16.7,5395.6344610461,14.435696,0.223694,0.984416042,0,0,-2.684328,252.2, -0.4, 0.4,0,1,1024,1024,1297,1024,252.6,0,99,4.196,4.198,4.206,4.2,0,0,12.616,76.91,6,P-GPS,
0.334218546569096,36.9066012507269,5395.9625450461,14.76378,0,0.98395344356,10800,2018-04-02 05:19:41,15,0,16.7,5395.9625450461,14.76378,0.223694,0.984416042,0,0,-2.908022,252.2, -0.5, 0.5,0,1,1024,1024,1312,1024,252.6,0,99,4.196,4.198,4.206,4.2,0,0,12.616,76.91,6,P-GPS,
0.334218508551036,36.9066013184846,5396.6187130461,15.419948,0,1.00101053072,10900,2018-04-02 05:19:42,15,0,16.7,5396.6187130461,15.419948,0.223694,1.00101053072,0,0,-2.908022,252.2, -0.7, 0.3,0,1,1024,1024,1326,1024,252.6,0,99,4.196,4.198,4.206,4.2,0,0,12.616,76.91,6,P-GPS,
0.334218470270796,36.9066013466221,5396.9467970461,15.748032,0,1.01635173856,11000,2018-04-02 05:19:42,15,0,16.7,5396.9467970461,15.748032,0.223694,1.01635173856,0,0,-2.908022,252.3, -0.4, 0.2,0,1,1024,1024,1352,1024,252.6,0,99,4.196,4.198,4.206,4.2,0,0,12.616,76.91,6,P-GPS,
0.334218453725194,36.9066013451409,5397.2748810461,16.076116,0,1.02223756552,11100,2018-04-02 05:19:42,15,0,16.7,5397.2748810461,16.076116,0.223694,1.02223756552,0,0,-3.131716,252.4, -0.2, -0.2,0,1,1024,1024,1338,1024,252.6,0,99,4.196,4.198,4.206,4.2,0,0,12.616,76.91,6,P-GPS,
0.334218436748258,36.9066013192368,5397.9310490461,16.732284,0,1.02697509848,11200,2018-04-02 05:19:42,15,0,16.7,5397.9310490461,16.732284,0.223694,1.02697509848,0,0,-3.579104,252.4, 0.1, -0.5,0,1,1024,1024,1326,1024,252.6,0,99,4.196,4.198,4.206,4.2,0,0,12.616,76.91,6,P-GPS,
0.334218417365907,36.9066013222115,5398.5872170461,17.388452,0,1.03413061052,11300,2018-04-02 05:19:42,15,0,16.7,5398.5872170461,17.388452,0.223694,1.03413061052,0,0,-3.579104,252.2, 0.2, -0.4,0,1,1024,1024,1326,1024,252.6,0,99,4.196,4.198,4.206,4.2,0,0,12.616,76.91,6,P-GPS,
0.334218381329357,36.9066013105749,5398.9153010461,17.716536,0,1.04655843244,11400,2018-04-02 05:19:42,15,0,16.7,5398.9153010461,17.716536,0.223694,1.04655843244,0,0,-3.579104,252.1, 0, 0,0,1,1024,1024,1337,1024,252.6,0,99,4.196,4.198,4.206,4.2,0,0,12.616,76.91,6,P-GPS,
0.334218354616973,36.9066013417963,5399.5714690461,18.372704,0,1.05781171364,11500,2018-04-02 05:19:42,15,0,16.7,5399.5714690461,18.372704,0.223694,1.05781171364,0,0,-3.579104,252.1, 0.2, 0.3,0,1,1024,1024,1357,1024,252.6,0,99,4.196,4.198,4.206,4.2,0,0,12.616,76.91,6,P-GPS,
0.334218328333174,36.9066013417053,5400.2276370461,19.028872,0,1.06729662208,11600,2018-04-02 05:19:42,15,0,16.7,5400.2276370461,19.028872,0.223694,1.06729662208,0,0,-3.579104,252.1, 0.6, 0.2,0,1,1024,1024,1347,1024,252.6,0,99,4.196,4.198,4.206,4.2,0,0,12.616,76.91,6,P-GPS,
0.334218303100536,36.9066013587307,5400.5557210461,19.356956,0,1.0773130266,11700,2018-04-02 05:19:42,15,0,16.7,5400.5557210461,19.356956,0.223694,1.0773130266,0,0,-3.802798,252.1, 0.7, 0,0,1,1024,1024,1346,1024,252.6,0,99,4.196,4.198,4.206,4.2,0,0,12.616,76.91,6,P-GPS,
0.334218279849104,36.9066013684905,5401.2118890461,20.013124,0,1.08623363056,11800,2018-04-02 05:19:42,15,0,16.7,5401.2118890461,20.013124,0.223694,1.08623363056,0,0,-3.802798,252.1, 0.3, -0.2,0,1,1024,1024,1355,1024,252.6,0,99,4.196,4.198,4.206,4.2,0,0,12.616,76.91,6,P-GPS,
0.33421824754505,36.9066013711001,5401.8680570461,20.669292,0,1.09802825036,11900,2018-04-02 05:19:43,15,0,16.7,5401.8680570461,20.669292,0.223694,1.09802825036,0,0,-3.802798,252.1, 0.3, -0.1,0,1,1024,1024,1357,1024,252.6,0,99,4.196,4.198,4.206,4.2,0,0,12.616,76.91,6,P-GPS,
0.334218209599964,36.9066013501594,5402.5242250461,21.32546,0,1.1106135526,12000,2018-04-02 05:19:43,15,0,16.7,5402.5242250461,21.32546,0.223694,1.1106135526,0,0,-3.802798,252, 0.3, 0,0,1,1024,1024,1348,1024,252.6,0,99,4.196,4.198,4.206,4.2,0,0,12.616,76.91,6,P-GPS,
0.334218194288315,36.9066013831322,5402.8523090461,21.653544,0,1.11790029824,12100,2018-04-02 05:19:43,15,0,16.7,5402.8523090461,21.653544,0.223694,1.11790029824,0,0,-4.026492,252, 0.4, -0.2,0,1,1024,1024,1341,1024,252.6,0,99,4.196,4.198,4.206,4.2,0,0,12.616,76.91,6,P-GPS,
0.334218175200306,36.9066014054171,5403.5084770461,22.309712,0,1.1260335006,12200,2018-04-02 05:19:43,15,0,16.7,5403.5084770461,22.309712,0.223694,1.1260335006,0,0,-4.026492,252.1, 0.1, 0,0,1,1024,1024,1345,1024,252.6,0,99,4.196,4.198,4.206,4.2,0,0,12.616,76.91,6,P-GPS,
0.334218181781866,36.9066014369297,5404.1646450461,22.96588,0,1.12553153208,12300,2018-04-02 05:19:43,15,0,16.514,5404.1646450461,22.96588,0.223694,1.1260335006,0,0,-4.026492,252.1, 0.1, -0.1,0,1,1024,1024,1335,1024,252.6,0,99,4.18,4.179,4.185,4.176,0,0,13.654,76.91,6,P-GPS,
0.334218185105113,36.9066014395944,5404.8208130461,23.622048,0,1.12450134832,12400,2018-04-02 05:19:43,15,0,16.514,5404.8208130461,23.622048,0.223694,1.1260335006,0,0,-4.026492,252.2, 0.2, -0.4,0,1,1024,1024,1324,1024,252.6,0,99,4.18,4.179,4.185,4.176,0,0,13.654,76.91,6,P-GPS,
0.334218202663708,36.9066014492198,5405.4769810461,24.278216,0,1.11878612504,12500,2018-04-02 05:19:43,15,0,16.514,5405.4769810461,24.278216,0.223694,1.1260335006,0,0,-3.802798,252.2, 0.2, -0.5,0,1,1024,1024,1311,1024,252.6,0,99,4.18,4.179,4.185,4.176,0,0,13.654,76.91,6,P-GPS,
0.334218209536658,36.9066014405323,5405.8050650461,24.6063,0,1.11577431392,12600,2018-04-02 05:19:43,15,0,16.514,5405.8050650461,24.6063,0.223694,1.1260335006,0,0,-3.802798,252.2, 0.2, -0.7,0,1,1024,1024,1311,1024,252.6,0,99,4.18,4.179,4.185,4.176,0,0,13.654,76.91,6,P-GPS,
0.334218218691465,36.906601479613,5406.4612330461,25.262468,0,1.11500331652,12700,2018-04-02 05:19:43,15,0,16.514,5406.4612330461,25.262468,0.223694,1.1260335006,0,0,-3.579104,252.2, 0.2, -0.6,0,1,1024,1024,1326,1024,252.5,0,99,4.18,4.179,4.185,4.176,0,0,13.654,76.91,6,P-GPS,
0.334218212119574,36.9066015012684,5407.1174010461,25.918636,0,1.1188320568,12800,2018-04-02 05:19:43,15,0,16.514,5407.1174010461,25.918636,0.223694,1.1260335006,0,0,-3.579104,252.2, 0.2, -0.5,0,1,1024,1024,1335,1024,252.5,0,99,4.18,4.179,4.185,4.176,0,0,13.654,76.91,6,P-GPS,
0.334218211232988,36.906601537536,5407.4454850461,26.24672,0,1.12173231936,12900,2018-04-02 05:19:44,15,0,16.514,5407.4454850461,26.24672,0.223694,1.1260335006,0,0,-3.579104,252.2, 0.2, -0.5,0,1,1024,1024,1336,1024,252.5,0,99,4.18,4.179,4.185,4.176,0,0,13.654,76.91,6,P-GPS,
0.334218197366278,36.9066015503936,5408.1016530461,26.902888,0,1.12763783136,13000,2018-04-02 05:19:44,15,0,16.514,5408.1016530461,26.902888,0.223694,1.12763783136,0,0,-3.579104,252.2, 0, -0.4,0,1,1024,1024,1334,1024,252.5,0,99,4.18,4.179,4.185,4.176,0,0,13.654,76.91,6,P-GPS,
0.334218190997637,36.9066015685176,5408.7578210461,27.559056,0,1.13127628292,13100,2018-04-02 05:19:44,15,0,16.514,5408.7578210461,27.559056,0.223694,1.13127628292,0,0,-3.579104,252.2, 0, -0.2,0,1,1024,1024,1336,1024,252.5,0,99,4.18,4.179,4.185,4.176,0,0,13.654,76.91,6,P-GPS,
0.334218175190535,36.9066015666028,5409.0859050461,27.88714,0,1.13677168992,13200,2018-04-02 05:19:44,15,0,16.514,5409.0859050461,27.88714,0.223694,1.13677168992,0,0,-3.579104,252.2, 0.1, -0.1,0,1,1024,1024,1335,1024,252.5,0,99,4.18,4.179,4.185,4.176,0,0,13.654,76.91,6,P-GPS,
0.334218141254983,36.9066015672061,5409.7420730461,28.543308,0,1.14893048296,13300,2018-04-02 05:19:44,15,0,16.727,5409.7420730461,28.543308,0.223694,1.14893048296,0,0,-3.579104,252.2, 0.1, -0.3,0,1,1024,1024,1333,1023,252.5,0,99,4.187,4.189,4.191,4.179,0,0,13.404,76.91,6,P-GPS,
0.334218097085476,36.9066015475538,5410.0701570461,28.871392,0,1.16327431544,13400,2018-04-02 05:19:44,15,0,16.727,5410.0701570461,28.871392,0.223694,1.16327431544,0,0,-3.579104,252.3, 0.1, -0.4,0,1,1024,1024,1333,1024,252.5,0,99,4.187,4.189,4.191,4.179,0,0,13.404,76.91,6,P-GPS,
0.334218064557307,36.9066015692317,5410.7263250461,29.52756,0,1.17647969644,13500,2018-04-02 05:19:44,15,0,16.727,5410.7263250461,29.52756,0.223694,1.17647969644,0,0,-3.579104,252.3, 0.3, -0.1,0,1,1024,1024,1344,1023,252.5,0,99,4.187,4.189,4.191,4.179,0,0,13.404,76.91,6,P-GPS,
0.334218024237237,36.9066015676686,5411.3824930461,30.183728,0,1.190780878,13600,2018-04-02 05:19:44,15,0,16.727,5411.3824930461,30.183728,0.223694,1.190780878,0,0,-3.579104,252.2, 0.4, 0.1,0,1,1024,1024,1345,1023,252.5,0,99,4.187,4.189,4.191,4.179,0,0,13.404,76.91,6,P-GPS,
0.334218013925115,36.9066015778651,5411.7105770461,30.511812,0,1.195210012,13700,2018-04-02 05:19:44,15,0,16.727,5411.7105770461,30.511812,0.223694,1.195210012,0,0,-3.579104,252.1, 0.5, 0.2,0,1,1024,1024,1342,1023,252.5,0,99,4.187,4.189,4.191,4.179,0,0,13.404,76.91,6,P-GPS,
0.334218002589924,36.906601560444,5412.3667450461,31.16798,0,1.19800528768,13800,2018-04-02 05:19:44,15,0,16.727,5412.3667450461,31.16798,0.223694,1.19800528768,0,0,-3.802798,252.1, 0.5, 0,0,1,1024,1024,1338,1023,252.5,0,99,4.187,4.189,4.191,4.179,0,0,13.404,76.91,6,P-GPS,
0.334217959809886,36.9066015934988,5413.0229130461,31.824148,0,1.21569557696,13900,2018-04-02 05:19:45,15,0,16.727,5413.0229130461,31.824148,0.223694,1.21569557696,0,0,-3.802798,252.1, 0.5, -0.2,0,1,1024,1024,1329,1024,252.5,0,99,4.187,4.189,4.191,4.179,0,0,13.404,76.91,6,P-GPS,
0.334217912448424,36.9066016046043,5413.6790810461,32.480316,0,1.23343835968,14000,2018-04-02 05:19:45,15,0,16.727,5413.6790810461,32.480316,0.223694,1.23343835968,0,0,-3.802798,252.1, 0.6, -0.3,0,1,1024,1024,1324,1024,252.5,0,99,4.187,4.189,4.191,4.179,0,0,13.404,76.91,6,P-GPS,
0.334217891656247,36.9066016073922,5414.0071650461,32.8084,0,1.24107287436,14100,2018-04-02 05:19:45,15,0,16.727,5414.0071650461,32.8084,0.223694,1.24107287436,0,0,-3.802798,252.2, 0.6, -0.3,0,1,1024,1024,1320,1023,252.5,0,99,4.187,4.189,4.191,4.179,0,0,13.404,76.91,6,P-GPS,
0.334217871082893,36.9066015863112,5414.6633330461,33.464568,0,1.24690292704,14200,2018-04-02 05:19:45,15,0,16.727,5414.6633330461,33.464568,0.223694,1.24690292704,0,0,-3.802798,252.2, 0.4, -0.1,0,1,1024,1024,1317,1024,252.5,0,99,4.187,4.189,4.191,4.179,0,0,13.404,76.91,6,P-GPS,
0.334217844443178,36.9066015867202,5415.3195010461,34.120736,0,1.25646657564,14300,2018-04-02 05:19:45,15,0,16.594,5415.3195010461,34.120736,0.223694,1.25646657564,0,0,-3.579104,252.2, 0.3, -0.1,0,1,1024,1024,1316,1024,252.5,0,99,4.187,4.189,4.191,4.179,0,0,13.404,76.91,6,P-GPS,
0.334217822614497,36.9066015655214,5415.9756690461,34.776904,0,1.26281500104,14400,2018-04-02 05:19:45,15,0,16.594,5415.9756690461,34.776904,0.223694,1.26281500104,0,0,-3.579104,252.2, 0.4, -0.3,0,1,1024,1024,1302,1024,252.5,0,99,4.187,4.189,4.191,4.179,0,0,13.404,76.91,6,P-GPS,
0.334217825056145,36.9066015940047,5416.3037530461,35.104988,0,1.26392064412,14500,2018-04-02 05:19:45,15,0,16.594,5416.3037530461,35.104988,0.223694,1.26392064412,0,0,-3.35541,252.2, 0.6, -0.5,0,1,1024,1024,1248,1024,252.5,0,99,4.187,4.189,4.191,4.179,0,0,13.404,76.91,6,P-GPS,
0.334217826223739,36.9066016025054,5416.9599210461,35.761156,0,1.26411093284,14600,2018-04-02 05:19:45,15,0,16.594,5416.9599210461,35.761156,0.223694,1.26411093284,0,0,-3.35541,252.2, 0.5, -0.5,0,1,1024,1024,1248,1024,252.5,0,99,4.187,4.189,4.191,4.179,0,0,13.404,76.91,6,P-GPS,
0.334217839833867,36.9066016364134,5417.2880050461,36.08924,0,1.26174872804,14700,2018-04-02 05:19:45,15,0,16.594,5417.2880050461,36.08924,0.223694,1.26411093284,0,0,-3.131716,252.2, 0.3, -0.5,0,1,1024,1024,1194,1024,252.5,0,99,4.187,4.189,4.191,4.179,0,0,13.404,76.91,6,P-GPS,
0.334217849553439,36.9066016394582,5417.9441730461,36.745408,0,1.25851053896,14800,2018-04-02 05:19:45,15,0,16.594,5417.9441730461,36.745408,0.223694,1.26411093284,0,0,-2.460634,252.2, 0.2, -0.5,0,1,1024,1024,1199,1024,252.5,0,99,4.187,4.189,4.191,4.179,0,0,13.404,76.91,6,P-GPS,
0.334217868186095,36.9066016592063,5418.2722570461,37.073492,0,1.25339242856,14900,2018-04-02 05:19:46,15,0,16.594,5418.2722570461,37.073492,0.223694,1.26411093284,0,0,-2.23694,252.2, 0.2, -0.6,0,1,1024,1024,1233,1024,252.5,0,99,4.187,4.189,4.191,4.179,0,0,13.404,76.91,6,P-GPS,
0.334217881037164,36.9066016514133,5418.6003410461,37.401576,0,1.24820213968,15000,2018-04-02 05:19:46,15,0,16.594,5418.6003410461,37.401576,0.223694,1.26411093284,0,0,-1.789552,252.2, 0.3, -0.6,0,1,1024,1024,1267,1024,252.5,0,99,4.187,4.189,4.191,4.179,0,0,13.404,76.91,6,P-GPS,
0.334217894564241,36.9066016297162,5418.6003410461,37.401576,0,1.24170935732,15100,2018-04-02 05:19:46,15,0,16.594,5418.6003410461,37.401576,0.223694,1.26411093284,0,0,-1.789552,252.3, 0.4, -0.5,0,1,1024,1024,1285,1024,252.5,0,99,4.187,4.189,4.191,4.179,0,0,13.404,76.91,6,P-GPS,
0.334217902706258,36.9066015901751,5418.9284250461,37.72966,0,1.23586618128,15200,2018-04-02 05:19:46,15,0,16.594,5418.9284250461,37.72966,0.223694,1.26411093284,0,0,-2.013246,252.2, 0.5, -0.3,0,1,1024,1024,1299,1024,252.5,0,99,4.187,4.189,4.191,4.179,0,0,13.404,76.91,6,P-GPS,
0.334217883681757,36.9066016124814,5419.2565090461,38.057744,0,1.24429794008,15300,2018-04-02 05:19:46,15,0,16.567,5419.2565090461,38.057744,0.223694,1.26411093284,0,0,-2.23694,252.2, 0.3, -0.3,0,1,1024,1024,1305,1024,252.5,0,98,4.175,4.173,4.181,4.176,0,0,13.316,76.91,6,P-GPS,
0.334217871982812,36.906601615826,5419.9126770461,38.713912,0,1.24872707408,15400,2018-04-02 05:19:46,15,0,16.567,5419.9126770461,38.713912,0.223694,1.26411093284,0,0,-2.460634,252.2, 0.3, -0.7,0,1,1024,1024,1306,1024,252.5,0,98,4.175,4.173,4.181,4.176,0,0,13.316,76.91,6,P-GPS,
0.334217860512052,36.9066016106297,5420.2407610461,39.041996,0,1.25244098496,15500,2018-04-02 05:19:46,15,0,16.567,5420.2407610461,39.041996,0.223694,1.26411093284,0,0,-2.684328,252.2, 0.2, -0.8,0,1,1024,1024,1324,1023,252.5,0,98,4.175,4.173,4.181,4.176,0,0,13.316,76.91,6,P-GPS,
0.334217854356534,36.9066015848311,5420.5688450461,39.37008,0,1.25278547316,15600,2018-04-02 05:19:46,15,0,16.567,5420.5688450461,39.37008,0.223694,1.26411093284,0,0,-2.908022,252.2, 0, -0.9,0,1,1024,1024,1324,1023,252.5,0,98,4.175,4.173,4.181,4.176,0,0,13.316,76.91,6,P-GPS,
0.334217876976843,36.9066015819811,5421.2250130461,40.026248,0,1.2444882288,15700,2018-04-02 05:19:46,15,0,16.567,5421.2250130461,40.026248,0.223694,1.26411093284,0,0,-3.131716,252.2, 0, -1,0,1,1024,1024,1321,1024,252.5,0,98,4.175,4.173,4.181,4.176,0,0,13.316,76.91,6,P-GPS,
0.334217893604274,36.9066015628288,5421.5530970461,40.354332,0,1.23719164064,15800,2018-04-02 05:19:47,15,0,16.567,5421.5530970461,40.354332,0.223694,1.26411093284,0,0,-3.131716,252.2, 0.1, -0.9,0,1,1024,1024,1313,1023,252.5,0,98,4.175,4.173,4.181,4.176,0,0,13.316,76.91,6,P-GPS,
0.334217935329284,36.9066016024588,5422.2092650461,41.0105,0,1.22510502608,15900,2018-04-02 05:19:47,15,0,16.567,5422.2092650461,41.0105,0.223694,1.26411093284,0,0,-3.35541,252.2, 0, -0.9,0,1,1024,1024,1320,1023,252.5,0,98,4.175,4.173,4.181,4.176,0,0,13.316,76.91,6,P-GPS,
0.334217966690672,36.9066016205683,5422.5373490461,41.338584,0,1.21527562944,16000,2018-04-02 05:19:47,15,0,16.567,5422.5373490461,41.338584,0.223694,1.26411093284,0,0,-3.131716,252.2, 0, -0.9,0,1,1024,1024,1329,1023,252.5,0,98,4.175,4.173,4.181,4.176,0,0,13.316,76.91,6,P-GPS,
0.334217954166717,36.9066016602009,5423.1935170461,41.994752,0,1.22285765068,16100,2018-04-02 05:19:47,15,0,16.567,5423.1935170461,41.994752,0.223694,1.26411093284,0,0,-3.131716,252.3, 0.1, -0.7,0,1,1024,1024,1329,1023,252.5,0,98,4.175,4.173,4.181,4.176,0,0,13.316,76.91,6,P-GPS,
0.33421793344151,36.9066016727892,5423.5216010461,42.322836,0,1.2312500394,16200,2018-04-02 05:19:47,15,0,16.567,5423.5216010461,42.322836,0.223694,1.26411093284,0,0,-3.131716,252.2, 0.1, -0.8,0,1,1024,1024,1333,1024,252.5,0,98,4.175,4.173,4.181,4.176,0,0,13.316,76.91,6,P-GPS,
0.334217946986093,36.9066017396348,5424.1777690461,42.979004,0,1.23212274284,16300,2018-04-02 05:19:47,15,0,16.541,5424.1777690461,42.979004,0.223694,1.26411093284,0,0,-3.35541,252.2, 0.3, -1,0,1,1024,1024,1335,1024,252.5,0,98,4.183,4.178,4.182,4.169,0,0,11.748,78.71,6,P-GPS,
0.334217956937718,36.9066017880807,5424.8339370461,43.635172,0,1.233021693,16400,2018-04-02 05:19:47,15,0,16.541,5424.8339370461,43.635172,0.223694,1.26411093284,0,0,-3.35541,252.2, 0.2, -1.1,0,1,1024,1024,1333,1024,252.5,0,98,4.183,4.178,4.182,4.169,0,0,11.748,78.71,6,P-GPS,
0.334217993352372,36.9066018887963,5425.1620210461,43.963256,0,1.23023625984,16500,2018-04-02 05:19:47,15,0,16.541,5425.1620210461,43.963256,0.223694,1.26411093284,0,0,-3.579104,252.2, 0, -0.8,0,1,1024,1024,1333,1024,252.5,0,98,4.183,4.178,4.182,4.169,0,0,11.748,78.71,6,P-GPS,
0.334218015312142,36.9066019614585,5425.8181890461,44.619424,0,1.23049216536,16600,2018-04-02 05:19:47,15,0,16.541,5425.8181890461,44.619424,0.223694,1.26411093284,0,0,-3.579104,252.1, 0, -0.6,0,1,1024,1024,1334,1023,252.5,0,98,4.183,4.178,4.182,4.169,0,0,11.748,78.71,6,P-GPS,
0.334218041539047,36.9066020715174,5426.4743570461,45.275592,0,1.23447510512,16700,2018-04-02 05:19:47,15,0,16.541,5426.4743570461,45.275592,0.223694,1.26411093284,0,0,-3.579104,252.1, 0, -0.6,0,1,1024,1024,1336,1024,252.5,0,98,4.183,4.178,4.182,4.169,0,0,11.748,78.71,6,P-GPS,
0.334218056335293,36.9066021532954,5426.8024410461,45.603676,0,1.23991473784,16800,2018-04-02 05:19:47,15,0,16.541,5426.8024410461,45.603676,0.223694,1.26411093284,0,0,-3.579104,252.1, -0.2, -0.6,0,1,1024,1024,1346,1024,252.5,0,98,4.183,4.178,4.182,4.169,0,0,11.748,78.71,6,P-GPS,
0.334218074786785,36.9066022845594,5427.4586090461,46.259844,0,1.25190620804,16900,2018-04-02 05:19:48,15,0,16.541,5427.4586090461,46.259844,0.223694,1.26411093284,0,0,-3.579104,252.1, -0.4, -0.5,0,1,1024,1024,1347,1024,252.5,0,98,4.183,4.178,4.182,4.169,0,0,11.748,78.71,6,P-GPS,
0.334218088090358,36.9066023898573,5428.1147770461,46.916012,0,1.26327759948,17000,2018-04-02 05:19:48,15,0,16.541,5428.1147770461,46.916012,0.223694,1.26411093284,0,0,-3.802798,252.1, -0.5, -0.5,0,1,1024,1024,1344,1024,252.5,0,98,4.183,4.178,4.182,4.169,0,0,11.748,78.71,6,P-GPS,
0.334218100588055,36.9066025283753,5428.7709450461,47.57218,0,1.28148954232,17100,2018-04-02 05:19:48,15,0,16.541,5428.7709450461,47.57218,0.223694,1.28148954232,0,0,-3.802798,252, -0.8, -0.5,0,1,1024,1024,1344,1024,252.5,0,98,4.183,4.178,4.182,4.169,0,0,11.748,78.71,6,P-GPS,
0.334218108257619,36.9066026315399,5429.4271130461,48.228348,0,1.2967027974,17200,2018-04-02 05:19:48,15,0,16.541,5429.4271130461,48.228348,0.223694,1.2967027974,0,0,-3.802798,252.1, -0.8, -0.7,0,1,1024,1024,1345,1024,252.5,0,98,4.183,4.178,4.182,4.169,0,0,11.748,78.71,6,P-GPS,
0.334218111136505,36.9066027543268,5429.7551970461,48.556432,0,1.31795607892,17300,2018-04-02 05:19:48,15,0,16.594,5429.7551970461,48.556432,0.223694,1.31795607892,0,0,-3.802798,252.1, -0.6, -0.9,0,1,1024,1024,1351,1024,252.5,0,98,4.165,4.164,4.17,4.163,0,0,13.888,78.71,6,P-GPS,
0.334218101226812,36.9066028486075,5430.4113650461,49.2126,0,1.33882550216,17400,2018-04-02 05:19:48,15,0,16.594,5430.4113650461,49.2126,0.223694,1.33882550216,0,0,-3.579104,252.1, -0.6, -0.7,0,1,1024,1024,1365,1024,252.5,0,98,4.165,4.164,4.17,4.163,0,0,13.888,78.71,6,P-GPS,
0.334218084108405,36.9066029747186,5431.0675330461,49.868768,0,1.36879269472,17500,2018-04-02 05:19:48,15,0,16.594,5431.0675330461,49.868768,0.223694,1.36879269472,0,0,-3.802798,252.1, -0.7, -0.4,0,1,1024,1024,1370,1024,252.5,0,98,4.165,4.164,4.17,4.163,0,0,13.888,78.71,6,P-GPS,
0.334218067795671,36.9066030686535,5431.7237010461,50.524936,0,1.39277235428,17600,2018-04-02 05:19:48,15,0,16.594,5431.7237010461,50.524936,0.223694,1.39277235428,0,0,-4.026492,252.1, -0.6, -0.5,0,1,1024,1024,1370,1024,252.5,0,98,4.165,4.164,4.17,4.163,0,0,13.888,78.71,6,P-GPS,
0.334218088129237,36.9066032094155,5432.3798690461,51.181104,0,1.41631566212,17700,2018-04-02 05:19:48,15,0,16.594,5432.3798690461,51.181104,0.223694,1.41631566212,0,0,-4.026492,252.2, -0.8, -0.4,0,1,1024,1024,1365,1023,252.5,0,98,4.165,4.164,4.17,4.163,0,0,13.888,78.71,6,P-GPS,
0.334218105227085,36.9066033288085,5433.0360370461,51.837272,0,1.43749348432,17800,2018-04-02 05:19:48,15,0,16.594,5433.0360370461,51.837272,0.223694,1.43749348432,0,0,-4.026492,252.2, -1, -0.4,0,1,1024,1024,1369,1024,252.5,0,98,4.165,4.164,4.17,4.163,0,0,13.888,78.71,6,P-GPS,
0.334218127037039,36.906603467386,5433.3641210461,52.165356,0,1.4627953224,17900,2018-04-02 05:19:49,15,0,16.594,5433.3641210461,52.165356,0.223694,1.4627953224,0,0,-4.026492,252.2, -1.1, -0.2,0,1,1024,1024,1370,1024,252.5,0,98,4.165,4.164,4.17,4.163,0,0,13.888,78.71,6,P-GPS,
0.334218131794538,36.9066035589157,5434.0202890461,52.821524,0,1.48291671412,18000,2018-04-02 05:19:49,15,0,16.594,5434.0202890461,52.821524,0.223694,1.48291671412,0,0,-4.026492,252.2, -1, -0.1,0,1,1024,1024,1367,1024,252.5,0,98,4.165,4.164,4.17,4.163,0,0,13.888,78.71,6,P-GPS,
0.334218113819162,36.9066036991584,5434.6764570461,53.477692,0,1.52151907756,18100,2018-04-02 05:19:49,15,0,16.594,5434.6764570461,53.477692,0.223694,1.52151907756,0,0,-4.026492,252.2, -1, -0.3,0,1,1024,1024,1367,1024,252.5,0,98,4.165,4.164,4.17,4.163,0,0,13.888,78.71,6,P-GPS,
0.334218091395489,36.9066037984383,5435.3326250461,54.13386,0,1.55190621764,18200,2018-04-02 05:19:49,15,0,16.594,5435.3326250461,54.13386,0.223694,1.55190621764,0,0,-4.250186,252.2, -1.2, -0.3,0,1,1024,1024,1360,1023,252.5,0,98,4.165,4.164,4.17,4.163,0,0,13.888,78.71,6,P-GPS,
0.334218110732854,36.9066039123327,5435.9887930461,54.790028,0,1.5752297092,18300,2018-04-02 05:19:49,15,0,16.541,5435.9887930461,54.790028,0.223694,1.5752297092,0,0,-4.250186,252.2, -1.1, -0.4,0,1,1024,1024,1355,1023,252.5,0,98,4.165,4.164,4.17,4.163,0,0,13.888,78.71,6,P-GPS,
0.334218126403371,36.9066039828242,5436.6449610461,55.446196,0,1.5890912582,18400,2018-04-02 05:19:49,15,0,16.541,5436.6449610461,55.446196,0.223694,1.5890912582,0,0,-4.250186,252.2, -1, -0.6,0,1,1024,1024,1360,1024,252.5,0,98,4.165,4.164,4.17,4.163,0,0,13.888,78.71,6,P-GPS,
0.334218107325131,36.9066040809109,5437.3011290461,56.102364,0,1.61933732216,18500,2018-04-02 05:19:49,15,0,16.541,5437.3011290461,56.102364,0.223694,1.61933732216,0,0,-4.250186,252.2, -1, -0.5,0,1,1024,1024,1359,1024,252.5,0,98,4.165,4.164,4.17,4.163,0,0,13.888,78.71,6,P-GPS,
0.334218076409936,36.9066041399324,5437.9572970461,56.758532,0,1.64260503944,18600,2018-04-02 05:19:49,15,0,16.541,5437.9572970461,56.758532,0.223694,1.64260503944,0,0,-4.250186,252.2, -0.8, -0.3,0,1,1024,1024,1347,1024,252.5,-0.2,98,4.165,4.164,4.17,4.163,0,0,13.888,78.71,6,P-GPS,
0.334218082402814,36.9066042354223,5438.6134650461,57.4147,0,1.66619427904,18700,2018-04-02 05:19:49,15,0,16.541,5438.6134650461,57.4147,0.223694,1.66619427904,0,0,-4.250186,252.2, -0.7, -0.2,0,1,1024,1024,1347,1023,252.5,-1.2,98,4.165,4.164,4.17,4.163,0,0,13.888,78.71,6,P-GPS,
0.334218086755237,36.9066043043171,5439.2696330461,58.070868,0,1.68345149744,18800,2018-04-02 05:19:50,15,0,16.541,5439.2696330461,58.070868,0.223694,1.68345149744,0,0,-4.026492,252.2, -0.8, -0.4,0,1,1024,1024,1349,1024,252.5,-2.3,98,4.165,4.164,4.17,4.163,0,0,13.888,78.71,6,P-GPS,
0.334218099109021,36.9066044201423,5439.9258010461,58.727036,0,1.71168312564,18900,2018-04-02 05:19:50,15,0,16.541,5439.9258010461,58.727036,0.223694,1.71168312564,0,0,-4.026492,252.2, -0.8, -0.4,0,1,1024,1024,1346,1023,252.4,-3.3,98,4.165,4.164,4.17,4.163,0,0,13.888,78.71,6,P-GPS,
0.334218095361157,36.906604500332,5440.5819690461,59.383204,0,1.73451777204,19000,2018-04-02 05:19:50,15,0,16.541,5440.5819690461,59.383204,0.223694,1.73451777204,0,0,-4.026492,252.2, -0.8, -0.3,0,1,1024,1024,1335,1024,252.5,-4.8,98,4.165,4.164,4.17,4.163,0,0,13.888,78.71,6,P-GPS,
0.334218063990201,36.9066046260305,5441.2381370461,60.039372,0,1.77671593612,19100,2018-04-02 05:19:50,15,0,16.541,5441.2381370461,60.039372,0.223694,1.77671593612,0,0,-4.026492,252.2, -0.9, 0.2,0,1,1024,1024,1337,1023,252.4,-6.4,98,4.165,4.164,4.17,4.163,0,0,13.888,78.71,6,P-GPS,
0.33421803464564,36.906604713464,5441.8943050461,60.69554,0,1.80798234132,19200,2018-04-02 05:19:50,15,0,16.541,5441.8943050461,60.69554,0.223694,1.80798234132,0,0,-3.802798,252.1, -1, 0,0,1,1024,1024,1337,1023,252.5,-7.9,98,4.165,4.164,4.17,4.163,0,0,13.888,78.71,6,P-GPS,
0.334218030631933,36.9066048393455,5442.2223890461,61.023624,0,1.84430124012,19300,2018-04-02 05:19:50,15,0,16.594,5442.2223890461,61.023624,0.223694,1.84430124012,0,0,-3.579104,252.1, -1.1, -0.2,0,1,1024,1024,1331,1024,252.4,-9.4,98,4.159,4.159,4.165,4.158,0,0,13.948,78.71,6,P-GPS,
0.33421802609407,36.9066049307992,5442.8785570461,61.679792,0,1.87132223836,19400,2018-04-02 05:19:50,15,0,16.594,5442.8785570461,61.679792,0.223694,1.87132223836,0,0,-3.802798,252.2, -1.3, -0.1,0,1,1024,1024,1330,1023,252.4,-10.9,98,4.159,4.159,4.165,4.158,0,0,13.948,78.71,6,P-GPS,
0.334218003312953,36.9066050239905,5443.5347250461,62.33596,0,1.90314638636,19500,2018-04-02 05:19:50,15,0,16.594,5443.5347250461,62.33596,0.223694,1.90314638636,0,0,-3.802798,252.1, -1.5, -0.2,0,1,1024,1024,1331,1024,252.4,-12.5,98,4.159,4.159,4.165,4.158,0,0,13.948,78.71,6,P-GPS,
0.334217973586725,36.9066050807519,5444.1908930461,62.992128,0,1.92613851308,19600,2018-04-02 05:19:50,15,0,16.594,5444.1908930461,62.992128,0.223694,1.92613851308,0,0,-3.579104,252.1, -1.2, -0.5,0,1,1024,1024,1331,1024,252.4,-13.9,98,4.159,4.159,4.165,4.158,0,0,13.948,78.71,6,P-GPS,
0.334217975027288,36.9066051809477,5444.8470610461,63.648296,0,1.95476056124,19700,2018-04-02 05:19:50,15,0,16.594,5444.8470610461,63.648296,0.223694,1.95476056124,0,0,-3.802798,252.1, -1.2, 0.2,0,1,1024,1024,1324,1024,252.4,-14.1,98,4.159,4.159,4.165,4.158,0,0,13.948,78.71,6,P-GPS,
0.334217979373198,36.9066052657234,5445.1751450461,63.97638,0,1.97849743864,19800,2018-04-02 05:19:50,15,0,16.594,5445.1751450461,63.97638,0.223694,1.97849743864,0,0,-3.579104,252.1, -1.7, 0.6,0,1,1024,1024,1326,1024,252.4,-14.1,98,4.159,4.159,4.165,4.158,0,0,13.948,78.71,6,P-GPS,
0.334217984045814,36.9066053870013,5445.8313130461,64.632548,0,2.01312998568,19900,2018-04-02 05:19:51,15,0,16.594,5445.8313130461,64.632548,0.223694,2.01312998568,0,0,-3.579104,252.2, -2.1, 0.2,0,1,1024,1024,1327,1023,252.4,-14.1,98,4.159,4.159,4.165,4.158,0,0,13.948,78.71,6,P-GPS,
0.33421798901094,36.9066054677611,5446.4874810461,65.288716,0,2.036007283,20000,2018-04-02 05:19:51,15,0,16.594,5446.4874810461,65.288716,0.223694,2.036007283,0,0,-3.579104,252.2, -2.2, -0.1,0,1,1024,1024,1328,1024,252.4,-14.1,98,4.159,4.159,4.165,4.158,0,0,13.948,78.71,6,P-GPS,
0.334217997678333,36.9066055404276,5447.1436490461,65.944884,0,2.055856365,20100,2018-04-02 05:19:51,15,0,16.594,5447.1436490461,65.944884,0.223694,2.055856365,0,0,-3.579104,252.2, -2.5, 0.2,0,1,1024,1024,1327,1024,252.4,-14.1,98,4.159,4.159,4.165,4.158,0,0,13.948,78.71,6,P-GPS,
0.334218009553964,36.9066055580875,5447.4717330461,66.272968,0,2.05867132572,20200,2018-04-02 05:19:51,15,0,16.594,5447.4717330461,66.272968,0.223694,2.05867132572,0,0,-3.802798,252.2, -2.5, 0,0,1,1024,1024,1335,1024,252.4,-14.1,98,4.159,4.159,4.165,4.158,0,0,13.948,78.71,6,P-GPS,
0.334218058572979,36.906605558604,5448.1279010461,66.929136,0,2.04869429128,20300,2018-04-02 05:19:51,15,0,16.541,5448.1279010461,66.929136,0.223694,2.05867132572,0,0,-3.802798,252.2, -2, -0.2,0,1,1024,1024,1346,1024,252.4,-14.1,98,4.163,4.166,4.172,4.163,0,0,13.024,78.71,6,P-GPS,
0.334218104906892,36.906605520944,5448.7840690461,67.585304,0,2.02782814888,20400,2018-04-02 05:19:51,15,0,16.541,5448.7840690461,67.585304,0.223694,2.05867132572,0,0,-3.802798,252.1, -1.4, -0.6,0,1,1024,1024,1336,1024,252.4,-14.1,98,4.163,4.166,4.172,4.163,0,0,13.024,78.71,6,P-GPS,
0.334218141467699,36.9066054843139,5449.4402370461,68.241472,0,2.0092848412,20500,2018-04-02 05:19:51,15,0,16.541,5449.4402370461,68.241472,0.223694,2.05867132572,0,0,-3.579104,252.1, -1, -0.7,0,1,1024,1024,1332,1024,252.4,-14.1,98,4.163,4.166,4.172,4.163,0,0,13.024,78.71,6,P-GPS,
0.33421816662268,36.9066054411659,5450.0964050461,68.89764,0,1.99110242592,20600,2018-04-02 05:19:51,15,0,16.541,5450.0964050461,68.89764,0.223694,2.05867132572,0,0,-3.802798,252.1, -1.4, -1.1,0,1,1024,1024,1332,1024,252.4,-14.1,98,4.163,4.166,4.172,4.163,0,0,13.024,78.71,6,P-GPS,
0.334218202047037,36.9066054430481,5450.4244890461,69.225724,0,1.9844652866,20700,2018-04-02 05:19:51,15,0,16.541,5450.4244890461,69.225724,0.223694,2.05867132572,0,0,-3.802798,252.2, -1.5, -0.9,0,1,1024,1024,1333,1024,252.4,-14.2,98,4.163,4.166,4.172,4.163,0,0,13.024,78.71,6,P-GPS,
0.334218217008264,36.9066054304448,5451.0806570461,69.881892,0,1.977608331,20800,2018-04-02 05:19:51,15,0,16.541,5451.0806570461,69.881892,0.223694,2.05867132572,0,0,-3.802798,252.2, -1.8, -0.2,0,1,1024,1024,1333,1023,252.4,-14.3,98,4.163,4.166,4.172,4.163,0,0,13.024,78.71,6,P-GPS,
0.334218252199448,36.9066054753743,5451.7368250461,70.53806,0,1.98422578528,20900,2018-04-02 05:19:52,15,0,16.541,5451.7368250461,70.53806,0.223694,2.05867132572,0,0,-3.802798,252.3, -1.8, 0,0,1,1024,1024,1334,1023,252.4,-14.3,98,4.163,4.166,4.172,4.163,0,0,13.024,78.71,6,P-GPS,
0.334218292984031,36.9066054791739,5452.3929930461,71.194228,0,1.97730321288,21000,2018-04-02 05:19:52,15,0,16.541,5452.3929930461,71.194228,0.223694,2.05867132572,0,0,-3.579104,252.2, -1.7, -0.3,0,1,1024,1024,1336,1024,252.4,-14.5,98,4.163,4.166,4.172,4.163,0,0,13.024,78.71,6,P-GPS,
0.334218366441003,36.9066054876634,5452.7210770461,71.522312,0,1.9655676482,21100,2018-04-02 05:19:52,15,0,16.541,5452.7210770461,71.522312,0.223694,2.05867132572,0,0,-3.579104,252.2, -1.6, -0.8,0,1,1024,1024,1336,1024,252.4,-15.2,98,4.163,4.166,4.172,4.163,0,0,13.024,78.71,6,P-GPS,
0.334218422215617,36.9066054528351,5453.3772450461,72.17848,0.223694,1.94403221444,21200,2018-04-02 05:19:52,15,0,16.541,5453.3772450461,72.17848,0.223694,2.05867132572,0,-0.223694,-3.579104,252.2, -1.6, -0.9,0,1,1024,1024,1332,1024,252.4,-15.8,98,4.163,4.166,4.172,4.163,0,0,13.024,78.71,6,P-GPS,
0.334218517323871,36.9066054367186,5454.0334130461,72.834648,0.223694,1.92097447092,21300,2018-04-02 05:19:52,15,0,16.567,5454.0334130461,72.834648,0.223694,2.05867132572,0,-0.223694,-3.802798,252.2, -1.3, -1.2,0,1,1024,1024,1331,1024,252.4,-15.8,98,4.163,4.166,4.172,4.163,0,0,13.554,78.71,6,P-GPS,
0.334218579917289,36.9066053875826,5454.6895810461,73.490816,0.223694,1.89388785588,21400,2018-04-02 05:19:52,15,0,16.567,5454.6895810461,73.490816,0.223694,2.05867132572,0,-0.223694,-3.579104,252.2, -1.1, -1.2,0,1,1024,1024,1332,1024,252.4,-16.4,98,4.163,4.166,4.172,4.163,0,0,13.554,78.71,6,P-GPS,
0.334218602374549,36.9066053514402,5455.0176650461,73.8189,0.223694,1.87836620184,21500,2018-04-02 05:19:52,15,0,16.567,5455.0176650461,73.8189,0.223694,2.05867132572,0,-0.223694,-3.579104,252.2, -0.8, -0.9,0,1,1024,1024,1336,1024,252.4,-16.9,98,4.163,4.166,4.172,4.163,0,0,13.554,78.71,6,P-GPS,
0.334218595651925,36.9066052904954,5455.6738330461,74.475068,0.223694,1.86052499392,21600,2018-04-02 05:19:52,15,0,16.567,5455.6738330461,74.475068,0.223694,2.05867132572,0,-0.223694,-3.579104,252.2, -0.4, -0.3,0,1,1024,1024,1346,1024,252.4,-16.9,98,4.163,4.166,4.172,4.163,0,0,13.554,78.71,6,P-GPS,
0.334218617190641,36.9066052603147,5456.0019170461,74.803152,0.223694,1.84703746068,21700,2018-04-02 05:19:52,15,0,16.567,5456.0019170461,74.803152,0.223694,2.05867132572,0,-0.223694,-3.35541,252.2, -0.1, 0,0,1,1024,1024,1353,1024,252.4,-17,98,4.163,4.166,4.172,4.163,0,0,13.554,78.71,6,P-GPS,
0.334218659752163,36.9066052280035,5456.6580850461,75.45932,0,1.8289534706,21800,2018-04-02 05:19:52,15,0,16.567,5456.6580850461,75.45932,0.223694,2.05867132572,0,0,-3.802798,252.2, -0.2, -0.4,0,1,1024,1024,1353,1024,252.4,-17,98,4.163,4.166,4.172,4.163,0,0,13.554,78.71,6,P-GPS,
