latitude,longitude,altitude(feet),ascent(feet),speed(mph),distance(feet),time(millisecond),datetime(utc),satellites,voltage(v),max_altitude(feet),max_ascent(feet),max_speed(mph),max_distance(feet),compass_heading(degrees), pitch(degrees), roll(degrees),isPhoto,isVideo,rc_elevator,rc_aileron,rc_throttle,rc_rudder,gimbal_heading(degrees),gimbal_pitch(degrees),battery_percent,voltageCell1,voltageCell2,voltageCell3,voltageCell4,voltageCell5,voltageCell6,battery_temperature(f),flycStateRaw,flycState,message
0.305150042247361,36.8794036814399,5833.7131876631,0,0,0,100,2017-11-11 11:49:46,17,0,5833.7131876631,0,0,0,55.7, -2.5, 1.8,0,0,1024,1024,1024,1024,60.3,0,79,4.085,4.087,4.085,4.081,0,0,84.11,41,Motors_Started,
0.305150041373153,36.8794036455492,5833.7131876631,0,0,0.0130983928076,200,2017-11-11 11:49:46,17,0,5833.7131876631,0,0,0.0130983928076,55.7, -2.5, 1.8,0,0,1024,1024,1024,1024,60.3,0,79,4.085,4.087,4.085,4.081,0,0,84.11,41,Motors_Started,
0.30515003690039,36.8794036280791,5833.7131876631,0,0,0.0195659126996,300,2017-11-11 11:49:46,17,0,5833.7131876631,0,0,0.0195659126996,55.7, -2.5, 1.8,0,0,1024,1024,1024,1024,60.3,0,79,4.085,4.087,4.085,4.081,0,0,84.11,41,Motors_Started,
0.305150035986795,36.8794036123767,5833.7131876631,0,0,0.0253006241692,400,2017-11-11 11:49:46,17,0,5833.7131876631,0,0,0.0253006241692,55.7, -2.5, 1.8,0,0,1024,1024,1024,1024,60.3,0,79,4.085,4.087,4.085,4.081,0,0,84.11,41,Motors_Started,
0.305150031227349,36.8794035739597,5833.7131876631,0,0,0.039418964516,500,2017-11-11 11:49:46,17,16.274,5833.7131876631,0,0,0.039418964516,55.7, -2.5, 1.8,0,0,1024,1024,1024,1024,60.3,0,79,4.085,4.087,4.085,4.081,0,0,84.11,41,Motors_Started,Setting new Return-To-Home altitude to 30m (98 ft). Setting new Maximum Flight Altitude to 150m (492 ft)
0.305150030371055,36.8794035407479,5833.7131876631,0,0,0.051513125008,600,2017-11-11 11:49:46,17,16.274,5833.7131876631,0,0,0.051513125008,55.7, -2.5, 1.8,0,0,993,746,608,1556,60.3,0,79,4.085,4.087,4.085,4.081,0,0,84.11,41,Motors_Started,
0.305150026335007,36.879403486269,5833.7131876631,0,0,0.071443243756,700,2017-11-11 11:49:46,17,16.274,5833.7131876631,0,0,0.071443243756,55.7, -2.5, 1.8,0,0,1024,1024,1024,1059,60,0,79,4.085,4.087,4.085,4.081,0,0,84.11,41,Motors_Started,
0.305150024765213,36.8794034421329,5833.7131876631,0,0,0.087542325636,800,2017-11-11 11:49:46,17,16.274,5833.7131876631,0,0,0.087542325636,55.7, -2.5, 1.8,0,0,1024,1024,1024,1024,58.2,0,79,4.085,4.087,4.085,4.081,0,0,84.11,41,Motors_Started,
0.305150021536225,36.8794034192983,5833.7131876631,0,0,0.095938979448,900,2017-11-11 11:49:47,17,16.274,5833.7131876631,0,0,0.095938979448,55.7, -2.5, 1.8,0,0,1024,1024,1024,1024,58.2,0,79,4.085,4.087,4.085,4.081,0,0,84.11,41,Motors_Started,
0.305150021269109,36.8794033985971,5833.7131876631,0,0,0.103477037432,1000,2017-11-11 11:49:47,17,16.274,5833.7131876631,0,0,0.103477037432,55.7, -2.5, 1.8,0,0,1024,1024,1024,1024,57,0,79,4.085,4.087,4.085,4.081,0,0,84.11,41,Motors_Started,
0.305150020494618,36.8794033587985,5833.7131876631,0,0,0.117980974904,1100,2017-11-11 11:49:47,17,16.274,5833.7131876631,0,0,0.117980974904,55.7, -2.5, 1.7,0,0,1024,1024,1024,1024,56.8,0,79,4.085,4.087,4.085,4.081,0,0,84.11,41,Motors_Started,
0.305150020057089,36.8794033235999,5833.7131876631,0,0,0.130806762716,1200,2017-11-11 11:49:47,17,16.274,5833.7131876631,0,0,0.130806762716,55.7, -2.4, 1.8,0,0,1024,1024,1024,1024,56.6,0,79,4.085,4.087,4.085,4.081,0,0,84.11,41,Motors_Started,
0.305150019963886,36.8794033107754,5833.7131876631,0,0,0.13547900696,1300,2017-11-11 11:49:47,17,16.274,5833.7131876631,0,0,0.13547900696,55.7, -2.5, 1.8,0,0,1024,1024,1024,1024,56.5,0,79,4.085,4.087,4.085,4.081,0,0,84.11,41,Motors_Started,
0.305150019224763,36.8794032962341,5833.7131876631,0,0,0.140791015004,1400,2017-11-11 11:49:47,17,16.274,5833.7131876631,0,0,0.140791015004,55.7, -2.4, 1.8,0,0,1024,1024,1024,1024,56.4,0,79,4.085,4.087,4.085,4.081,0,0,84.11,41,Motors_Started,
0.305150017801287,36.8794032230662,5833.7131876631,0,0,0.167472774388,1500,2017-11-11 11:49:47,17,16.274,5833.7131876631,0,0,0.167472774388,55.7, -2.4, 1.8,0,0,1024,1024,1024,1024,56.4,0,79,4.085,4.087,4.085,4.081,0,0,84.11,41,Motors_Started,
0.305150017838575,36.8794031625509,5833.7131876631,0,0,0.189522971944,1600,2017-11-11 11:49:47,17,16.274,5833.7131876631,0,0,0.189522971944,55.6, -2.4, 1.7,0,0,1024,1024,1024,1024,56.4,0,79,4.085,4.087,4.085,4.081,0,0,84.11,10,Assisted_Takeoff,
0.30514998079157,36.8794030880154,5833.7131876631,0,0,0.217665361296,1700,2017-11-11 11:49:47,17,16.274,5833.7131876631,0,0,0.217665361296,55.6, -2.4, 1.8,0,0,1024,1024,1024,1024,56.3,0,79,4.085,4.087,4.085,4.081,0,0,84.11,10,Assisted_Takeoff,
0.305149952008765,36.8794030271727,5833.7131876631,0,0,0.240965558892,1800,2017-11-11 11:49:47,17,16.274,5833.7131876631,0,0,0.240965558892,55.6, -2.5, 1.8,0,0,1024,1024,1024,1024,56.3,0,79,4.085,4.087,4.085,4.081,0,0,84.11,10,Assisted_Takeoff,
0.305149964713325,36.8794029948276,5833.7131876631,0,0,0.252098761348,1900,2017-11-11 11:49:48,17,16.274,5833.7131876631,0,0,0.252098761348,55.6, -2.5, 1.8,0,0,1024,1024,1024,1024,56.2,0,79,4.085,4.087,4.085,4.081,0,0,84.11,10,Assisted_Takeoff,
0.305149976637377,36.8794029663001,5833.7131876631,0,0,0.262010507072,2000,2017-11-11 11:49:48,17,16.274,5833.7131876631,0,0,0.262010507072,55.6, -2.4, 1.8,0,1,1024,1024,1024,1024,56.2,0,79,4.085,4.087,4.085,4.081,0,0,84.11,10,Assisted_Takeoff,
0.30514998833007,36.8794029242457,5833.7131876631,0,0,0.276957357944,2100,2017-11-11 11:49:48,17,16.274,5833.7131876631,0,0,0.276957357944,55.6, -2.5, 1.7,0,1,1024,1024,1024,1024,56.2,0,79,4.085,4.087,4.085,4.081,0,0,84.11,10,Assisted_Takeoff,
0.305149997213887,36.8794028853777,5833.7131876631,0,0,0.290903224532,2200,2017-11-11 11:49:48,17,16.274,5833.7131876631,0,0,0.290903224532,55.6, -2.4, 1.8,0,1,1024,1024,1024,1024,56.2,0,79,4.085,4.087,4.085,4.081,0,0,84.11,10,Assisted_Takeoff,
0.305150005149918,36.8794028728376,5833.7131876631,0,0,0.295324156432,2300,2017-11-11 11:49:48,17,16.274,5833.7131876631,0,0,0.295324156432,55.6, -2.4, 1.8,0,1,1024,1024,1024,1024,56.1,0,79,4.085,4.087,4.085,4.081,0,0,84.11,10,Assisted_Takeoff,
0.305150011857504,36.8794028562673,5833.7131876631,0,0,0.301263461084,2400,2017-11-11 11:49:48,17,16.274,5833.7131876631,0,0,0.301263461084,55.6, -2.5, 1.7,0,1,1024,1024,1024,1024,56.1,0,79,4.085,4.087,4.085,4.081,0,0,84.11,10,Assisted_Takeoff,
0.305150054601665,36.8794028626558,5833.7131876631,0,0,0.298762804836,2500,2017-11-11 11:49:48,17,16.327,5833.7131876631,0,0,0.301263461084,55.6, -2.5, 1.7,0,1,1024,1024,1024,1024,56.1,0,79,4.065,4.064,4.089,4.078,0,0,84.11,10,Assisted_Takeoff,
0.305150089730574,36.8794028617161,5833.7131876631,0,0,0.299572844232,2600,2017-11-11 11:49:48,17,16.327,5833.7131876631,0,0,0.301263461084,55.6, -2.5, 1.7,0,1,1024,1024,1024,1024,56.1,0,79,4.065,4.064,4.089,4.078,0,0,84.11,10,Assisted_Takeoff,
0.305150114455099,36.8794028417598,5833.7131876631,0,0,0.307483277556,2700,2017-11-11 11:49:48,17,16.327,5833.7131876631,0,0,0.307483277556,55.6, -2.5, 1.7,0,1,1024,1024,1024,1024,56.1,0,79,4.065,4.064,4.089,4.078,0,0,84.11,10,Assisted_Takeoff,
0.305150136738243,36.8794028209486,5833.7131876631,0,0,0.315832359188,2800,2017-11-11 11:49:48,17,16.327,5833.7131876631,0,0,0.315832359188,55.6, -2.5, 1.7,0,1,1024,1024,1024,1024,56.1,0,79,4.065,4.064,4.089,4.078,0,0,84.11,10,Assisted_Takeoff,
0.305150150459691,36.8794027781986,5833.7131876631,0,0,0.33189961692,2900,2017-11-11 11:49:49,17,16.327,5833.7131876631,0,0,0.33189961692,55.6, -2.5, 1.7,0,1,1024,1024,1024,1024,56.1,0,79,4.065,4.064,4.089,4.078,0,0,84.11,10,Assisted_Takeoff,
0.305150163977837,36.8794027409252,5833.7131876631,0,0,0.34600394808,3000,2017-11-11 11:49:49,17,16.327,5833.7131876631,0,0,0.34600394808,55.6, -2.5, 1.7,0,1,1024,1024,1024,1024,56.1,0,79,4.065,4.064,4.089,4.078,0,0,84.11,10,Assisted_Takeoff,
0.305150167350166,36.8794027213369,5833.7131876631,0,0,0.3532480428,3100,2017-11-11 11:49:49,17,16.327,5833.7131876631,0,0,0.3532480428,55.6, -2.5, 1.7,0,1,1024,1024,1024,1024,56.1,0,79,4.065,4.064,4.089,4.078,0,0,84.11,10,Assisted_Takeoff,
0.305150175150158,36.8794027040913,5833.7131876631,0,0,0.35986221624,3200,2017-11-11 11:49:49,17,16.327,5833.7131876631,0,0,0.35986221624,55.6, -2.5, 1.7,0,1,1024,1024,1024,1024,56.1,0,79,4.065,4.064,4.089,4.078,0,0,84.11,10,Assisted_Takeoff,
0.30515017251241,36.8794027036591,5833.7131876631,0,0,0.35988846296,3300,2017-11-11 11:49:49,17,16.327,5833.7131876631,0,0,0.35988846296,55.6, -2.5, 1.7,0,1,1024,1024,1024,1024,56.1,0,79,4.065,4.064,4.089,4.078,0,0,84.11,10,Assisted_Takeoff,
0.305150175663805,36.8794026996559,5833.7131876631,0,0,0.36148951288,3400,2017-11-11 11:49:49,17,16.327,5833.7131876631,0,0,0.36148951288,55.6, -2.5, 1.7,0,1,1024,1024,1024,1024,56,0,79,4.065,4.064,4.089,4.078,0,0,84.11,10,Assisted_Takeoff,
0.305150206577499,36.8794026721958,5833.7131876631,0,0,0.37306759724,3500,2017-11-11 11:49:49,17,16.274,5833.7131876631,0,0,0.37306759724,55.6, -2.5, 1.7,0,1,1024,1024,1024,1024,56,0,79,4.078,4.083,4.081,4.076,0,0,84.11,10,Assisted_Takeoff,
0.305150236236986,36.879402646609,5833.7131876631,0,0,0.38412730888,3600,2017-11-11 11:49:49,17,16.274,5833.7131876631,0,0,0.38412730888,55.6, -2.5, 1.7,0,1,1024,1024,1024,1024,56,0,79,4.078,4.083,4.081,4.076,0,0,84.11,10,Assisted_Takeoff,
0.305150253806115,36.8794026346259,5833.7131876631,0,0,0.38964568176,3700,2017-11-11 11:49:49,17,16.274,5833.7131876631,0,0,0.38964568176,55.6, -2.5, 1.7,0,1,1024,1024,1024,1024,56,0,79,4.078,4.083,4.081,4.076,0,0,84.11,10,Assisted_Takeoff,
0.305150271543433,36.8794026234503,5833.7131876631,0,0,0.3949639234,3800,2017-11-11 11:49:49,17,16.274,5833.7131876631,0,0,0.3949639234,55.6, -2.5, 1.7,0,1,1024,1024,1024,1024,56,0,79,4.078,4.083,4.081,4.076,0,0,84.11,10,Assisted_Takeoff,
0.305150276389937,36.8794025868198,5833.7131876631,0,0,0.4083989632,3900,2017-11-11 11:49:50,17,16.274,5833.7131876631,0,0,0.4083989632,55.6, -2.5, 1.7,0,1,1024,1024,1024,1024,56,0,79,4.078,4.083,4.081,4.076,0,0,84.11,10,Assisted_Takeoff,
0.305150285822342,36.8794025548054,5833.7131876631,0,0,0.42054463288,4000,2017-11-11 11:49:50,17,16.274,5833.7131876631,0,0,0.42054463288,55.6, -2.5, 1.7,0,1,1024,1024,1024,1024,56,0,79,4.078,4.083,4.081,4.076,0,0,84.11,10,Assisted_Takeoff,
0.305150283752488,36.8794025375526,5833.7131876631,0,0,0.4265420084,4100,2017-11-11 11:49:50,17,16.274,5833.7131876631,0,0,0.4265420084,55.6, -2.5, 1.7,0,1,1024,1024,1024,1024,56,0,79,4.078,4.083,4.081,4.076,0,0,84.11,10,Assisted_Takeoff,
0.305150287939243,36.8794025227718,5833.7131876631,0,0,0.43213255976,4200,2017-11-11 11:49:50,17,16.274,5833.7131876631,0,0,0.43213255976,55.6, -2.5, 1.7,0,1,1024,1024,1024,1024,56,0,79,4.078,4.083,4.081,4.076,0,0,84.11,10,Assisted_Takeoff,
0.305150318314431,36.8794024840065,5833.7131876631,0,0,0.44833662852,4300,2017-11-11 11:49:50,17,16.274,5833.7131876631,0,0,0.44833662852,55.6, -2.5, 1.7,0,1,1024,1024,1024,1024,56,0,79,4.078,4.083,4.081,4.076,0,0,84.11,10,Assisted_Takeoff,
0.305150365948809,36.8794024320021,5833.7131876631,0,0,0.47090224604,4500,2017-11-11 11:49:50,17,16.274,5833.7131876631,0,0,0.47090224604,55.6, -2.5, 1.7,0,1,1024,1024,1024,1024,56,0,79,4.08,4.082,4.08,4.076,0,0,84.11,10,Assisted_Takeoff,
0.305150384456228,36.8794024164389,5833.7131876631,0,0,0.4781168132,4600,2017-11-11 11:49:50,17,16.274,5833.7131876631,0,0,0.4781168132,55.6, -2.5, 1.7,0,1,1024,1024,1039,1024,56,0,79,4.08,4.082,4.08,4.076,0,0,84.11,10,Assisted_Takeoff,
0.30515039125086,36.8794024153758,5833.7131876631,0,0,0.47914699696,4700,2017-11-11 11:49:50,17,16.274,5833.7131876631,0,0,0.47914699696,55.6, -2.5, 1.7,0,1,1024,1024,1090,1024,56,0,79,4.08,4.082,4.08,4.076,0,0,84.11,10,Assisted_Takeoff,
0.305150398468073,36.8794024137625,5833.7131876631,0,0,0.48041996288,4800,2017-11-11 11:49:50,17,16.274,5833.7131876631,0,0,0.48041996288,55.6, -2.5, 1.7,0,1,1024,1024,1160,1024,56,0,79,4.08,4.082,4.08,4.076,0,0,84.11,10,Assisted_Takeoff,
0.305150393474856,36.879402424049,5833.7131876631,0,0,0.4763123512,4900,2017-11-11 11:49:51,17,16.274,5833.7131876631,0,0,0.48041996288,55.6, -2.5, 1.7,0,1,1024,1024,1252,1024,56,0,79,4.08,4.082,4.08,4.076,0,0,84.11,10,Assisted_Takeoff,
0.305150398608272,36.8794024291286,5833.7131876631,0,0,0.47503938528,5000,2017-11-11 11:49:51,17,16.274,5833.7131876631,0,0,0.48041996288,55.6, -2.5, 1.7,0,1,1024,1024,1252,1024,56,0,79,4.08,4.082,4.08,4.076,0,0,84.11,10,Assisted_Takeoff,
0.30515039226594,36.8794024039436,5833.7131876631,0,0,0.48326445116,5100,2017-11-11 11:49:51,17,16.274,5833.7131876631,0,0,0.48326445116,55.6, -2.5, 1.7,0,1,1024,1024,1411,1024,56,0,79,4.08,4.082,4.08,4.076,0,0,84.11,10,Assisted_Takeoff,
0.305150391920252,36.8794023833569,5833.7131876631,0,0,0.49048229916,5200,2017-11-11 11:49:51,17,16.274,5833.7131876631,0,0,0.49048229916,55.6, -2.4, 1.8,0,1,1024,1024,1539,1024,56,0,79,4.08,4.082,4.08,4.076,0,0,84.11,10,Assisted_Takeoff,
0.305150413812035,36.8794023709855,5833.7131876631,0,0,0.49695867732,5300,2017-11-11 11:49:51,17,16.274,5833.7131876631,0,0,0.49695867732,55.6, -2.2, 2,0,1,1024,1024,1663,1024,56,0,79,4.08,4.082,4.08,4.076,0,0,84.11,10,Assisted_Takeoff,
0.305150436925508,36.879402370482,5833.7131876631,0,0,0.49950132832,5400,2017-11-11 11:49:51,17,16.274,5833.7131876631,0,0,0.49950132832,55.9, -1.2, 1.6,0,1,1024,1024,1684,1024,56,0,79,4.08,4.082,4.08,4.076,0,0,84.11,10,Assisted_Takeoff,
0.305150451554889,36.8794024015152,5833.7131876631,0,0,0.49026904456,5500,2017-11-11 11:49:51,17,16.274,5833.7131876631,0,0,0.49950132832,56.3, 1.6, -0.4,0,1,1024,1024,1684,1024,56,0,79,4.08,4.082,4.08,4.076,0,0,84.11,10,Assisted_Takeoff,
0.30515046948991,36.8794024151575,5833.7131876631,0,0,0.48758531744,5600,2017-11-11 11:49:51,17,16.274,5833.7131876631,0,0,0.49950132832,56.6, 3.3, -1.8,0,1,1024,1024,1684,1024,56,0,79,4.08,4.082,4.08,4.076,0,0,84.11,6,GPS_Atti,Home Point Recorded. RTH Altitude:  30m.
0.305150486177339,36.8794023345913,5833.7131876631,0,0.223694,0.51739502968,5700,2017-11-11 11:49:51,17,16.274,5833.7131876631,0,0.223694,0.51739502968,56.8, 1.8, -0.7,0,1,1024,1024,1684,1024,56,0,79,4.08,4.082,4.08,4.076,0,0,84.11,6,GPS_Atti,
0.305150519660183,36.8794021860663,5833.7131876631,0,0.223694,0.57270999208,5800,2017-11-11 11:49:51,17,16.274,5833.7131876631,0,0.223694,0.57270999208,57, 0.6, 1.5,0,1,1024,1024,1684,1024,56,0,79,4.08,4.082,4.08,4.076,0,0,84.11,6,GPS_Atti,
0.305150527160083,36.8794019699593,5834.0412716631,0.328084,0.223694,0.64900264544,5900,2017-11-11 11:49:52,17,16.274,5834.0412716631,0.328084,0.223694,0.64900264544,57.2, 0.8, 3.2,0,1,1024,1024,1684,1024,56.1,0,79,4.08,4.082,4.08,4.076,0,0,84.11,6,GPS_Atti,
0.305150479316399,36.8794017926509,5834.3693556631,0.656168,0.223694,0.70732285728,6000,2017-11-11 11:49:52,17,16.274,5834.3693556631,0.656168,0.223694,0.70732285728,57.1, 0.5, 2.5,0,1,1024,1024,1684,1024,56.1,0,79,4.08,4.082,4.08,4.076,0,0,84.11,6,GPS_Atti,
0.305150344152595,36.8794016643488,5835.0255236631,1.312336,0.223694,0.74412075872,6100,2017-11-11 11:49:52,17,16.274,5835.0255236631,1.312336,0.223694,0.74412075872,56.9, -0.8, 0.4,0,1,1024,1024,1684,1024,56.1,0,79,4.08,4.082,4.08,4.076,0,0,84.11,6,GPS_Atti,
0.305150215395956,36.8794015666843,5835.6816916631,1.968504,0.223694,0.77413716388,6200,2017-11-11 11:49:52,17,16.274,5835.6816916631,1.968504,0.223694,0.77413716388,56.7, -2.2, -2.2,0,1,1024,1024,1684,1024,56.1,0,79,4.08,4.082,4.08,4.076,0,0,84.11,6,GPS_Atti,
0.305150076191054,36.8794014400475,5836.6659436631,2.952756,0,0.81785435688,6300,2017-11-11 11:49:52,17,16.274,5836.6659436631,2.952756,0.223694,0.81785435688,56.6, -2.1, -2.9,0,1,1024,1024,1684,1024,56.1,0,79,4.08,4.082,4.08,4.076,0,0,84.11,6,GPS_Atti,
0.305150093892088,36.8794013285611,5837.6501956631,3.937008,0.223694,0.85864175976,6400,2017-11-11 11:49:52,17,16.274,5837.6501956631,3.937008,0.223694,0.85864175976,56.7, -0.6, 0.6,0,1,1024,1024,1684,1024,56.1,0,79,4.08,4.082,4.08,4.076,0,0,84.11,6,GPS_Atti,
0.305150245077223,36.8794012019414,5838.9625316631,5.249344,0.223694,0.90765094768,6500,2017-11-11 11:49:52,17,15.872,5838.9625316631,5.249344,0.223694,0.90765094768,56.5, -0.1, 3.3,0,1,1024,1024,1684,1024,56.1,0,79,4.041,4.038,4.033,4.019,0,0,85.91,6,GPS_Atti,
0.30515035242331,36.879401160895,5840.2748676631,6.56168,0,0.9265420244,6600,2017-11-11 11:49:52,17,15.872,5840.2748676631,6.56168,0.223694,0.9265420244,56.1, 1.5, 1.4,0,1,1024,1024,1684,1024,56.1,0,79,4.041,4.038,4.033,4.019,0,0,85.91,6,GPS_Atti,
0.305150373147295,36.8794011216248,5841.9152876631,8.2021,0,0.94170606688,6700,2017-11-11 11:49:52,17,15.872,5841.9152876631,8.2021,0.223694,0.94170606688,56.2, 2.8, -0.5,0,1,1024,1024,1684,1044,56.1,0,79,4.041,4.038,4.033,4.019,0,0,85.91,6,GPS_Atti,
0.305150365382213,36.8794010153163,5843.2276236631,9.514436,0.223694,0.9798392702,6800,2017-11-11 11:49:52,17,15.872,5843.2276236631,9.514436,0.223694,0.9798392702,56.1, 3.1, -1.5,0,1,1024,1024,1684,1071,56.1,0,79,4.041,4.038,4.033,4.019,0,0,85.91,6,GPS_Atti,
0.305150363519324,36.8794007948712,5844.8680436631,11.154856,0.447388,1.05965226488,6900,2017-11-11 11:49:53,17,15.872,5844.8680436631,11.154856,0.447388,1.05965226488,56.3, 0.7, 0.6,0,1,1024,1024,1684,1024,56.2,0,79,4.041,4.038,4.033,4.019,0,0,85.91,6,GPS_Atti,
0.305150369316279,36.8794004987344,5846.8365476631,13.12336,0.447388,1.1673064678,7000,2017-11-11 11:49:53,17,15.872,5846.8365476631,13.12336,0.447388,1.1673064678,56.8, -2.7, 3,0,1,1024,1024,1684,1024,56.3,0,79,4.041,4.038,4.033,4.019,0,0,85.91,6,GPS_Atti,
0.305150390761105,36.8794002331051,5848.4769676631,14.76378,0.447388,1.26451447616,7100,2017-11-11 11:49:53,17,15.872,5848.4769676631,14.76378,0.447388,1.26451447616,56.5, -3.7, 1.9,0,1,1024,1024,1684,1024,56.3,0,79,4.041,4.038,4.033,4.019,0,0,85.91,6,GPS_Atti,
0.305150416347574,36.879399944637,5850.4454716631,16.732284,0.447388,1.37016736668,7200,2017-11-11 11:49:53,17,15.872,5850.4454716631,16.732284,0.447388,1.37016736668,56.8, -3.3, 4.2,0,1,1024,1024,1684,1024,56.3,0,79,4.041,4.038,4.033,4.019,0,0,85.91,6,GPS_Atti,
0.305150484579021,36.8793996672526,5852.0858916631,18.372704,0.447388,1.47341868232,7300,2017-11-11 11:49:53,17,15.872,5852.0858916631,18.372704,0.447388,1.47341868232,56.8, -2.9, 5.1,0,1,1024,1024,1684,1024,56.3,0,79,4.041,4.038,4.033,4.019,0,0,85.91,6,GPS_Atti,
0.305150454859918,36.8793993646548,5853.7263116631,20.013124,0.63305402,1.58213259656,7400,2017-11-11 11:49:53,17,15.872,5853.7263116631,20.013124,0.63305402,1.58213259656,56.8, -4.7, 4.4,0,1,1024,1024,1684,1024,56.3,-0.5,79,4.041,4.038,4.033,4.019,0,0,85.91,6,GPS_Atti,
0.305150364515066,36.8793990217006,5855.3667316631,21.653544,0.80753534,1.70414047448,7500,2017-11-11 11:49:53,17,15.498,5855.3667316631,21.653544,0.80753534,1.70414047448,56.7, -7.4, 2.7,0,1,1024,1024,1684,1024,56.3,-1.3,79,3.928,3.929,3.934,3.926,0,0,85.91,6,GPS_Atti,
0.305150230947138,36.8793987220538,5857.0071516631,23.293964,0.50107456,1.8107120002,7600,2017-11-11 11:49:53,17,15.498,5857.0071516631,23.293964,0.80753534,1.8107120002,56.8, -8, 1.1,0,1,1024,1024,1684,1024,56.3,-1.3,79,3.928,3.929,3.934,3.926,0,0,85.91,6,GPS_Atti,
0.305150111081574,36.8793984405033,5858.6475716631,24.934384,0.50107456,1.91229008744,7700,2017-11-11 11:49:53,17,15.498,5858.6475716631,24.934384,0.80753534,1.91229008744,56.9, -7.8, 0.2,0,1,1024,1024,1684,1047,56.3,-2.2,79,3.928,3.929,3.934,3.926,0,0,85.91,6,GPS_Atti,
0.305149995801345,36.8793982032499,5860.2879916631,26.574804,0.50107456,1.99875662564,7800,2017-11-11 11:49:53,17,15.498,5860.2879916631,26.574804,0.80753534,1.99875662564,56.9, -7.8, 0.1,0,1,1024,1024,1684,1128,56.3,-2.9,79,3.928,3.929,3.934,3.926,0,0,85.91,6,GPS_Atti,
0.305149931009477,36.8793980026568,5861.9284116631,28.215224,0.50107456,2.07227040752,7900,2017-11-11 11:49:54,17,15.498,5861.9284116631,28.215224,0.80753534,2.07227040752,56.9, -7.4, -0.7,0,1,1024,1024,1684,1187,56.5,-3.7,79,3.928,3.929,3.934,3.926,0,0,85.91,6,GPS_Atti,
0.305149876082642,36.8793978325964,5863.2407476631,29.52756,0.50107456,2.1347769712,8000,2017-11-11 11:49:54,17,15.498,5863.2407476631,29.52756,0.80753534,2.1347769712,57.6, -7.4, -1.1,0,1,1024,1024,1684,1181,57.2,-4.4,79,3.928,3.929,3.934,3.926,0,0,85.91,6,GPS_Atti,
0.3051498061477,36.8793976094893,5864.8811676631,31.16798,0.31540854,2.21699154076,8100,2017-11-11 11:49:54,17,15.498,5864.8811676631,31.16798,0.80753534,2.21699154076,59.4, -7.7, -0.8,0,1,1024,1024,1684,1190,58.2,-5.2,79,3.928,3.929,3.934,3.926,0,0,85.91,6,GPS_Atti,
0.3051497590846,36.8793974395257,5866.5215876631,32.8084,0.223694,2.27966870812,8200,2017-11-11 11:49:54,17,15.498,5866.5215876631,32.8084,0.80753534,2.27966870812,61.4, -7.4, -2.1,0,1,1024,1024,1684,1222,59.3,-5.9,79,3.928,3.929,3.934,3.926,0,0,85.91,6,GPS_Atti,
0.305149717742771,36.879397277356,5868.1620076631,34.44882,0.223694,2.33949154468,8300,2017-11-11 11:49:54,17,15.498,5868.1620076631,34.44882,0.80753534,2.33949154468,63.4, -6.8, -2.9,0,1,1024,1024,1684,1200,60.7,-6.6,79,3.928,3.929,3.934,3.926,0,0,85.91,6,GPS_Atti,
0.305149744378822,36.879397133403,5869.8024276631,36.08924,0.223694,2.39148301616,8400,2017-11-11 11:49:54,17,15.498,5869.8024276631,36.08924,0.80753534,2.39148301616,65.9, -6.1, -2.8,0,1,1024,1024,1684,1197,62.4,-7.3,79,3.928,3.929,3.934,3.926,0,0,85.91,6,GPS_Atti,
0.305149822622954,36.879396958436,5871.4428476631,37.72966,0.223694,2.45415690268,8500,2017-11-11 11:49:54,17,15.685,5871.4428476631,37.72966,0.80753534,2.45415690268,68.5, -6.3, -1.3,0,1,1024,1024,1684,1197,62.4,-7.3,79,3.948,3.947,3.951,3.941,0,0,85.91,6,GPS_Atti,
0.305149945861335,36.8793967764519,5873.0832676631,39.37008,0.223694,2.51949155044,8600,2017-11-11 11:49:54,17,15.685,5873.0832676631,39.37008,0.80753534,2.51949155044,70.7, -7.9, 0,0,1,1024,1024,1684,1199,66.5,-8.7,79,3.948,3.947,3.951,3.941,0,0,85.91,6,GPS_Atti,
0.305150041536354,36.8793965994631,5874.7236876631,41.0105,0.223694,2.58381898032,8700,2017-11-11 11:49:54,17,15.685,5874.7236876631,41.0105,0.80753534,2.58381898032,72.8, -9, 0.5,0,1,1024,1024,1684,1193,68.9,-9.4,79,3.948,3.947,3.951,3.941,0,0,85.91,6,GPS_Atti,
0.305150137251839,36.879396489034,5876.3641076631,42.65092,0,2.62433735432,8800,2017-11-11 11:49:54,17,15.685,5876.3641076631,42.65092,0.80753534,2.62433735432,75, -8.2, -0.7,0,1,1024,1024,1684,1189,71.1,-10.1,79,3.948,3.947,3.951,3.941,0,0,85.91,6,GPS_Atti,
0.305150221493639,36.8793964188996,5878.0045276631,44.29134,0,2.65050205332,8900,2017-11-11 11:49:55,17,15.685,5878.0045276631,44.29134,0.80753534,2.65050205332,77.1, -6.7, -2.4,0,1,1024,1024,1684,1184,73.2,-10.8,79,3.948,3.947,3.951,3.941,0,0,85.91,6,GPS_Atti,
0.305150363867912,36.8793963589188,5879.6449476631,45.93176,0,2.67415690972,9000,2017-11-11 11:49:55,17,15.685,5879.6449476631,45.93176,0.80753534,2.67415690972,79.4, -8.3, -2.5,0,1,1024,1024,1684,1172,75.4,-11.5,79,3.948,3.947,3.951,3.941,0,0,85.91,6,GPS_Atti,
0.305150521975016,36.8793963481508,5881.6134516631,47.900264,0,2.68122711992,9100,2017-11-11 11:49:55,17,15.685,5881.6134516631,47.900264,0.80753534,2.68122711992,81.7, -8, -1.2,0,1,1024,1024,1684,1164,77.6,-12.2,79,3.948,3.947,3.951,3.941,0,0,85.91,6,GPS_Atti,
0.305150698564704,36.8793963838571,5883.2538716631,49.540684,0,2.673228432,9200,2017-11-11 11:49:55,17,15.685,5883.2538716631,49.540684,0.80753534,2.68122711992,83.7, -5.8, -0.5,0,1,1024,1024,1684,1165,77.6,-12.2,79,3.948,3.947,3.951,3.941,0,0,85.91,6,GPS_Atti,
0.30515082465665,36.8793964541766,5884.8942916631,51.181104,0,2.652231056,9300,2017-11-11 11:49:55,17,15.685,5884.8942916631,51.181104,0.80753534,2.68122711992,85.6, -4.6, -0.5,0,1,1024,1024,1684,1171,79.7,-12.8,79,3.948,3.947,3.951,3.941,0,0,85.91,6,GPS_Atti,
0.305150908708481,36.8793964974488,5886.5347116631,52.821524,0,2.64003289288,9400,2017-11-11 11:49:55,17,15.685,5886.5347116631,52.821524,0.80753534,2.68122711992,87.1, -5.5, -1.8,0,1,1024,1024,1684,1171,81.8,-13.4,79,3.948,3.947,3.951,3.941,0,0,85.91,6,GPS_Atti,
0.305150927670897,36.8793965059953,5888.5032156631,54.790028,0,2.63777567496,9500,2017-11-11 11:49:55,17,15.658,5888.5032156631,54.790028,0.80753534,2.68122711992,88.7, -6.2, -4.5,0,1,1024,1024,1684,1160,83.7,-13.9,79,3.948,3.947,3.951,3.941,0,0,85.91,6,GPS_Atti,
0.305150983531106,36.879396499424,5890.1436356631,56.430448,0,2.64272646252,9600,2017-11-11 11:49:55,17,15.658,5890.1436356631,56.430448,0.80753534,2.68122711992,90.4, -5.4, -5.2,0,1,1024,1024,1684,1142,85.4,-14.5,79,3.948,3.947,3.951,3.941,0,0,85.91,6,GPS_Atti,
0.305151088601366,36.8793964482027,5892.1121396631,58.398952,0,2.66647646328,9700,2017-11-11 11:49:55,17,15.658,5892.1121396631,58.398952,0.80753534,2.68122711992,92.1, -6, -3.4,0,1,1024,1024,1684,1139,87,-15.1,79,3.948,3.947,3.951,3.941,0,0,85.91,6,GPS_Atti,
0.305151224634046,36.8793963720314,5893.7525596631,60.039372,0,2.70146334104,9800,2017-11-11 11:49:56,17,15.658,5893.7525596631,60.039372,0.80753534,2.70146334104,93.6, -7.6, -1.8,0,1,1024,1024,1684,1144,88.6,-15.6,79,3.948,3.947,3.951,3.941,0,0,85.91,6,GPS_Atti,
0.305151333720558,36.8793962740607,5895.7210636631,62.007876,0,2.7433071744,9900,2017-11-11 11:49:56,17,15.658,5895.7210636631,62.007876,0.80753534,2.7433071744,94.9, -8.7, -2.8,0,1,1024,1024,1684,1142,90.1,-16.2,79,3.948,3.947,3.951,3.941,0,0,85.91,6,GPS_Atti,
0.305151427052892,36.8793962175796,5897.3614836631,63.648296,0,2.7696195112,10000,2017-11-11 11:49:56,17,15.658,5897.3614836631,63.648296,0.80753534,2.7696195112,96.2, -7.3, -4,0,1,1024,1024,1684,1126,91.6,-16.7,79,3.948,3.947,3.951,3.941,0,0,85.91,6,GPS_Atti,
0.305151554267039,36.879396152583,5899.0019036631,65.288716,0,2.80170940724,10100,2017-11-11 11:49:56,17,15.658,5899.0019036631,65.288716,0.80753534,2.80170940724,97.5, -6.6, -3.5,0,1,1024,1024,1684,1085,93,-17.3,79,3.948,3.947,3.951,3.941,0,0,85.91,6,GPS_Atti,
0.305151686258328,36.879396103474,5900.6423236631,66.929136,0,2.82909457872,10200,2017-11-11 11:49:56,17,15.658,5900.6423236631,66.929136,0.80753534,2.82909457872,98.8, -7, -3.1,0,1,1024,1024,1684,971,94.1,-17.4,79,3.948,3.947,3.951,3.941,0,0,85.91,6,GPS_Atti,
0.305151794307826,36.8793960219369,5902.6108276631,68.89764,0,2.86670612848,10300,2017-11-11 11:49:56,17,15.658,5902.6108276631,68.89764,0.80753534,2.86670612848,99.6, -7.6, -2.8,0,1,1024,1024,1684,850,94.8,-17.4,79,3.948,3.947,3.951,3.941,0,0,85.91,6,GPS_Atti,
0.305151877036445,36.8793959623885,5904.2512476631,70.53806,0,2.8947179404,10400,2017-11-11 11:49:56,17,15.658,5904.2512476631,70.53806,0.80753534,2.8947179404,99.7, -7.8, -2.7,0,1,1024,1024,1684,766,95,-17.4,79,3.948,3.947,3.951,3.941,0,0,85.91,6,GPS_Atti,
0.30515194822306,36.8793959382885,5906.2197516631,72.506564,0,2.90937345268,10500,2017-11-11 11:49:56,17,15.631,5906.2197516631,72.506564,0.80753534,2.90937345268,98.7, -7.4, -3,0,1,1024,1024,1684,711,94.6,-17.4,79,3.936,3.938,3.947,3.94,0,0,85.91,6,GPS_Atti,
0.305151978543466,36.8793959258343,5907.8601716631,74.146984,0,2.91644366288,10600,2017-11-11 11:49:56,17,15.631,5907.8601716631,74.146984,0.80753534,2.91644366288,95.9, -7.1, -3.7,0,1,1024,1024,1684,724,94.6,-17.4,79,3.936,3.938,3.947,3.94,0,0,85.91,6,GPS_Atti,
0.305152120431827,36.8793960413766,5909.5005916631,75.787404,0,2.88871728404,10700,2017-11-11 11:49:56,17,15.631,5909.5005916631,75.787404,0.80753534,2.91644366288,91.3, -6.9, -3.7,0,1,1024,1024,1684,741,92.8,-17.4,79,3.936,3.938,3.947,3.94,0,0,85.91,6,GPS_Atti,
0.305152241520887,36.8793961376494,5911.4690956631,77.755908,0,2.86688985552,10800,2017-11-11 11:49:56,17,15.631,5911.4690956631,77.755908,0.80753534,2.91644366288,86, -7, -3.1,0,1,1024,1024,1684,747,90.6,-17.4,79,3.936,3.938,3.947,3.94,0,0,85.91,6,GPS_Atti,
0.305152433820175,36.8793962929716,5913.1095156631,79.396328,0,2.83334326652,10900,2017-11-11 11:49:57,17,15.631,5913.1095156631,79.396328,0.80753534,2.91644366288,81, -7.2, -2.4,0,1,1024,1024,1684,762,87.4,-17.4,79,3.936,3.938,3.947,3.94,0,0,85.91,6,GPS_Atti,
0.305152599745998,36.8793964290456,5914.7499356631,81.036748,0,2.80570218952,11000,2017-11-11 11:49:57,17,15.631,5914.7499356631,81.036748,0.80753534,2.91644366288,76.3, -7, -1.9,0,1,1024,1024,1684,847,83.3,-17.7,79,3.936,3.938,3.947,3.94,0,0,85.91,6,GPS_Atti,
0.305152831516325,36.8793966129397,5916.3903556631,82.677168,0.223694,2.77243119108,11100,2017-11-11 11:49:57,17,15.631,5916.3903556631,82.677168,0.80753534,2.91644366288,71.8, -6.3, -1.1,0,1,1024,1024,1684,847,78.8,-18.4,79,3.936,3.938,3.947,3.94,0,0,85.91,6,GPS_Atti,
0.30515302403932,36.8793967466199,5918.3588596631,84.645672,0.223694,2.75410441884,11200,2017-11-11 11:49:57,17,15.631,5918.3588596631,84.645672,0.80753534,2.91644366288,67.9, -5.9, 0,0,1,1024,1024,1684,980,75.1,-18.5,79,3.936,3.938,3.947,3.94,0,0,85.91,6,GPS_Atti,
0.305153205436379,36.8793968510613,5919.9992796631,86.286092,0,2.74628945796,11300,2017-11-11 11:49:57,17,15.631,5919.9992796631,86.286092,0.80753534,2.91644366288,66, -6.1, 0.5,0,1,1024,1024,1684,1021,72.5,-18.5,79,3.936,3.938,3.947,3.94,0,0,85.91,6,GPS_Atti,
0.305153329057873,36.8793969175823,5921.6396996631,87.926512,0,2.74369759436,11400,2017-11-11 11:49:57,17,15.631,5921.6396996631,87.926512,0.80753534,2.91644366288,65.7, -6.3, 0.4,0,1,1024,1024,1684,1024,70.8,-18.5,79,3.936,3.938,3.947,3.94,0,0,85.91,6,GPS_Atti,
0.305153424041754,36.8793968753508,5923.2801196631,89.566932,0,2.77280848768,11500,2017-11-11 11:49:57,17,15.631,5923.2801196631,89.566932,0.80753534,2.91644366288,65.7, -6.4, 1,0,1,1024,1024,1684,1024,69.8,-18.5,79,3.939,3.937,3.939,3.929,0,0,85.91,6,GPS_Atti,
0.30515347166682,36.8793968289643,5924.9205396631,91.207352,0,2.79570875088,11600,2017-11-11 11:49:57,17,15.631,5924.9205396631,91.207352,0.80753534,2.91644366288,65.6, -6.9, 1.8,0,1,1024,1024,1684,1031,69.3,-18.5,79,3.939,3.937,3.939,3.929,0,0,85.91,6,GPS_Atti,
0.305153412041751,36.8793966750125,5926.5609596631,92.847772,0,2.83655192804,11700,2017-11-11 11:49:57,17,15.631,5926.5609596631,92.847772,0.80753534,2.91644366288,65.7, -7.7, 2.2,0,1,1024,1024,1684,1050,68.9,-18.5,79,3.939,3.937,3.939,3.929,0,0,85.91,6,GPS_Atti,
0.305153291853016,36.8793965615396,5928.5294636631,94.816276,0.223694,2.85543316224,11800,2017-11-11 11:49:57,17,15.631,5928.5294636631,94.816276,0.80753534,2.91644366288,65.7, -8.5, 1.4,0,1,1024,1024,1684,1072,68.6,-18.5,79,3.939,3.937,3.939,3.929,0,0,85.91,6,GPS_Atti,
0.305153056663771,36.879396415599,5930.1698836631,96.456696,0.447388,2.86999024932,11900,2017-11-11 11:49:58,17,15.631,5930.1698836631,96.456696,0.80753534,2.91644366288,65.7, -9.6, -1,0,1,1024,1024,1684,1090,68.5,-18.5,79,3.939,3.937,3.939,3.929,0,0,85.91,6,GPS_Atti,
0.305152838567081,36.8793963336251,5931.8103036631,98.097116,0.223694,2.86838263772,12000,2017-11-11 11:49:58,17,15.631,5931.8103036631,98.097116,0.80753534,2.91644366288,66.1, -9.8, -2.3,0,1,1024,1024,1684,1131,68.7,-18.5,79,3.939,3.937,3.939,3.929,0,0,85.91,6,GPS_Atti,
0.305152610536475,36.879396199158,5933.7788076631,100.06562,0.223694,2.88621072228,12100,2017-11-11 11:49:58,17,15.631,5933.7788076631,100.06562,0.80753534,2.91644366288,66.7, -9.6, -2.8,0,1,1024,1024,1684,1136,68.7,-18.5,79,3.939,3.937,3.939,3.929,0,0,85.91,6,GPS_Atti,
0.305152450877719,36.8793961256063,5935.4192276631,101.70604,0.223694,2.89338591936,12200,2017-11-11 11:49:58,17,15.631,5935.4192276631,101.70604,0.80753534,2.91644366288,67.6, -9.2, -2.6,0,1,1024,1024,1684,1145,69,-18.5,79,3.939,3.937,3.939,3.929,0,0,85.91,6,GPS_Atti,
0.305152352411613,36.8793960135285,5936.7315636631,103.018376,0,2.92180455544,12300,2017-11-11 11:49:58,17,15.631,5936.7315636631,103.018376,0.80753534,2.92180455544,68.8, -8.7, -2.1,0,1,1024,1024,1684,1165,69.5,-18.5,79,3.939,3.937,3.939,3.929,0,0,85.91,6,GPS_Atti,
0.305152296005367,36.8793959330919,5938.3719836631,104.658796,0,2.94410114408,12400,2017-11-11 11:49:58,17,15.631,5938.3719836631,104.658796,0.80753534,2.94410114408,70.1, -9, -1.3,0,1,1024,1024,1684,1187,70.2,-18.5,79,3.939,3.937,3.939,3.929,0,0,85.91,6,GPS_Atti,
0.305152220685761,36.8793958317595,5940.0124036631,106.299216,0,2.97215232608,12500,2017-11-11 11:49:58,17,15.631,5940.0124036631,106.299216,0.80753534,2.97215232608,71.6, -9.4, -0.8,0,1,1024,1024,1684,1156,71.1,-18.5,79,3.939,3.937,3.939,3.929,0,0,85.91,6,GPS_Atti,
0.305152155469021,36.8793958113294,5941.6528236631,107.939636,0.223694,2.97307752296,12600,2017-11-11 11:49:58,17,15.631,5941.6528236631,107.939636,0.80753534,2.97307752296,73.6, -8.8, -1.1,0,1,1024,1024,1684,1109,72,-18.5,79,3.939,3.937,3.939,3.929,0,0,85.91,6,GPS_Atti,
0.305152012906484,36.8793957704351,5943.2932436631,109.580056,0.223694,2.97448828416,12700,2017-11-11 11:49:58,17,15.631,5943.2932436631,109.580056,0.80753534,2.97448828416,75, -8.1, -2.4,0,1,1024,1024,1684,1079,72.6,-18.5,79,3.939,3.937,3.939,3.929,0,0,85.91,6,GPS_Atti,
0.305151913212532,36.8793957893802,5944.9336636631,111.220476,0.223694,2.95918316556,12800,2017-11-11 11:49:59,17,15.631,5944.9336636631,111.220476,0.80753534,2.97448828416,75.8, -6.3, -3.3,0,1,1024,1024,1684,1075,73,-18.5,79,3.939,3.937,3.939,3.929,0,0,85.91,6,GPS_Atti,
0.305151787652579,36.8793958103027,5946.5740836631,112.860896,0,2.94149943796,12900,2017-11-11 11:49:59,17,15.631,5946.5740836631,112.860896,0.80753534,2.97448828416,76.3, -6, -3,0,1,1024,1024,1684,1056,73.4,-18.5,79,3.939,3.937,3.939,3.929,0,0,85.91,6,GPS_Atti,
0.305151725952057,36.8793957902228,5948.2145036631,114.501316,0,2.94387148528,13000,2017-11-11 11:49:59,17,15.631,5948.2145036631,114.501316,0.80753534,2.97448828416,76.8, -7.1, -1.6,0,1,1024,1024,1684,1024,73.7,-18.5,79,3.939,3.937,3.939,3.929,0,0,85.91,6,GPS_Atti,
0.305151651077424,36.8793956944371,5949.8549236631,116.141736,0,2.97254274604,13100,2017-11-11 11:49:59,17,15.631,5949.8549236631,116.141736,0.80753534,2.97448828416,76.8, -8.2, -0.6,0,1,1024,1024,1684,1024,74,-18.5,79,3.939,3.937,3.939,3.929,0,0,85.91,6,GPS_Atti,
0.305151589085207,36.8793956234132,5951.8234276631,118.11024,0,2.993602458,13200,2017-11-11 11:49:59,17,15.631,5951.8234276631,118.11024,0.80753534,2.993602458,76.8, -8.1, -0.9,0,1,1024,1024,1684,1024,74.2,-18.5,79,3.939,3.937,3.939,3.929,0,0,85.91,6,GPS_Atti,
0.305151462164791,36.8793955566041,5953.4638476631,119.75066,0,3.00922909892,13300,2017-11-11 11:49:59,17,15.631,5953.4638476631,119.75066,0.80753534,3.00922909892,76.9, -8.2, -1.6,0,1,1024,1024,1684,1024,74.3,-18.5,79,3.939,3.937,3.939,3.929,0,0,85.91,6,GPS_Atti,
0.305151368430231,36.8793954878455,5955.1042676631,121.39108,0,3.02829077932,13400,2017-11-11 11:49:59,17,15.605,5955.1042676631,121.39108,0.80753534,3.02829077932,76.9, -9.1, -1.7,0,1,1024,1024,1684,1024,74.5,-18.5,78,3.939,3.937,3.939,3.929,0,0,85.91,6,GPS_Atti,
0.305151226618916,36.8793954274,5958.7131916631,125.000004,0,3.04228356192,13600,2017-11-11 11:49:59,17,15.605,5958.7131916631,125.000004,0.80753534,3.04228356192,77, -9.3, -1.3,0,1,1024,1024,1684,1024,74.7,-18.5,78,3.939,3.937,3.939,3.929,0,0,85.91,6,GPS_Atti,
0.305151184184108,36.8793954564216,5960.3536116631,126.640424,0,3.02963592372,13700,2017-11-11 11:49:59,17,15.605,5960.3536116631,126.640424,0.80753534,3.04228356192,77, -9, -0.8,0,1,1024,1024,1684,1024,74.7,-18.5,78,3.939,3.937,3.939,3.929,0,0,85.91,6,GPS_Atti,
0.305151151542355,36.8793954988651,5961.9940316631,128.280844,0,3.01267398092,13800,2017-11-11 11:50:00,17,15.605,5961.9940316631,128.280844,0.80753534,3.04228356192,76.8, -8.6, -1,0,1,1024,1024,1684,1024,74.8,-18.5,78,3.939,3.937,3.939,3.929,0,0,85.91,6,GPS_Atti,
0.305151038791845,36.8793955293619,5963.6344516631,129.921264,0,2.99638132948,13900,2017-11-11 11:50:00,17,15.605,5963.6344516631,129.921264,0.80753534,3.04228356192,76.9, -7.7, -1.6,0,1,1024,1024,1684,1024,74.9,-18.5,78,3.939,3.937,3.939,3.929,0,0,85.91,6,GPS_Atti,
0.305150953171414,36.879395538615,5965.2748716631,131.561684,0,2.98939642112,14000,2017-11-11 11:50:00,17,15.605,5965.2748716631,131.561684,0.80753534,3.04228356192,76.9, -8.3, -1.8,0,1,1024,1024,1684,1024,74.9,-18.5,78,3.939,3.937,3.939,3.929,0,0,85.91,6,GPS_Atti,
0.30515088683858,36.8793955541289,5966.9152916631,133.202104,0,2.98117135524,14100,2017-11-11 11:50:00,17,15.605,5966.9152916631,133.202104,0.80753534,3.04228356192,77, -9.5, -2.1,0,1,1024,1024,1684,1024,75,-18.5,78,3.939,3.937,3.939,3.929,0,0,85.91,6,GPS_Atti,
0.305150844491606,36.8793955855689,5968.5557116631,134.842524,0,2.96819891388,14200,2017-11-11 11:50:00,17,15.605,5968.5557116631,134.842524,0.80753534,3.04228356192,77, -9.4, -2.6,0,1,1024,1024,1684,1024,75.1,-18.5,78,3.939,3.937,3.939,3.929,0,0,85.91,6,GPS_Atti,
0.305150784292103,36.8793956221563,5970.1961316631,136.482944,0,2.9528216168,14300,2017-11-11 11:50:00,17,15.605,5970.1961316631,136.482944,0.80753534,3.04228356192,77.1, -8.8, -2.3,0,1,1024,1024,1684,1024,75.1,-18.5,78,3.939,3.937,3.939,3.929,0,0,85.91,6,GPS_Atti,
0.305150773503865,36.8793956517399,5971.8365516631,138.123364,0,2.94171269256,14400,2017-11-11 11:50:00,17,15.605,5971.8365516631,138.123364,0.80753534,3.04228356192,77, -9.1, -1.4,0,1,1024,1024,1684,1024,75.2,-18.5,78,3.939,3.937,3.939,3.929,0,0,85.91,6,GPS_Atti,
0.305150795173569,36.8793956698061,5973.8050556631,140.091868,0,2.93587935904,14500,2017-11-11 11:50:00,17,15.605,5973.8050556631,140.091868,0.80753534,3.04228356192,76.9, -9.1, -1.1,0,1,1024,1024,1684,1024,75.2,-18.5,78,3.941,3.94,3.942,3.933,0,0,85.91,6,GPS_Atti,
0.305150840109667,36.8793957033669,5975.4454756631,141.732288,0,2.92527240332,14600,2017-11-11 11:50:00,17,15.605,5975.4454756631,141.732288,0.80753534,3.04228356192,76.8, -8.8, -0.9,0,1,1024,1024,1684,1024,75.3,-18.5,78,3.941,3.94,3.942,3.933,0,0,85.91,6,GPS_Atti,
0.305150866049864,36.8793957341185,5977.0858956631,143.372708,0,2.91507227176,14700,2017-11-11 11:50:00,17,15.605,5977.0858956631,143.372708,0.80753534,3.04228356192,76.8, -8.5, -0.9,0,1,1024,1024,1684,1024,75.4,-18.5,78,3.941,3.94,3.942,3.933,0,0,85.91,6,GPS_Atti,
0.305150884813203,36.8793957677511,5978.7263156631,145.013128,0,2.90358277008,14800,2017-11-11 11:50:00,17,15.605,5978.7263156631,145.013128,0.80753534,3.04228356192,76.8, -8.5, -0.7,0,1,1024,1024,1684,1024,75.4,-18.5,78,3.941,3.94,3.942,3.933,0,0,85.91,6,GPS_Atti,
0.305150846347117,36.8793958128443,5980.3667356631,146.653548,0,2.88576452804,14900,2017-11-11 11:50:01,17,15.605,5980.3667356631,146.653548,0.80753534,3.04228356192,76.8, -8.7, -1,0,1,1024,1024,1684,1024,75.4,-18.5,78,3.941,3.94,3.942,3.933,0,0,85.91,6,GPS_Atti,
0.305150806469169,36.8793958809542,5982.0071556631,148.293968,0,2.85958670568,15000,2017-11-11 11:50:01,17,15.605,5982.0071556631,148.293968,0.80753534,3.04228356192,76.8, -8.4, -1.7,0,1,1024,1024,1684,1024,75.5,-18.5,78,3.941,3.94,3.942,3.933,0,0,85.91,6,GPS_Atti,
0.305150744143732,36.8793959153147,5983.6475756631,149.934388,0,2.84497384432,15100,2017-11-11 11:50:01,17,15.605,5983.6475756631,149.934388,0.80753534,3.04228356192,76.9, -8.3, -2.3,0,1,1024,1024,1684,1024,75.5,-18.5,78,3.941,3.94,3.942,3.933,0,0,85.91,6,GPS_Atti,
0.305150712246178,36.8793959550432,5985.2879956631,151.574808,0,2.8295112454,15200,2017-11-11 11:50:01,17,15.605,5985.2879956631,151.574808,0.80753534,3.04228356192,76.9, -8.4, -1.7,0,1,1024,1024,1684,1024,75.5,-18.5,78,3.941,3.94,3.942,3.933,0,0,85.91,6,GPS_Atti,
0.305150656829517,36.8793959535358,5986.9284156631,153.215228,0,2.82838263644,15300,2017-11-11 11:50:01,17,15.605,5986.9284156631,153.215228,0.80753534,3.04228356192,76.9, -8.3, -1.8,0,1,1024,1024,1684,1024,75.5,-18.5,78,3.941,3.94,3.942,3.933,0,0,85.91,6,GPS_Atti,
0.305150613527664,36.8793959819621,5988.5688356631,154.855648,0,2.8168307988,15400,2017-11-11 11:50:01,17,15.605,5988.5688356631,154.855648,0.80753534,3.04228356192,76.9, -8.3, -2.4,0,1,1024,1024,1684,1024,75.5,-18.5,78,3.941,3.94,3.942,3.933,0,0,85.91,6,GPS_Atti,
0.305150557921696,36.8793960095673,5990.2092556631,156.496068,0,2.80535442048,15500,2017-11-11 11:50:01,17,15.551,5990.2092556631,156.496068,0.80753534,3.04228356192,76.9, -8.4, -2.8,0,1,1024,1024,1684,1024,75.6,-18.5,78,3.93,3.929,3.933,3.922,0,0,85.91,6,GPS_Atti,
0.305150529704883,36.8793960515751,5991.8496756631,158.136488,0,2.7893865722,15600,2017-11-11 11:50:01,17,15.551,5991.8496756631,158.136488,0.80753534,3.04228356192,76.9, -7.9, -3.1,0,1,1024,1024,1684,1024,75.6,-18.5,78,3.93,3.929,3.933,3.922,0,0,85.91,6,GPS_Atti,
0.305150541058395,36.8793960798151,5993.4900956631,159.776908,0,2.77937344852,15700,2017-11-11 11:50:01,17,15.551,5993.4900956631,159.776908,0.80753534,3.04228356192,76.9, -7.7, -2.7,0,1,1024,1024,1684,1024,75.6,-18.5,78,3.93,3.929,3.933,3.922,0,0,85.91,6,GPS_Atti,
0.305150590565332,36.8793961015523,5995.1305156631,161.417328,0,2.7727035008,15800,2017-11-11 11:50:01,17,15.551,5995.1305156631,161.417328,0.80753534,3.04228356192,76.9, -8, -2.3,0,1,1024,1024,1684,1024,75.6,-18.5,78,3.93,3.929,3.933,3.922,0,0,85.91,6,GPS_Atti,
0.305150662058654,36.8793960732631,5996.7709356631,163.057748,0.223694,2.78499680828,15900,2017-11-11 11:50:02,17,15.551,5996.7709356631,163.057748,0.80753534,3.04228356192,76.9, -8.5, -1.1,0,1,1024,1024,1684,1024,75.7,-18.5,78,3.93,3.929,3.933,3.922,0,0,85.91,6,GPS_Atti,
0.305150749364575,36.8793960633612,5998.4113556631,164.698168,0.223694,2.79136163788,16000,2017-11-11 11:50:02,17,15.551,5998.4113556631,164.698168,0.80753534,3.04228356192,76.8, -9, -0.3,0,1,1024,1024,1684,1024,75.7,-18.5,78,3.93,3.929,3.933,3.922,0,0,85.91,6,GPS_Atti,
0.305150788122814,36.8793960581046,6000.0517756631,166.338588,0.223694,2.79461295032,16100,2017-11-11 11:50:02,17,15.551,6000.0517756631,166.338588,0.80753534,3.04228356192,76.8, -8.5, -0.3,0,1,1024,1024,1684,1024,75.7,-18.5,78,3.93,3.929,3.933,3.922,0,0,85.91,6,GPS_Atti,
0.305150822217342,36.8793960956148,6001.6921956631,167.979008,0.223694,2.78223762184,16200,2017-11-11 11:50:02,17,15.551,6001.6921956631,167.979008,0.80753534,3.04228356192,76.8, -7.7, -0.6,0,1,1024,1024,1684,1024,75.7,-18.5,78,3.93,3.929,3.933,3.922,0,0,85.91,6,GPS_Atti,
0.305150823346363,36.8793961576662,6003.3326156631,169.619428,0.223694,2.759760587,16300,2017-11-11 11:50:02,17,15.551,6003.3326156631,169.619428,0.80753534,3.04228356192,76.9, -7.3, -1.2,0,1,1024,1024,1684,1024,75.8,-18.5,78,3.93,3.929,3.933,3.922,0,0,85.91,6,GPS_Atti,
0.305150840319838,36.8793962269901,6004.9730356631,171.259848,0.223694,2.73525599304,16400,2017-11-11 11:50:02,17,15.551,6004.9730356631,171.259848,0.80753534,3.04228356192,76.9, -7.3, -1.4,0,1,1024,1024,1684,1024,75.8,-18.5,78,3.93,3.929,3.933,3.922,0,0,85.91,6,GPS_Atti,
0.305150822051648,36.8793962802401,6006.6134556631,172.900268,0,2.71523302652,16500,2017-11-11 11:50:02,17,15.605,6006.6134556631,172.900268,0.80753534,3.04228356192,76.9, -7.5, -1.3,0,1,1024,1024,1684,1024,75.8,-18.5,78,3.926,3.926,3.928,3.918,0,0,85.91,6,GPS_Atti,
0.305150825497028,36.8793963383067,6008.2538756631,174.540688,0.223694,2.69429798648,16600,2017-11-11 11:50:02,17,15.605,6008.2538756631,174.540688,0.80753534,3.04228356192,76.9, -7.5, -1,0,1,1024,1024,1684,1024,75.8,-18.5,78,3.926,3.926,3.928,3.918,0,0,85.91,6,GPS_Atti,
0.305150837731834,36.879396349882,6009.8942956631,176.181108,0.223694,2.69057751392,16700,2017-11-11 11:50:02,17,15.605,6009.8942956631,176.181108,0.80753534,3.04228356192,76.8, -7.2, -0.9,0,1,1024,1024,1684,1024,75.8,-18.5,78,3.926,3.926,3.928,3.918,0,0,85.91,6,GPS_Atti,
0.30515086101329,36.8793963783264,6011.5347156631,177.821528,0,2.68119103068,16800,2017-11-11 11:50:02,17,15.605,6011.5347156631,177.821528,0.80753534,3.04228356192,76.8, -7.3, -1,0,1,1024,1024,1684,1024,75.9,-18.5,78,3.926,3.926,3.928,3.918,0,0,85.91,6,GPS_Atti,
0.305150850252838,36.8793963974547,6013.1751356631,179.461948,0,2.67382226404,16900,2017-11-11 11:50:03,17,15.605,6013.1751356631,179.461948,0.80753534,3.04228356192,76.8, -7.3, -1.2,0,1,1024,1024,1684,1024,75.9,-18.5,78,3.926,3.926,3.928,3.918,0,0,85.91,6,GPS_Atti,
0.30515084714597,36.8793964302896,6014.8155556631,181.102368,0,2.66178814292,17000,2017-11-11 11:50:03,17,15.605,6014.8155556631,181.102368,0.80753534,3.04228356192,76.8, -7.2, -1.2,0,1,1024,1024,1684,1024,75.9,-18.5,78,3.926,3.926,3.928,3.918,0,0,85.91,6,GPS_Atti,
0.305150853913987,36.8793964129643,6016.4559756631,182.742788,0,2.66834654208,17100,2017-11-11 11:50:03,17,15.605,6016.4559756631,182.742788,0.80753534,3.04228356192,76.8, -7.5, -1,0,1,1024,1024,1684,1024,75.9,-18.5,78,3.926,3.926,3.928,3.918,0,0,85.91,6,GPS_Atti,
0.30515085227394,36.8793964114387,6018.0963956631,184.383208,0,2.6688321064,17200,2017-11-11 11:50:03,17,15.605,6018.0963956631,184.383208,0.80753534,3.04228356192,76.8, -7.7, -1.1,0,1,1024,1024,1684,1024,75.9,-18.5,78,3.926,3.926,3.928,3.918,0,0,85.91,6,GPS_Atti,
0.305150820552258,36.8793964192197,6019.7368156631,186.023628,0,2.66475402228,17300,2017-11-11 11:50:03,17,15.605,6019.7368156631,186.023628,0.80753534,3.04228356192,76.8, -7.6, -1.6,0,1,1024,1024,1684,1024,75.9,-18.5,78,3.926,3.926,3.928,3.918,0,0,85.91,6,GPS_Atti,
0.305150791604733,36.879396441609,6021.3772356631,187.664048,0,2.65552173852,17400,2017-11-11 11:50:03,17,15.605,6021.3772356631,187.664048,0.80753534,3.04228356192,76.9, -7.7, -1.6,0,1,1024,1024,1684,1024,75.9,-18.5,78,3.926,3.926,3.928,3.918,0,0,85.91,6,GPS_Atti,
0.305150761460606,36.8793964021107,6023.0176556631,189.304468,0,2.66875336624,17500,2017-11-11 11:50:03,17,15.578,6023.0176556631,189.304468,0.80753534,3.04228356192,76.9, -7.9, -1.6,0,1,1024,1024,1684,1024,75.9,-18.5,78,3.926,3.926,3.928,3.918,0,0,85.91,6,GPS_Atti,
0.30515073316405,36.879396388162,6024.9861596631,191.272972,0,2.67282488868,17600,2017-11-11 11:50:03,17,15.578,6024.9861596631,191.272972,0.80753534,3.04228356192,76.9, -7.8, -1.8,0,1,1024,1024,1684,1024,76,-18.5,78,3.926,3.926,3.928,3.918,0,0,85.91,6,GPS_Atti,
0.305150679354256,36.8793963628093,6026.6265796631,192.913392,0,2.68025927212,17700,2017-11-11 11:50:03,17,15.578,6026.6265796631,192.913392,0.80753534,3.04228356192,76.9, -7.5, -2,0,1,1024,1024,1684,1024,76,-18.5,78,3.926,3.926,3.928,3.918,0,0,85.91,6,GPS_Atti,
0.30515063431063,36.8793963559479,6028.2669996631,194.553812,0,2.68137803856,17800,2017-11-11 11:50:04,17,15.578,6028.2669996631,194.553812,0.80753534,3.04228356192,76.9, -7.9, -2.2,0,1,1024,1024,1684,1024,76,-18.5,78,3.926,3.926,3.928,3.918,0,0,85.91,6,GPS_Atti,
0.305150580547551,36.8793962970248,6029.9074196631,196.194232,0,2.70130914156,17900,2017-11-11 11:50:04,17,15.578,6029.9074196631,196.194232,0.80753534,3.04228356192,76.9, -8, -1.9,0,1,1024,1024,1684,1024,76,-18.5,78,3.926,3.926,3.928,3.918,0,0,85.91,6,GPS_Atti,
0.305150548740071,36.8793962790946,6031.5478396631,197.834652,0,2.70701780316,18000,2017-11-11 11:50:04,17,15.578,6031.5478396631,197.834652,0.80753534,3.04228356192,76.9, -7.8, -1.8,0,1,1024,1024,1684,1024,76,-18.5,78,3.926,3.926,3.928,3.918,0,0,85.91,6,GPS_Atti,
0.305150545496007,36.8793962655966,6033.1882596631,199.475072,0,2.71185048048,18100,2017-11-11 11:50:04,17,15.578,6033.1882596631,199.475072,0.80753534,3.04228356192,76.9, -7.2, -2.2,0,1,1024,1024,1684,1024,76,-18.5,78,3.926,3.926,3.928,3.918,0,0,85.91,6,GPS_Atti,
0.305150559913385,36.8793962676404,6034.5005956631,200.787408,0,2.7114666222,18200,2017-11-11 11:50:04,17,15.578,6034.5005956631,200.787408,0.80753534,3.04228356192,76.9, -7.3, -1.7,0,1,1024,1024,1684,1024,76,-18.5,78,3.926,3.926,3.928,3.918,0,0,85.91,6,GPS_Atti,
0.305150548771418,36.8793962505141,6036.1410156631,202.427828,0,2.7174213468,18300,2017-11-11 11:50:04,17,15.578,6036.1410156631,202.427828,0.80753534,3.04228356192,76.8, -7.2, -1.8,0,1,1024,1024,1684,1024,76,-18.5,78,3.926,3.926,3.928,3.918,0,0,85.91,6,GPS_Atti,
0.305150543102296,36.8793962457018,6038.1095196631,204.396332,0,2.71903223924,18400,2017-11-11 11:50:04,17,15.578,6038.1095196631,204.396332,0.80753534,3.04228356192,76.8, -7.5, -1.4,0,1,1024,1024,1684,1024,76,-18.5,78,3.926,3.926,3.928,3.918,0,0,85.91,6,GPS_Atti,
0.305150523263878,36.8793962225621,6039.7499396631,206.036752,0,2.72698171456,18500,2017-11-11 11:50:04,17,15.524,6039.7499396631,206.036752,0.80753534,3.04228356192,76.9, -7.5, -0.9,0,1,1024,1024,1684,1024,76,-18.5,78,3.921,3.92,3.925,3.917,0,0,85.91,6,GPS_Atti,
0.305150481953613,36.8793962241327,6041.3903596631,207.677172,0,2.72548237068,18600,2017-11-11 11:50:04,17,15.524,6041.3903596631,207.677172,0.80753534,3.04228356192,76.8, -7.2, -1.6,0,1,1024,1024,1684,1024,76,-18.5,78,3.921,3.92,3.925,3.917,0,0,85.91,6,GPS_Atti,
0.305150417866149,36.8793961774175,6043.0307796631,209.317592,0,2.74122712184,18700,2017-11-11 11:50:04,17,15.524,6043.0307796631,209.317592,0.80753534,3.04228356192,76.9, -7.3, -2.5,0,1,1024,1024,1684,1024,76,-18.5,78,3.921,3.92,3.925,3.917,0,0,85.91,6,GPS_Atti,
0.305150361498068,36.8793961514032,6044.6711996631,210.958012,0,2.74975730584,18800,2017-11-11 11:50:04,17,15.524,6044.6711996631,210.958012,0.80753534,3.04228356192,76.9, -7.7, -2.6,0,1,1024,1024,1684,1024,76.1,-18.5,78,3.921,3.92,3.925,3.917,0,0,85.91,6,GPS_Atti,
0.305150302467406,36.8793961246085,6046.3116196631,212.598432,0,2.75870087568,18900,2017-11-11 11:50:05,17,15.524,6046.3116196631,212.598432,0.80753534,3.04228356192,76.9, -7.8, -2,0,1,1024,1024,1684,1024,76.1,-18.5,78,3.921,3.92,3.925,3.917,0,0,85.91,6,GPS_Atti,
0.30515024453345,36.87939612997,6047.9520396631,214.238852,0,2.75609916956,19000,2017-11-11 11:50:05,17,15.524,6047.9520396631,214.238852,0.80753534,3.04228356192,77, -7.5, -2.3,0,1,1024,1024,1684,1024,76.1,-18.5,78,3.921,3.92,3.925,3.917,0,0,85.91,6,GPS_Atti,
0.305150150311655,36.8793961386632,6049.5924596631,215.879272,0,2.75222121668,19100,2017-11-11 11:50:05,17,15.524,6049.5924596631,215.879272,0.80753534,3.04228356192,77, -7.2, -3.1,0,1,1024,1024,1684,1024,76.1,-18.5,78,3.921,3.92,3.925,3.917,0,0,85.91,6,GPS_Atti,
0.305150076168345,36.8793961561031,6051.2328796631,217.519692,0,2.7456037624,19200,2017-11-11 11:50:05,17,15.524,6051.2328796631,217.519692,0.80753534,3.04228356192,77, -7.4, -3.3,0,1,1024,1024,1684,1024,76.1,-18.5,78,3.921,3.92,3.925,3.917,0,0,85.91,6,GPS_Atti,
0.305150025716364,36.8793961130654,6052.8732996631,219.160112,0,2.76128289676,19300,2017-11-11 11:50:05,17,15.524,6052.8732996631,219.160112,0.80753534,3.04228356192,77, -7.5, -3,0,1,1024,1024,1684,1024,76.1,-18.5,78,3.921,3.92,3.925,3.917,0,0,85.91,6,GPS_Atti,
0.305150004028938,36.8793960901677,6054.5137196631,220.800532,0,2.76966544296,19400,2017-11-11 11:50:05,17,15.524,6054.5137196631,220.800532,0.80753534,3.04228356192,77, -7.2, -2.6,0,1,1024,1024,1684,1024,76.1,-18.5,78,3.921,3.92,3.925,3.917,0,0,85.91,6,GPS_Atti,
0.305149985388292,36.8793960031737,6056.1541396631,222.440952,0,2.80144694004,19500,2017-11-11 11:50:05,17,15.658,6056.1541396631,222.440952,0.80753534,3.04228356192,76.9, -7.5, -2.3,0,1,1024,1024,1684,1024,76.1,-18.5,78,3.923,3.922,3.925,3.917,0,0,85.91,6,GPS_Atti,
0.305149969918195,36.8793959443812,6057.7945596631,224.081372,0,2.82294300372,19600,2017-11-11 11:50:05,17,15.658,6057.7945596631,224.081372,0.80753534,3.04228356192,76.9, -8, -2.2,0,1,1024,1024,1684,1024,76.1,-18.5,78,3.923,3.922,3.925,3.917,0,0,85.91,6,GPS_Atti,
0.305149924504076,36.8793958552375,6059.4349796631,225.721792,0,2.85566938272,19700,2017-11-11 11:50:05,17,15.658,6059.4349796631,225.721792,0.80753534,3.04228356192,77, -8.3, -2.1,0,1,1024,1024,1649,1024,76.1,-18.5,78,3.923,3.922,3.925,3.917,0,0,85.91,6,GPS_Atti,
0.305149879841084,36.8793958132115,6061.0753996631,227.362212,0,2.87128946196,19800,2017-11-11 11:50:05,17,15.658,6061.0753996631,227.362212,0.80753534,3.04228356192,77, -8.4, -2.4,0,1,1024,1024,1599,1024,76.1,-18.5,78,3.923,3.922,3.925,3.917,0,0,85.91,6,GPS_Atti,
0.305149802623461,36.8793957553366,6062.7158196631,229.002632,0,2.89311360964,19900,2017-11-11 11:50:06,17,15.658,6062.7158196631,229.002632,0.80753534,3.04228356192,77.1, -8.6, -3,0,1,1024,1024,1555,1024,76.1,-18.5,78,3.923,3.922,3.925,3.917,0,0,85.91,6,GPS_Atti,
0.305149727777243,36.8793957201184,6064.3562396631,230.643052,0,2.906906261,20000,2017-11-11 11:50:06,17,15.658,6064.3562396631,230.643052,0.80753534,3.04228356192,77.1, -9.6, -4.1,0,1,1024,1024,1501,1024,76.1,-18.5,78,3.923,3.922,3.925,3.917,0,0,85.91,6,GPS_Atti,
0.305149644741089,36.8793956784468,6065.9966596631,232.283472,0,2.92344497544,20100,2017-11-11 11:50:06,17,15.658,6065.9966596631,232.283472,0.80753534,3.04228356192,77.2, -10.6, -4.1,0,1,1024,1024,1444,1024,76.1,-18.5,78,3.923,3.922,3.925,3.917,0,0,85.91,6,GPS_Atti,
0.305149583136926,36.8793956577149,6067.3089956631,233.595808,0,2.93219825656,20200,2017-11-11 11:50:06,17,15.658,6067.3089956631,233.595808,0.80753534,3.04228356192,77.2, -10.7, -4.1,0,1,1024,1024,1386,1024,76.1,-18.5,78,3.923,3.922,3.925,3.917,0,0,85.91,6,GPS_Atti,
0.305149489793549,36.8793956002392,6068.2932476631,234.58006,0,2.95526256176,20300,2017-11-11 11:50:06,17,15.658,6068.2932476631,234.58006,0.80753534,3.04228356192,77.2, -10.7, -4.2,0,1,1024,1024,1349,1024,76.1,-18.5,78,3.923,3.922,3.925,3.917,0,0,85.91,6,GPS_Atti,
0.30514940791424,36.8793955559414,6069.2774996631,235.564312,0,2.97355980644,20400,2017-11-11 11:50:06,17,15.658,6069.2774996631,235.564312,0.80753534,3.04228356192,77.2, -10.3, -4,0,1,1024,1024,1346,1024,76.1,-18.5,78,3.923,3.922,3.925,3.917,0,0,85.91,6,GPS_Atti,
0.305149316280933,36.8793954746815,6069.9336676631,236.22048,0,3.00587936128,20500,2017-11-11 11:50:06,17,15.605,6069.9336676631,236.22048,0.80753534,3.04228356192,77.1, -8.9, -3.7,0,1,1024,1024,1356,1024,76.1,-18.5,78,3.92,3.92,3.923,3.913,0,0,85.91,6,GPS_Atti,
0.305149245707885,36.8793954312252,6070.5898356631,236.876648,0,3.02403881068,20600,2017-11-11 11:50:06,17,15.605,6070.5898356631,236.876648,0.80753534,3.04228356192,76.9, -7, -3.6,0,1,1024,1024,1364,1024,76.2,-18.5,78,3.92,3.92,3.923,3.913,0,0,85.91,6,GPS_Atti,
0.305149149112658,36.8793953286724,6071.2460036631,237.532816,0,3.06483277524,20700,2017-11-11 11:50:06,17,15.605,6071.2460036631,237.532816,0.80753534,3.06483277524,76.8, -6.4, -3.4,0,1,1024,1024,1373,1024,76.1,-18.5,78,3.92,3.92,3.923,3.913,0,0,85.91,6,GPS_Atti,
0.305149051349023,36.8793952108969,6071.5740876631,237.8609,0,3.11150272424,20800,2017-11-11 11:50:07,17,15.605,6071.5740876631,237.8609,0.80753534,3.11150272424,76.8, -6.3, -3.6,0,1,1024,1024,1371,1024,76.1,-18.5,78,3.92,3.92,3.923,3.913,0,0,85.91,6,GPS_Atti,
0.305148912703301,36.8793950077761,6072.2302556631,238.517068,0,3.1912566638,20900,2017-11-11 11:50:07,17,15.605,6072.2302556631,238.517068,0.80753534,3.1912566638,76.9, -6.5, -4,0,1,1024,1024,1372,1024,76.2,-18.5,78,3.92,3.92,3.923,3.913,0,0,85.91,6,GPS_Atti,
0.305148793666793,36.8793948132971,6072.8864236631,239.173236,0,3.26740167936,21000,2017-11-11 11:50:07,17,15.605,6072.8864236631,239.173236,0.80753534,3.26740167936,77, -7.2, -3.9,0,1,1024,1024,1371,1024,76.2,-18.5,78,3.92,3.92,3.923,3.913,0,0,85.91,6,GPS_Atti,
0.305148653790985,36.8793945721458,6073.5425916631,239.829404,0,3.3618439396,21100,2017-11-11 11:50:07,17,15.605,6073.5425916631,239.829404,0.80753534,3.3618439396,77, -8, -4.1,0,1,1024,1024,1369,1024,76.2,-18.5,78,3.92,3.92,3.923,3.913,0,0,85.91,6,GPS_Atti,
0.305148539897205,36.8793943609656,6074.1987596631,240.485572,0,3.4444226824,21200,2017-11-11 11:50:07,17,15.605,6074.1987596631,240.485572,0.80753534,3.4444226824,77.1, -8.6, -4.7,0,1,1024,1024,1366,1024,76.2,-18.5,78,3.92,3.92,3.923,3.913,0,0,85.91,6,GPS_Atti,
0.305148405546504,36.8793940784434,6074.8549276631,241.14174,0,3.554133972,21300,2017-11-11 11:50:07,17,15.605,6074.8549276631,241.14174,0.80753534,3.554133972,77.1, -9, -5,0,1,1024,1024,1360,1024,76.2,-18.5,78,3.92,3.92,3.923,3.913,0,0,85.91,6,GPS_Atti,
0.305148312782293,36.8793938300763,6075.5110956631,241.797908,0,3.6491799068,21400,2017-11-11 11:50:07,17,15.605,6075.5110956631,241.797908,0.80753534,3.6491799068,77.1, -9.2, -4.8,0,1,1024,1024,1359,1024,76.2,-18.5,78,3.92,3.92,3.923,3.913,0,0,85.91,6,GPS_Atti,
0.305148230752073,36.8793935762674,6076.1672636631,242.454076,0,3.745570986,21500,2017-11-11 11:50:07,17,15.578,6076.1672636631,242.454076,0.80753534,3.745570986,77.1, -9.1, -4.7,0,1,1024,1024,1371,1024,76.2,-18.5,78,3.92,3.92,3.923,3.913,0,0,85.91,6,GPS_Atti,
0.305148170886808,36.8793933529671,6076.8234316631,243.110244,0,3.8296261068,21600,2017-11-11 11:50:07,17,15.578,6076.8234316631,243.110244,0.80753534,3.8296261068,77.2, -9.3, -4.8,0,1,1024,1024,1382,1024,76.2,-18.5,78,3.92,3.92,3.923,3.913,0,0,85.91,6,GPS_Atti,
0.305148125136895,36.8793930837256,6077.4795996631,243.766412,0,3.9292652176,21700,2017-11-11 11:50:07,17,15.578,6077.4795996631,243.766412,0.80753534,3.9292652176,77.2, -9.4, -4.4,0,1,1024,1024,1382,1024,76.2,-18.5,78,3.92,3.92,3.923,3.913,0,0,85.91,6,GPS_Atti,
0.30514809600566,36.8793928543112,6078.1357676631,244.42258,0,4.0135171888,21800,2017-11-11 11:50:07,17,15.578,6078.1357676631,244.42258,0.80753534,4.0135171888,76.9, -8.3, -4.3,0,1,1024,1024,1382,1024,76.2,-18.5,78,3.92,3.92,3.923,3.913,0,0,85.91,6,GPS_Atti,
0.305148071033675,36.879392549024,6078.7919356631,245.078748,0,4.1247704732,21900,2017-11-11 11:50:08,17,15.578,6078.7919356631,245.078748,0.80753534,4.1247704732,76.9, -9.1, -4.6,0,1,1024,1024,1383,1024,76.2,-18.5,78,3.92,3.92,3.923,3.913,0,0,85.91,6,GPS_Atti,
0.305148069732752,36.8793922731899,6079.4481036631,245.734916,0,4.2239830748,22000,2017-11-11 11:50:08,17,15.578,6079.4481036631,245.734916,0.80753534,4.2239830748,77, -10.3, -4.5,0,1,1024,1024,1384,1024,76.2,-18.5,78,3.92,3.92,3.923,3.913,0,0,85.91,6,GPS_Atti,
0.305148067400413,36.8793919866713,6080.1042716631,246.391084,0,4.3271654928,22100,2017-11-11 11:50:08,17,15.578,6080.1042716631,246.391084,0.80753534,4.3271654928,77, -10.2, -4,0,1,1024,1024,1378,1024,76.2,-18.5,78,3.92,3.92,3.923,3.913,0,0,85.91,6,GPS_Atti,
0.305148078740694,36.8793917642017,6080.7604396631,247.047252,0,4.4065618208,22200,2017-11-11 11:50:08,17,15.578,6080.7604396631,247.047252,0.80753534,4.4065618208,77, -10.1, -3.7,0,1,1024,1024,1374,1024,76.2,-18.5,78,3.92,3.92,3.923,3.913,0,0,85.91,6,GPS_Atti,
0.305148048274135,36.8793914242671,6081.4166076631,247.70342,0,4.5307416148,22300,2017-11-11 11:50:08,17,15.578,6081.4166076631,247.70342,0.80753534,4.5307416148,77, -10.1, -3.8,0,1,1024,1024,1321,1024,76.2,-18.5,78,3.92,3.92,3.923,3.913,0,0,85.91,6,GPS_Atti,
0.305148029910986,36.8793911734622,6082.0727756631,248.359588,0,4.6221458172,22400,2017-11-11 11:50:08,17,15.578,6082.0727756631,248.359588,0.80753534,4.6221458172,77, -10.2, -4.1,0,1,1024,1024,1079,1024,76.2,-18.5,78,3.92,3.92,3.923,3.913,0,0,85.91,6,GPS_Atti,
0.30514796200935,36.8793909139685,6082.4008596631,248.687672,0,4.7195539568,22500,2017-11-11 11:50:08,17,15.578,6082.4008596631,248.687672,0.80753534,4.7195539568,77.2, -10.5, -4.7,0,1,1024,1024,1024,1024,76.2,-18.5,78,3.959,3.955,3.958,3.951,0,0,85.91,6,GPS_Atti,
0.305147909732633,36.8793907219465,6083.0570276631,249.34384,0,4.7917980536,22600,2017-11-11 11:50:08,17,15.578,6083.0570276631,249.34384,0.80753534,4.7917980536,77.5, -13.5, -6.1,0,1,1024,1024,1024,1024,76.2,-18.5,78,3.959,3.955,3.958,3.951,0,0,85.91,6,GPS_Atti,
0.305147811369527,36.8793904639216,6083.3851116631,249.671924,0,4.8905513376,22700,2017-11-11 11:50:08,17,15.578,6083.3851116631,249.671924,0.80753534,4.8905513376,77.7, -14.4, -6.9,0,1,1024,1024,1024,1024,76.2,-18.5,78,3.959,3.955,3.958,3.951,0,0,85.91,6,GPS_Atti,
0.305147769933362,36.8793902998795,6083.7131956631,250.000008,0,4.9520670876,22800,2017-11-11 11:50:08,17,15.578,6083.7131956631,250.000008,0.80753534,4.9520670876,77.3, -11.3, -4.8,0,1,1024,1024,1024,1024,76.2,-18.5,78,3.959,3.955,3.958,3.951,0,0,85.91,6,GPS_Atti,
0.305147731316645,36.8793900980509,6083.7131956631,250.000008,0,5.0270342816,22900,2017-11-11 11:50:09,18,15.578,6083.7131956631,250.000008,0.80753534,5.0270342816,77.1, -9.5, -4.1,0,1,1024,1024,1024,1024,76.2,-18.5,78,3.959,3.955,3.958,3.951,0,0,85.91,6,GPS_Atti,
0.305147690258076,36.8793899231605,6083.3851116631,249.671924,0,5.0924542312,23000,2017-11-11 11:50:09,18,15.578,6083.7131956631,250.000008,0.80753534,5.0924542312,77, -8.7, -4.5,0,1,1024,1024,1024,1024,76.2,-18.5,78,3.959,3.955,3.958,3.951,0,0,85.91,6,GPS_Atti,
0.305147624193731,36.8793895615389,6083.3851116631,249.671924,0,5.2265749704,23100,2017-11-11 11:50:09,18,15.578,6083.7131956631,250.000008,0.80753534,5.2265749704,76.8, -8, -4.4,0,1,1024,1024,1024,1024,76.2,-18.5,78,3.959,3.955,3.958,3.951,0,0,85.91,6,GPS_Atti,
