latitude,longitude,altitude(feet),ascent(feet),speed(mph),distance(feet),time(millisecond),datetime(utc),satellites,voltage(v),max_altitude(feet),max_ascent(feet),max_speed(mph),max_distance(feet),compass_heading(degrees), pitch(degrees), roll(degrees),isPhoto,isVideo,rc_elevator,rc_aileron,rc_throttle,rc_rudder,gimbal_heading(degrees),gimbal_pitch(degrees),battery_percent,voltageCell1,voltageCell2,voltageCell3,voltageCell4,voltageCell5,voltageCell6,battery_temperature(f),flycStateRaw,flycState,message
0.368327474062397,36.910457119392,5443.2575836331,0,0,0,100,2017-11-07 06:10:47,10,0,5443.2575836331,0,0,0,347.6, -7.6, 3.1,0,0,1024,1024,1024,1024,352.5,0,100,4.302,4.305,4.305,4.306,0,0,71.51,41,Motors_Started,
0.368327462866234,36.9104570682577,5443.2575836331,0,0,0.0190979008736,200,2017-11-07 06:10:47,10,0,5443.2575836331,0,0,0.0190979008736,347.6, -7.6, 3.1,0,0,1024,1024,1024,1024,352.5,0,100,4.302,4.305,4.305,4.306,0,0,71.51,41,Motors_Started,
0.368327439131256,36.9104570177455,5443.2575836331,0,0,0.039213583932,300,2017-11-07 06:10:47,10,0,5443.2575836331,0,0,0.039213583932,347.6, -7.6, 3.1,0,0,1024,1024,1024,1024,352.5,0,100,4.302,4.305,4.305,4.306,0,0,71.51,41,Motors_Started,
0.368327411938073,36.9104570073275,5443.2575836331,0,0,0.046748361076,400,2017-11-07 06:10:47,10,0,5443.2575836331,0,0,0.046748361076,347.6, -7.6, 3.1,0,0,1024,1024,1024,1024,352.5,0,100,4.302,4.305,4.305,4.306,0,0,71.51,41,Motors_Started,
0.368327376818236,36.9104569872797,5443.2575836331,0,0,0.059850067532,500,2017-11-07 06:10:47,10,0,5443.2575836331,0,0,0.059850067532,347.6, -7.6, 3.1,0,0,1024,1024,1024,1024,352.5,0,100,4.302,4.305,4.305,4.306,0,0,71.51,41,Motors_Started,
0.368327292729662,36.9104568591632,5443.2575836331,0,0,0.115719819976,700,2017-11-07 06:10:47,10,0,5443.2575836331,0,0,0.115719819976,347.6, -7.6, 3.1,0,0,1024,1024,1024,1024,352.5,0,100,4.302,4.305,4.305,4.306,0,0,71.51,41,Motors_Started,
0.368327244988366,36.91045683518,5443.2575836331,0,0,0.133181434708,800,2017-11-07 06:10:47,10,17.182,5443.2575836331,0,0,0.133181434708,347.5, -7.6, 3.1,0,0,364,364,404,1663,352.5,0,100,4.302,4.305,4.305,4.306,0,0,71.51,41,Motors_Started,Setting new Return-To-Home altitude to 30m (98 ft). Setting new Maximum Flight Altitude to 100m (328 ft)
0.368327196419617,36.9104568055191,5443.2575836331,0,0,0.152887800168,900,2017-11-07 06:10:47,10,17.182,5443.2575836331,0,0,0.152887800168,347.6, -7.7, 3.1,0,0,691,641,1012,1024,352.5,0,100,4.302,4.305,4.305,4.306,0,0,71.51,41,Motors_Started,
0.368327186690478,36.9104567693598,5443.2575836331,0,0,0.16523294492,1000,2017-11-07 06:10:48,10,17.182,5443.2575836331,0,0,0.16523294492,347.6, -7.7, 3,0,0,1024,1024,1024,1024,351.3,0,100,4.302,4.305,4.305,4.306,0,0,71.51,41,Motors_Started,
0.368327165706552,36.9104567306784,5443.2575836331,0,0,0.181023955924,1100,2017-11-07 06:10:48,10,17.182,5443.2575836331,0,0,0.181023955924,347.5, -7.7, 3.1,0,0,1024,1024,1024,1024,349.9,0,100,4.302,4.305,4.305,4.306,0,0,71.51,41,Motors_Started,
0.368327134105782,36.9104567308944,5443.2575836331,0,0,0.188346790804,1200,2017-11-07 06:10:48,10,17.182,5443.2575836331,0,0,0.188346790804,347.5, -7.7, 3.1,0,0,1024,1024,1024,1024,349.3,0,100,4.302,4.305,4.305,4.306,0,0,71.51,41,Motors_Started,
0.368327101938721,36.910456717058,5443.2575836331,0,0,0.199950137632,1300,2017-11-07 06:10:48,10,17.182,5443.2575836331,0,0,0.199950137632,347.5, -7.6, 3.1,0,0,1024,1024,1024,1024,349,0,100,4.302,4.305,4.305,4.306,0,0,71.51,41,Motors_Started,
0.368327058112611,36.910456691602,5443.2575836331,0,0,0.21769357652,1400,2017-11-07 06:10:48,10,17.182,5443.2575836331,0,0,0.21769357652,347.5, -7.8, 3,0,0,1024,1024,1024,1024,348.9,0,100,4.302,4.305,4.305,4.306,0,0,71.51,41,Motors_Started,
0.368327016195852,36.9104566615586,5443.2575836331,0,0,0.236236556116,1500,2017-11-07 06:10:48,10,17.182,5443.2575836331,0,0,0.236236556116,347.5, -7.8, 3,0,0,1024,1024,1024,1024,348.7,0,100,4.302,4.305,4.305,4.306,0,0,71.51,10,Assisted_Takeoff,
0.368326964593719,36.9104566238455,5443.2575836331,0,0,0.259303485988,1600,2017-11-07 06:10:48,10,17.182,5443.2575836331,0,0,0.259303485988,347.5, -7.5, 3.1,0,0,1024,1024,1024,1024,348.6,0,100,4.302,4.305,4.305,4.306,0,0,71.51,10,Assisted_Takeoff,
0.368326914871624,36.9104565823168,5443.2575836331,0,0,0.282877633724,1700,2017-11-07 06:10:48,10,17.182,5443.2575836331,0,0,0.282877633724,347.5, -7.7, 3.1,0,0,1024,1024,1024,1024,348.6,0,100,4.302,4.305,4.305,4.306,0,0,71.51,10,Assisted_Takeoff,
0.368326855561861,36.9104565729939,5443.2575836331,0,0,0.301101715672,1800,2017-11-07 06:10:48,10,17.156,5443.2575836331,0,0,0.301101715672,347.5, -7.6, 3.1,0,0,1024,1024,1024,1024,348.5,0,100,4.275,4.277,4.274,4.307,0,0,71.51,10,Assisted_Takeoff,
0.36832680224233,36.9104565554989,5443.2575836331,0,0,0.320009524676,1900,2017-11-07 06:10:48,10,17.156,5443.2575836331,0,0,0.320009524676,347.5, -7.6, 3.1,0,0,1024,1024,1024,1024,348.5,0,100,4.275,4.277,4.274,4.307,0,0,71.51,10,Assisted_Takeoff,
0.368326785707924,36.9104565230011,5443.2575836331,0,0,0.33229331772,2000,2017-11-07 06:10:49,10,17.156,5443.2575836331,0,0,0.33229331772,347.5, -7.6, 3.1,0,0,1024,1024,1024,1024,348.5,0,100,4.275,4.277,4.274,4.307,0,0,71.51,10,Assisted_Takeoff,
0.368326761271086,36.9104564904809,5443.2575836331,0,0,0.34681431556,2100,2017-11-07 06:10:49,10,17.156,5443.2575836331,0,0,0.34681431556,347.5, -7.6, 3.1,0,0,1024,1024,1024,1024,348.4,0,100,4.275,4.277,4.274,4.307,0,0,71.51,10,Assisted_Takeoff,
0.368326733176153,36.9104564420253,5443.2575836331,0,0,0.36625329256,2200,2017-11-07 06:10:49,10,17.156,5443.2575836331,0,0,0.36625329256,347.5, -7.6, 3.1,0,0,1024,1024,1024,1024,348.4,0,100,4.275,4.277,4.274,4.307,0,0,71.51,10,Assisted_Takeoff,
0.368326697120978,36.9104563988778,5443.2575836331,0,0,0.38659450056,2300,2017-11-07 06:10:49,10,17.156,5443.2575836331,0,0,0.38659450056,347.5, -7.6, 3.1,0,0,1024,1024,1024,1024,348.4,0,100,4.275,4.277,4.274,4.307,0,0,71.51,10,Assisted_Takeoff,
0.36832665533714,36.9104563816071,5443.2575836331,0,0,0.4020997504,2400,2017-11-07 06:10:49,10,17.156,5443.2575836331,0,0,0.4020997504,347.5, -7.6, 3.1,0,0,1024,1024,1024,1024,348.3,0,100,4.275,4.277,4.274,4.307,0,0,71.51,10,Assisted_Takeoff,
0.36832661036481,36.9104563613532,5443.2575836331,0,0,0.41927166696,2500,2017-11-07 06:10:49,10,17.156,5443.2575836331,0,0,0.41927166696,347.4, -7.6, 3.1,0,0,1024,1024,1024,1024,348.3,0,100,4.275,4.277,4.274,4.307,0,0,71.51,10,Assisted_Takeoff,
0.36832656021708,36.9104563264513,5443.2575836331,0,0,0.44143046032,2600,2017-11-07 06:10:49,10,17.156,5443.2575836331,0,0,0.44143046032,347.4, -7.6, 3.1,0,0,1024,1024,1024,1024,348.3,0,100,4.275,4.277,4.274,4.307,0,0,71.51,10,Assisted_Takeoff,
0.368326508569554,36.9104562923508,5443.2575836331,0,0,0.46382547416,2700,2017-11-07 06:10:49,10,17.156,5443.2575836331,0,0,0.46382547416,347.4, -7.6, 3.1,0,0,1024,1024,1024,1024,348.3,0,100,4.275,4.277,4.274,4.307,0,0,71.51,10,Assisted_Takeoff,
0.368326492939749,36.9104562829056,5443.2575836331,0,0,0.47039699668,2800,2017-11-07 06:10:49,10,17.049,5443.2575836331,0,0,0.47039699668,347.4, -7.6, 3.1,0,0,1024,1024,1024,1024,348.3,0,100,4.275,4.277,4.274,4.307,0,0,71.51,10,Assisted_Takeoff,
0.368326467747516,36.9104562696318,5443.2575836331,0,0,0.48054135396,2900,2017-11-07 06:10:49,10,17.049,5443.2575836331,0,0,0.48054135396,347.4, -7.6, 3.1,0,0,1024,1024,1024,1024,348.3,0,100,4.275,4.277,4.274,4.307,0,0,71.51,10,Assisted_Takeoff,
0.368326437703132,36.9104562771133,5443.2575836331,0,0,0.48724082924,3000,2017-11-07 06:10:50,10,17.049,5443.2575836331,0,0,0.48724082924,347.4, -7.6, 3.1,0,0,1024,1024,1024,1024,348.2,0,100,4.275,4.277,4.274,4.307,0,0,71.51,10,Assisted_Takeoff,
0.368326401504654,36.9104562783704,5443.2575836331,0,0,0.4972769188,3100,2017-11-07 06:10:50,10,17.049,5443.2575836331,0,0,0.4972769188,347.4, -7.6, 3.1,0,0,1024,1024,1024,1024,348.2,0,100,4.275,4.277,4.274,4.307,0,0,71.51,10,Assisted_Takeoff,
0.36832635923208,36.9104562580624,5443.2575836331,0,0,0.51399936028,3200,2017-11-07 06:10:50,10,17.049,5443.2575836331,0,0,0.51399936028,347.4, -7.6, 3.1,0,0,1024,1024,1024,1024,348.2,0,100,4.275,4.277,4.274,4.307,0,0,71.51,10,Assisted_Takeoff,
0.368326313837371,36.9104562369365,5443.2575836331,0,0,0.53183072568,3300,2017-11-07 06:10:50,10,17.049,5443.2575836331,0,0,0.53183072568,347.4, -7.6, 3.1,0,0,1024,1024,1024,1024,348.2,0,100,4.275,4.277,4.274,4.307,0,0,71.51,10,Assisted_Takeoff,
0.368326300907933,36.910456230448,5443.2575836331,0,0,0.53702101456,3400,2017-11-07 06:10:50,10,17.049,5443.2575836331,0,0,0.53702101456,347.4, -7.6, 3.1,0,0,1024,1024,1024,1024,348.2,0,100,4.275,4.277,4.274,4.307,0,0,71.51,10,Assisted_Takeoff,
0.368326279086783,36.9104562226916,5443.2575836331,0,0,0.54508203844,3500,2017-11-07 06:10:50,10,17.049,5443.2575836331,0,0,0.54508203844,347.4, -7.6, 3.1,0,0,1024,1024,1024,1024,348.2,0,100,4.275,4.277,4.274,4.307,0,0,71.51,10,Assisted_Takeoff,
0.368326249941911,36.9104561886953,5443.2575836331,0,0,0.56104332504,3600,2017-11-07 06:10:50,10,17.049,5443.2575836331,0,0,0.56104332504,347.4, -7.6, 3.1,0,1,1024,1024,1024,1024,348.2,0,100,4.275,4.277,4.274,4.307,0,0,71.51,10,Assisted_Takeoff,
0.3683262134267,36.9104561594578,5443.2575836331,0,0,0.57810369304,3700,2017-11-07 06:10:50,10,17.049,5443.2575836331,0,0,0.57810369304,347.4, -7.6, 3.1,0,1,1024,1024,1024,1024,348.2,0,100,4.275,4.277,4.274,4.307,0,0,71.51,10,Assisted_Takeoff,
0.368326207536211,36.9104561449201,5443.2575836331,0,0,0.58303479556,3800,2017-11-07 06:10:50,10,17.156,5443.2575836331,0,0,0.58303479556,347.4, -7.6, 3.1,0,1,1024,1024,1024,1024,348.2,0,100,4.291,4.296,4.298,4.298,0,0,71.51,10,Assisted_Takeoff,
0.368326192149858,36.9104561318369,5443.2575836331,0,0,0.59039371968,3900,2017-11-07 06:10:51,10,17.156,5443.2575836331,0,0,0.59039371968,347.4, -7.6, 3.1,0,1,1024,1024,1024,1024,348.2,0,100,4.291,4.296,4.298,4.298,0,0,71.51,10,Assisted_Takeoff,
0.368326166850759,36.9104560944654,5443.2575836331,0,0,0.60604988816,4000,2017-11-07 06:10:51,10,17.156,5443.2575836331,0,0,0.60604988816,347.4, -7.6, 3.1,0,1,1024,1024,1024,1024,348.2,0,100,4.291,4.296,4.298,4.298,0,0,71.51,10,Assisted_Takeoff,
0.36832613512582,36.9104560630251,5443.2575836331,0,0,0.62223755272,4100,2017-11-07 06:10:51,10,17.156,5443.2575836331,0,0,0.62223755272,347.4, -7.6, 3.1,0,1,1024,1024,1024,1024,348.2,0,100,4.291,4.296,4.298,4.298,0,0,71.51,10,Assisted_Takeoff,
0.368326130275093,36.9104560461956,5443.2575836331,0,0,0.62744096496,4200,2017-11-07 06:10:51,10,17.156,5443.2575836331,0,0,0.62744096496,347.4, -7.6, 3.1,0,1,1024,1024,1024,1024,348.2,0,100,4.291,4.296,4.298,4.298,0,0,71.51,10,Assisted_Takeoff,
0.36832611536506,36.9104560319769,5443.2575836331,0,0,0.63493112268,4300,2017-11-07 06:10:51,10,17.156,5443.2575836331,0,0,0.63493112268,347.4, -7.6, 3.1,0,1,1024,1024,1024,1024,348.2,0,100,4.291,4.296,4.298,4.298,0,0,71.51,10,Assisted_Takeoff,
0.368326085626008,36.9104559924056,5443.2575836331,0,0,0.65243768492,4400,2017-11-07 06:10:51,10,17.156,5443.2575836331,0,0,0.65243768492,347.4, -7.6, 3.1,0,1,1024,1024,1024,1024,348.2,0,100,4.291,4.296,4.298,4.298,0,0,71.51,10,Assisted_Takeoff,
0.368326051828467,36.910455959786,5443.2575836331,0,0,0.66951445712,4500,2017-11-07 06:10:51,10,17.156,5443.2575836331,0,0,0.66951445712,347.4, -7.6, 3.1,0,1,1024,1024,1024,1024,348.2,0,100,4.291,4.296,4.298,4.298,0,0,71.51,10,Assisted_Takeoff,
0.368326005482544,36.910455943643,5443.2575836331,0,0,0.6863681322,4600,2017-11-07 06:10:51,10,17.156,5443.2575836331,0,0,0.6863681322,347.4, -7.6, 3.1,0,1,1024,1024,1024,1024,348.2,0,100,4.291,4.296,4.298,4.298,0,0,71.51,10,Assisted_Takeoff,
0.368325958848793,36.9104559275607,5443.2575836331,0,0,0.70334319836,4700,2017-11-07 06:10:51,10,17.156,5443.2575836331,0,0,0.70334319836,347.4, -7.6, 3.1,0,1,1024,1024,1024,1024,348.2,0,100,4.291,4.296,4.298,4.298,0,0,71.51,10,Assisted_Takeoff,
0.368325939552139,36.9104558876866,5443.2575836331,0,0,0.71790684712,4800,2017-11-07 06:10:51,10,17.156,5443.2575836331,0,0,0.71790684712,347.4, -7.6, 3.1,0,1,1024,1024,1024,1024,348.2,0,100,4.294,4.299,4.298,4.298,0,0,71.51,10,Assisted_Takeoff,
0.368325914509113,36.9104558524339,5443.2575836331,0,0,0.73309385548,4900,2017-11-07 06:10:51,10,17.156,5443.2575836331,0,0,0.73309385548,347.4, -7.6, 3.1,0,1,1024,1024,1024,1024,348.2,0,100,4.294,4.299,4.298,4.298,0,0,71.51,10,Assisted_Takeoff,
0.368325916105395,36.9104558333178,5443.2575836331,0,0,0.73706367188,5000,2017-11-07 06:10:52,10,17.156,5443.2575836331,0,0,0.73706367188,347.4, -7.6, 3.1,0,1,1024,1024,1024,1024,348.2,0,100,4.294,4.299,4.298,4.298,0,0,71.51,10,Assisted_Takeoff,
0.368325906756905,36.9104558157449,5443.2575836331,0,0,0.74377955136,5100,2017-11-07 06:10:52,10,17.156,5443.2575836331,0,0,0.74377955136,347.4, -7.7, 3.1,0,1,1024,1024,1024,1024,348.2,0,100,4.294,4.299,4.298,4.298,0,0,71.51,10,Assisted_Takeoff,
0.368325883446951,36.9104558141786,5443.2575836331,0,0,0.75070212376,5200,2017-11-07 06:10:52,10,17.156,5443.2575836331,0,0,0.75070212376,347.4, -7.6, 3.1,0,1,1024,1024,1024,1024,348.2,0,100,4.294,4.299,4.298,4.298,0,0,71.51,10,Assisted_Takeoff,
0.368325853920411,36.910455808606,5443.2575836331,0,0,0.76033795084,5300,2017-11-07 06:10:52,10,17.156,5443.2575836331,0,0,0.76033795084,347.4, -7.6, 3.1,0,1,1024,1024,1024,1024,348.2,0,100,4.294,4.299,4.298,4.298,0,0,71.51,10,Assisted_Takeoff,
0.368325810675453,36.9104557780319,5443.2575836331,0,0,0.77961944752,5400,2017-11-07 06:10:52,10,17.156,5443.2575836331,0,0,0.77961944752,347.4, -7.6, 3.1,0,1,1024,1024,1024,1024,348.2,0,100,4.294,4.299,4.298,4.298,0,0,71.51,10,Assisted_Takeoff,
0.368325767723207,36.9104557488043,5443.2575836331,0,0,0.79851380508,5500,2017-11-07 06:10:52,10,17.156,5443.2575836331,0,0,0.79851380508,347.4, -7.6, 3.1,0,1,1024,1024,1024,1024,348.2,0,100,4.294,4.299,4.298,4.298,0,0,71.51,10,Assisted_Takeoff,
0.368325750820365,36.9104557339757,5443.2575836331,0,0,0.8067093434,5600,2017-11-07 06:10:52,10,17.156,5443.2575836331,0,0,0.8067093434,347.4, -7.6, 3.1,0,1,1024,1024,1024,1024,348.2,0,100,4.294,4.299,4.298,4.298,0,0,71.51,10,Assisted_Takeoff,
0.368325728888074,36.9104557197753,5443.2575836331,0,0,0.81619425184,5700,2017-11-07 06:10:52,10,17.156,5443.2575836331,0,0,0.81619425184,347.4, -7.6, 3.1,0,1,1024,1024,1024,1024,348.2,0,100,4.294,4.299,4.298,4.298,0,0,71.51,10,Assisted_Takeoff,
0.368325694247814,36.9104557197247,5443.2575836331,0,0,0.82610238864,5800,2017-11-07 06:10:52,10,17.156,5443.2575836331,0,0,0.82610238864,347.4, -7.6, 3.1,0,1,1024,1024,1024,1024,348.2,0,100,4.294,4.299,4.298,4.298,0,0,71.51,10,Assisted_Takeoff,
0.368325656667397,36.9104557158036,5443.2575836331,0,0,0.8377953024,5900,2017-11-07 06:10:52,10,17.156,5443.2575836331,0,0,0.8377953024,347.4, -7.6, 3.1,0,1,1024,1024,1024,1024,348.2,0,100,4.294,4.299,4.298,4.298,0,0,71.51,10,Assisted_Takeoff,
0.368325609358656,36.9104556869341,5443.2575836331,0,0,0.85789700908,6000,2017-11-07 06:10:53,10,17.156,5443.2575836331,0,0,0.85789700908,347.4, -7.6, 3.1,0,1,1024,1024,1024,1024,348.2,0,100,4.294,4.299,4.298,4.298,0,0,71.51,10,Assisted_Takeoff,
0.368325562938639,36.9104556594444,5443.2575836331,0,0,0.87744097296,6100,2017-11-07 06:10:53,10,17.156,5443.2575836331,0,0,0.87744097296,347.4, -7.6, 3.1,0,1,1024,1024,1024,1024,348.2,0,100,4.294,4.299,4.298,4.298,0,0,71.51,10,Assisted_Takeoff,
0.368325544147209,36.9104556438233,5443.2575836331,0,0,0.8863517344,6200,2017-11-07 06:10:53,10,17.156,5443.2575836331,0,0,0.8863517344,347.4, -7.7, 3.1,0,1,1024,1024,1024,1024,348.2,0,100,4.294,4.299,4.298,4.298,0,0,71.51,10,Assisted_Takeoff,
0.368325520983001,36.9104556289653,5443.2575836331,0,0,0.8963582964,6300,2017-11-07 06:10:53,10,17.156,5443.2575836331,0,0,0.8963582964,347.4, -7.6, 3.1,0,1,1024,1024,1024,1024,348.1,0,100,4.294,4.299,4.298,4.298,0,0,71.51,10,Assisted_Takeoff,
0.368325488962092,36.9104555918727,5443.2575836331,0,0,0.9138615778,6400,2017-11-07 06:10:53,10,17.156,5443.2575836331,0,0,0.9138615778,347.4, -7.7, 3.1,0,1,1024,1024,1024,1024,348.1,0,100,4.294,4.299,4.298,4.298,0,0,71.51,10,Assisted_Takeoff,
0.368325453505167,36.9104555557557,5443.2575836331,0,0,0.9321522608,6500,2017-11-07 06:10:53,10,17.156,5443.2575836331,0,0,0.9321522608,347.4, -7.7, 3.1,0,1,1024,1024,1024,1024,348.1,0,100,4.294,4.299,4.298,4.298,0,0,71.51,10,Assisted_Takeoff,
0.368325442538411,36.9104555318531,5443.2575836331,0,0,0.9406660406,6600,2017-11-07 06:10:53,10,17.156,5443.2575836331,0,0,0.9406660406,347.4, -7.6, 3.1,0,1,1024,1024,1024,1024,348.1,0,100,4.294,4.299,4.298,4.298,0,0,71.51,10,Assisted_Takeoff,
0.368325424884856,36.9104555109956,5443.2575836331,0,0,0.95042982044,6700,2017-11-07 06:10:53,10,17.156,5443.2575836331,0,0,0.95042982044,347.4, -7.7, 3.1,0,1,1024,1024,1024,1024,348.1,0,100,4.294,4.299,4.298,4.298,0,0,71.51,10,Assisted_Takeoff,
0.368325394366187,36.9104554690916,5443.2575836331,0,0,0.96864176328,6800,2017-11-07 06:10:53,10,17.156,5443.2575836331,0,0,0.96864176328,347.4, -7.6, 3.1,0,1,1024,1024,1024,1024,348.1,0,100,4.293,4.298,4.297,4.297,0,0,71.51,10,Assisted_Takeoff,
0.3683253598847,36.9104554306348,5443.2575836331,0,0,0.9872211602,6900,2017-11-07 06:10:53,10,17.156,5443.2575836331,0,0,0.9872211602,347.4, -7.6, 3.1,0,1,1024,1024,1056,1024,348.1,0,100,4.293,4.298,4.297,4.297,0,0,71.51,10,Assisted_Takeoff,
0.368325350657529,36.9104553726659,5443.2575836331,0,0,1.00315620008,7000,2017-11-07 06:10:54,10,17.156,5443.2575836331,0,0,1.00315620008,347.4, -7.7, 3.1,0,1,1024,1024,1152,1024,348.1,0,100,4.293,4.298,4.297,4.297,0,0,71.51,10,Assisted_Takeoff,
0.368325334073863,36.910455323595,5443.2575836331,0,0,1.01924872028,7100,2017-11-07 06:10:54,10,17.156,5443.2575836331,0,0,1.01924872028,347.4, -7.6, 3.1,0,1,1024,1024,1168,1024,348.1,0,100,4.293,4.298,4.297,4.297,0,0,71.51,10,Assisted_Takeoff,
0.368325303828365,36.9104552599412,5443.2575836331,0,0,1.04268704124,7200,2017-11-07 06:10:54,10,17.156,5443.2575836331,0,0,1.04268704124,347.4, -7.6, 3,0,1,1024,1024,1168,1024,348.1,0,100,4.293,4.298,4.297,4.297,0,0,71.51,10,Assisted_Takeoff,
0.368325270678945,36.9104552041628,5443.2575836331,0,0,1.06513782936,7300,2017-11-07 06:10:54,10,17.156,5443.2575836331,0,0,1.06513782936,347.4, -7.6, 3,0,1,1024,1024,1146,1024,348.1,0,100,4.293,4.298,4.297,4.297,0,0,71.51,10,Assisted_Takeoff,
0.368325260859428,36.9104551756474,5443.2575836331,0,0,1.07468179292,7400,2017-11-07 06:10:54,10,17.156,5443.2575836331,0,0,1.07468179292,347.4, -7.6, 3,0,1,1024,1024,1189,1024,348.1,0,100,4.293,4.298,4.297,4.297,0,0,71.51,10,Assisted_Takeoff,
0.368325244988205,36.9104551467421,5443.2575836331,0,0,1.08600069092,7500,2017-11-07 06:10:54,10,17.156,5443.2575836331,0,0,1.08600069092,347.4, -7.6, 3,0,1,1024,1024,1189,1024,348.1,0,100,4.293,4.298,4.297,4.297,0,0,71.51,10,Assisted_Takeoff,
0.368325214335597,36.9104551085845,5443.2575836331,0,0,1.10360567836,7600,2017-11-07 06:10:54,10,17.156,5443.2575836331,0,0,1.10360567836,347.4, -7.6, 2.9,0,1,1024,1024,1289,1024,348.1,0,100,4.293,4.298,4.297,4.297,0,0,71.51,10,Assisted_Takeoff,
0.368325183622329,36.9104550687581,5443.2575836331,0,0,1.12164045584,7700,2017-11-07 06:10:54,10,17.156,5443.2575836331,0,0,1.12164045584,347.1, -7.5, 2.9,0,1,1024,1024,1289,1024,348.1,0,100,4.293,4.298,4.297,4.297,0,0,71.51,10,Assisted_Takeoff,
0.368325210755463,36.9104550554112,5443.2575836331,0,0.223694,1.11755909088,7800,2017-11-07 06:10:54,10,17.156,5443.2575836331,0,0.223694,1.12164045584,346.7, -4.2, 2.4,0,1,1024,1024,1341,1024,348.1,0,100,4.293,4.297,4.297,4.297,0,0,73.31,10,Assisted_Takeoff,
0.368325326453559,36.9104550471022,5443.2575836331,0,0.223694,1.0888451792,7900,2017-11-07 06:10:54,10,17.156,5443.2575836331,0,0.223694,1.12164045584,346.8, 0.3, 0.4,0,1,1024,1024,1341,1024,348.1,0,100,4.293,4.297,4.297,4.297,0,0,73.31,10,Assisted_Takeoff,
0.368325473932775,36.9104550165087,5443.2575836331,0,0.223694,1.05884517824,8000,2017-11-07 06:10:55,10,17.156,5443.2575836331,0,0.223694,1.12164045584,346.8, 1.9, -0.2,0,1,1024,1024,1344,1024,348,0,100,4.293,4.297,4.297,4.297,0,0,73.31,6,GPS_Atti,Obstacle Avoided. Revise Flight Route
0.368325573337882,36.910454958599,5443.2575836331,0,0.223694,1.04995410184,8100,2017-11-07 06:10:55,10,17.156,5443.2575836331,0,0.223694,1.12164045584,346.8, 1.7, -0.2,0,1,1024,1024,1344,1024,348,0,100,4.293,4.297,4.297,4.297,0,0,73.31,6,GPS_Atti,
0.368325651043159,36.9104548982168,5443.2575836331,0,0,1.04838257948,8200,2017-11-07 06:10:55,10,17.156,5443.2575836331,0,0.223694,1.12164045584,346.8, 1.4, 0,0,1,1024,1024,1346,1024,348,0,100,4.293,4.297,4.297,4.297,0,0,73.31,6,GPS_Atti,
0.368325688360988,36.9104548067839,5443.5856676331,0.328084,0,1.06600069028,8300,2017-11-07 06:10:55,10,17.156,5443.5856676331,0.328084,0.223694,1.12164045584,346.8, 1, 0.4,0,1,1024,1024,1356,1024,348,0,100,4.293,4.297,4.297,4.297,0,0,73.31,6,GPS_Atti,
0.368325713660087,36.9104546995032,5443.9137516331,0.656168,0,1.09178481184,8400,2017-11-07 06:10:55,10,17.156,5443.9137516331,0.656168,0.223694,1.12164045584,346.8, 0.7, 0.9,0,1,1024,1024,1358,1024,348,0,100,4.293,4.297,4.297,4.297,0,0,73.31,6,GPS_Atti,
0.368325706321097,36.9104545785427,5444.2418356331,0.984252,0.223694,1.1292979364,8500,2017-11-07 06:10:55,10,17.156,5444.2418356331,0.984252,0.223694,1.1292979364,346.8, 0.4, 1.3,0,1,1024,1024,1355,1024,347.9,0,100,4.293,4.297,4.297,4.297,0,0,73.31,6,GPS_Atti,
0.368325697812477,36.9104544892495,5444.8980036331,1.64042,0.223694,1.15792654624,8600,2017-11-07 06:10:55,10,17.156,5444.8980036331,1.64042,0.223694,1.15792654624,346.8, 0.3, 1.7,0,1,1024,1024,1355,1024,347.9,0,100,4.293,4.297,4.297,4.297,0,0,73.31,6,GPS_Atti,
0.368325666499535,36.9104543918908,5445.2260876331,1.968504,0,1.19380253164,8700,2017-11-07 06:10:55,10,17.156,5445.2260876331,1.968504,0.223694,1.19380253164,346.8, 0.2, 2.3,0,1,1024,1024,1358,1024,347.9,0,100,4.293,4.297,4.297,4.297,0,0,73.31,6,GPS_Atti,
0.368325605161342,36.9104543228499,5445.8822556331,2.624672,0,1.22716867444,8800,2017-11-07 06:10:55,10,16.969,5445.8822556331,2.624672,0.223694,1.22716867444,346.7, -0.1, 2.4,0,1,1024,1024,1358,1024,347.9,0,100,4.192,4.192,4.185,4.184,0,0,73.31,6,GPS_Atti,
0.368325546271515,36.9104542601658,5446.5384236331,3.28084,0,1.25813324236,8900,2017-11-07 06:10:55,10,16.969,5446.5384236331,3.28084,0.223694,1.25813324236,346.7, 0, 2.1,0,1,1024,1024,1355,1024,347.9,0,100,4.192,4.192,4.185,4.184,0,0,73.31,6,GPS_Atti,Home Point Recorded. RTH Altitude:  30m.
0.368325569868889,36.9104542174176,5447.1945916331,3.937008,0,1.26635174656,9000,2017-11-07 06:10:56,10,16.969,5447.1945916331,3.937008,0.223694,1.26635174656,346.7, -0.1, 1.5,0,1,1024,1024,1350,1024,347.8,0,100,4.192,4.192,4.185,4.184,0,0,73.31,6,GPS_Atti,
0.368325596040427,36.9104541610197,5447.8507596331,4.593176,0,1.278461327,9100,2017-11-07 06:10:56,10,16.969,5447.8507596331,4.593176,0.223694,1.278461327,346.7, 0, 1.5,0,1,1024,1024,1335,1024,347.8,0,100,4.192,4.192,4.185,4.184,0,0,73.31,6,GPS_Atti,
0.368325700424909,36.9104540461146,5448.5069276331,5.249344,0,1.29459649812,9200,2017-11-07 06:10:56,10,16.969,5448.5069276331,5.249344,0.223694,1.29459649812,346.7, 0.3, 2,0,1,1024,1024,1332,1024,347.8,0,100,4.192,4.192,4.185,4.184,0,0,73.31,6,GPS_Atti,
0.368325789099791,36.9104539339679,5449.1630956331,5.905512,0,1.31475397908,9300,2017-11-07 06:10:56,10,16.969,5449.1630956331,5.905512,0.223694,1.31475397908,346.8, 0.9, 1.9,0,1,1024,1024,1337,1024,347.8,0,100,4.192,4.192,4.185,4.184,0,0,73.31,6,GPS_Atti,
0.368325914841316,36.9104538478512,5449.8192636331,6.56168,0,1.32223101344,9400,2017-11-07 06:10:56,10,16.969,5449.8192636331,6.56168,0.223694,1.32223101344,346.8, 1, 1.6,0,1,1024,1024,1336,1024,347.8,0,100,4.192,4.192,4.185,4.184,0,0,73.31,6,GPS_Atti,
0.368326007836053,36.9104537604278,5450.4754316331,7.217848,0,1.33716211628,9500,2017-11-07 06:10:56,10,16.969,5450.4754316331,7.217848,0.223694,1.33716211628,346.8, 1.1, 1.6,0,1,1024,1024,1327,1024,347.7,0,100,4.192,4.192,4.185,4.184,0,0,73.31,6,GPS_Atti,
0.368326109808809,36.9104535860387,5451.1315996331,7.874016,0,1.3818734038,9600,2017-11-07 06:10:56,10,16.969,5451.1315996331,7.874016,0.223694,1.3818734038,346.8, 1, 2.2,0,1,1024,1024,1327,1024,347.7,0,100,4.192,4.192,4.185,4.184,0,0,73.31,6,GPS_Atti,
0.368326185767172,36.910453426559,5451.4596836331,8.2021,0,1.4269357412,9700,2017-11-07 06:10:56,10,16.969,5451.4596836331,8.2021,0.223694,1.4269357412,346.7, 1.1, 2.5,0,1,1024,1024,1343,1024,347.7,0,100,4.192,4.192,4.185,4.184,0,0,73.31,6,GPS_Atti,
0.368326268573753,36.9104532842547,5452.1158516331,8.858268,0,1.4667159262,9800,2017-11-07 06:10:56,10,16.621,5452.1158516331,8.858268,0.223694,1.4667159262,346.7, 1.3, 2.2,0,1,1024,1024,1354,1024,347.7,0,100,4.192,4.192,4.185,4.184,0,0,73.31,6,GPS_Atti,
0.368326341400211,36.9104531623462,5452.7720196331,9.514436,0,1.50167655724,9900,2017-11-07 06:10:56,10,16.621,5452.7720196331,9.514436,0.223694,1.50167655724,346.7, 1.3, 2,0,1,1024,1024,1351,1024,347.7,0,100,4.192,4.192,4.185,4.184,0,0,73.31,6,GPS_Atti,
0.368326417349007,36.9104530533354,5453.4281876331,10.170604,0,1.53274939288,10000,2017-11-07 06:10:57,10,16.621,5453.4281876331,10.170604,0.223694,1.53274939288,346.7, 1.4, 1.6,0,1,1024,1024,1345,1024,347.7,0,100,4.192,4.192,4.185,4.184,0,0,73.31,6,GPS_Atti,
0.368326482500608,36.9104529424896,5453.7562716331,10.498688,0,1.56626317348,10100,2017-11-07 06:10:57,10,16.621,5453.7562716331,10.498688,0.223694,1.56626317348,346.8, 1.6, 2.1,0,1,1024,1024,1345,1024,347.7,0,100,4.192,4.192,4.185,4.184,0,0,73.31,6,GPS_Atti,
0.368326537820072,36.9104528261477,5454.4124396331,11.154856,0,1.60316934264,10200,2017-11-07 06:10:57,10,16.621,5454.4124396331,11.154856,0.223694,1.60316934264,346.8, 1.6, 2.7,0,1,1024,1024,1345,1024,347.6,0,100,4.192,4.192,4.185,4.184,0,0,73.31,6,GPS_Atti,
0.368326582155885,36.9104527184388,5455.0686076331,11.811024,0,1.63829401568,10300,2017-11-07 06:10:57,10,16.621,5455.0686076331,11.811024,0.223694,1.63829401568,346.8, 1.5, 2.6,0,1,1024,1024,1346,1024,347.6,0,100,4.192,4.192,4.185,4.184,0,0,73.31,6,GPS_Atti,
0.368326586640823,36.9104526215485,5455.7247756331,12.467192,0,1.6726378488,10400,2017-11-07 06:10:57,10,16.621,5455.7247756331,12.467192,0.223694,1.6726378488,346.8, 1.6, 2.5,0,1,1024,1024,1338,1024,347.6,0,100,4.192,4.192,4.185,4.184,0,0,73.31,6,GPS_Atti,
0.368326592271168,36.9104525288887,5456.0528596331,12.795276,0,1.7054298446,10500,2017-11-07 06:10:57,10,16.621,5456.0528596331,12.795276,0.223694,1.7054298446,346.8, 1.6, 2.6,0,1,1024,1024,1348,1024,347.6,0,100,4.192,4.192,4.185,4.184,0,0,73.31,6,GPS_Atti,
0.368326639897049,36.9104524494676,5456.7090276331,13.451444,0,1.73075136772,10600,2017-11-07 06:10:57,10,16.621,5456.7090276331,13.451444,0.223694,1.73075136772,346.8, 2, 2.2,0,1,1024,1024,1349,1024,347.6,0,100,4.192,4.192,4.185,4.184,0,0,73.31,6,GPS_Atti,
0.368326680446118,36.9104523734468,5457.3651956331,14.107612,0,1.7555610798,10700,2017-11-07 06:10:57,10,16.621,5457.3651956331,14.107612,0.223694,1.7555610798,346.8, 2.3, 1.9,0,1,1024,1024,1341,1024,347.6,0,100,4.192,4.192,4.185,4.184,0,0,73.31,6,GPS_Atti,
0.368326678420334,36.9104523259205,5458.0213636331,14.76378,0,1.77278877064,10800,2017-11-07 06:10:57,10,16.648,5458.0213636331,14.76378,0.223694,1.77278877064,346.8, 2, 2.1,0,1,1024,1024,1337,1024,347.6,0,99,4.175,4.188,4.186,4.187,0,0,73.31,6,GPS_Atti,
0.36832665499761,36.9104522707832,5458.3494476331,15.091864,0,1.79403877132,10900,2017-11-07 06:10:57,10,16.648,5458.3494476331,15.091864,0.223694,1.79403877132,346.8, 1.5, 2.5,0,1,1024,1024,1340,1024,347.6,0,99,4.175,4.188,4.186,4.187,0,0,73.31,6,GPS_Atti,
0.368326609989453,36.91045216429,5459.0056156331,15.748032,0,1.83511160728,11000,2017-11-07 06:10:58,10,16.648,5459.0056156331,15.748032,0.223694,1.83511160728,346.8, 1.2, 2.7,0,1,1024,1024,1340,1024,347.5,0,99,4.175,4.188,4.186,4.187,0,0,73.31,6,GPS_Atti,
0.36832657045063,36.910452066473,5459.6617836331,16.4042,0,1.87276252712,11100,2017-11-07 06:10:58,10,16.648,5459.6617836331,16.4042,0.223694,1.87276252712,346.8, 1.2, 2.8,0,1,1024,1024,1337,1024,347.5,0,99,4.175,4.188,4.186,4.187,0,0,73.31,6,GPS_Atti,
0.368326547124187,36.9104519637023,5460.3179516331,17.060368,0,1.911171321,11200,2017-11-07 06:10:58,10,16.648,5460.3179516331,17.060368,0.223694,1.911171321,346.8, 1.3, 2.7,0,1,1024,1024,1340,1024,347.5,0,99,4.175,4.188,4.186,4.187,0,0,73.31,6,GPS_Atti,
0.368326524500011,36.9104518781182,5460.6460356331,17.388452,0,1.94336620392,11300,2017-11-07 06:10:58,10,16.648,5460.6460356331,17.388452,0.223694,1.94336620392,346.8, 1.3, 2.8,0,1,1024,1024,1345,1024,347.5,0,99,4.175,4.188,4.186,4.187,0,0,73.31,6,GPS_Atti,
0.3683265199479,36.9104518218038,5461.3022036331,18.04462,0,1.96388129644,11400,2017-11-07 06:10:58,10,16.648,5461.3022036331,18.04462,0.223694,1.96388129644,346.8, 1.3, 2.7,0,1,1024,1024,1344,1024,347.5,0,99,4.175,4.188,4.186,4.187,0,0,73.31,6,GPS_Atti,
0.368326511360707,36.9104517754878,5461.9583716331,18.700788,0,1.98106633636,11500,2017-11-07 06:10:58,10,16.648,5461.9583716331,18.700788,0.223694,1.98106633636,346.8, 1.2, 2.6,0,1,1024,1024,1345,1024,347.5,0,99,4.175,4.188,4.186,4.187,0,0,73.31,6,GPS_Atti,
0.368326520393279,36.9104517104638,5462.6145396331,19.356956,0,2.00384192764,11600,2017-11-07 06:10:58,10,16.648,5462.6145396331,19.356956,0.223694,2.00384192764,346.8, 1, 2.6,0,1,1024,1024,1359,1024,347.5,0,99,4.175,4.188,4.186,4.187,0,0,73.31,6,GPS_Atti,
0.368326528349042,36.9104516582616,5462.9426236331,19.68504,0,2.02210636392,11700,2017-11-07 06:10:58,10,16.648,5462.9426236331,19.68504,0.223694,2.02210636392,346.8, 1, 2.2,0,1,1024,1024,1369,1024,347.5,0,99,4.175,4.188,4.186,4.187,0,0,73.31,6,GPS_Atti,
0.368326520211707,36.9104516473863,5463.5987916331,20.341208,0,2.02652237456,11800,2017-11-07 06:10:58,10,16.621,5463.5987916331,20.341208,0.223694,2.02652237456,346.8, 1, 1.8,0,1,1024,1024,1369,1024,347.5,0,99,4.164,4.175,4.173,4.173,0,0,73.31,6,GPS_Atti,
0.368326514714895,36.9104516296376,5464.2549596331,20.997376,0,2.03324481572,11900,2017-11-07 06:10:58,10,16.621,5464.2549596331,20.997376,0.223694,2.03324481572,346.8, 1.4, 1.9,0,1,1024,1024,1382,1024,347.5,0,99,4.164,4.175,4.173,4.173,0,0,73.31,6,GPS_Atti,
0.368326550346878,36.9104515968515,5464.9111276331,21.653544,0,2.04284455356,12000,2017-11-07 06:10:59,10,16.621,5464.9111276331,21.653544,0.223694,2.04284455356,346.8, 1.5, 2.1,0,1,1024,1024,1410,1024,347.4,0,99,4.164,4.175,4.173,4.173,0,0,73.31,6,GPS_Atti,
0.368326576027236,36.9104515641217,5465.5672956331,22.309712,0,2.05310702108,12100,2017-11-07 06:10:59,10,16.621,5465.5672956331,22.309712,0.223694,2.05310702108,346.8, 1.4, 1.8,0,1,1024,1024,1413,1024,347.4,0,99,4.164,4.175,4.173,4.173,0,0,73.31,6,GPS_Atti,
0.368326595518286,36.9104515518894,5466.2234636331,22.96588,0,2.05639442276,12200,2017-11-07 06:10:59,10,16.621,5466.2234636331,22.96588,0.223694,2.05639442276,346.9, 1.3, 2,0,1,1024,1024,1414,1024,347.4,0,99,4.164,4.175,4.173,4.173,0,0,73.31,6,GPS_Atti,
0.368326597994742,36.9104515304556,5466.8796316331,23.622048,0,2.063976444,12300,2017-11-07 06:10:59,10,16.621,5466.8796316331,23.622048,0.223694,2.063976444,346.9, 1, 2.2,0,1,1024,1024,1417,1024,347.4,0,99,4.164,4.175,4.173,4.173,0,0,73.31,6,GPS_Atti,
0.368326597258685,36.9104515337852,5467.5357996331,24.278216,0,2.06281830748,12400,2017-11-07 06:10:59,10,16.621,5467.5357996331,24.278216,0.223694,2.063976444,346.8, 1, 2.1,0,1,1024,1024,1417,1024,347.4,0,99,4.164,4.175,4.173,4.173,0,0,73.31,6,GPS_Atti,
0.368326593313576,36.9104515256426,5468.5200516331,25.262468,0,2.0659777564,12500,2017-11-07 06:10:59,10,16.621,5468.5200516331,25.262468,0.223694,2.0659777564,346.8, 1, 2.1,0,1,1024,1024,1417,1024,347.4,0,99,4.164,4.175,4.173,4.173,0,0,73.31,6,GPS_Atti,
0.368326592717769,36.910451531205,5469.1762196331,25.918636,0,2.06400597156,12600,2017-11-07 06:10:59,10,16.621,5469.1762196331,25.918636,0.223694,2.0659777564,346.8, 1.1, 2.5,0,1,1024,1024,1427,1024,347.4,0,99,4.164,4.175,4.173,4.173,0,0,73.31,6,GPS_Atti,
0.368326590902868,36.9104515318201,5469.8323876331,26.574804,0,2.06388786132,12700,2017-11-07 06:10:59,10,16.621,5469.8323876331,26.574804,0.223694,2.0659777564,346.8, 1.3, 2.6,0,1,1024,1024,1432,1024,347.4,0,99,4.164,4.175,4.173,4.173,0,0,73.31,6,GPS_Atti,
0.368326589875931,36.9104515293389,5470.8166396331,27.559056,0,2.06484258576,12800,2017-11-07 06:10:59,10,16.514,5470.8166396331,27.559056,0.223694,2.0659777564,346.8, 1.2, 2.5,0,1,1024,1024,1436,1024,347.4,0,99,4.137,4.159,4.159,4.158,0,0,73.31,6,GPS_Atti,
0.368326579331552,36.9104515305032,5471.4728076331,28.215224,0,2.0650263128,12900,2017-11-07 06:10:59,10,16.514,5471.4728076331,28.215224,0.223694,2.0659777564,346.8, 0.8, 2.1,0,1,1024,1024,1436,1024,347.4,0,99,4.137,4.159,4.159,4.158,0,0,73.31,6,GPS_Atti,
0.368326572619513,36.9104515542656,5472.4570596331,29.199476,0,2.0568570212,13000,2017-11-07 06:11:00,10,16.514,5472.4570596331,29.199476,0.223694,2.0659777564,346.8, 0.5, 1.6,0,1,1024,1024,1436,1024,347.4,0,99,4.137,4.159,4.159,4.158,0,0,73.31,6,GPS_Atti,
0.368326569801491,36.9104515638503,5473.1132276331,29.855644,0,2.05356961952,13100,2017-11-07 06:11:00,10,16.514,5473.1132276331,29.855644,0.223694,2.0659777564,346.8, 0.5, 1.7,0,1,1024,1024,1434,1024,347.4,0,99,4.137,4.159,4.159,4.158,0,0,73.31,6,GPS_Atti,
0.368326582102146,36.9104515307784,5474.0974796331,30.839896,0,2.06476712644,13200,2017-11-07 06:11:00,10,16.514,5474.0974796331,30.839896,0.223694,2.0659777564,346.8, 0.6, 1.8,0,1,1024,1024,1428,1024,347.4,0,99,4.137,4.159,4.159,4.158,0,0,73.31,6,GPS_Atti,
0.368326598588717,36.9104514899975,5474.7536476331,31.496064,0,2.0785269694,13300,2017-11-07 06:11:00,10,16.514,5474.7536476331,31.496064,0.223694,2.0785269694,346.8, 0.7, 2.2,0,1,1024,1024,1431,1024,347.4,0,99,4.137,4.159,4.159,4.158,0,0,73.31,6,GPS_Atti,
0.368326624098089,36.9104514533101,5475.7378996331,32.480316,0,2.0903543976,13400,2017-11-07 06:11:00,10,16.514,5475.7378996331,32.480316,0.223694,2.0903543976,346.8, 0.8, 2.1,0,1,1024,1024,1435,1024,347.4,0,99,4.137,4.159,4.159,4.158,0,0,73.31,6,GPS_Atti,
0.368326650497405,36.9104514261437,5476.3940676331,33.136484,0,2.09875662884,13500,2017-11-07 06:11:00,10,16.514,5476.3940676331,33.136484,0.223694,2.09875662884,346.8, 0.8, 1.8,0,1,1024,1024,1435,1024,347.4,0,99,4.137,4.159,4.159,4.158,0,0,73.31,6,GPS_Atti,
0.368326675479975,36.9104513806329,5477.3783196331,34.120736,0,2.11391410964,13600,2017-11-07 06:11:00,10,16.514,5477.3783196331,34.120736,0.223694,2.11391410964,346.8, 1.2, 1.5,0,1,1024,1024,1428,1024,347.3,0,99,4.137,4.159,4.159,4.158,0,0,73.31,6,GPS_Atti,
0.368326692305058,36.9104513338137,5478.3625716331,35.104988,0,2.130003349,13700,2017-11-07 06:11:00,10,16.514,5478.3625716331,35.104988,0.223694,2.130003349,346.8, 1, 1.2,0,1,1024,1024,1430,1024,347.3,0,99,4.137,4.159,4.159,4.158,0,0,73.31,6,GPS_Atti,
0.368326716368372,36.9104512937807,5479.0187396331,35.761156,0,2.14333012108,13800,2017-11-07 06:11:00,10,16.541,5479.0187396331,35.761156,0.223694,2.14333012108,346.7, 0.7, 1.3,0,1,1024,1024,1430,1024,347.3,0,99,4.137,4.159,4.159,4.158,0,0,73.31,6,GPS_Atti,
0.36832674117568,36.910451241056,5480.0029916331,36.745408,0,2.16126647336,13900,2017-11-07 06:11:00,10,16.541,5480.0029916331,36.745408,0.223694,2.16126647336,346.8, 0.7, 1.8,0,1,1024,1024,1431,1024,347.3,0,99,4.137,4.159,4.159,4.158,0,0,73.31,6,GPS_Atti,
0.368326762231054,36.9104512060163,5480.6591596331,37.401576,0,2.17302172308,14000,2017-11-07 06:11:01,12,16.541,5480.6591596331,37.401576,0.223694,2.17302172308,346.8, 0.7, 1.5,0,1,1024,1024,1429,1024,347.3,0,99,4.137,4.159,4.159,4.158,0,0,73.31,6,GPS_Atti,
0.368326782030083,36.9104511620315,5481.6434116331,38.385828,0,2.18811030624,14100,2017-11-07 06:11:01,12,16.541,5481.6434116331,38.385828,0.223694,2.18811030624,346.8, 1, 1.2,0,1,1024,1024,1425,1024,347.3,0,99,4.137,4.159,4.159,4.158,0,0,73.31,6,GPS_Atti,
0.368326823582682,36.9104511049585,5482.2995796331,39.041996,0,2.20711293152,14200,2017-11-07 06:11:01,12,16.541,5482.2995796331,39.041996,0.223694,2.20711293152,346.7, 1, 1.3,0,1,1024,1024,1426,1024,347.3,0,99,4.137,4.159,4.159,4.158,0,0,73.31,6,GPS_Atti,
0.368326858640638,36.9104510267655,5483.2838316331,40.026248,0,2.23415689564,14300,2017-11-07 06:11:01,12,16.541,5483.2838316331,40.026248,0.223694,2.23415689564,346.8, 0.9, 1.5,0,1,1024,1024,1427,1024,347.3,0,99,4.137,4.159,4.159,4.158,0,0,73.31,6,GPS_Atti,
0.368326877944824,36.910450943882,5483.9399996331,40.682416,0,2.26355650288,14400,2017-11-07 06:11:01,12,16.541,5483.9399996331,40.682416,0.223694,2.26355650288,346.8, 1.1, 1.9,0,1,1024,1024,1431,1024,347.3,0,99,4.137,4.159,4.159,4.158,0,0,73.31,6,GPS_Atti,
0.368326890012408,36.9104508497989,5484.9242516331,41.666668,0,2.29731306564,14500,2017-11-07 06:11:01,12,16.541,5484.9242516331,41.666668,0.223694,2.29731306564,346.8, 1.2, 2.2,0,1,1024,1024,1431,1024,347.3,0,99,4.137,4.159,4.159,4.158,0,0,73.31,6,GPS_Atti,
0.368326917504004,36.9104507505714,5485.9085036331,42.65092,0,2.33246726624,14600,2017-11-07 06:11:01,12,16.541,5485.9085036331,42.65092,0.223694,2.33246726624,346.8, 1.3, 2.2,0,1,1024,1024,1434,1024,347.3,0,99,4.137,4.159,4.159,4.158,0,0,73.31,6,GPS_Atti,
0.368326935875905,36.9104506545584,5486.5646716331,43.307088,0,2.36680125684,14700,2017-11-07 06:11:01,12,16.541,5486.5646716331,43.307088,0.223694,2.36680125684,346.8, 1.1, 1.8,0,1,1024,1024,1439,1024,347.3,0,99,4.137,4.159,4.159,4.158,0,0,73.31,6,GPS_Atti,
0.368326969804739,36.910450585616,5487.5489236331,44.29134,0,2.39088262244,14800,2017-11-07 06:11:01,12,16.541,5487.5489236331,44.29134,0.223694,2.39088262244,346.8, 0.9, 2,0,1,1024,1024,1435,1024,347.3,0,99,4.143,4.156,4.153,4.151,0,0,73.31,6,GPS_Atti,
0.368326992577104,36.9104505086761,5488.2050916331,44.947508,0,2.41825467056,14900,2017-11-07 06:11:01,12,16.541,5488.2050916331,44.947508,0.223694,2.41825467056,346.8, 0.8, 1.9,0,1,1024,1024,1435,1024,347.3,0,99,4.143,4.156,4.153,4.151,0,0,73.31,6,GPS_Atti,
0.368327006151813,36.9104504247761,5489.1893436331,45.93176,0,2.44843511772,15000,2017-11-07 06:11:02,12,16.541,5489.1893436331,45.93176,0.223694,2.44843511772,346.8, 0.7, 2.1,0,1,1024,1024,1434,1024,347.3,0,99,4.143,4.156,4.153,4.151,0,0,73.31,6,GPS_Atti,
0.368327012402595,36.9104503308005,5490.1735956331,46.916012,0,2.48248367524,15100,2017-11-07 06:11:02,12,16.541,5490.1735956331,46.916012,0.223694,2.48248367524,346.8, 0.7, 2.2,0,1,1024,1024,1436,1024,347.3,0,99,4.143,4.156,4.153,4.151,0,0,73.31,6,GPS_Atti,
0.368327017608731,36.9104502346302,5491.1578476331,47.900264,0,2.51736556612,15200,2017-11-07 06:11:02,12,16.541,5491.1578476331,47.900264,0.223694,2.51736556612,346.8, 0.7, 2.1,0,1,1024,1024,1438,1024,347.3,0,99,4.143,4.156,4.153,4.151,0,0,73.31,6,GPS_Atti,
0.368327021579895,36.9104501339643,5491.8140156331,48.556432,0,2.55391740456,15300,2017-11-07 06:11:02,12,16.541,5491.8140156331,48.556432,0.223694,2.55391740456,346.8, 0.7, 2.2,0,1,1024,1024,1437,1024,347.3,0,99,4.143,4.156,4.153,4.151,0,0,73.31,6,GPS_Atti,
0.36832702514578,36.9104500310555,5492.7982676331,49.540684,0,2.59130257636,15400,2017-11-07 06:11:02,12,16.541,5492.7982676331,49.540684,0.223694,2.59130257636,346.8, 0.7, 2.7,0,1,1024,1024,1436,1024,347.3,0,99,4.143,4.156,4.153,4.151,0,0,73.31,6,GPS_Atti,
0.368327028757262,36.9104499323092,5493.7825196331,50.524936,0,2.62717856176,15500,2017-11-07 06:11:02,12,16.541,5493.7825196331,50.524936,0.223694,2.62717856176,346.8, 0.7, 2.6,0,1,1024,1024,1436,1024,347.3,0,99,4.143,4.156,4.153,4.151,0,0,73.31,6,GPS_Atti,
0.368327032363044,36.9104498419588,5494.7667716331,51.509188,0,2.66000008512,15600,2017-11-07 06:11:02,12,16.541,5494.7667716331,51.509188,0.223694,2.66000008512,346.8, 0.7, 2.7,0,1,1024,1024,1436,1024,347.3,0,99,4.143,4.156,4.153,4.151,0,0,73.31,6,GPS_Atti,
0.368327037188531,36.9104497524734,5495.4229396331,52.165356,0,2.69248368196,15700,2017-11-07 06:11:02,12,16.541,5495.4229396331,52.165356,0.223694,2.69248368196,346.8, 0.8, 2.9,0,1,1024,1024,1432,1024,347.2,0,99,4.143,4.156,4.153,4.151,0,0,73.31,6,GPS_Atti,
0.368327040506078,36.9104497051414,5496.4071916331,53.149608,0,2.70964903684,15800,2017-11-07 06:11:02,12,16.514,5496.4071916331,53.149608,0.223694,2.70964903684,346.8, 0.8, 2.8,0,1,1024,1024,1435,1024,347.2,0,99,4.136,4.15,4.144,4.143,0,0,73.31,6,GPS_Atti,
0.368327046981789,36.9104496649311,5497.3914436331,54.13386,0,2.72416019216,15900,2017-11-07 06:11:02,12,16.514,5497.3914436331,54.13386,0.223694,2.72416019216,346.8, 0.8, 2.6,0,1,1024,1024,1435,1024,347.2,0,99,4.136,4.15,4.144,4.143,0,0,73.31,6,GPS_Atti,
0.368327017989583,36.9104496208517,5498.0476116331,54.790028,0,2.74083670188,16000,2017-11-07 06:11:03,12,16.514,5498.0476116331,54.790028,0.223694,2.74083670188,346.8, 0.7, 2.5,0,1,1024,1024,1435,1024,347.2,0,99,4.136,4.15,4.144,4.143,0,0,73.31,6,GPS_Atti,
0.368326993649231,36.9104495701451,5499.0318636331,55.77428,0,2.75985245052,16100,2017-11-07 06:11:03,12,16.514,5499.0318636331,55.77428,0.223694,2.75985245052,346.8, 0.7, 2.9,0,1,1024,1024,1440,1024,347.2,0,99,4.136,4.15,4.144,4.143,0,0,73.31,6,GPS_Atti,
0.36832697004921,36.9104495044595,5500.0161156331,56.758532,0,2.78432423608,16200,2017-11-07 06:11:03,12,16.514,5500.0161156331,56.758532,0.223694,2.78432423608,346.8, 0.8, 2.7,0,1,1024,1024,1440,1024,347.2,0,99,4.136,4.15,4.144,4.143,0,0,73.31,6,GPS_Atti,
0.368326961413367,36.9104494496825,5501.0003676331,57.742784,0,2.80447515536,16300,2017-11-07 06:11:03,12,16.514,5501.0003676331,57.742784,0.223694,2.80447515536,346.8, 0.8, 2.4,0,1,1024,1024,1439,1024,347.2,0,99,4.136,4.15,4.144,4.143,0,0,73.31,6,GPS_Atti,
0.368326955149965,36.9104494350685,5501.6565356331,58.398952,0,2.80994759648,16400,2017-11-07 06:11:03,12,16.514,5501.6565356331,58.398952,0.223694,2.80994759648,346.8, 0.9, 2.5,0,1,1024,1024,1442,1024,347.2,0,99,4.136,4.15,4.144,4.143,0,0,73.31,6,GPS_Atti,
0.368326953538619,36.9104494278354,5502.6407876331,59.383204,0,2.81262148108,16500,2017-11-07 06:11:03,12,16.514,5502.6407876331,59.383204,0.223694,2.81262148108,346.8, 0.9, 2.4,0,1,1024,1024,1443,1024,347.2,0,99,4.136,4.15,4.144,4.143,0,0,73.31,6,GPS_Atti,
0.368326949551578,36.9104494147161,5503.2969556331,60.039372,0,2.81749352848,16600,2017-11-07 06:11:03,12,16.514,5503.2969556331,60.039372,0.223694,2.81749352848,346.8, 0.9, 2.3,0,1,1024,1024,1443,1024,347.2,0,99,4.136,4.15,4.144,4.143,0,0,73.31,6,GPS_Atti,
0.368326948494311,36.9104493942341,5504.2812076331,61.023624,0,2.82497712452,16700,2017-11-07 06:11:03,12,16.514,5504.2812076331,61.023624,0.223694,2.82497712452,346.8, 0.9, 2.4,0,1,1024,1024,1446,1024,347.2,0,99,4.136,4.15,4.144,4.143,0,0,73.31,6,GPS_Atti,
0.368326908236122,36.9104493927888,5505.2654596331,62.007876,0,2.82653880436,16800,2017-11-07 06:11:03,12,16.541,5505.2654596331,62.007876,0.223694,2.82653880436,346.8, 0.7, 2.4,0,1,1024,1024,1445,1024,347.2,0,99,4.136,4.15,4.144,4.143,0,0,73.31,6,GPS_Atti,
0.368326878030725,36.9104493911925,5506.2497116331,62.992128,0,2.82794300388,16900,2017-11-07 06:11:03,12,16.541,5506.2497116331,62.992128,0.223694,2.82794300388,346.8, 0.6, 2.5,0,1,1024,1024,1454,1024,347.2,0,99,4.136,4.15,4.144,4.143,0,0,73.31,6,GPS_Atti,
0.368326856988582,36.9104494063128,5507.2339636331,63.97638,0,2.82304470976,17000,2017-11-07 06:11:04,12,16.541,5507.2339636331,63.97638,0.223694,2.82794300388,346.8, 0.6, 2.2,0,1,1024,1024,1457,1024,347.2,0,99,4.136,4.15,4.144,4.143,0,0,73.31,6,GPS_Atti,
0.368326852746689,36.9104494145555,5508.2182156331,64.960632,0,2.82017397476,17100,2017-11-07 06:11:04,12,16.541,5508.2182156331,64.960632,0.223694,2.82794300388,346.8, 0.8, 2.2,0,1,1024,1024,1457,1024,347.2,0,99,4.136,4.15,4.144,4.143,0,0,73.31,6,GPS_Atti,
0.368326855871673,36.9104494240176,5509.2024676331,65.944884,0,2.81664051008,17200,2017-11-07 06:11:04,12,16.541,5509.2024676331,65.944884,0.223694,2.82794300388,346.8, 0.9, 2.3,0,1,1024,1024,1461,1024,347.2,0,99,4.136,4.15,4.144,4.143,0,0,73.31,6,GPS_Atti,
0.368326864245743,36.9104494260047,5510.1867196331,66.929136,0,2.81567266228,17300,2017-11-07 06:11:04,12,16.541,5510.1867196331,66.929136,0.223694,2.82794300388,346.8, 1, 2.4,0,1,1024,1024,1470,1024,347.2,0,99,4.136,4.15,4.144,4.143,0,0,73.31,6,GPS_Atti,
0.368326868335376,36.9104494318984,5511.1709716331,67.913388,0,2.81341216352,17400,2017-11-07 06:11:04,12,16.541,5511.1709716331,67.913388,0.223694,2.82794300388,346.8, 1, 2.6,0,1,1024,1024,1467,1024,347.2,0,99,4.136,4.15,4.144,4.143,0,0,73.31,6,GPS_Atti,
0.368326876451541,36.9104494358779,5512.1552236331,68.89764,0,2.81173565428,17500,2017-11-07 06:11:04,12,16.541,5512.1552236331,68.89764,0.223694,2.82794300388,346.8, 1.1, 2.5,0,1,1024,1024,1471,1024,347.2,0,99,4.136,4.15,4.144,4.143,0,0,73.31,6,GPS_Atti,
0.368326876374394,36.9104494867601,5512.8113916331,69.553808,0,2.79322843584,17600,2017-11-07 06:11:04,12,16.541,5512.8113916331,69.553808,0.223694,2.82794300388,346.8, 1.1, 2.4,0,1,1024,1024,1471,1024,347.2,0,99,4.136,4.15,4.144,4.143,0,0,73.31,6,GPS_Atti,
0.36832687444998,36.910449532878,5513.7956436331,70.53806,0,2.7765092752,17700,2017-11-07 06:11:04,12,16.541,5513.7956436331,70.53806,0.223694,2.82794300388,346.8, 1, 2.3,0,1,1024,1024,1471,1024,347.2,0,99,4.136,4.15,4.144,4.143,0,0,73.31,6,GPS_Atti,
0.368326861750152,36.9104496090235,5514.7798956331,71.522312,0,2.74918972052,17800,2017-11-07 06:11:04,12,16.461,5514.7798956331,71.522312,0.223694,2.82794300388,346.8, 0.7, 2.2,0,1,1024,1024,1471,1024,347.2,0,99,4.13,4.142,4.14,4.141,0,0,73.31,6,GPS_Atti,
0.368326854023593,36.9104496701557,5515.7641476331,72.506564,0,2.72719168832,17900,2017-11-07 06:11:04,12,16.461,5515.7641476331,72.506564,0.223694,2.82794300388,346.7, 0.6, 2.1,0,1,1024,1024,1470,1024,347.2,0,99,4.13,4.142,4.14,4.141,0,0,73.31,6,GPS_Atti,
0.368326848772064,36.9104497459779,5516.7483996331,73.490816,0,2.6997868318,18000,2017-11-07 06:11:05,12,16.461,5516.7483996331,73.490816,0.223694,2.82794300388,346.7, 0.5, 2.1,0,1,1024,1024,1467,1024,347.2,0,99,4.13,4.142,4.14,4.141,0,0,73.31,6,GPS_Atti,
0.368326857545917,36.9104497992743,5517.7326516331,74.475068,0,2.68014116188,18100,2017-11-07 06:11:05,12,16.461,5517.7326516331,74.475068,0.223694,2.82794300388,346.8, 0.7, 2,0,1,1024,1024,1465,1024,347.2,0,99,4.13,4.142,4.14,4.141,0,0,73.31,6,GPS_Atti,
0.36832687178666,36.9104498599441,5518.7169036331,75.45932,0,2.65765100368,18200,2017-11-07 06:11:05,12,16.461,5518.7169036331,75.45932,0.223694,2.82794300388,346.8, 0.9, 2.3,0,1,1024,1024,1469,1024,347.2,0,99,4.13,4.142,4.14,4.141,0,0,73.31,6,GPS_Atti,
0.368326893843119,36.9104499075705,5519.7011556331,76.443572,0,2.63967528132,18300,2017-11-07 06:11:05,12,16.461,5519.7011556331,76.443572,0.223694,2.82794300388,346.8, 1, 2.2,0,1,1024,1024,1471,1024,347.2,0,99,4.13,4.142,4.14,4.141,0,0,73.31,6,GPS_Atti,
0.368326876576524,36.9104499397693,5520.6854076331,77.427824,0,2.62848105524,18400,2017-11-07 06:11:05,12,16.461,5520.6854076331,77.427824,0.223694,2.82794300388,346.8, 1.1, 2.1,0,1,1024,1024,1474,1024,347.2,0,99,4.13,4.142,4.14,4.141,0,0,73.31,6,GPS_Atti,
0.368326864441359,36.9104499645905,5521.3415756331,78.083992,0,2.61982948016,18500,2017-11-07 06:11:05,12,16.461,5521.3415756331,78.083992,0.223694,2.82794300388,346.8, 1.1, 2,0,1,1024,1024,1475,1024,347.2,0,99,4.13,4.142,4.14,4.141,0,0,73.31,6,GPS_Atti,
0.368326871951743,36.9104500051498,5522.3258276331,79.068244,0,2.60485244556,18600,2017-11-07 06:11:05,12,16.461,5522.3258276331,79.068244,0.223694,2.82794300388,346.8, 1.2, 1.9,0,1,1024,1024,1475,1024,347.2,0,99,4.13,4.142,4.14,4.141,0,0,73.31,6,GPS_Atti,
0.368326885437499,36.9104500414084,5523.3100796331,80.052496,0,2.59125992544,18700,2017-11-07 06:11:05,12,16.461,5523.3100796331,80.052496,0.223694,2.82794300388,346.8, 1, 1.7,0,1,1024,1024,1477,1024,347.2,0,99,4.13,4.142,4.14,4.141,0,0,73.31,6,GPS_Atti,
0.368326884696964,36.9104500886515,5524.2943316331,81.036748,0,2.57410441308,18800,2017-11-07 06:11:05,12,16.461,5524.2943316331,81.036748,0.223694,2.82794300388,346.8, 0.8, 1.7,0,1,1024,1024,1480,1024,347.2,0,99,4.116,4.132,4.131,4.132,0,0,73.31,6,GPS_Atti,
0.36832688942108,36.910450118481,5525.2785836331,82.021,0,2.56311687992,18900,2017-11-07 06:11:05,12,16.461,5525.2785836331,82.021,0.223694,2.82794300388,346.8, 0.8, 1.7,0,1,1024,1024,1480,1024,347.1,0,99,4.116,4.132,4.131,4.132,0,0,73.31,6,GPS_Atti,
0.368326891873516,36.9104501913911,5526.2628356331,83.005252,0,2.53653551424,19000,2017-11-07 06:11:06,12,16.461,5526.2628356331,83.005252,0.223694,2.82794300388,346.8, 1.1, 1.7,0,1,1024,1024,1481,1024,347.1,0,99,4.116,4.132,4.131,4.132,0,0,73.31,6,GPS_Atti,
0.368326894230689,36.9104502453717,5527.2470876331,83.989504,0,2.51683735088,19100,2017-11-07 06:11:06,12,16.461,5527.2470876331,83.989504,0.223694,2.82794300388,346.8, 1.2, 1.8,0,1,1024,1024,1484,1024,347.1,0,99,4.116,4.132,4.131,4.132,0,0,73.31,6,GPS_Atti,
0.368326875921686,36.9104503096258,5528.2313396331,84.973756,0,2.49405519792,19200,2017-11-07 06:11:06,12,16.461,5528.2313396331,84.973756,0.223694,2.82794300388,346.8, 0.8, 1.9,0,1,1024,1024,1486,1024,347.1,0,99,4.116,4.132,4.131,4.132,0,0,73.31,6,GPS_Atti,
0.368326857546935,36.9104503535276,5529.2155916331,85.958008,0,2.47869758588,19300,2017-11-07 06:11:06,12,16.461,5529.2155916331,85.958008,0.223694,2.82794300388,346.8, 0.5, 2.2,0,1,1024,1024,1486,1024,347.1,0,99,4.116,4.132,4.131,4.132,0,0,73.31,6,GPS_Atti,
0.368326840858234,36.9104504174734,5530.1998436331,86.94226,0,2.45603026232,19400,2017-11-07 06:11:06,12,16.461,5530.1998436331,86.94226,0.223694,2.82794300388,346.8, 0.4, 2,0,1,1024,1024,1487,1024,347.1,0,99,4.116,4.132,4.131,4.132,0,0,73.31,6,GPS_Atti,
0.368326836014834,36.9104504632498,5531.1840956331,87.926512,0,2.43957028804,19500,2017-11-07 06:11:06,12,16.461,5531.1840956331,87.926512,0.223694,2.82794300388,346.8, 0.6, 1.8,0,1,1024,1024,1486,1024,347.1,0,99,4.116,4.132,4.131,4.132,0,0,73.31,6,GPS_Atti,
0.368326838496583,36.9104505247696,5532.1683476331,88.910764,0,2.4171424658,19600,2017-11-07 06:11:06,12,16.461,5532.1683476331,88.910764,0.223694,2.82794300388,346.7, 0.5, 1.7,0,1,1024,1024,1489,1024,347.1,0,99,4.116,4.132,4.131,4.132,0,0,73.31,6,GPS_Atti,
0.368326850328246,36.9104505613505,5533.4806836331,90.2231,0,2.4034449588,19700,2017-11-07 06:11:06,12,16.461,5533.4806836331,90.2231,0.223694,2.82794300388,346.7, 0.5, 1.8,0,1,1024,1024,1489,1024,347.1,0,99,4.116,4.132,4.131,4.132,0,0,73.31,6,GPS_Atti,
0.368326866309795,36.9104506027063,5534.4649356331,91.207352,0,2.387877373,19800,2017-11-07 06:11:06,12,16.461,5534.4649356331,91.207352,0.223694,2.82794300388,346.7, 0.7, 1.9,0,1,1024,1024,1491,1024,347.1,0,99,4.113,4.129,4.127,4.126,0,0,73.31,6,GPS_Atti,
0.368326886838775,36.9104506304995,5535.4491876331,92.191604,0,2.37709325192,19900,2017-11-07 06:11:06,12,16.461,5535.4491876331,92.191604,0.223694,2.82794300388,346.8, 0.9, 1.9,0,1,1024,1024,1495,1024,347.1,0,99,4.113,4.129,4.127,4.126,0,0,73.31,6,GPS_Atti,
0.368326865838768,36.9104506851947,5536.4334396331,93.175856,0,2.35792986548,20000,2017-11-07 06:11:07,12,16.461,5536.4334396331,93.175856,0.223694,2.82794300388,346.8, 1, 2.1,0,1,1024,1024,1495,1024,347.1,0,99,4.113,4.129,4.127,4.126,0,0,73.31,6,GPS_Atti,
0.368326850831842,36.910450720517,5537.4176916331,94.160108,0,2.34562343464,20100,2017-11-07 06:11:07,12,16.461,5537.4176916331,94.160108,0.223694,2.82794300388,346.8, 0.8, 2.1,0,1,1024,1024,1495,1024,347.1,0,99,4.113,4.129,4.127,4.126,0,0,73.31,6,GPS_Atti,
0.368326828871664,36.9104507835871,5538.4019436331,95.14436,0,2.32352041556,20200,2017-11-07 06:11:07,12,16.461,5538.4019436331,95.14436,0.223694,2.82794300388,346.8, 0.6, 1.8,0,1,1024,1024,1497,1024,347.1,0,99,4.113,4.129,4.127,4.126,0,0,73.31,6,GPS_Atti,
0.368326822572029,36.9104508242175,5539.3861956331,96.128612,0,2.30900926024,20300,2017-11-07 06:11:07,12,16.461,5539.3861956331,96.128612,0.223694,2.82794300388,346.8, 0.7, 1.9,0,1,1024,1024,1496,1024,347.1,0,99,4.113,4.129,4.127,4.126,0,0,73.31,6,GPS_Atti,
0.368326814495964,36.9104508839269,5540.3704476331,97.112864,0,2.28765099184,20400,2017-11-07 06:11:07,12,16.461,5540.3704476331,97.112864,0.223694,2.82794300388,346.8, 1, 2.1,0,1,1024,1024,1497,1024,347.1,0,99,4.113,4.129,4.127,4.126,0,0,73.31,6,GPS_Atti,
0.368326816063545,36.9104509253609,5541.3546996331,98.097116,0,2.27255912784,20500,2017-11-07 06:11:07,12,16.461,5541.3546996331,98.097116,0.223694,2.82794300388,346.7, 0.9, 2.1,0,1,1024,1024,1497,1024,347.1,0,99,4.113,4.129,4.127,4.126,0,0,73.31,6,GPS_Atti,
0.368326806696939,36.9104509943814,5542.6670356331,99.409452,0,2.24788721104,20600,2017-11-07 06:11:07,12,16.461,5542.6670356331,99.409452,0.223694,2.82794300388,346.8, 0.9, 1.7,0,1,1024,1024,1505,1024,347.1,0,99,4.113,4.129,4.127,4.126,0,0,73.31,6,GPS_Atti,
0.368326805426142,36.9104510404303,5543.6512876331,100.393704,0,2.23123694804,20700,2017-11-07 06:11:07,12,16.461,5543.6512876331,100.393704,0.223694,2.82794300388,346.7, 0.9, 1.6,0,1,1024,1024,1505,1024,347.1,0,99,4.113,4.129,4.127,4.126,0,0,73.31,6,GPS_Atti,
0.368326761352102,36.9104510649694,5544.6355396331,101.377956,0,2.22416017616,20800,2017-11-07 06:11:07,12,16.354,5544.6355396331,101.377956,0.223694,2.82794300388,346.7, 0.8, 1.9,0,1,1024,1024,1516,1024,347.1,0,99,4.113,4.129,4.127,4.126,0,0,73.31,6,GPS_Atti,
0.368326725081768,36.9104510669966,5545.6197916331,102.362208,0,2.22500991372,20900,2017-11-07 06:11:07,12,16.354,5545.6197916331,102.362208,0.223694,2.82794300388,346.7, 0.8, 2.2,0,1,1024,1024,1516,1024,347.1,0,99,4.113,4.129,4.127,4.126,0,0,73.31,6,GPS_Atti,
0.368326687163654,36.9104510940511,5546.9321276331,103.674544,0,2.21696529404,21000,2017-11-07 06:11:08,12,16.354,5546.9321276331,103.674544,0.223694,2.82794300388,346.8, 0.6, 2.2,0,1,1024,1024,1515,1024,347.1,0,99,4.113,4.129,4.127,4.126,0,0,73.31,6,GPS_Atti,
0.368326668685699,36.9104511122553,5547.9163796331,104.658796,0,2.21126647496,21100,2017-11-07 06:11:08,12,16.354,5547.9163796331,104.658796,0.223694,2.82794300388,346.8, 0.7, 2.3,0,1,1024,1024,1515,1024,347.1,0,99,4.113,4.129,4.127,4.126,0,0,73.31,6,GPS_Atti,
0.368326624459196,36.9104511298932,5549.2287156331,105.971132,0,2.20709652732,21200,2017-11-07 06:11:08,12,16.354,5549.2287156331,105.971132,0.223694,2.82794300388,346.8, 0.9, 2.2,0,1,1024,1024,1516,1024,347.1,0,99,4.113,4.129,4.127,4.126,0,0,73.31,6,GPS_Atti,
0.368326591497047,36.9104511377093,5550.2129676331,106.955384,0,2.20599744592,21300,2017-11-07 06:11:08,12,16.354,5550.2129676331,106.955384,0.223694,2.82794300388,346.8, 0.7, 2.2,0,1,1024,1024,1520,1024,347.1,0,99,4.113,4.129,4.127,4.126,0,0,73.31,6,GPS_Atti,
0.368326559703713,36.9104511802604,5551.1972196331,107.939636,0,2.19237539824,21400,2017-11-07 06:11:08,12,16.354,5551.1972196331,107.939636,0.223694,2.82794300388,346.8, 0.6, 2.3,0,1,1024,1024,1539,1024,347.1,0,99,4.113,4.129,4.127,4.126,0,0,73.31,6,GPS_Atti,
0.368326542711918,36.9104512164553,5552.1814716331,108.923888,0,2.180282222,21500,2017-11-07 06:11:08,12,16.354,5552.1814716331,108.923888,0.223694,2.82794300388,346.8, 0.6, 2.2,0,1,1024,1024,1523,1024,347.1,0,99,4.113,4.129,4.127,4.126,0,0,73.31,6,GPS_Atti,
0.368326500331867,36.9104512543429,5553.4938076331,110.236224,0,2.16910768096,21600,2017-11-07 06:11:08,12,16.354,5553.4938076331,110.236224,0.223694,2.82794300388,346.8, 0.6, 1.9,0,1,1024,1024,1489,1024,347.1,0,99,4.113,4.129,4.127,4.126,0,0,73.31,6,GPS_Atti,
0.368326467460096,36.9104512782278,5554.4780596331,111.220476,0,2.1625164734,21700,2017-11-07 06:11:08,12,16.354,5554.4780596331,111.220476,0.223694,2.82794300388,346.7, 0.4, 1.8,0,1,1024,1024,1482,1024,347.1,0,99,4.113,4.129,4.127,4.126,0,0,73.31,6,GPS_Atti,
0.368326443949843,36.9104512866182,5555.4623116331,112.204728,0,2.1609744786,21800,2017-11-07 06:11:08,12,16.354,5555.4623116331,112.204728,0.223694,2.82794300388,346.7, 0.3, 2,0,1,1024,1024,1496,1024,347.1,0,99,4.113,4.129,4.127,4.126,0,0,73.31,6,GPS_Atti,
0.36832639892988,36.9104512635341,5557.7588996331,114.501316,0,2.17217526636,22000,2017-11-07 06:11:09,14,16.354,5557.7588996331,114.501316,0.223694,2.82794300388,346.8, 0.7, 2.5,0,1,1024,1024,1512,1024,347.1,0,99,4.113,4.129,4.127,4.126,0,0,73.31,6,GPS_Atti,
0.368326348715995,36.9104512523713,5558.7431516331,115.485568,0,2.17955715636,22100,2017-11-07 06:11:09,14,16.354,5558.7431516331,115.485568,0.223694,2.82794300388,346.8, 0.9, 2.3,0,1,1024,1024,1515,1024,347.1,0,99,4.113,4.129,4.127,4.126,0,0,73.31,6,GPS_Atti,
0.368326257272962,36.9104512214192,5559.7274036331,116.46982,0,2.1971457396,22200,2017-11-07 06:11:09,14,16.354,5559.7274036331,116.46982,0.223694,2.82794300388,346.8, 0.8, 2.3,0,1,1024,1024,1519,1024,347.1,0,99,4.113,4.129,4.127,4.126,0,0,73.31,6,GPS_Atti,
0.368326198779661,36.9104511959075,5560.7116556331,117.454072,0,2.21065623872,22300,2017-11-07 06:11:09,14,16.354,5560.7116556331,117.454072,0.223694,2.82794300388,346.8, 0.6, 2.2,0,1,1024,1024,1528,1024,347.1,0,99,4.113,4.129,4.127,4.126,0,0,73.31,6,GPS_Atti,
0.368326080720321,36.9104511502821,5561.6959076331,118.438324,0,2.23632881172,22400,2017-11-07 06:11:09,14,16.354,5561.6959076331,118.438324,0.223694,2.82794300388,346.8, 0.5, 1.9,0,1,1024,1024,1527,1024,347.1,0,99,4.113,4.129,4.127,4.126,0,0,73.31,6,GPS_Atti,
0.368325987171098,36.9104511134143,5563.0082436331,119.75066,0,2.25738524284,22500,2017-11-07 06:11:09,14,16.354,5563.0082436331,119.75066,0.223694,2.82794300388,346.8, 0.6, 1.8,0,1,1024,1024,1518,1024,347.1,0,99,4.113,4.129,4.127,4.126,0,0,73.31,6,GPS_Atti,
0.368325837940898,36.910451047127,5563.9924956331,120.734912,0,2.29442920728,22600,2017-11-07 06:11:09,14,16.354,5563.9924956331,120.734912,0.223694,2.82794300388,346.7, 0.2, 1.6,0,1,1024,1024,1519,1024,347.1,0,99,4.113,4.129,4.127,4.126,0,0,73.31,6,GPS_Atti,
0.368325721073579,36.9104509898576,5565.3048316331,122.047248,0,2.32597120304,22700,2017-11-07 06:11:09,14,16.407,5565.3048316331,122.047248,0.223694,2.82794300388,346.7, 0, 1.6,0,1,1024,1024,1556,1024,347.1,0,99,4.109,4.123,4.118,4.12,0,0,73.31,6,GPS_Atti,
0.368325472698415,36.9104508737871,5567.6014196331,124.343836,0,2.39279535216,22900,2017-11-07 06:11:09,14,16.407,5567.6014196331,124.343836,0.223694,2.82794300388,346.7, 0.1, 2,0,1,1024,1024,1575,1024,347.1,0,99,4.109,4.123,4.118,4.12,0,0,73.31,6,GPS_Atti,
0.368325337250957,36.9104507913961,5568.5856716331,125.328088,0,2.43679797824,23000,2017-11-07 06:11:10,14,16.407,5568.5856716331,125.328088,0.223694,2.82794300388,346.7, 0.2, 2.3,0,1,1024,1024,1581,1024,347.1,0,99,4.109,4.123,4.118,4.12,0,0,73.31,6,GPS_Atti,
0.36832523531077,36.9104507159353,5569.8980076331,126.640424,0,2.47492133904,23100,2017-11-07 06:11:10,14,16.407,5569.8980076331,126.640424,0.223694,2.82794300388,346.7, 0.2, 2.3,0,1,1024,1024,1586,1024,347.1,0,99,4.109,4.123,4.118,4.12,0,0,73.31,6,GPS_Atti,
0.36832514788694,36.9104506464983,5571.2103436331,127.95276,0,2.50945546088,23200,2017-11-07 06:11:10,14,16.407,5571.2103436331,127.95276,0.223694,2.82794300388,346.7, 0, 2.6,0,1,1024,1024,1586,1024,347.1,0,99,4.109,4.123,4.118,4.12,0,0,73.31,6,GPS_Atti,
0.368325086418878,36.9104505857306,5572.5226796331,129.265096,0,2.5379429946,23300,2017-11-07 06:11:10,14,16.407,5572.5226796331,129.265096,0.223694,2.82794300388,346.7, 0, 2.6,0,1,1024,1024,1600,1024,347.1,0,99,4.109,4.123,4.118,4.12,0,0,73.31,6,GPS_Atti,
0.368325014486029,36.9104505693576,5573.8350156331,130.577432,0,2.55266084284,23400,2017-11-07 06:11:10,14,16.407,5573.8350156331,130.577432,0.223694,2.82794300388,346.7, 0.2, 2.4,0,1,1024,1024,1610,1024,347.1,0,99,4.109,4.123,4.118,4.12,0,0,73.31,6,GPS_Atti,
0.368324956806949,36.9104505579491,5575.1473516331,131.889768,0,2.56401911092,23500,2017-11-07 06:11:10,14,16.407,5575.1473516331,131.889768,0.223694,2.82794300388,346.7, 0.3, 2,0,1,1024,1024,1612,1024,347.1,0,99,4.109,4.123,4.118,4.12,0,0,73.31,6,GPS_Atti,
0.36832486758491,36.9104505467965,5576.4596876331,133.202104,0,2.579642471,23600,2017-11-07 06:11:10,14,16.407,5576.4596876331,133.202104,0.223694,2.82794300388,346.7, 0.1, 1.7,0,1,1024,1024,1621,1024,347.1,0,99,4.109,4.123,4.118,4.12,0,0,73.31,6,GPS_Atti,
0.368324802146702,36.9104505104137,5578.1001076331,134.842524,0,2.60083997824,23700,2017-11-07 06:11:10,14,16.407,5578.1001076331,134.842524,0.223694,2.82794300388,346.8, 0.1, 1.8,0,1,1024,1024,1621,1024,347.1,0,99,4.109,4.123,4.118,4.12,0,0,73.31,6,GPS_Atti,
