latitude,longitude,altitude(feet),ascent(feet),speed(mph),distance(feet),time(millisecond),datetime(utc),satellites,voltage(v),max_altitude(feet),max_ascent(feet),max_speed(mph),max_distance(feet),compass_heading(degrees), pitch(degrees), roll(degrees),isPhoto,isVideo,rc_elevator,rc_aileron,rc_throttle,rc_rudder,gimbal_heading(degrees),gimbal_pitch(degrees),battery_percent,voltageCell1,voltageCell2,voltageCell3,voltageCell4,voltageCell5,voltageCell6,battery_temperature(f),flycStateRaw,flycState,message
0.354651255378706,36.8975872578746,5808.7528515625,0,0,0,100,2017-11-15 08:54:13,18,0,5808.7528515625,0,0,0,218.4, 0.9, -3.1,0,0,1024,1024,1024,1024,222.9,0,99,4.284,4.285,4.285,4.283,0,0,91.31,41,Motors_Started,
0.354651260775369,36.8975872688761,5808.7528515625,0,0,0.0044707350512,200,2017-11-15 08:54:13,18,0,5808.7528515625,0,0,0.0044707350512,218.3, 1, -3.1,0,0,1024,1024,1024,1024,223,0,99,4.284,4.285,4.285,4.283,0,0,91.31,41,Motors_Started,
0.354651263968748,36.8975872752397,5808.7528515625,0,0,0.0070683073128,300,2017-11-15 08:54:13,18,0,5808.7528515625,0,0,0.0070683073128,218.4, 1, -3.1,0,0,1024,1024,1024,1024,222.9,0,99,4.284,4.285,4.285,4.283,0,0,91.31,41,Motors_Started,
0.354651305733451,36.8975872798411,5808.7528515625,0,0,0.0200438326624,400,2017-11-15 08:54:14,18,0,5808.7528515625,0,0,0.0200438326624,218.3, 1, -3.1,0,0,1024,1024,1024,1024,222.9,0,99,4.284,4.285,4.285,4.283,0,0,91.31,41,Motors_Started,
0.354651336585951,36.8975872825754,5808.7528515625,0,0,0.0309686361616,500,2017-11-15 08:54:14,18,0,5808.7528515625,0,0,0.0309686361616,218.4, 1, -3.1,0,0,1024,1024,1024,1024,222.9,0,99,4.284,4.285,4.285,4.283,0,0,91.31,41,Motors_Started,
0.354651360600614,36.8975872841363,5808.7528515625,0,0,0.039567586568,600,2017-11-15 08:54:14,18,0,5808.7528515625,0,0,0.039567586568,218.3, 1, -3.1,0,0,1024,1024,1024,1024,222.9,0,99,4.284,4.285,4.285,4.283,0,0,91.31,41,Motors_Started,
0.354651378987376,36.8975872855752,5808.7528515625,0,0,0.04621719308,700,2017-11-15 08:54:14,18,0,5808.7528515625,0,0,0.04621719308,218.3, 1, -3.1,0,0,1024,1024,1024,1024,222.9,0,99,4.284,4.285,4.285,4.283,0,0,91.31,41,Motors_Started,
0.354651389209118,36.8975872867721,5808.7528515625,0,0,0.049953085588,800,2017-11-15 08:54:14,18,0,5808.7528515625,0,0,0.049953085588,218.3, 1, -3.1,0,0,1024,1024,1024,1024,222.9,0,99,4.284,4.285,4.285,4.283,0,0,91.31,41,Motors_Started,
0.354651398797397,36.8975872881275,5808.7528515625,0,0,0.053477692,900,2017-11-15 08:54:14,18,17.142,5808.7528515625,0,0,0.053477692,218.3, 1, -3.1,0,0,1024,1024,1024,1024,222.9,0,99,4.284,4.285,4.285,4.283,0,0,91.31,41,Motors_Started,
0.354651400920888,36.8975872899539,5808.7528515625,0,0,0.054375657908,1000,2017-11-15 08:54:14,18,17.142,5808.7528515625,0,0,0.054375657908,218.3, 1.1, -3.2,0,0,364,364,383,1684,222.9,0,99,4.284,4.285,4.285,4.283,0,0,91.31,41,Motors_Started,
0.35465140485358,36.8975872910331,5808.7528515625,0,0,0.055861550344,1100,2017-11-15 08:54:14,18,17.142,5808.7528515625,0,0,0.055861550344,218.3, 1, -3.1,0,0,980,693,1024,1031,222.9,0,99,4.284,4.285,4.285,4.283,0,0,91.31,41,Motors_Started,
0.35465144251949,36.897587328125,5808.7528515625,0,0,0.072930120444,1200,2017-11-15 08:54:14,18,17.142,5808.7528515625,0,0,0.072930120444,218.3, 1, -3.1,0,0,1024,1140,1024,1024,221.9,0,99,4.284,4.285,4.285,4.283,0,0,91.31,41,Motors_Started,
0.354651472315129,36.8975873556136,5808.7528515625,0,0,0.0868110264,1300,2017-11-15 08:54:14,18,17.142,5808.7528515625,0,0,0.0868110264,218.3, 1, -3.1,0,0,1024,1024,1024,1024,219.8,0,99,4.284,4.285,4.285,4.283,0,0,91.31,41,Motors_Started,
0.354651508407962,36.8975873931786,5808.7528515625,0,0,0.104687011224,1500,2017-11-15 08:54:15,18,17.142,5808.7528515625,0,0,0.104687011224,218.3, 1, -3.1,0,0,1024,1024,1024,1024,219.5,0,99,4.284,4.285,4.285,4.283,0,0,91.31,10,Assisted_Takeoff,
0.354651513555474,36.8975873987072,5808.7528515625,0,0,0.10729823178,1600,2017-11-15 08:54:15,18,17.142,5808.7528515625,0,0,0.10729823178,218.3, 1, -3.1,0,0,1024,1024,1024,1024,219.3,0,99,4.284,4.285,4.285,4.283,0,0,91.31,10,Assisted_Takeoff,
0.354651521214046,36.8975874079314,5808.7528515625,0,0,0.111374347396,1700,2017-11-15 08:54:15,18,17.142,5808.7528515625,0,0,0.111374347396,218.3, 1, -3.1,0,0,1024,1024,1024,1024,219.2,0,99,4.284,4.285,4.285,4.283,0,0,91.31,10,Assisted_Takeoff,
0.35465155997427,36.8975874485455,5808.7528515625,0,0,0.131108599996,1800,2017-11-15 08:54:15,18,17.142,5808.7528515625,0,0,0.131108599996,218.3, 1, -3.1,0,0,1024,1024,1024,1024,219.1,0,99,4.284,4.285,4.285,4.283,0,0,91.31,10,Assisted_Takeoff,
0.354651591303904,36.897587481173,5808.7528515625,0,0,0.14716863988,1900,2017-11-15 08:54:15,18,17.062,5808.7528515625,0,0,0.14716863988,218.3, 1, -3.1,0,0,1024,1024,1024,1024,219.1,0,99,4.284,4.285,4.285,4.283,0,0,91.31,10,Assisted_Takeoff,
0.354651609316123,36.8975875048846,5808.7528515625,0,0,0.157471133648,2000,2017-11-15 08:54:15,18,17.062,5808.7528515625,0,0,0.157471133648,218.3, 1, -3.1,0,0,1024,1024,1024,1024,219,0,99,4.284,4.285,4.285,4.283,0,0,91.31,10,Assisted_Takeoff,
0.354651626860979,36.8975875241917,5808.7528515625,0,0,0.1667650972,2100,2017-11-15 08:54:15,18,17.062,5808.7528515625,0,0,0.1667650972,218.3, 1, -3.1,0,0,1024,1024,1024,1024,218.9,0,99,4.284,4.285,4.285,4.283,0,0,91.31,10,Assisted_Takeoff,
0.354651630622684,36.8975875337628,5808.7528515625,0,0,0.169927170792,2200,2017-11-15 08:54:15,18,17.062,5808.7528515625,0,0,0.169927170792,218.3, 1, -3.1,0,0,1024,1024,1024,1024,218.9,0,99,4.284,4.285,4.285,4.283,0,0,91.31,10,Assisted_Takeoff,
0.354651638092357,36.8975875435331,5808.7528515625,0,0,0.17423885072,2300,2017-11-15 08:54:15,18,17.062,5808.7528515625,0,0,0.17423885072,218.3, 1, -3.1,0,0,1024,1024,1024,1024,218.9,0,99,4.284,4.285,4.285,4.283,0,0,91.31,10,Assisted_Takeoff,
0.354651633706957,36.897587583629,5808.7528515625,0,0,0.182148627876,2400,2017-11-15 08:54:16,18,17.062,5808.7528515625,0,0,0.182148627876,218.3, 1, -3.1,0,0,1024,1024,1031,1024,218.8,0,99,4.284,4.285,4.285,4.283,0,0,91.31,10,Assisted_Takeoff,
0.354651634156408,36.8975876171301,5808.7528515625,0,0,0.190468181948,2500,2017-11-15 08:54:16,18,17.062,5808.7528515625,0,0,0.190468181948,218.3, 1, -3.1,0,0,1024,1024,1024,1024,218.8,0,99,4.284,4.285,4.285,4.283,0,0,91.31,10,Assisted_Takeoff,
0.354651665608175,36.8975876352124,5808.7528515625,0,0,0.20335794614,2600,2017-11-15 08:54:16,18,17.062,5808.7528515625,0,0,0.20335794614,218.3, 1, -3.1,0,0,1024,1024,1024,1024,218.8,0,99,4.284,4.285,4.285,4.283,0,0,91.31,10,Assisted_Takeoff,
0.354651692744566,36.8975876521428,5808.7528515625,0,0,0.214837277216,2700,2017-11-15 08:54:16,18,17.062,5808.7528515625,0,0,0.214837277216,218.3, 0.9, -3.1,0,0,1024,1024,1024,1024,218.8,0,99,4.284,4.285,4.285,4.283,0,0,91.31,10,Assisted_Takeoff,
0.354651707724622,36.8975876530143,5808.7528515625,0,0,0.219136489952,2800,2017-11-15 08:54:16,18,17.062,5808.7528515625,0,0,0.219136489952,218.3, 0.9, -3.1,0,0,1024,1024,1029,1024,218.8,0,99,4.284,4.285,4.285,4.283,0,0,91.31,10,Assisted_Takeoff,
0.354651721874172,36.8975876571596,5808.7528515625,0,0,0.224030847064,2900,2017-11-15 08:54:16,18,17.115,5808.7528515625,0,0,0.224030847064,218.3, 1, -3.1,0,0,1024,1024,1035,1024,218.7,0,99,4.26,4.275,4.269,4.263,0,0,91.31,10,Assisted_Takeoff,
0.354651723864131,36.8975876487426,5808.7528515625,0,0,0.222603025496,3000,2017-11-15 08:54:16,18,17.115,5808.7528515625,0,0,0.224030847064,218.3, 1, -3.1,0,0,1024,1024,1031,1024,218.7,0,99,4.26,4.275,4.269,4.263,0,0,91.31,10,Assisted_Takeoff,
0.354651729163087,36.8975876453617,5808.7528515625,0,0,0.223308078012,3100,2017-11-15 08:54:16,18,17.115,5808.7528515625,0,0,0.224030847064,218.3, 1, -3.1,0,0,1024,1024,1024,1024,218.7,0,99,4.26,4.275,4.269,4.263,0,0,91.31,10,Assisted_Takeoff,
0.354651724662068,36.8975876342939,5808.7528515625,0,0,0.219490492588,3200,2017-11-15 08:54:16,18,17.115,5808.7528515625,0,0,0.224030847064,218.3, 1, -3.1,0,0,1024,1024,1024,1024,218.7,0,99,4.26,4.275,4.269,4.263,0,0,91.31,10,Assisted_Takeoff,
0.354651725891543,36.8975876272172,5808.7528515625,0,0,0.218236883624,3300,2017-11-15 08:54:16,18,17.115,5808.7528515625,0,0,0.224030847064,218.3, 1, -3.1,0,0,1024,1024,1024,1024,218.7,0,99,4.26,4.275,4.269,4.263,0,0,91.31,10,Assisted_Takeoff,
0.354651759473315,36.8975876170037,5808.7528515625,0,0,0.225817920612,3400,2017-11-15 08:54:17,18,17.115,5808.7528515625,0,0,0.225817920612,218.3, 1, -3.1,0,0,1024,1024,1024,1024,218.7,0,99,4.26,4.275,4.269,4.263,0,0,91.31,10,Assisted_Takeoff,
0.354651788886271,36.8975876098436,5808.7528515625,0,0,0.233191936596,3500,2017-11-15 08:54:17,18,17.115,5808.7528515625,0,0,0.233191936596,218.3, 0.9, -3.1,0,0,1024,1024,1024,1024,218.7,0,99,4.26,4.275,4.269,4.263,0,0,91.31,10,Assisted_Takeoff,
0.354651768825469,36.8975876006429,5808.7528515625,0,0,0.225237540016,3600,2017-11-15 08:54:17,18,17.115,5808.7528515625,0,0,0.233191936596,218.3, 1, -3.1,0,0,1024,1024,1024,1024,218.7,0,99,4.26,4.275,4.269,4.263,0,0,91.31,10,Assisted_Takeoff,
0.354651754724773,36.8975875944292,5808.7528515625,0,0,0.219702106768,3700,2017-11-15 08:54:17,18,17.115,5808.7528515625,0,0,0.233191936596,218.3, 1, -3.1,0,0,1024,1024,1024,1024,218.7,0,99,4.26,4.275,4.269,4.263,0,0,91.31,10,Assisted_Takeoff,
0.354651770374119,36.8975875865796,5808.7528515625,0,0,0.222905847028,3800,2017-11-15 08:54:17,18,17.115,5808.7528515625,0,0,0.233191936596,218.3, 1, -3.1,0,0,1024,1024,1024,1024,218.7,0,99,4.26,4.275,4.269,4.263,0,0,91.31,10,Assisted_Takeoff,
0.354651788506843,36.8975875812801,5808.7528515625,0,0,0.227501319616,3900,2017-11-15 08:54:17,18,17.115,5808.7528515625,0,0,0.233191936596,218.3, 1, -3.1,0,0,1024,1024,1024,1024,218.7,0,99,4.279,4.281,4.28,4.278,0,0,91.31,10,Assisted_Takeoff,Setting new Return-To-Home altitude to 30m (98 ft). Setting new Maximum Flight Altitude to 150m (492 ft)
0.354651800016686,36.8975875765224,5808.7528515625,0,0,0.230220479808,4000,2017-11-15 08:54:17,18,17.115,5808.7528515625,0,0,0.233191936596,218.3, 1, -3.1,0,0,1024,1024,1153,1024,218.7,0,99,4.279,4.281,4.28,4.278,0,0,91.31,10,Assisted_Takeoff,
0.354651810782329,36.8975875717604,5808.7528515625,0,0,0.232759521884,4100,2017-11-15 08:54:17,18,17.115,5808.7528515625,0,0,0.233191936596,218.3, 1, -3.1,0,0,1024,1024,1403,1021,218.7,0,99,4.279,4.281,4.28,4.278,0,0,91.31,10,Assisted_Takeoff,
0.354651812484053,36.897587570178,5808.7528515625,0,0,0.233017395908,4200,2017-11-15 08:54:17,18,17.115,5808.7528515625,0,0,0.233191936596,218.3, 1, -3.1,0,0,1024,1024,1505,1021,218.7,0,99,4.279,4.281,4.28,4.278,0,0,91.31,10,Assisted_Takeoff,
0.35465181604546,36.8975875672767,5808.7528515625,0,0,0.23363845892,4300,2017-11-15 08:54:17,18,17.115,5808.7528515625,0,0,0.23363845892,218.3, 0.9, -3.2,0,0,1024,1024,1547,1022,218.7,0,99,4.279,4.281,4.28,4.278,0,0,91.31,10,Assisted_Takeoff,
0.354651809717326,36.897587605679,5808.7528515625,0,0,0.238761818664,4400,2017-11-15 08:54:18,18,17.115,5808.7528515625,0,0,0.238761818664,218.2, 1, -3.2,0,0,1024,1024,1546,1022,218.7,0,99,4.279,4.281,4.28,4.278,0,0,91.31,10,Assisted_Takeoff,
0.354651808378745,36.8975876378204,5808.7528515625,0,0,0.244792658752,4500,2017-11-15 08:54:18,18,17.115,5808.7528515625,0,0,0.244792658752,218.1, 1.2, -3.9,0,0,1024,1024,1545,1022,218.6,0,99,4.279,4.281,4.28,4.278,0,0,91.31,10,Assisted_Takeoff,
0.354651769318888,36.8975877006408,5808.7528515625,0,0,0.2474983675,4600,2017-11-15 08:54:18,18,17.115,5808.7528515625,0,0,0.2474983675,217.9, 1.6, -3.9,0,0,1024,1024,1556,1022,218.6,0,99,4.279,4.281,4.28,4.278,0,0,91.31,10,Assisted_Takeoff,
0.354651673802505,36.8975878224467,5808.7528515625,0,0.31540854,0.256385178808,4700,2017-11-15 08:54:18,18,17.115,5808.7528515625,0,0.31540854,0.256385178808,217.5, 2.8, -3.4,0,0,1024,1024,1574,1024,218.6,0,99,4.279,4.281,4.28,4.278,0,0,91.31,6,GPS_Atti,Obstacle Avoided. Revise Flight Route
0.354651537055549,36.8975880252689,5808.7528515625,0,0.50107456,0.298243775948,4800,2017-11-15 08:54:18,18,17.115,5808.7528515625,0,0.50107456,0.298243775948,217.6, 1.8, -1.1,0,0,1024,1024,1584,1023,218.6,0,99,4.279,4.281,4.28,4.278,0,0,91.31,6,GPS_Atti,
0.354651374989546,36.8975882885155,5808.7528515625,0,0.50107456,0.37854660004,4900,2017-11-15 08:54:18,18,17.115,5808.7528515625,0,0.50107456,0.37854660004,217.5, 0.5, 2.5,0,0,1024,1024,1591,1023,218.6,0,99,4.279,4.281,4.281,4.27,0,0,91.31,6,GPS_Atti,
0.354651213771961,36.8975885431866,5809.0809355625,0.328084,0.31540854,0.46918308588,5000,2017-11-15 08:54:18,18,17.115,5809.0809355625,0.328084,0.50107456,0.46918308588,217.9, 0.8, 5.6,0,0,1024,1024,1594,1024,218.6,0,99,4.279,4.281,4.281,4.27,0,0,91.31,6,GPS_Atti,
0.35465113583626,36.8975886578003,5809.4090195625,0.656168,0,0.51261156496,5100,2017-11-15 08:54:18,18,17.115,5809.4090195625,0.656168,0.50107456,0.51261156496,218, -0.2, 4.1,0,0,1024,1024,1617,1024,218.6,0,99,4.279,4.281,4.281,4.27,0,0,91.31,6,GPS_Atti,
0.354651122885245,36.8975886165545,5810.0651875625,1.312336,0.223694,0.49805447788,5200,2017-11-15 08:54:18,18,17.115,5810.0651875625,1.312336,0.50107456,0.51261156496,218.4, -0.4, 0.7,0,0,1024,1024,1643,1024,218.6,0,99,4.279,4.281,4.281,4.27,0,0,91.31,6,GPS_Atti,
0.354651083485042,36.8975884595752,5811.0494395625,2.296588,0.50107456,0.44289371496,5300,2017-11-15 08:54:18,18,17.115,5811.0494395625,2.296588,0.50107456,0.51261156496,218.7, 0.2, -2.7,0,0,1024,1024,1659,1024,218.6,0,99,4.279,4.281,4.281,4.27,0,0,91.31,6,GPS_Atti,
0.3546509589791,36.8975883336582,5812.0336915625,3.28084,0.63305402,0.40711615476,5400,2017-11-15 08:54:19,18,17.115,5812.0336915625,3.28084,0.63305402,0.51261156496,218.4, 1, -3.4,0,0,1024,1024,1657,1024,218.6,0,99,4.279,4.281,4.281,4.27,0,0,91.31,6,GPS_Atti,
0.354650711810613,36.8975882469057,5813.0179435625,4.265092,0.70687304,0.41174870084,5500,2017-11-15 08:54:19,18,17.115,5813.0179435625,4.265092,0.70687304,0.51261156496,218, 2.6, -1.9,0,0,1024,1024,1665,1024,218.6,0,99,4.279,4.281,4.281,4.27,0,0,91.31,6,GPS_Atti,
0.354650385459037,36.897588221417,5814.3302795625,5.577428,0.70687304,0.4736220624,5600,2017-11-15 08:54:19,18,17.115,5814.3302795625,5.577428,0.70687304,0.51261156496,218, 4.6, 0.5,0,0,1024,1024,1666,1024,218.6,0,99,4.279,4.281,4.281,4.27,0,0,91.31,6,GPS_Atti,
0.354650054391487,36.8975881866141,5815.9706995625,7.217848,0.70687304,0.55391077888,5700,2017-11-15 08:54:19,18,17.115,5815.9706995625,7.217848,0.70687304,0.55391077888,218, 5.8, 2.3,0,0,1024,1024,1645,1024,218.6,0,99,4.279,4.281,4.281,4.27,0,0,91.31,6,GPS_Atti,
0.354649765468068,36.8975881524257,5817.2830355625,8.530184,0.50107456,0.63404201504,5800,2017-11-15 08:54:19,18,17.115,5817.2830355625,8.530184,0.70687304,0.63404201504,217.8, 5.4, 2.8,0,0,1024,1024,1642,1024,218.5,-6,99,4.279,4.281,4.281,4.27,0,0,91.31,6,GPS_Atti,
0.35464953215764,36.897588047578,5818.5953715625,9.84252,0.63305402,0.69158794864,5900,2017-11-15 08:54:19,18,16.744,5818.5953715625,9.84252,0.70687304,0.69158794864,217.8, 4.4, 0.5,0,0,1024,1024,1651,1024,218.5,-17.3,99,4.279,4.281,4.281,4.27,0,0,91.31,6,GPS_Atti,Home Point Recorded. RTH Altitude:  30m.
0.354649120350208,36.8975877345894,5821.5481275625,12.795276,0.80753534,0.79814307016,6100,2017-11-15 08:54:19,18,16.744,5821.5481275625,12.795276,0.80753534,0.79814307016,217.9, 6.5, -0.4,0,0,1024,1024,1641,1024,218.5,-23,99,4.279,4.281,4.281,4.27,0,0,91.31,6,GPS_Atti,
0.35464853632831,36.8975875114709,5824.8289675625,16.076116,0.63305402,0.99634845708,6300,2017-11-15 08:54:19,18,16.744,5824.8289675625,16.076116,0.80753534,0.99634845708,217.8, 6.6, 0.7,0,0,1024,1024,1649,1024,218.5,-24.4,99,4.279,4.281,4.281,4.27,0,0,91.31,6,GPS_Atti,
0.354647918723011,36.8975871525516,5827.7817235625,19.028872,0.80753534,1.21798232244,6500,2017-11-15 08:54:20,18,16.744,5827.7817235625,19.028872,0.80753534,1.21798232244,217.7, 7, 0.1,0,0,1024,1024,1649,1024,218.5,-24.4,99,4.279,4.281,4.281,4.27,0,0,91.31,6,GPS_Atti,
0.354647587986035,36.8975869513931,5829.4221435625,20.669292,0.80753534,1.34271001672,6600,2017-11-15 08:54:20,18,16.744,5829.4221435625,20.669292,0.80753534,1.34271001672,217.8, 7.1, 0.8,0,0,1024,1024,1645,1024,218.5,-24.4,99,4.279,4.281,4.281,4.27,0,0,91.31,6,GPS_Atti,
0.354647277200755,36.8975867211787,5831.0625635625,22.309712,0.94846256,1.4645833802,6700,2017-11-15 08:54:20,18,16.744,5831.0625635625,22.309712,0.94846256,1.4645833802,217.8, 8, 0.6,0,0,1024,1024,1645,1024,218.5,-24.4,99,4.279,4.281,4.281,4.27,0,0,91.31,6,GPS_Atti,
0.354646958002934,36.897586418729,5832.3748995625,23.622048,0.80753534,1.5975066128,6800,2017-11-15 08:54:20,18,16.744,5832.3748995625,23.622048,0.94846256,1.5975066128,217.7, 8.9, -0.3,0,0,1024,1024,1640,1024,218.5,-24.4,99,4.279,4.281,4.281,4.27,0,0,91.31,6,GPS_Atti,
0.354646661805255,36.8975861298053,5834.0153195625,25.262468,0.80753534,1.72575792924,6900,2017-11-15 08:54:20,18,16.478,5834.0153195625,25.262468,0.94846256,1.72575792924,217.7, 8.8, -1.9,0,0,1024,1024,1643,1024,218.5,-24.4,99,4.144,4.156,4.151,4.148,0,0,91.31,6,GPS_Atti,
0.354646358149303,36.8975858725904,5835.3276555625,26.574804,0.63305402,1.8568570148,7000,2017-11-15 08:54:20,18,16.478,5835.3276555625,26.574804,0.94846256,1.8568570148,217.7, 8.2, -1.8,0,0,1024,1024,1644,1024,218.5,-24.4,99,4.144,4.156,4.151,4.148,0,0,91.31,6,GPS_Atti,
0.354646027239712,36.8975856637215,5836.9680755625,28.215224,0.80753534,1.99418313468,7100,2017-11-15 08:54:20,18,16.478,5836.9680755625,28.215224,0.94846256,1.99418313468,217.8, 7.9, -0.8,0,0,1024,1024,1642,1024,218.4,-24.4,99,4.144,4.156,4.151,4.148,0,0,91.31,6,GPS_Atti,
0.354645658459028,36.8975854813777,5838.6084955625,29.855644,0.80753534,2.14242460924,7200,2017-11-15 08:54:20,18,16.478,5838.6084955625,29.855644,0.94846256,2.14242460924,217.8, 8, 0.1,0,0,1024,1024,1639,1023,218.4,-24.4,99,4.144,4.156,4.151,4.148,0,0,91.31,6,GPS_Atti,
0.354645274351428,36.8975852993336,5839.9208315625,31.16798,0.80753534,2.29618773752,7300,2017-11-15 08:54:20,18,16.478,5839.9208315625,31.16798,0.94846256,2.29618773752,217.7, 8.1, 0.1,0,0,1024,1024,1639,1024,218.4,-24.4,99,4.144,4.156,4.151,4.148,0,0,91.31,6,GPS_Atti,
0.354644840120323,36.8975850816452,5841.5612515625,32.8084,0.80753534,2.4716044098,7400,2017-11-15 08:54:21,17,16.478,5841.5612515625,32.8084,0.94846256,2.4716044098,217.7, 8.2, 0,0,0,1024,1024,1630,1024,218.4,-23.9,99,4.144,4.156,4.151,4.148,0,0,91.31,6,GPS_Atti,
0.354643889245818,36.8975846316247,5844.5140075625,35.761156,0.80753534,2.85322515692,7600,2017-11-15 08:54:21,17,16.478,5844.5140075625,35.761156,0.94846256,2.85322515692,217.8, 9.8, 1.3,0,0,1024,1024,1620,1024,218.4,-19.2,99,4.144,4.156,4.151,4.148,0,0,91.31,6,GPS_Atti,
0.354642970366981,36.8975841353587,5847.4667635625,38.713912,0.80753534,3.2303314682,7800,2017-11-15 08:54:21,17,16.478,5847.4667635625,38.713912,0.94846256,3.2303314682,217.8, 9.2, 0.8,0,0,1024,1024,1620,1024,218.4,-17,99,4.144,4.156,4.151,4.148,0,0,91.31,6,GPS_Atti,
0.354642531244029,36.8975838880704,5849.1071835625,40.354332,0.80753534,3.4121720252,7900,2017-11-15 08:54:21,17,16.691,5849.1071835625,40.354332,0.94846256,3.4121720252,217.8, 9.3, 0.7,0,0,1024,1024,1620,1024,218.4,-16.9,99,4.164,4.173,4.168,4.17,0,0,91.31,6,GPS_Atti,
0.354640946527011,36.8975828264722,5854.6846115625,45.93176,0.80753534,4.0939305772,8300,2017-11-15 08:54:21,17,16.691,5854.6846115625,45.93176,0.94846256,4.0939305772,217.8, 9.8, 0.1,0,0,1024,1024,1671,1024,218.3,-16.9,99,4.164,4.173,4.168,4.17,0,0,91.31,6,GPS_Atti,
0.354640250670093,36.8975822454322,5857.6373675625,48.884516,0.80753534,4.41190959,8500,2017-11-15 08:54:22,17,16.691,5857.6373675625,48.884516,0.94846256,4.41190959,217.9, 8.5, -0.3,0,0,1024,1024,1677,1024,218.3,-16.9,99,4.164,4.173,4.168,4.17,0,0,91.31,6,GPS_Atti,
0.354639942050643,36.8975820025162,5858.9497035625,50.196852,0.80753534,4.5512468648,8600,2017-11-15 08:54:22,17,16.691,5858.9497035625,50.196852,0.94846256,4.5512468648,217.9, 7.7, -0.1,0,0,1024,1024,1684,1024,218.3,-16.9,99,4.164,4.173,4.168,4.17,0,0,91.31,6,GPS_Atti,
0.354639611873852,36.8975817816973,5860.5901235625,51.837272,0.80753534,4.6944883392,8700,2017-11-15 08:54:22,17,16.691,5860.5901235625,51.837272,0.94846256,4.6944883392,217.8, 8.4, 0.1,0,0,1024,1024,1684,1024,218.3,-16.9,99,4.164,4.173,4.168,4.17,0,0,91.31,6,GPS_Atti,
0.354638951933895,36.8975813973792,5863.8709635625,55.118112,0.80753534,4.97211302,8900,2017-11-15 08:54:22,17,16.691,5863.8709635625,55.118112,0.94846256,4.97211302,217.9, 8.9, 0.8,0,0,1024,1024,1684,1024,218.3,-16.9,99,4.169,4.176,4.168,4.161,0,0,91.31,6,GPS_Atti,
0.354638679664572,36.8975811973684,5865.5113835625,56.758532,0.63305402,5.0932416328,9000,2017-11-15 08:54:22,17,16.691,5865.5113835625,56.758532,0.94846256,5.0932416328,217.9, 9.4, 0.8,0,0,1024,1024,1684,1024,218.3,-16.9,99,4.169,4.176,4.168,4.161,0,0,91.31,6,GPS_Atti,
0.354638430297686,36.897580989523,5867.1518035625,58.398952,0.63305402,5.2082022664,9100,2017-11-15 08:54:22,17,16.691,5867.1518035625,58.398952,0.94846256,5.2082022664,217.9, 9.4, 0.4,0,0,1024,1024,1684,1024,218.3,-16.9,99,4.169,4.176,4.168,4.161,0,0,91.31,6,GPS_Atti,
0.354638184975855,36.897580781395,5868.7922235625,60.039372,0.63305402,5.3220474144,9200,2017-11-15 08:54:22,17,16.691,5868.7922235625,60.039372,0.94846256,5.3220474144,217.9, 9.4, -0.1,0,0,1024,1024,1684,1024,218.3,-16.9,99,4.169,4.176,4.168,4.161,0,0,91.31,6,GPS_Atti,
0.35463793562851,36.8975805867907,5870.4326435625,61.679792,0.50107456,5.4351379692,9300,2017-11-15 08:54:22,17,16.691,5870.4326435625,61.679792,0.94846256,5.4351379692,217.9, 9.2, 0.2,0,0,1024,1024,1684,1024,218.3,-16.9,99,4.169,4.176,4.168,4.161,0,0,91.31,6,GPS_Atti,
0.354637314709328,36.8975800183601,5875.6819875625,66.929136,0.50107456,5.7311681624,9600,2017-11-15 08:54:23,17,16.691,5875.6819875625,66.929136,0.94846256,5.7311681624,217.8, 10.1, -0.3,0,0,1024,1024,1684,1024,218.3,-16.9,99,4.169,4.176,4.168,4.161,0,0,91.31,6,GPS_Atti,
0.354636943424097,36.8975797115639,5878.9628275625,70.209976,0.50107456,5.9030841784,9800,2017-11-15 08:54:23,17,16.558,5878.9628275625,70.209976,0.94846256,5.9030841784,217.9, 8, -0.1,0,0,1024,1024,1684,1024,218.3,-16.9,99,4.169,4.176,4.168,4.161,0,0,91.31,6,GPS_Atti,
0.354636538635258,36.8975794413927,5882.2436675625,73.490816,0.50107456,6.079724604,10000,2017-11-15 08:54:23,17,16.558,5882.2436675625,73.490816,0.94846256,6.079724604,217.9, 9.3, 1.1,0,0,1024,1024,1684,1024,218.3,-16.9,99,4.169,4.176,4.168,4.161,0,0,91.31,6,GPS_Atti,
0.354636182100473,36.8975791740821,5885.5245075625,76.771656,0.50107456,6.2404201472,10200,2017-11-15 08:54:23,17,16.558,5885.5245075625,76.771656,0.94846256,6.2404201472,217.9, 9.5, 1.4,0,0,1024,1024,1684,1024,218.3,-16.9,99,4.169,4.176,4.168,4.161,0,0,91.31,6,GPS_Atti,
0.354636031293531,36.8975790478503,5887.1649275625,78.412076,0.31540854,6.3106629316,10300,2017-11-15 08:54:23,17,16.558,5887.1649275625,78.412076,0.94846256,6.3106629316,217.9, 9.6, 0.9,0,0,1024,1024,1684,1024,218.3,-16.9,99,4.169,4.176,4.168,4.161,0,0,91.31,6,GPS_Atti,
0.354635908727065,36.8975789361059,5888.8053475625,80.052496,0.223694,6.369422776,10400,2017-11-15 08:54:24,17,16.558,5888.8053475625,80.052496,0.94846256,6.369422776,217.9, 9.8, 0.3,0,0,1024,1024,1684,1024,218.3,-16.9,99,4.169,4.176,4.168,4.161,0,0,91.31,6,GPS_Atti,
0.354635777855535,36.8975788579395,5890.7738515625,82.021,0.223694,6.4249673972,10500,2017-11-15 08:54:24,17,16.558,5890.7738515625,82.021,0.94846256,6.4249673972,217.9, 9.7, 1,0,0,1024,1024,1684,1025,218.3,-16.9,99,4.169,4.176,4.168,4.161,0,0,91.31,6,GPS_Atti,
0.354635676364391,36.8975788108804,5892.4142715625,83.66142,0.223694,6.46571543,10600,2017-11-15 08:54:24,17,16.558,5892.4142715625,83.66142,0.94846256,6.46571543,217.9, 9.5, 2.3,0,0,1024,1024,1684,1026,218.3,-16.9,99,4.169,4.176,4.168,4.161,0,0,91.31,6,GPS_Atti,
0.354635596873526,36.8975787675042,5894.0546915625,85.30184,0,6.4987534888,10700,2017-11-15 08:54:24,17,16.558,5894.0546915625,85.30184,0.94846256,6.4987534888,217.8, 9.1, 2.1,0,0,1024,1024,1684,1024,218.2,-16.9,99,4.169,4.176,4.168,4.161,0,0,91.31,6,GPS_Atti,
0.354635583995791,36.8975787371507,5895.6951115625,86.94226,0,6.5081694996,10800,2017-11-15 08:54:24,17,16.558,5895.6951115625,86.94226,0.94846256,6.5081694996,217.7, 8.7, 1.3,0,0,1024,1024,1684,1024,218.2,-16.9,99,4.169,4.176,4.168,4.161,0,0,91.31,6,GPS_Atti,
0.354635572730215,36.8975787021765,5897.3355315625,88.58268,0,6.517880786,10900,2017-11-15 08:54:24,17,16.531,5897.3355315625,88.58268,0.94846256,6.517880786,217.7, 8.7, 0.4,0,0,1024,1024,1684,1024,218.2,-16.9,99,4.149,4.159,4.152,4.146,0,0,91.31,6,GPS_Atti,
0.354635609591674,36.8975786758355,5898.9759515625,90.2231,0,6.5106957464,11000,2017-11-15 08:54:24,17,16.531,5898.9759515625,90.2231,0.94846256,6.517880786,217.8, 8.6, 0.1,0,0,1024,1024,1684,1024,218.2,-16.9,99,4.149,4.159,4.152,4.146,0,0,91.31,6,GPS_Atti,
0.354635630719106,36.8975786813298,5900.6163715625,91.86352,0,6.502952964,11100,2017-11-15 08:54:24,17,16.531,5900.6163715625,91.86352,0.94846256,6.517880786,217.8, 7.9, 0.8,0,0,1024,1024,1684,1024,218.2,-16.9,99,4.149,4.159,4.152,4.146,0,0,91.31,6,GPS_Atti,
0.354635725507574,36.8975787026133,5903.8972115625,95.14436,0,6.4689306532,11300,2017-11-15 08:54:24,17,16.531,5903.8972115625,95.14436,0.94846256,6.517880786,217.7, 7.7, 0.9,0,0,1024,1024,1684,1024,218.2,-16.9,99,4.149,4.159,4.152,4.146,0,0,91.31,6,GPS_Atti,
0.354635829744275,36.8975787107841,5905.5376315625,96.78478,0,6.4341865576,11400,2017-11-15 08:54:25,17,16.531,5905.5376315625,96.78478,0.94846256,6.517880786,217.7, 7.5, 0.5,0,0,1024,1024,1684,1024,218.2,-16.9,99,4.149,4.159,4.152,4.146,0,0,91.31,6,GPS_Atti,
0.354635896995755,36.8975787254426,5907.1780515625,98.4252,0,6.4101380004,11500,2017-11-15 08:54:25,17,16.531,5907.1780515625,98.4252,0.94846256,6.517880786,217.7, 7.3, 0.5,0,0,1024,1024,1684,1022,218.2,-16.9,99,4.149,4.159,4.152,4.146,0,0,91.31,6,GPS_Atti,
0.35463597560726,36.8975787777348,5908.8184715625,100.06562,0,6.375820414,11600,2017-11-15 08:54:25,17,16.531,5908.8184715625,100.06562,0.94846256,6.517880786,217.8, 7.5, 0.8,0,0,1024,1024,1684,1023,218.2,-16.9,99,4.149,4.159,4.152,4.146,0,0,91.31,6,GPS_Atti,
0.354636027968249,36.897578825629,5910.4588915625,101.70604,0,6.3506235628,11700,2017-11-15 08:54:25,17,16.531,5910.4588915625,101.70604,0.94846256,6.517880786,217.7, 7.8, 0.9,0,0,1024,1024,1684,1022,218.2,-16.9,99,4.149,4.159,4.152,4.146,0,0,91.31,6,GPS_Atti,
0.354636143613827,36.8975788620977,5912.4273955625,103.674544,0,6.3072836664,11800,2017-11-15 08:54:25,17,16.531,5912.4273955625,103.674544,0.94846256,6.517880786,217.7, 7.6, 0.5,0,0,1024,1024,1684,1022,218.2,-16.9,99,4.149,4.159,4.152,4.146,0,0,91.31,6,GPS_Atti,
0.354636231989483,36.8975789100176,5914.0678155625,105.314964,0,6.2706038752,11900,2017-11-15 08:54:25,17,16.452,5914.0678155625,105.314964,0.94846256,6.517880786,217.7, 7, 0.4,0,0,1024,1024,1684,1022,218.2,-16.9,99,4.133,4.144,4.137,4.134,0,0,91.31,6,GPS_Atti,
0.354636354285627,36.897578974142,5915.7082355625,106.955384,0,6.2202429812,12000,2017-11-15 08:54:25,17,16.452,5915.7082355625,106.955384,0.94846256,6.517880786,217.7, 6.8, 0.8,0,0,1024,1024,1684,1022,218.2,-16.9,99,4.133,4.144,4.137,4.134,0,0,91.31,6,GPS_Atti,
0.354636433844887,36.8975790275561,5917.3486555625,108.595804,0,6.1854004604,12100,2017-11-15 08:54:25,17,16.452,5917.3486555625,108.595804,0.94846256,6.517880786,217.7, 6.9, 1,0,0,1024,1024,1684,1024,218.2,-16.9,99,4.133,4.144,4.137,4.134,0,0,91.31,6,GPS_Atti,
0.354636541533889,36.8975791156833,5918.9890755625,110.236224,0,6.1354332672,12200,2017-11-15 08:54:25,17,16.452,5918.9890755625,110.236224,0.94846256,6.517880786,217.7, 6.6, 0.3,0,0,1024,1024,1684,1024,218.2,-16.9,99,4.133,4.144,4.137,4.134,0,0,91.31,6,GPS_Atti,
0.354636588895554,36.8975791906378,5920.9575795625,112.204728,0,6.1070868096,12300,2017-11-15 08:54:25,17,16.452,5920.9575795625,112.204728,0.94846256,6.517880786,217.8, 6.8, 0.9,0,0,1024,1024,1684,1024,218.2,-16.9,99,4.133,4.144,4.137,4.134,0,0,91.31,6,GPS_Atti,
0.354636645265771,36.8975792687442,5922.5979995625,113.845148,0,6.0753610868,12400,2017-11-15 08:54:26,17,16.452,5922.5979995625,113.845148,0.94846256,6.517880786,217.8, 7.7, 2,0,0,1024,1024,1684,1024,218.2,-16.9,99,4.133,4.144,4.137,4.134,0,0,91.31,6,GPS_Atti,
0.354636685986642,36.8975793263593,5924.2384195625,115.485568,0,6.0522639732,12500,2017-11-15 08:54:26,17,16.452,5924.2384195625,115.485568,0.94846256,6.517880786,217.9, 7.7, 1.3,0,0,1024,1024,1684,1024,218.2,-16.9,99,4.133,4.144,4.137,4.134,0,0,91.31,6,GPS_Atti,
0.354636802693966,36.8975794229527,5925.8788395625,117.125988,0,5.9979988796,12600,2017-11-15 08:54:26,17,16.452,5925.8788395625,117.125988,0.94846256,6.517880786,217.7, 7.4, 0.9,0,0,1024,1024,1684,1024,218.1,-16.9,99,4.133,4.144,4.137,4.134,0,0,91.31,6,GPS_Atti,
0.354636858810146,36.8975794979629,5927.8473435625,119.094492,0,5.9669949416,12700,2017-11-15 08:54:26,17,16.452,5927.8473435625,119.094492,0.94846256,6.517880786,217.6, 7.3, 1,0,0,1024,1024,1684,1024,218.1,-16.9,99,4.133,4.144,4.137,4.134,0,0,91.31,6,GPS_Atti,
0.354636925771764,36.8975795986888,5929.4877635625,120.734912,0,5.9280841792,12800,2017-11-15 08:54:26,17,16.452,5929.4877635625,120.734912,0.94846256,6.517880786,217.6, 7, 1.6,0,0,1024,1024,1684,1024,218.1,-16.9,99,4.133,4.144,4.137,4.134,0,0,91.31,6,GPS_Atti,
0.354636951791042,36.8975796624664,5931.1281835625,122.375332,0,5.9087600316,12900,2017-11-15 08:54:26,17,16.452,5931.1281835625,122.375332,0.94846256,6.517880786,217.7, 7.1, 2,0,0,1024,1024,1684,1036,218.1,-16.9,99,4.133,4.144,4.137,4.134,0,0,91.31,6,GPS_Atti,
0.354637044381111,36.8975797218801,5932.7686035625,124.015752,0,5.868766592,13000,2017-11-15 08:54:26,17,16.452,5932.7686035625,124.015752,0.94846256,6.517880786,217.7, 7.9, 1.6,0,0,1024,1024,1684,1024,218.1,-16.9,99,4.133,4.144,4.137,4.134,0,0,91.31,6,GPS_Atti,
0.354637255508875,36.8975797488463,5938.0179475625,129.265096,0,5.7961616028,13300,2017-11-15 08:54:26,17,16.452,5938.0179475625,129.265096,0.94846256,6.517880786,217.7, 8.4, 0,0,0,1024,1024,1684,1024,218.1,-16.9,99,4.133,4.144,4.137,4.134,0,0,91.31,6,GPS_Atti,
0.354637346190407,36.897579829203,5939.6583675625,130.905516,0,5.7531497904,13400,2017-11-15 08:54:27,17,16.452,5939.6583675625,130.905516,0.94846256,6.517880786,217.7, 7.5, 0.5,0,0,1024,1024,1684,1024,218.1,-16.9,99,4.133,4.144,4.137,4.134,0,0,91.31,6,GPS_Atti,
0.354637389034769,36.8975798784205,5941.2987875625,132.545936,0,5.7309056952,13500,2017-11-15 08:54:27,17,16.452,5941.2987875625,132.545936,0.94846256,6.517880786,217.7, 8, 0.3,0,0,1024,1024,1684,1024,218.1,-16.9,99,4.133,4.144,4.137,4.134,0,0,91.31,6,GPS_Atti,
0.354637485871819,36.8975799219851,5942.9392075625,134.186356,0,5.6922574,13600,2017-11-15 08:54:27,17,16.452,5942.9392075625,134.186356,0.94846256,6.517880786,217.7, 8.3, 0,0,0,1024,1024,1684,1024,218.1,-16.9,99,4.133,4.144,4.137,4.134,0,0,91.31,6,GPS_Atti,
0.354637543544792,36.8975799736114,5944.5796275625,135.826776,0,5.6648295776,13700,2017-11-15 08:54:27,17,16.452,5944.5796275625,135.826776,0.94846256,6.517880786,217.8, 7.8, 0.6,0,0,1024,1024,1684,1024,218.1,-16.9,99,4.133,4.144,4.137,4.134,0,0,91.31,6,GPS_Atti,
0.354637623771714,36.8975800630575,5946.2200475625,137.467196,0,5.623687844,13800,2017-11-15 08:54:27,17,16.452,5946.2200475625,137.467196,0.94846256,6.517880786,217.7, 7.1, 0.8,0,0,1024,1024,1684,1024,218.1,-16.9,99,4.133,4.144,4.137,4.134,0,0,91.31,6,GPS_Atti,
0.354637657395826,36.8975801327126,5947.8604675625,139.107616,0,5.6010172396,13900,2017-11-15 08:54:27,17,16.399,5947.8604675625,139.107616,0.94846256,6.517880786,217.6, 7.1, 1.5,0,0,1024,1024,1684,1024,218.1,-16.9,99,4.129,4.138,4.13,4.125,0,0,91.31,6,GPS_Atti,
0.354637727855341,36.897580234205,5951.4693915625,142.71654,0,5.5610894168,14100,2017-11-15 08:54:27,17,16.399,5951.4693915625,142.71654,0.94846256,6.517880786,217.6, 6.8, 1.5,0,0,1024,1024,1684,1024,218.1,-16.9,99,4.129,4.138,4.13,4.125,0,0,91.31,6,GPS_Atti,
0.354637753884389,36.89758027192,5953.1098115625,144.35696,0,5.5463256368,14200,2017-11-15 08:54:27,17,16.399,5953.1098115625,144.35696,0.94846256,6.517880786,217.6, 8.6, 1.5,0,0,1024,1024,1684,1024,218.1,-16.9,99,4.129,4.138,4.13,4.125,0,0,91.31,6,GPS_Atti,
0.354637755232741,36.8975802620277,5954.7502315625,145.99738,0,5.547572356,14300,2017-11-15 08:54:27,17,16.399,5954.7502315625,145.99738,0.94846256,6.517880786,217.7, 9.3, 0.6,0,0,1024,1024,1684,1024,218.1,-16.9,99,4.129,4.138,4.13,4.125,0,0,91.31,6,GPS_Atti,
0.354637780724403,36.8975802364854,5956.3906515625,147.6378,0,5.5436025396,14400,2017-11-15 08:54:28,17,16.399,5956.3906515625,147.6378,0.94846256,6.517880786,217.7, 9.2, 0,0,0,1024,1024,1684,1024,218.1,-16.9,99,4.129,4.138,4.13,4.125,0,0,91.31,6,GPS_Atti,
0.354637768244008,36.8975802112579,5958.3591555625,149.606304,0,5.5519030648,14500,2017-11-15 08:54:28,17,16.399,5958.3591555625,149.606304,0.94846256,6.517880786,217.7, 8.9, 0.3,0,0,1024,1024,1684,1024,218.1,-16.9,99,4.129,4.138,4.13,4.125,0,0,91.31,6,GPS_Atti,
0.354637769322038,36.8975802147994,5959.9995755625,151.246724,0,5.5509516212,14600,2017-11-15 08:54:28,17,16.399,5959.9995755625,151.246724,0.94846256,6.517880786,217.7, 9.3, 0.5,0,0,1024,1024,1684,1024,218.1,-16.9,99,4.129,4.138,4.13,4.125,0,0,91.31,6,GPS_Atti,
0.354637745520701,36.8975802110138,5961.6399955625,152.887144,0,5.5592849548,14700,2017-11-15 08:54:28,17,16.399,5961.6399955625,152.887144,0.94846256,6.517880786,217.6, 9.3, 0.2,0,0,1024,1024,1684,1024,218.1,-16.9,99,4.129,4.138,4.13,4.125,0,0,91.31,6,GPS_Atti,
0.354637746768089,36.8975802489857,5963.2804155625,154.527564,0,5.552493616,14800,2017-11-15 08:54:28,17,16.399,5963.2804155625,154.527564,0.94846256,6.517880786,217.6, 8.8, 0.1,0,0,1024,1024,1684,1024,218.1,-16.9,99,4.129,4.138,4.13,4.125,0,0,91.31,6,GPS_Atti,
0.354637702917349,36.8975802959399,5964.9208355625,156.167984,0.223694,5.5588584456,14900,2017-11-15 08:54:28,17,16.478,5964.9208355625,156.167984,0.94846256,6.517880786,217.7, 8.9, 1,0,0,1024,1024,1684,1024,218.1,-16.9,99,4.12,4.131,4.125,4.121,0,0,91.31,6,GPS_Atti,
0.354637681959275,36.897580380215,5966.8893395625,158.136488,0.223694,5.551673406,15000,2017-11-15 08:54:28,17,16.478,5966.8893395625,158.136488,0.94846256,6.517880786,217.7, 8.6, 2.1,0,0,1024,1024,1684,1024,218,-16.9,99,4.12,4.131,4.125,4.121,0,0,91.31,6,GPS_Atti,
0.354637635007978,36.8975804588117,5968.5297595625,159.776908,0.223694,5.5541012276,15100,2017-11-15 08:54:28,17,16.478,5968.5297595625,159.776908,0.94846256,6.517880786,217.6, 8.9, 2.1,0,0,1024,1024,1684,1024,218,-16.9,99,4.12,4.131,4.125,4.121,0,0,91.31,6,GPS_Atti,
0.354637598276795,36.897580526589,5970.1701795625,161.417328,0.223694,5.555118288,15200,2017-11-15 08:54:28,17,16.478,5970.1701795625,161.417328,0.94846256,6.517880786,217.7, 8, 1.6,0,0,1024,1024,1684,1024,218,-16.9,99,4.12,4.131,4.125,4.121,0,0,91.31,6,GPS_Atti,
0.354637523426995,36.8975806070185,5971.8105995625,163.057748,0.223694,5.56676527,15300,2017-11-15 08:54:29,17,16.478,5971.8105995625,163.057748,0.94846256,6.517880786,217.6, 7.3, 2.4,0,0,1024,1024,1684,1024,218,-16.9,99,4.12,4.131,4.125,4.121,0,0,91.31,6,GPS_Atti,
0.354637424665123,36.8975806768492,5973.7791035625,165.026252,0.223694,5.5882219636,15400,2017-11-15 08:54:29,17,16.478,5973.7791035625,165.026252,0.94846256,6.517880786,217.7, 9.1, 3.3,0,0,1024,1024,1684,1024,218,-16.9,99,4.12,4.131,4.125,4.121,0,0,91.31,6,GPS_Atti,
0.354637303821551,36.897580737856,5975.4195235625,166.666672,0.223694,5.6186353504,15500,2017-11-15 08:54:29,17,16.478,5975.4195235625,166.666672,0.94846256,6.517880786,217.8, 10, 3.2,0,0,1024,1024,1684,1024,218,-16.9,99,4.12,4.131,4.125,4.121,0,0,91.31,6,GPS_Atti,
0.35463720600092,36.8975808401236,5977.0599435625,168.307092,0.223694,5.6353676344,15600,2017-11-15 08:54:29,17,16.478,5977.0599435625,168.307092,0.94846256,6.517880786,217.8, 8.7, 4.3,0,0,1024,1024,1684,1024,218,-16.9,99,4.12,4.131,4.125,4.121,0,0,91.31,6,GPS_Atti,
0.354637115605994,36.8975809100613,5978.7003635625,169.947512,0.223694,5.6548886324,15700,2017-11-15 08:54:29,17,16.478,5978.7003635625,169.947512,0.94846256,6.517880786,217.8, 9.2, 4.7,0,0,1024,1024,1684,1024,218,-16.9,99,4.12,4.131,4.125,4.121,0,0,91.31,6,GPS_Atti,
0.354637036642745,36.8975809519216,5980.3407835625,171.587932,0,5.6749673732,15800,2017-11-15 08:54:29,17,16.478,5980.3407835625,171.587932,0.94846256,6.517880786,217.9, 10.2, 3.3,0,0,1024,1024,1684,1024,218,-16.9,99,4.12,4.131,4.125,4.121,0,0,91.31,6,GPS_Atti,
0.354636994850358,36.8975809894117,5981.9812035625,173.228352,0,5.683399132,15900,2017-11-15 08:54:29,17,16.452,5981.9812035625,173.228352,0.94846256,6.517880786,217.8, 9, 2.4,0,0,1024,1024,1684,1024,218,-16.9,99,4.127,4.138,4.131,4.124,0,0,91.31,6,GPS_Atti,
0.354636971192324,36.8975810240476,5983.6216235625,174.868772,0,5.6862206544,16000,2017-11-15 08:54:29,17,16.452,5983.6216235625,174.868772,0.94846256,6.517880786,217.8, 7.8, 2.7,0,0,1024,1024,1684,1024,218,-16.9,99,4.127,4.138,4.131,4.124,0,0,91.31,6,GPS_Atti,
0.354636945609468,36.8975810287775,5985.2620435625,176.509192,0,5.6940946704,16100,2017-11-15 08:54:29,17,16.452,5985.2620435625,176.509192,0.94846256,6.517880786,217.7, 7.7, 2.8,0,0,1024,1024,1684,1024,218,-16.9,99,4.127,4.138,4.131,4.124,0,0,91.31,6,GPS_Atti,
0.354636925260432,36.8975810050102,5986.9024635625,178.149612,0.223694,5.7043636996,16200,2017-11-15 08:54:29,17,16.452,5986.9024635625,178.149612,0.94846256,6.517880786,217.7, 8.6, 2.2,0,0,1024,1024,1684,1024,218,-16.9,99,4.127,4.138,4.131,4.124,0,0,91.31,6,GPS_Atti,
0.354636903351347,36.8975809332075,5988.5428835625,179.790032,0.223694,5.7222114692,16300,2017-11-15 08:54:30,17,16.452,5988.5428835625,179.790032,0.94846256,6.517880786,217.7, 9.6, 1.2,0,0,1024,1024,1684,1024,217.9,-16.9,99,4.127,4.138,4.131,4.124,0,0,91.31,6,GPS_Atti,
0.354636909415672,36.897580884534,5990.5113875625,181.758536,0.223694,5.727362388,16400,2017-11-15 08:54:30,17,16.452,5990.5113875625,181.758536,0.94846256,6.517880786,217.7, 10, 0.7,0,0,1024,1024,1684,1024,217.9,-16.9,99,4.127,4.138,4.131,4.124,0,0,91.31,6,GPS_Atti,
0.354636916382155,36.8975808298694,5992.1518075625,183.398956,0.223694,5.7331694748,16500,2017-11-15 08:54:30,17,16.452,5992.1518075625,183.398956,0.94846256,6.517880786,217.7, 9.3, 0.3,0,0,1024,1024,1684,1024,217.9,-16.9,99,4.127,4.138,4.131,4.124,0,0,91.31,6,GPS_Atti,
0.354636897821151,36.8975807533111,5993.7922275625,185.039376,0.223694,5.750820394,16600,2017-11-15 08:54:30,17,16.452,5993.7922275625,185.039376,0.94846256,6.517880786,217.7, 9, 0.2,0,0,1024,1024,1684,1024,217.9,-16.9,99,4.127,4.138,4.131,4.124,0,0,91.31,6,GPS_Atti,
0.35463686337956,36.8975806762239,5995.4326475625,186.679796,0.223694,5.7739175076,16700,2017-11-15 08:54:30,17,16.452,5995.4326475625,186.679796,0.94846256,6.517880786,217.7, 9.5, 0.2,0,0,1024,1024,1684,1024,217.9,-16.9,99,4.127,4.138,4.131,4.124,0,0,91.31,6,GPS_Atti,
0.354636830745543,36.8975806292419,5997.0730675625,188.320216,0,5.7918965108,16800,2017-11-15 08:54:30,17,16.452,5997.0730675625,188.320216,0.94846256,6.517880786,217.7, 9.8, 0.3,0,0,1024,1024,1684,1024,217.9,-16.9,99,4.127,4.138,4.131,4.124,0,0,91.31,6,GPS_Atti,
0.354636795988034,36.8975805816925,5999.0415715625,190.28872,0,5.8106629156,16900,2017-11-15 08:54:30,17,16.452,5999.0415715625,190.28872,0.94846256,6.517880786,217.8, 10.1, 0.4,0,0,1024,1024,1684,1024,217.9,-16.9,99,4.127,4.138,4.131,4.124,0,0,91.31,6,GPS_Atti,
0.354636789200679,36.8975805623747,6000.6819915625,191.92914,0,5.8158794512,17000,2017-11-15 08:54:30,17,16.452,6000.6819915625,191.92914,0.94846256,6.517880786,217.8, 10.4, 0.6,0,0,1024,1024,1684,1024,217.9,-16.9,99,4.127,4.138,4.131,4.124,0,0,91.31,6,GPS_Atti,
0.354636916033668,36.8975805286209,6008.8840915625,200.13124,0,5.7791340432,17500,2017-11-15 08:54:31,17,16.452,6008.8840915625,200.13124,0.94846256,6.517880786,217.7, 8.5, 0.2,0,0,1024,1024,1684,1024,217.9,-16.9,99,4.127,4.138,4.131,4.124,0,0,91.31,6,GPS_Atti,
0.354636936265457,36.8975805060614,6010.5245115625,201.77166,0,5.7759516284,17600,2017-11-15 08:54:31,17,16.452,6010.5245115625,201.77166,0.94846256,6.517880786,217.7, 8.4, 0.5,0,0,1024,1024,1684,1024,217.9,-16.9,99,4.127,4.138,4.131,4.124,0,0,91.31,6,GPS_Atti,
0.354636940922807,36.8975804932977,6012.1649315625,203.41208,0,5.776410946,17700,2017-11-15 08:54:31,17,16.452,6012.1649315625,203.41208,0.94846256,6.517880786,217.7, 8.3, 0.8,0,0,1024,1024,1684,1024,217.9,-16.9,99,4.127,4.138,4.131,4.124,0,0,91.31,6,GPS_Atti,
0.354636962265194,36.897580480412,6013.8053515625,205.0525,0,5.7713584524,17800,2017-11-15 08:54:31,17,16.452,6013.8053515625,205.0525,0.94846256,6.517880786,217.7, 8.8, 0.9,0,0,1024,1024,1684,1024,217.9,-16.9,99,4.127,4.138,4.131,4.124,0,0,91.31,6,GPS_Atti,
0.354636974599028,36.8975804634345,6015.7738555625,207.021004,0,5.7699804996,17900,2017-11-15 08:54:31,17,16.399,6015.7738555625,207.021004,0.94846256,6.517880786,217.7, 8.9, 0.7,0,0,1024,1024,1684,1024,217.9,-16.9,99,4.118,4.129,4.124,4.121,0,0,91.31,6,GPS_Atti,
0.354637024755104,36.8975804555507,6017.4142755625,208.661424,0,5.7546917852,18000,2017-11-15 08:54:31,17,16.399,6017.4142755625,208.661424,0.94846256,6.517880786,217.7, 8.8, 0.7,0,0,1024,1024,1684,1024,217.9,-16.9,99,4.118,4.129,4.124,4.121,0,0,91.31,6,GPS_Atti,
0.354637051386677,36.897580449853,6019.0546955625,210.301844,0,5.7468177692,18100,2017-11-15 08:54:31,17,16.399,6019.0546955625,210.301844,0.94846256,6.517880786,217.7, 8.8, 0.4,0,0,1024,1024,1684,1024,217.9,-16.9,99,4.118,4.129,4.124,4.121,0,0,91.31,6,GPS_Atti,
0.354637095804115,36.8975804157138,6020.6951155625,211.942264,0,5.7376314172,18200,2017-11-15 08:54:31,17,16.399,6020.6951155625,211.942264,0.94846256,6.517880786,217.8, 8.8, 0.6,0,0,1024,1024,1684,1024,217.9,-16.9,99,4.118,4.129,4.124,4.121,0,0,91.31,6,GPS_Atti,
0.35463710048752,36.89758039209,6022.3355355625,213.582684,0,5.73982958,18300,2017-11-15 08:54:31,17,16.399,6022.3355355625,213.582684,0.94846256,6.517880786,217.8, 9.1, 1.1,0,0,1024,1024,1684,1024,217.9,-16.9,99,4.118,4.129,4.124,4.121,0,0,91.31,6,GPS_Atti,
0.354637092687273,36.8975803775685,6024.3040395625,215.551188,0,5.7447180316,18400,2017-11-15 08:54:32,17,16.399,6024.3040395625,215.551188,0.94846256,6.517880786,217.8, 9, 1.3,0,0,1024,1024,1684,1024,217.9,-16.9,99,4.118,4.129,4.124,4.121,0,0,91.31,6,GPS_Atti,
0.354637068781715,36.8975803567989,6025.9444595625,217.191608,0,5.7558728876,18500,2017-11-15 08:54:32,17,16.399,6025.9444595625,217.191608,0.94846256,6.517880786,217.8, 9.6, 1.4,0,0,1024,1024,1684,1024,217.9,-16.9,99,4.118,4.129,4.124,4.121,0,0,91.31,6,GPS_Atti,
0.354637061704498,36.8975803370936,6027.5848795625,218.832028,0,5.7613518904,18600,2017-11-15 08:54:32,17,16.399,6027.5848795625,218.832028,0.94846256,6.517880786,217.8, 9.6, 1.6,0,0,1024,1024,1684,1024,217.9,-16.9,99,4.118,4.129,4.124,4.121,0,0,91.31,6,GPS_Atti,
0.354637049592131,36.8975803127932,6029.2252995625,220.472448,0,5.769193098,18700,2017-11-15 08:54:32,17,16.399,6029.2252995625,220.472448,0.94846256,6.517880786,217.8, 9.5, 1.4,0,0,1024,1024,1684,1024,217.9,-16.9,99,4.118,4.129,4.124,4.121,0,0,91.31,6,GPS_Atti,
0.354637068804514,36.8975802104849,6032.8342235625,224.081372,0,5.7793965104,18900,2017-11-15 08:54:32,17,16.399,6032.8342235625,224.081372,0.94846256,6.517880786,217.8, 9.9, 0.7,0,0,1024,1024,1684,1024,217.9,-16.9,99,4.112,4.121,4.115,4.114,0,0,91.31,6,GPS_Atti,
0.354637105561752,36.8975802972139,6036.1150635625,227.362212,0,5.7533794492,19100,2017-11-15 08:54:32,17,16.399,6036.1150635625,227.362212,0.94846256,6.517880786,217.7, 9.2, 1.2,0,0,1024,1024,1684,1024,217.9,-16.9,99,4.112,4.121,4.115,4.114,0,0,91.31,6,GPS_Atti,
0.354637125734916,36.8975803202574,6037.7554835625,229.002632,0,5.7430448032,19200,2017-11-15 08:54:32,17,16.399,6037.7554835625,229.002632,0.94846256,6.517880786,217.8, 9, 1.5,0,0,1024,1024,1684,1024,217.9,-16.9,99,4.112,4.121,4.115,4.114,0,0,91.31,6,GPS_Atti,
0.354637156444113,36.8975803704726,6041.0363235625,232.283472,0,5.7249345664,19400,2017-11-15 08:54:33,17,16.399,6041.0363235625,232.283472,0.94846256,6.517880786,217.8, 9, 1.2,0,0,1024,1024,1684,1024,217.9,-16.9,99,4.112,4.121,4.115,4.114,0,0,91.31,6,GPS_Atti,
0.354637166687025,36.8975804002309,6042.6767435625,233.923892,0,5.7168308916,19500,2017-11-15 08:54:33,17,16.399,6042.6767435625,233.923892,0.94846256,6.517880786,217.7, 8.9, 1.2,0,0,1024,1024,1684,1024,217.9,-16.9,99,4.112,4.121,4.115,4.114,0,0,91.31,6,GPS_Atti,
0.354637214003094,36.8975804139195,6044.6452475625,235.892396,0,5.6991143556,19600,2017-11-15 08:54:33,17,16.399,6044.6452475625,235.892396,0.94846256,6.517880786,217.7, 8.7, 1.3,0,0,1024,1024,1684,1024,217.9,-16.9,99,4.112,4.121,4.115,4.114,0,0,91.31,6,GPS_Atti,
0.354637233844056,36.8975804121701,6046.2856675625,237.532816,0,5.6928807596,19700,2017-11-15 08:54:33,17,16.399,6046.2856675625,237.532816,0.94846256,6.517880786,217.7, 9.1, 1,0,0,1024,1024,1684,1024,217.9,-16.9,99,4.112,4.121,4.115,4.114,0,0,91.31,6,GPS_Atti,
0.354637234492177,36.8975804357725,6047.9260875625,239.173236,0,5.6889109432,19800,2017-11-15 08:54:33,17,16.399,6047.9260875625,239.173236,0.94846256,6.517880786,217.8, 8.9, 1.6,0,0,1024,1024,1684,1024,217.9,-16.9,99,4.112,4.121,4.115,4.114,0,0,91.31,6,GPS_Atti,
0.354637219471409,36.8975804397315,6049.5665075625,240.813656,0,5.6932088436,19900,2017-11-15 08:54:33,17,16.399,6049.5665075625,240.813656,0.94846256,6.517880786,217.7, 8.8, 1.5,0,0,1024,1024,1684,1024,217.9,-16.9,98,4.109,4.121,4.115,4.113,0,0,93.11,6,GPS_Atti,
0.354637236983696,36.8975804172319,6051.2069275625,242.454076,0,5.6910434892,20000,2017-11-15 08:54:33,17,16.399,6051.2069275625,242.454076,0.94846256,6.517880786,217.7, 9.6, 1.1,0,0,1024,1024,1684,1024,217.9,-16.9,98,4.109,4.121,4.115,4.113,0,0,93.11,6,GPS_Atti,
0.35463722734005,36.8975803794099,6052.8473475625,244.094496,0,5.7002626496,20100,2017-11-15 08:54:33,17,16.399,6052.8473475625,244.094496,0.94846256,6.517880786,217.8, 10.3, 0.7,0,0,1024,1024,1684,1024,217.9,-16.9,98,4.109,4.121,4.115,4.113,0,0,93.11,6,GPS_Atti,
0.354637214840114,36.8975803451637,6056.1281875625,247.375336,0,5.7098755108,20300,2017-11-15 08:54:33,17,16.399,6056.1281875625,247.375336,0.94846256,6.517880786,217.7, 10.4, 0.9,0,0,1024,1024,1684,1024,217.9,-16.9,98,4.109,4.121,4.115,4.113,0,0,93.11,6,GPS_Atti,
0.35463719442594,36.897580327349,6058.0966915625,249.34384,0,5.7194227552,20400,2017-11-15 08:54:34,17,16.399,6058.0966915625,249.34384,0.94846256,6.517880786,217.7, 10.3, 1.4,0,0,1024,1024,1684,1024,217.9,-16.9,98,4.109,4.121,4.115,4.113,0,0,93.11,6,GPS_Atti,
0.354637177574802,36.8975803151485,6059.4090275625,250.656176,0,5.7269030704,20500,2017-11-15 08:54:34,17,16.399,6059.4090275625,250.656176,0.94846256,6.517880786,217.7, 9.8, 1.5,0,0,1024,1024,1684,1024,217.9,-16.9,98,4.109,4.121,4.115,4.113,0,0,93.11,6,GPS_Atti,
0.354637196777414,36.8975803155039,6061.3775315625,252.62468,0,5.7205710492,20600,2017-11-15 08:54:34,17,16.399,6061.3775315625,252.62468,0.94846256,6.517880786,217.7, 9.7, 1.4,0,0,1024,1024,1684,1024,217.9,-16.9,98,4.109,4.121,4.115,4.113,0,0,93.11,6,GPS_Atti,
0.354637204151008,36.8975802998347,6063.0179515625,254.2651,0,5.7207022828,20700,2017-11-15 08:54:34,17,16.399,6063.0179515625,254.2651,0.94846256,6.517880786,217.7, 9.8, 0.9,0,0,1024,1024,1684,1024,217.9,-16.9,98,4.109,4.121,4.115,4.113,0,0,93.11,6,GPS_Atti,
0.354637220432191,36.897580296094,6064.6583715625,255.90552,0,5.7159778732,20800,2017-11-15 08:54:34,17,16.399,6064.6583715625,255.90552,0.94846256,6.517880786,217.8, 9.5, 0.7,0,0,1024,1024,1684,1024,217.9,-16.9,98,4.109,4.121,4.115,4.113,0,0,93.11,6,GPS_Atti,
0.354637209795195,36.8975802927131,6066.2987915625,257.54594,0,5.719980498,20900,2017-11-15 08:54:34,17,16.425,6066.2987915625,257.54594,0.94846256,6.517880786,217.8, 10, 0.9,0,0,1024,1024,1684,1024,217.9,-16.9,98,4.109,4.121,4.115,4.113,0,0,93.11,6,GPS_Atti,
0.354637200200403,36.8975803105963,6067.9392115625,259.18636,0,5.7202429652,21000,2017-11-15 08:54:34,17,16.425,6067.9392115625,259.18636,0.94846256,6.517880786,217.8, 9.9, 0.9,0,0,1024,1024,1684,1024,217.9,-16.9,98,4.109,4.121,4.115,4.113,0,0,93.11,6,GPS_Atti,
0.354637186749455,36.8975803299334,6069.5796315625,260.82678,0,5.7215224928,21100,2017-11-15 08:54:34,17,16.425,6069.5796315625,260.82678,0.94846256,6.517880786,217.8, 10.1, 0.7,0,0,1024,1024,1684,1024,217.9,-16.9,98,4.109,4.121,4.115,4.113,0,0,93.11,6,GPS_Atti,
0.354637187824228,36.8975803776391,6071.2200515625,262.4672,0,5.7134844348,21200,2017-11-15 08:54:34,17,16.425,6071.2200515625,262.4672,0.94846256,6.517880786,217.9, 9.9, 1.3,0,0,1024,1024,1684,1024,217.9,-16.9,98,4.109,4.121,4.115,4.113,0,0,93.11,6,GPS_Atti,
0.354637191090887,36.8975804326506,6072.8604715625,264.10762,0,5.7036419148,21300,2017-11-15 08:54:34,17,16.425,6072.8604715625,264.10762,0.94846256,6.517880786,217.8, 9.4, 1.8,0,0,1024,1024,1684,1024,217.9,-16.9,98,4.109,4.121,4.115,4.113,0,0,93.11,6,GPS_Atti,
0.354637219109895,36.8975804724061,6074.5008915625,265.74804,0,5.6881235416,21400,2017-11-15 08:54:35,17,16.425,6074.5008915625,265.74804,0.94846256,6.517880786,217.8, 9.4, 1.7,0,0,1024,1024,1684,1024,217.9,-16.9,98,4.109,4.121,4.115,4.113,0,0,93.11,6,GPS_Atti,
0.354637238341818,36.8975804982567,6076.4693955625,267.716544,0,5.6776904704,21500,2017-11-15 08:54:35,17,16.425,6076.4693955625,267.716544,0.94846256,6.517880786,217.8, 9.5, 1.7,0,0,1024,1024,1684,1024,217.9,-16.9,98,4.109,4.121,4.115,4.113,0,0,93.11,6,GPS_Atti,
0.354637270933496,36.8975805604883,6078.1098155625,269.356964,0,5.657152412,21600,2017-11-15 08:54:35,17,16.425,6078.1098155625,269.356964,0.94846256,6.517880786,217.8, 9.6, 1.4,0,0,1024,1024,1684,1024,217.8,-16.9,98,4.109,4.121,4.115,4.113,0,0,93.11,6,GPS_Atti,
0.354637324180358,36.8975806103031,6081.3906555625,272.637804,0,5.6317915188,21800,2017-11-15 08:54:35,17,16.425,6081.3906555625,272.637804,0.94846256,6.517880786,217.7, 9.2, 1.2,0,0,1024,1024,1684,1024,217.9,-16.9,98,4.109,4.121,4.115,4.113,0,0,93.11,6,GPS_Atti,
0.354637340608101,36.897580605312,6083.0310755625,274.278224,0,5.6271655344,21900,2017-11-15 08:54:35,17,16.425,6083.0310755625,274.278224,0.94846256,6.517880786,217.8, 9.7, 1,0,0,1024,1024,1684,1024,217.9,-16.9,98,4.109,4.121,4.115,4.113,0,0,93.11,6,GPS_Atti,
0.354637386298983,36.8975806230689,6084.6714955625,275.918644,0,5.6093177648,22000,2017-11-15 08:54:35,17,16.425,6084.6714955625,275.918644,0.94846256,6.517880786,217.8, 9.2, 0.8,0,0,1024,1024,1684,1024,217.9,-16.9,98,4.109,4.121,4.115,4.113,0,0,93.11,6,GPS_Atti,
0.354637415728223,36.8975806349247,6086.3119155625,277.559064,0,5.597769208,22100,2017-11-15 08:54:35,17,16.425,6086.3119155625,277.559064,0.94846256,6.517880786,217.8, 8.9, 0.7,0,0,1024,1024,1684,1024,217.8,-16.9,98,4.109,4.121,4.115,4.113,0,0,93.11,6,GPS_Atti,
0.354637413767576,36.8975806872232,6087.9523355625,279.199484,0,5.5901904676,22200,2017-11-15 08:54:35,17,16.425,6087.9523355625,279.199484,0.94846256,6.517880786,217.8, 8.9, 1.2,0,0,1024,1024,1684,1024,217.8,-16.9,98,4.109,4.121,4.115,4.113,0,0,93.11,6,GPS_Atti,
0.354637390435231,36.8975807058259,6089.5927555625,280.839904,0,5.594980494,22300,2017-11-15 08:54:35,17,16.425,6089.5927555625,280.839904,0.94846256,6.517880786,217.7, 9.6, 1.5,0,0,1024,1024,1684,1024,217.8,-16.9,98,4.109,4.121,4.115,4.113,0,0,93.11,6,GPS_Atti,
0.354637399665251,36.8975807023679,6091.5612595625,282.808408,0,5.5924870556,22400,2017-11-15 08:54:36,17,16.425,6091.5612595625,282.808408,0.94846256,6.517880786,217.7, 9.8, 0.8,0,0,1024,1024,1684,1024,217.8,-16.9,98,4.109,4.121,4.115,4.113,0,0,93.11,6,GPS_Atti,
0.354637399372131,36.8975806934648,6093.2016795625,284.448828,0,5.5939634336,22500,2017-11-15 08:54:36,17,16.425,6093.2016795625,284.448828,0.94846256,6.517880786,217.7, 9.9, 0.5,0,0,1024,1024,1684,1024,217.8,-16.9,98,4.109,4.121,4.115,4.113,0,0,93.11,6,GPS_Atti,
0.354637405853338,36.8975806995244,6094.8420995625,286.089248,0,5.590879444,22600,2017-11-15 08:54:36,17,16.425,6094.8420995625,286.089248,0.94846256,6.517880786,217.7, 10.1, 0.9,0,0,1024,1024,1684,1024,217.8,-16.9,98,4.109,4.121,4.115,4.113,0,0,93.11,6,GPS_Atti,
0.354637408693345,36.8975807075603,6096.4825195625,287.729668,0,5.5887140896,22700,2017-11-15 08:54:36,17,16.425,6096.4825195625,287.729668,0.94846256,6.517880786,217.7, 10, 1.2,0,0,1024,1024,1684,1021,217.8,-16.9,98,4.109,4.121,4.115,4.113,0,0,93.11,6,GPS_Atti,
0.354637475156658,36.8975807319484,6098.1229395625,289.370088,0,5.5629594956,22800,2017-11-15 08:54:36,17,16.425,6098.1229395625,289.370088,0.94846256,6.517880786,217.7, 9.7, 1.1,0,0,1024,1024,1684,1021,217.8,-16.9,98,4.109,4.121,4.115,4.113,0,0,93.11,6,GPS_Atti,
0.354637533181374,36.8975807516667,6099.7633595625,291.010508,0,5.5407482088,22900,2017-11-15 08:54:36,17,16.346,6099.7633595625,291.010508,0.94846256,6.517880786,217.7, 9.4, 0.9,0,0,1024,1024,1684,1024,217.8,-16.9,98,4.1,4.111,4.105,4.102,0,0,93.11,6,GPS_Atti,
0.354637594449951,36.8975807689504,6101.4037795625,292.650928,0,5.5178479456,23000,2017-11-15 08:54:36,17,16.346,6101.4037795625,292.650928,0.94846256,6.517880786,217.7, 9.2, 0.7,0,0,1024,1024,1684,1022,217.8,-16.9,98,4.1,4.111,4.105,4.102,0,0,93.11,6,GPS_Atti,
0.354637634245866,36.8975807830886,6103.0441995625,294.291348,0,5.5025264228,23100,2017-11-15 08:54:36,17,16.346,6103.0441995625,294.291348,0.94846256,6.517880786,217.8, 9.2, 0.5,0,0,1024,1024,1684,1024,217.8,-16.9,98,4.1,4.111,4.105,4.102,0,0,93.11,6,GPS_Atti,
0.354637693498429,36.8975808779712,6106.6531235625,297.900272,0,5.4682088364,23300,2017-11-15 08:54:36,17,16.346,6106.6531235625,297.900272,0.94846256,6.517880786,217.7, 9.3, 1.4,0,0,1024,1024,1684,1024,217.8,-16.9,98,4.1,4.111,4.105,4.102,0,0,93.11,6,GPS_Atti,
0.354637697660732,36.8975809004388,6108.2935435625,299.540692,0,5.4633203848,23400,2017-11-15 08:54:37,17,16.346,6108.2935435625,299.540692,0.94846256,6.517880786,217.7, 9.5, 1.3,0,0,1024,1024,1684,1024,217.8,-16.9,98,4.1,4.111,4.105,4.102,0,0,93.11,6,GPS_Atti,
0.354637699539956,36.8975809039161,6109.9339635625,301.181112,0,5.4621720908,23500,2017-11-15 08:54:37,17,16.346,6109.9339635625,301.181112,0.94846256,6.517880786,217.6, 9.1, 1.1,0,0,1024,1024,1684,1024,217.8,-16.9,98,4.1,4.111,4.105,4.102,0,0,93.11,6,GPS_Atti,
0.354637738430456,36.8975809255849,6111.5743835625,302.821532,0,5.4459647412,23600,2017-11-15 08:54:37,17,16.346,6111.5743835625,302.821532,0.94846256,6.517880786,217.7, 9.1, 1.1,0,0,1024,1024,1684,1024,217.8,-16.9,98,4.1,4.111,4.105,4.102,0,0,93.11,6,GPS_Atti,
0.354637765286754,36.8975809289637,6113.2148035625,304.461952,0,5.4365815388,23700,2017-11-15 08:54:37,17,16.346,6113.2148035625,304.461952,0.94846256,6.517880786,217.7, 9.2, 0.7,0,0,1024,1024,1684,1023,217.8,-16.9,98,4.1,4.111,4.105,4.102,0,0,93.11,6,GPS_Atti,
0.35463778886011,36.8975809788171,6116.4956435625,307.742792,0,5.421095974,23900,2017-11-15 08:54:37,17,16.346,6116.4956435625,307.742792,0.94846256,6.517880786,217.8, 9.6, 0.5,0,0,1024,1024,1684,1024,217.8,-16.9,98,4.1,4.111,4.105,4.102,0,0,93.11,6,GPS_Atti,
0.354637823256104,36.897580964257,6118.1360635625,309.383212,0,5.4119752388,24000,2017-11-15 08:54:37,17,16.346,6118.1360635625,309.383212,0.94846256,6.517880786,217.7, 9.5, 0.6,0,0,1024,1024,1684,1021,217.8,-16.9,98,4.1,4.111,4.105,4.102,0,0,93.11,6,GPS_Atti,
0.354637839087836,36.8975809477312,6120.1045675625,311.351716,0,5.40928495,24100,2017-11-15 08:54:37,17,16.346,6120.1045675625,311.351716,0.94846256,6.517880786,217.7, 9.3, 0.8,0,0,1024,1024,1684,1024,217.8,-16.9,98,4.1,4.111,4.105,4.102,0,0,93.11,6,GPS_Atti,
0.354637851219744,36.8975809318393,6121.7449875625,312.992136,0,5.4077757636,24200,2017-11-15 08:54:37,17,16.346,6121.7449875625,312.992136,0.94846256,6.517880786,217.7, 9.2, 0.6,0,0,1024,1024,1684,1024,217.8,-16.9,98,4.1,4.111,4.105,4.102,0,0,93.11,6,GPS_Atti,
0.354637843917801,36.8975809102861,6123.3854075625,314.632556,0,5.4135172336,24300,2017-11-15 08:54:37,17,16.346,6123.3854075625,314.632556,0.94846256,6.517880786,217.7, 9.4, 0.4,0,0,1024,1024,1684,1024,217.8,-16.9,98,4.1,4.111,4.105,4.102,0,0,93.11,6,GPS_Atti,
0.354637829069649,36.8975809017492,6125.0258275625,316.272976,0,5.4197508296,24400,2017-11-15 08:54:38,17,16.346,6125.0258275625,316.272976,0.94846256,6.517880786,217.7, 9.6, 0.8,0,0,1024,1024,1684,1022,217.8,-16.9,98,4.1,4.111,4.105,4.102,0,0,93.11,6,GPS_Atti,
0.354637807284325,36.897580888977,6126.6662475625,317.913396,0,5.4289371816,24500,2017-11-15 08:54:38,17,16.346,6126.6662475625,317.913396,0.94846256,6.517880786,217.7, 9.6, 1.1,0,0,1024,1024,1684,1024,217.8,-16.9,98,4.1,4.111,4.105,4.102,0,0,93.11,6,GPS_Atti,
0.354637847884691,36.8975808863754,6128.3066675625,319.553816,0,5.4159450552,24600,2017-11-15 08:54:38,17,16.346,6128.3066675625,319.553816,0.94846256,6.517880786,217.7, 9.1, 1,0,0,1024,1024,1684,1022,217.8,-16.9,98,4.1,4.111,4.105,4.102,0,0,93.11,6,GPS_Atti,
0.354637871174697,36.8975808650042,6129.9470875625,321.194236,0,5.4116471548,24700,2017-11-15 08:54:38,17,16.346,6129.9470875625,321.194236,0.94846256,6.517880786,217.7, 9.4, 0.6,0,0,1024,1024,1684,1024,217.8,-16.9,98,4.1,4.111,4.105,4.102,0,0,93.11,6,GPS_Atti,
0.354637901519122,36.8975808480824,6131.5875075625,322.834656,0,5.4043308816,24800,2017-11-15 08:54:38,17,16.346,6131.5875075625,322.834656,0.94846256,6.517880786,217.7, 9.8, 0.3,0,0,1024,1024,1684,1024,217.8,-16.9,98,4.1,4.111,4.105,4.102,0,0,93.11,6,GPS_Atti,
0.354637918484252,36.8975808259253,6133.2279275625,324.475076,0,5.4022639524,24900,2017-11-15 08:54:38,17,16.346,6133.2279275625,324.475076,0.94846256,6.517880786,217.8, 9.6, 0,0,0,1024,1024,1684,1024,217.8,-16.9,98,4.101,4.11,4.104,4.101,0,0,93.11,6,GPS_Atti,
0.354637974880524,36.8975807910004,6134.8683475625,326.115496,0,5.3893046344,25000,2017-11-15 08:54:38,17,16.346,6134.8683475625,326.115496,0.94846256,6.517880786,217.7, 9.4, 0,0,0,1024,1024,1684,1022,217.8,-16.9,98,4.101,4.11,4.104,4.101,0,0,93.11,6,GPS_Atti,
0.35463799939512,36.8975807062327,6138.1491875625,329.396336,0,5.3948820624,25200,2017-11-15 08:54:38,17,16.346,6138.1491875625,329.396336,0.94846256,6.517880786,217.7, 9.7, 0.3,0,0,1024,1024,1684,1024,217.8,-16.9,98,4.101,4.11,4.104,4.101,0,0,93.11,6,GPS_Atti,
0.354637980172967,36.8975806580238,6139.7896075625,331.036756,0,5.4089896744,25300,2017-11-15 08:54:38,17,16.346,6139.7896075625,331.036756,0.94846256,6.517880786,217.7, 9.6, 0.4,0,0,1024,1024,1684,1024,217.8,-16.9,98,4.101,4.11,4.104,4.101,0,0,93.11,6,GPS_Atti,
0.354637999062918,36.8975805958993,6141.4300275625,332.677176,0,5.4129594908,25400,2017-11-15 08:54:39,17,16.346,6141.4300275625,332.677176,0.94846256,6.517880786,217.7, 10.1, 0.6,0,0,1024,1024,1684,1023,217.8,-16.9,98,4.101,4.11,4.104,4.101,0,0,93.11,6,GPS_Atti,
0.354637993421988,36.8975805376354,6143.0704475625,334.317596,0,5.4243440056,25500,2017-11-15 08:54:39,17,16.346,6143.0704475625,334.317596,0.94846256,6.517880786,217.7, 11, 0.9,0,0,1024,1024,1684,1023,217.8,-16.9,98,4.101,4.11,4.104,4.101,0,0,93.11,6,GPS_Atti,
0.354638030322528,36.8975804793115,6144.7108675625,335.958016,0,5.4220146092,25600,2017-11-15 08:54:39,17,16.346,6144.7108675625,335.958016,0.94846256,6.517880786,217.7, 10.3, 0.8,0,0,1024,1024,1684,1022,217.8,-16.9,98,4.101,4.11,4.104,4.101,0,0,93.11,6,GPS_Atti,
0.354638070111929,36.8975804280535,6146.3512875625,337.598436,0,5.4176839004,25700,2017-11-15 08:54:39,17,16.346,6146.3512875625,337.598436,0.94846256,6.517880786,217.7, 9.6, 0.2,0,0,1024,1024,1684,1024,217.8,-16.9,98,4.101,4.11,4.104,4.101,0,0,93.11,6,GPS_Atti,
0.354638128918299,36.8975803742432,6147.9917075625,339.238856,0,5.4077429552,25800,2017-11-15 08:54:39,17,16.346,6147.9917075625,339.238856,0.94846256,6.517880786,217.7, 9.6, -0.2,0,0,1024,1024,1684,1024,217.8,-16.9,98,4.101,4.11,4.104,4.101,0,0,93.11,6,GPS_Atti,
0.354638157683134,36.8975803266188,6149.6321275625,340.879276,0,5.4065618528,25900,2017-11-15 08:54:39,17,16.399,6149.6321275625,340.879276,0.94846256,6.517880786,217.7, 10, -0.1,0,0,1024,1024,1684,1022,217.8,-16.9,98,4.101,4.11,4.104,4.101,0,0,93.11,6,GPS_Atti,
0.354638208526412,36.8975803191868,6151.2725475625,342.519696,0,5.3914371804,26000,2017-11-15 08:54:39,17,16.399,6151.2725475625,342.519696,0.94846256,6.517880786,217.7, 9.9, 0,0,0,1024,1024,1684,943,217.8,-16.9,98,4.101,4.11,4.104,4.101,0,0,93.11,6,GPS_Atti,
