latitude,longitude,altitude(feet),ascent(feet),speed(mph),distance(feet),time(millisecond),datetime(utc),satellites,gpslevel,voltage(v),max_altitude(feet),max_ascent(feet),max_speed(mph),max_distance(feet), xSpeed(mph), ySpeed(mph), zSpeed(mph), compass_heading(degrees), pitch(degrees), roll(degrees),isPhoto,isVideo,rc_elevator,rc_aileron,rc_throttle,rc_rudder,gimbal_heading(degrees),gimbal_pitch(degrees),battery_percent,voltageCell1,voltageCell2,voltageCell3,voltageCell4,voltageCell5,voltageCell6,current(A),battery_temperature(f),flycStateRaw,flycState,message
0.33952905666717,36.901874212627,5510.2761097278,0,0,0,0,2018-04-07 05:25:03,15,0,0,5510.2761097278,0,0,0,0,0,0,98.4, 0.5, 3.6,0,0,364,364,364,1684,102.9,0,99,4.297,4.297,4.298,4.297,0,0,0,75.11,6,P-GPS,
0.339529091047694,36.9018742579309,5510.2761097278,0,0,0.0207496069632,100,2018-04-07 05:25:03,15,0,0,5510.2761097278,0,0,0.0207496069632,0,0,0,98.4, 0.5, 3.6,0,0,364,364,364,1684,102.8,0,99,4.297,4.297,4.298,4.297,0,0,0,75.11,41,Motors_Started,
0.339529127037935,36.901874305194,5510.2761097278,0,0,0.042423557788,200,2018-04-07 05:25:03,15,0,0,5510.2761097278,0,0,0.042423557788,0,0,0,98.4, 0.5, 3.6,0,0,364,364,364,1684,102.8,0,99,4.297,4.297,4.298,4.297,0,0,0,75.11,41,Motors_Started,
0.339529169798431,36.9018743090129,5510.2761097278,0,0,0.054224739268,300,2018-04-07 05:25:04,15,0,0,5510.2761097278,0,0,0.054224739268,0,0,0,98.4, 0.5, 3.6,0,0,364,364,364,1684,102.9,0,99,4.297,4.297,4.298,4.297,0,0,0,75.11,41,Motors_Started,
0.339529211331081,36.9018743266972,5510.2761097278,0,0,0.070116143976,400,2018-04-07 05:25:04,15,0,0,5510.2761097278,0,0,0.070116143976,0,0,0,98.3, 0.5, 3.6,0,0,398,364,364,1684,102.8,0,99,4.297,4.297,4.298,4.297,0,0,0,75.11,41,Motors_Started,
0.339529218451453,36.9018743494006,5510.2761097278,0,0,0.07729330956,500,2018-04-07 05:25:04,15,0,17.187,5510.2761097278,0,0,0.07729330956,0,0,0,98.3, 0.5, 3.6,0,0,521,401,420,1642,102.8,0,99,4.297,4.297,4.298,4.297,0,0,1.478,75.11,41,Motors_Started,Setting new Return-To-Home altitude to 30m (98 ft). Setting new Maximum Flight Altitude to 150m (492 ft)
0.339529218820295,36.9018743774313,5510.2761097278,0,0,0.084353021072,600,2018-04-07 05:25:04,15,0,17.187,5510.2761097278,0,0,0.084353021072,0,0,0,98.4, 0.5, 3.6,0,0,906,766,768,1404,102.8,0,99,4.297,4.297,4.298,4.297,0,0,1.478,75.11,41,Motors_Started,
0.339529221396493,36.901874416121,5510.2761097278,0,0,0.095521000432,700,2018-04-07 05:25:04,15,0,17.187,5510.2761097278,0,0,0.095521000432,0,0,0,98.3, 0.5, 3.6,0,0,906,766,768,1404,102.8,0,99,4.297,4.297,4.298,4.297,0,0,1.478,75.11,41,Motors_Started,
0.339529226165392,36.9018744541726,5510.2761097278,0,0,0.107659452264,800,2018-04-07 05:25:04,15,0,17.187,5510.2761097278,0,0,0.107659452264,0,0,0,98.3, 0.5, 3.6,0,0,1024,1024,1024,1046,102.2,0,99,4.297,4.297,4.298,4.297,0,0,1.478,75.11,41,Motors_Started,
0.339529245626112,36.9018744992677,5510.2761097278,0,0,0.125258534192,900,2018-04-07 05:25:04,15,0,17.187,5510.2761097278,0,0,0.125258534192,0,0,0,98.3, 0.5, 3.6,0,0,1024,1024,1024,1024,100.7,0,99,4.297,4.297,4.298,4.297,0,0,1.478,75.11,41,Motors_Started,
0.339529259756935,36.9018745463863,5510.2761097278,0,0,0.142542327396,1000,2018-04-07 05:25:04,15,0,17.187,5510.2761097278,0,0,0.142542327396,0,0,0,98.3, 0.5, 3.6,0,0,1024,1024,1024,1024,99.9,0,99,4.297,4.297,4.298,4.297,0,0,1.478,75.11,41,Motors_Started,
0.33952926735444,36.9018745941783,5510.2761097278,0,0,0.159019690128,1100,2018-04-07 05:25:04,15,0,17.187,5510.2761097278,0,0,0.159019690128,0,0,0,98.3, 0.5, 3.7,0,0,1024,1024,1024,1024,99.5,0,99,4.297,4.297,4.298,4.297,0,0,1.478,75.11,41,Motors_Started,
0.339529276887351,36.9018746426919,5510.2761097278,0,0,0.176281829788,1200,2018-04-07 05:25:05,15,0,17.187,5510.2761097278,0,0,0.176281829788,0,0,0,98.3, 0.5, 3.6,0,0,1024,1024,1024,1024,99.3,0,99,4.297,4.297,4.298,4.297,0,0,1.478,75.11,41,Motors_Started,
0.339529308325277,36.9018746993925,5510.2761097278,0,0,0.199924218996,1300,2018-04-07 05:25:05,15,0,17.187,5510.2761097278,0,0,0.199924218996,0,0,0,98.3, 0.5, 3.7,0,0,1024,1024,1024,1024,99.2,0,99,4.297,4.297,4.298,4.297,0,0,1.478,75.11,41,Motors_Started,
0.339529332719368,36.9018747541777,5510.2761097278,0,0,0.221770676388,1400,2018-04-07 05:25:05,15,0,17.187,5510.2761097278,0,0,0.221770676388,0,0,0,98.3, 0.5, 3.7,0,0,1024,1024,1024,1024,99.1,0,99,4.297,4.297,4.298,4.297,0,0,1.478,75.11,41,Motors_Started,
0.339529345949661,36.9018748083024,5510.2761097278,0,0,0.2416010576,1500,2018-04-07 05:25:05,15,0,17.08,5510.2761097278,0,0,0.2416010576,0,0,0,98.3, 0.6, 3.7,0,0,1024,1024,1024,1024,99,0,99,4.297,4.297,4.298,4.297,0,0,1.478,75.11,41,Motors_Started,
0.339529349515139,36.901874849947,5510.2761097278,0,0,0.255895021312,1600,2018-04-07 05:25:05,15,0,17.08,5510.2761097278,0,0,0.255895021312,0,0,0,98.3, 0.6, 3.7,0,0,1024,1024,1024,1024,98.9,0,99,4.297,4.297,4.298,4.297,0,0,1.478,75.11,10,Assisted_Takeoff,
0.339529357998518,36.9018748773299,5510.2761097278,0,0,0.266268709308,1700,2018-04-07 05:25:05,15,0,17.08,5510.2761097278,0,0,0.266268709308,0,0,0,98.3, 0.4, 3.6,0,0,1024,1024,1024,1024,98.9,0,99,4.297,4.297,4.298,4.297,0,0,1.478,75.11,10,Assisted_Takeoff,
0.339529363346328,36.901874900878,5510.2761097278,0,0,0.27490486444,1800,2018-04-07 05:25:05,15,0,17.08,5510.2761097278,0,0,0.27490486444,0,0,0,98.3, 0.5, 3.6,0,0,1024,1024,1024,1024,98.8,0,99,4.297,4.297,4.298,4.297,0,0,1.478,75.11,10,Assisted_Takeoff,
0.339529352040042,36.9018749347789,5510.2761097278,0,0,0.284659786012,1900,2018-04-07 05:25:05,15,0,17.08,5510.2761097278,0,0,0.284659786012,0,0,0,98.3, 0.5, 3.5,0,0,1024,1024,1024,1024,98.8,0,99,4.297,4.297,4.298,4.297,0,0,1.478,75.11,10,Assisted_Takeoff,
0.339529341190533,36.9018749547307,5510.2761097278,0,0,0.289969825552,2000,2018-04-07 05:25:05,14,0,17.08,5510.2761097278,0,0,0.289969825552,0,0,0,98.3, 0.5, 3.6,0,0,1024,1024,1024,1024,98.8,0,99,4.297,4.297,4.298,4.297,0,0,1.478,75.11,10,Assisted_Takeoff,
0.339529336388252,36.9018749688896,5510.2761097278,0,0,0.29418636112,2100,2018-04-07 05:25:05,14,0,17.08,5510.2761097278,0,0,0.29418636112,0,0,0,98.3, 0.5, 3.6,0,0,1024,1024,1024,1024,98.7,0,99,4.297,4.297,4.298,4.297,0,0,1.478,75.11,10,Assisted_Takeoff,
0.33952933772439,36.9018749779533,5510.2761097278,0,0,0.297458014768,2200,2018-04-07 05:25:05,14,0,17.08,5510.2761097278,0,0,0.297458014768,0,0,0,98.3, 0.5, 3.6,0,0,1024,1024,1024,1024,98.7,0,99,4.297,4.297,4.298,4.297,0,0,1.478,75.11,10,Assisted_Takeoff,
0.339529360913433,36.9018750068427,5510.2761097278,0,0,0.31029856636,2300,2018-04-07 05:25:06,14,0,17.08,5510.2761097278,0,0,0.31029856636,0,0,0,98.3, 0.5, 3.6,0,1,1024,1024,1024,1024,98.7,0,99,4.297,4.297,4.298,4.297,0,0,1.478,75.11,10,Assisted_Takeoff,
0.339529383143322,36.9018750348969,5510.2761097278,0,0,0.322781506392,2400,2018-04-07 05:25:06,15,0,17.08,5510.2761097278,0,0,0.322781506392,0,0,0,98.3, 0.5, 3.6,0,1,1024,1024,1024,1024,98.7,0,99,4.297,4.297,4.298,4.297,0,0,1.478,75.11,10,Assisted_Takeoff,
0.339529396260438,36.9018750773252,5510.2761097278,0,0,0.33893701872,2500,2018-04-07 05:25:06,15,0,16.973,5510.2761097278,0,0,0.33893701872,0,0,0,98.3, 0.5, 3.6,0,1,1024,1024,1024,1024,98.7,0,99,4.285,4.282,4.28,4.271,0,0,3.598,75.11,10,Assisted_Takeoff,
0.339529406531849,36.9018751239856,5510.2761097278,0,0,0.35616142872,2600,2018-04-07 05:25:06,15,0,16.973,5510.2761097278,0,0,0.35616142872,0,0,0,98.3, 0.4, 3.6,0,1,1024,1024,1024,1024,98.7,0,99,4.285,4.282,4.28,4.271,0,0,3.598,75.11,10,Assisted_Takeoff,
0.339529412518009,36.9018751713354,5510.2761097278,0,0,0.3730971248,2700,2018-04-07 05:25:06,15,0,16.973,5510.2761097278,0,0,0.3730971248,0,0,0,98.3, 0.5, 3.6,0,1,1024,1024,1024,1024,98.7,0,99,4.285,4.282,4.28,4.271,0,0,3.598,75.11,10,Assisted_Takeoff,
0.339529427586815,36.9018752272769,5510.2761097278,0,0,0.39415027508,2800,2018-04-07 05:25:06,15,0,16.973,5510.2761097278,0,0,0.39415027508,0,0,0,98.3, 0.5, 3.6,0,1,1024,1024,1024,1024,98.6,0,99,4.285,4.282,4.28,4.271,0,0,3.598,75.11,10,Assisted_Takeoff,
0.339529458087572,36.9018752794274,5510.2761097278,0,0,0.41585959336,2900,2018-04-07 05:25:06,15,0,16.973,5510.2761097278,0,0,0.41585959336,0,0,0,98.3, 0.5, 3.6,0,1,1024,1024,1024,1024,98.6,0,99,4.285,4.282,4.28,4.271,0,0,3.598,75.11,10,Assisted_Takeoff,
0.339529488986482,36.9018753328165,5510.2761097278,0,0,0.438074161,3000,2018-04-07 05:25:06,15,0,16.973,5510.2761097278,0,0,0.438074161,0,0,0,98.3, 0.5, 3.6,0,1,1024,1024,1024,1024,98.6,0,99,4.285,4.282,4.28,4.271,0,0,3.598,75.11,10,Assisted_Takeoff,
0.339529505910901,36.9018753083767,5510.2761097278,0,0,0.43207350464,3100,2018-04-07 05:25:06,15,0,16.973,5510.2761097278,0,0,0.438074161,0,0,0,98.3, 0.4, 3.6,0,1,1024,1024,1024,1024,98.6,0,99,4.285,4.282,4.28,4.271,0,0,3.598,75.11,10,Assisted_Takeoff,
0.33952953469202,36.90187528118,5510.2761097278,0,0,0.42708662784,3200,2018-04-07 05:25:07,15,0,16.973,5510.2761097278,0,0,0.438074161,0,0,0,98.3, 0.5, 3.6,0,1,1024,1024,1024,1024,98.6,0,99,4.285,4.282,4.28,4.271,0,0,3.598,75.11,10,Assisted_Takeoff,
0.339529572372585,36.9018752712543,5510.2761097278,0,0,0.429625998,3300,2018-04-07 05:25:07,15,0,16.973,5510.2761097278,0,0,0.438074161,0,0,0,98.3, 0.4, 3.6,0,1,1024,1024,1024,1024,98.6,0,99,4.285,4.282,4.28,4.271,0,0,3.598,75.11,10,Assisted_Takeoff,
0.339529606989234,36.901875263941,5510.2761097278,0,0,0.4329396464,3400,2018-04-07 05:25:07,15,0,16.973,5510.2761097278,0,0,0.438074161,0,0,0,98.3, 0.4, 3.6,0,1,1024,1024,1024,1024,98.6,0,99,4.285,4.282,4.28,4.271,0,0,3.598,75.11,10,Assisted_Takeoff,
0.339529626931973,36.9018752802881,5510.2761097278,0,0,0.44161418736,3500,2018-04-07 05:25:07,15,0,17.134,5510.2761097278,0,0,0.44161418736,0,0,0,98.3, 0.4, 3.6,0,1,1024,1024,1024,1024,98.6,0,99,4.291,4.291,4.292,4.29,0,0,1.87,75.11,10,Assisted_Takeoff,
0.33952964015331,36.9018753026339,5510.2761097278,0,0,0.45107612992,3600,2018-04-07 05:25:07,15,0,17.134,5510.2761097278,0,0,0.45107612992,0,0,0,98.3, 0.4, 3.6,0,1,1024,1024,1024,1024,98.6,0,99,4.291,4.291,4.292,4.29,0,0,1.87,75.11,10,Assisted_Takeoff,
0.339529647535047,36.901875339555,5510.2761097278,0,0,0.46424214084,3700,2018-04-07 05:25:07,15,0,17.134,5510.2761097278,0,0,0.46424214084,0,0,0,98.3, 0.4, 3.6,0,1,1024,1024,1024,1024,98.6,0,99,4.291,4.291,4.292,4.29,0,0,1.87,75.11,10,Assisted_Takeoff,
0.339529660478734,36.9018753852678,5510.2761097278,0,0,0.481217207,3800,2018-04-07 05:25:07,15,0,17.134,5510.2761097278,0,0,0.481217207,0,0,0,98.3, 0.5, 3.6,0,1,1024,1024,1024,1024,98.6,0,99,4.291,4.291,4.292,4.29,0,0,1.87,75.11,10,Assisted_Takeoff,
0.339529689998352,36.9018754355779,5510.2761097278,0,0,0.50246720768,3900,2018-04-07 05:25:07,15,0,17.134,5510.2761097278,0,0,0.50246720768,0,0,0,98.3, 0.4, 3.6,0,1,1024,1024,1024,1024,98.6,0,99,4.291,4.291,4.292,4.29,0,0,1.87,75.11,10,Assisted_Takeoff,
0.339529716198388,36.9018754951916,5510.2761097278,0,0,0.5261811192,4000,2018-04-07 05:25:07,15,0,17.134,5510.2761097278,0,0,0.5261811192,0,0,0,98.3, 0.4, 3.6,0,1,1024,1024,1024,1024,98.6,0,99,4.291,4.291,4.292,4.29,0,0,1.87,75.11,10,Assisted_Takeoff,
0.33952973042366,36.9018755531619,5510.2761097278,0,0,0.54738518812,4100,2018-04-07 05:25:07,15,0,17.134,5510.2761097278,0,0,0.54738518812,0,0,0,98.2, 0.4, 3.6,0,1,1024,1024,1024,1024,98.6,0,99,4.291,4.291,4.292,4.29,0,0,1.87,75.11,10,Assisted_Takeoff,
0.339529737775271,36.9018756191275,5510.2761097278,0,0,0.57015749856,4200,2018-04-07 05:25:07,15,0,17.134,5510.2761097278,0,0,0.57015749856,0,0,0,98.2, 0.4, 3.6,0,1,1024,1024,1024,1024,98.6,0,99,4.291,4.291,4.292,4.29,0,0,1.87,75.11,10,Assisted_Takeoff,
0.33952974088967,36.9018756806383,5510.2761097278,0,0,0.59091537324,4300,2018-04-07 05:25:08,15,0,17.134,5510.2761097278,0,0,0.59091537324,0,0,0,98.2, 0.4, 3.6,0,1,1024,1024,1024,1024,98.6,0,99,4.291,4.291,4.292,4.29,0,0,1.87,75.11,10,Assisted_Takeoff,
0.339529749835527,36.9018757339065,5510.2761097278,0,0,0.60993112188,4400,2018-04-07 05:25:08,15,0,17.134,5510.2761097278,0,0,0.60993112188,0,0,0,98.2, 0.4, 3.6,0,1,1024,1024,1024,1024,98.6,0,99,4.291,4.291,4.292,4.29,0,0,1.87,75.11,10,Assisted_Takeoff,
0.339529776319726,36.9018757663085,5510.2761097278,0,0,0.62470802524,4500,2018-04-07 05:25:08,15,0,17.134,5510.2761097278,0,0,0.62470802524,0,0,0,98.2, 0.4, 3.6,0,1,1024,1024,1036,1024,98.6,0,99,4.291,4.291,4.292,4.29,0,0,1.958,75.11,10,Assisted_Takeoff,
0.339529800236683,36.9018757834276,5510.2761097278,0,0,0.63406498092,4600,2018-04-07 05:25:08,15,0,17.134,5510.2761097278,0,0,0.63406498092,0,0,0,98.2, 0.4, 3.6,0,1,1024,1024,1085,1024,98.6,0,99,4.291,4.291,4.292,4.29,0,0,1.958,75.11,10,Assisted_Takeoff,
0.339529813026482,36.9018757950073,5510.2761097278,0,0,0.63988519108,4700,2018-04-07 05:25:08,15,0,17.134,5510.2761097278,0,0,0.63988519108,0,0,0,98.2, 0.4, 3.6,0,1,1024,1024,1114,1024,98.6,0,99,4.291,4.291,4.292,4.29,0,0,1.958,75.11,10,Assisted_Takeoff,
0.339529820619102,36.9018758032146,5510.2761097278,0,0,0.64377954816,4800,2018-04-07 05:25:08,15,0,17.134,5510.2761097278,0,0,0.64377954816,0,0,0,98.2, 0.4, 3.6,0,1,1024,1024,1122,1024,98.6,0,99,4.291,4.291,4.292,4.29,0,0,1.958,75.11,10,Assisted_Takeoff,
0.339529824026621,36.9018758328951,5510.2761097278,0,0,0.65409122828,4900,2018-04-07 05:25:08,15,0,17.134,5510.2761097278,0,0,0.65409122828,0,0,0,98.2, 0.5, 3.6,0,1,1024,1024,1127,1024,98.6,0,99,4.291,4.291,4.292,4.29,0,0,1.958,75.11,10,Assisted_Takeoff,
0.339529821914529,36.9018758501983,5510.2761097278,0,0,0.65947508672,5000,2018-04-07 05:25:08,15,0,17.134,5510.2761097278,0,0,0.65947508672,0,0,0,98.2, 0.4, 3.6,0,1,1024,1024,1150,1024,98.6,0,99,4.291,4.291,4.292,4.29,0,0,1.958,75.11,10,Assisted_Takeoff,
0.339529818869339,36.9018758631355,5510.2761097278,0,0,0.6632874228,5100,2018-04-07 05:25:08,15,0,17.134,5510.2761097278,0,0,0.6632874228,0,0,0,98.2, 0.4, 3.6,0,1,1024,1024,1167,1024,98.6,0,99,4.291,4.291,4.292,4.29,0,0,1.958,75.11,10,Assisted_Takeoff,
0.33952981642993,36.9018758767044,5510.2761097278,0,0,0.66741471952,5200,2018-04-07 05:25:09,15,0,17.134,5510.2761097278,0,0,0.66741471952,0,0,0,98.2, 0.5, 3.6,0,1,1024,1024,1176,1024,98.6,0,99,4.291,4.291,4.292,4.29,0,0,1.958,75.11,10,Assisted_Takeoff,
0.339529804675821,36.9018759054985,5510.2761097278,0,0,0.67523952292,5300,2018-04-07 05:25:09,16,0,17.134,5510.2761097278,0,0,0.67523952292,0,0,0,98.4, 0.4, 3.6,0,1,1024,1024,1187,1024,98.6,0,99,4.291,4.291,4.292,4.29,0,0,1.958,75.11,10,Assisted_Takeoff,
0.339529798455979,36.9018759371072,5510.2761097278,0,0,0.68490487756,5400,2018-04-07 05:25:09,16,0,17.134,5510.2761097278,0,0,0.68490487756,0,0,0,98.2, 0.4, 3.7,0,1,1024,1024,1188,1024,98.6,0,99,4.291,4.291,4.292,4.29,0,0,1.958,75.11,10,Assisted_Takeoff,
0.339529783539432,36.9018759019301,5510.2761097278,0,0,0.6709645884,5500,2018-04-07 05:25:09,16,0,17.16,5510.2761097278,0,0,0.68490487756,0,0,0,98.3, 0.5, 3.6,0,1,1024,1024,1191,1024,98.6,0,99,4.291,4.291,4.293,4.29,0,0,1.958,75.11,10,Assisted_Takeoff,
0.339529764954815,36.901875889783,5510.2761097278,0,0,0.66422902388,5600,2018-04-07 05:25:09,16,0,17.16,5510.2761097278,0,0,0.68490487756,0,0,0,98.2, 0.8, 2.8,0,1,1024,1024,1194,1024,98.5,0,99,4.291,4.291,4.293,4.29,0,0,1.958,75.11,10,Assisted_Takeoff,
0.339529716436141,36.9018759058282,5510.2761097278,0,0,0.66299542804,5700,2018-04-07 05:25:09,16,0,17.16,5510.2761097278,0,0,0.68490487756,0,0,-0.223694,98.1, 1.8, 1,0,1,1024,1024,1180,1024,98.6,0,99,4.291,4.291,4.293,4.29,0,0,1.958,75.11,10,Assisted_Takeoff,
0.339529664542516,36.9018759133353,5510.2761097278,0,0,0.65893702896,5800,2018-04-07 05:25:09,16,0,17.16,5510.2761097278,0,0,0.68490487756,0,0,-0.447388,98, 1.8, 0.4,0,1,1024,1024,1162,1024,98.5,0,99,4.291,4.291,4.293,4.29,0,0,1.958,75.11,6,P-GPS,Obstacle Avoided. Revise Flight Route
0.339529600729495,36.9018759118033,5510.2761097278,0,0,0.65093834104,6000,2018-04-07 05:25:09,16,0,17.16,5510.2761097278,0,0,0.68490487756,0,0,-0.671082,98, 0.5, -0.2,0,1,1024,1024,1166,1024,98.5,0,99,4.291,4.291,4.293,4.29,0,0,1.958,75.11,6,P-GPS,
0.339529625983405,36.9018759217482,5510.2761097278,0,0,0.65724739636,6100,2018-04-07 05:25:09,16,0,17.16,5510.2761097278,0,0,0.68490487756,0,0,-0.671082,98, 0.2, -0.4,0,1,1024,1024,1178,1024,98.5,0,99,4.291,4.291,4.293,4.29,0,0,1.958,75.11,6,P-GPS,
0.339529668359588,36.9018759696526,5510.6041937278,0.328084,0.223694,0.67877626844,6200,2018-04-07 05:25:09,16,0,17.16,5510.6041937278,0.328084,0.223694,0.68490487756,0.223694,0,-0.671082,97.9, 0.5, 0,0,1,1024,1024,1186,1024,98.5,0,99,4.291,4.291,4.293,4.29,0,0,1.958,75.11,6,P-GPS,
0.33952975,36.9018760755852,5510.6041937278,0.328084,0,0.72523296284,6300,2018-04-07 05:25:10,16,0,17.16,5510.6041937278,0.328084,0.223694,0.72523296284,0,0,-0.671082,97.9, 0.8, 0.7,0,1,1024,1024,1191,1024,98.5,0,99,4.291,4.291,4.293,4.29,0,0,1.958,75.11,6,P-GPS,
0.339529827111708,36.9018762002994,5510.6041937278,0.328084,0,0.77776249208,6400,2018-04-07 05:25:10,16,0,17.16,5510.6041937278,0.328084,0.223694,0.77776249208,0,0,-0.671082,97.9, 1, 1.1,0,1,1024,1024,1191,1024,98.5,0,99,4.291,4.291,4.293,4.29,0,0,1.958,75.11,6,P-GPS,
0.339529929546535,36.9018763750272,5510.9322777278,0.656168,0.223694,0.85079070964,6500,2018-04-07 05:25:10,16,0,17.16,5510.9322777278,0.656168,0.223694,0.85079070964,0,0.223694,-0.894776,97.8, 1.5, 1.6,0,1,1024,1024,1180,1024,98.5,0,99,4.291,4.291,4.293,4.29,0,0,1.958,75.11,6,P-GPS,
0.339530009094396,36.9018765485259,5510.9322777278,0.656168,0.223694,0.920357641,6600,2018-04-07 05:25:10,16,0,17.16,5510.9322777278,0.656168,0.223694,0.920357641,0,0.223694,-0.894776,97.7, 1.8, 1.9,0,1,1024,1024,1181,1024,98.5,0,99,4.291,4.291,4.293,4.29,0,0,1.958,75.11,6,P-GPS,Home Point Recorded. RTH Altitude:  30m.
0.339530056742668,36.9018767437612,5511.2603617278,0.984252,0.223694,0.99293638348,6700,2018-04-07 05:25:10,16,0,17.16,5511.2603617278,0.984252,0.223694,0.99293638348,0,0.223694,-1.11847,97.8, 2.1, 1.7,0,1,1024,1024,1189,1024,98.5,0,99,4.291,4.291,4.293,4.29,0,0,1.958,75.11,6,P-GPS,
0.339530077483344,36.9018769323844,5511.2603617278,0.984252,0.223694,1.05987864284,6800,2018-04-07 05:25:10,16,0,17.16,5511.2603617278,0.984252,0.223694,1.05987864284,0,0.223694,-1.11847,97.9, 2.4, 1.1,0,1,1024,1024,1211,1024,98.5,0,99,4.291,4.291,4.293,4.29,0,0,1.958,75.11,6,P-GPS,
0.339530080870508,36.9018771600121,5511.5884457278,1.312336,0.223694,1.13840882908,6900,2018-04-07 05:25:10,16,0,17.16,5511.5884457278,1.312336,0.223694,1.13840882908,0,0.223694,-1.11847,97.9, 2.6, 0.5,0,1,1024,1024,1224,1024,98.5,0,99,4.291,4.291,4.293,4.29,0,0,1.958,75.11,6,P-GPS,
0.339530082423229,36.9018773688623,5511.5884457278,1.312336,0.223694,1.21082024872,7000,2018-04-07 05:25:10,16,0,17.16,5511.5884457278,1.312336,0.223694,1.21082024872,0,0.223694,-1.11847,98, 2.8, 0.2,0,1,1024,1024,1222,1024,98.5,0,99,4.291,4.291,4.293,4.29,0,0,1.958,75.11,6,P-GPS,
0.339530072419698,36.9018775558539,5511.9165297278,1.64042,0.223694,1.27480975208,7100,2018-04-07 05:25:10,16,0,17.16,5511.9165297278,1.64042,0.223694,1.27480975208,0,0.223694,-1.342164,98, 3, 0.1,0,1,1024,1024,1211,1024,98.5,0,99,4.291,4.291,4.293,4.29,0,0,1.958,75.11,6,P-GPS,
0.339530073492028,36.9018777288109,5512.2446137278,1.968504,0.223694,1.33541999024,7200,2018-04-07 05:25:11,16,0,17.16,5512.2446137278,1.968504,0.223694,1.33541999024,0,0.223694,-1.565858,98, 3.2, 0,0,1,1024,1024,1203,1024,98.5,0,99,4.291,4.291,4.293,4.29,0,0,1.958,75.11,6,P-GPS,
0.339530047392142,36.9018778288251,5512.2446137278,1.968504,0,1.36796592304,7300,2018-04-07 05:25:11,16,0,17.16,5512.2446137278,1.968504,0.223694,1.36796592304,0,0,-1.565858,98, 3.3, 0,0,1,1024,1024,1201,1024,98.5,0,99,4.291,4.291,4.293,4.29,0,0,1.958,75.11,6,P-GPS,
0.339530057229572,36.9018779332246,5512.5726977278,2.296588,0,1.40566277464,7400,2018-04-07 05:25:11,16,0,17.16,5512.5726977278,2.296588,0.223694,1.40566277464,0,0,-1.565858,98, 3.1, 0.3,0,1,1024,1024,1186,1024,98.5,0,99,4.291,4.291,4.293,4.29,0,0,1.958,75.11,6,P-GPS,
0.339530082204204,36.9018779822467,5512.9007817278,2.624672,0,1.42530844456,7500,2018-04-07 05:25:11,16,0,17.16,5512.9007817278,2.624672,0.223694,1.42530844456,0,0,-1.565858,98, 2.9, 0.7,0,1,1024,1024,1187,1024,98.5,0,99,4.291,4.291,4.293,4.29,0,0,1.958,75.11,6,P-GPS,
0.339530121777021,36.9018780472873,5513.2288657278,2.952756,0,1.452017763,7600,2018-04-07 05:25:11,16,0,17.16,5513.2288657278,2.952756,0.223694,1.452017763,0,0,-1.565858,98, 3.1, 1,0,1,1024,1024,1193,1024,98.4,0,99,4.291,4.291,4.293,4.29,0,0,1.958,75.11,6,P-GPS,
0.339530316882525,36.9018782036284,5513.5569497278,3.28084,0,1.52695871028,7800,2018-04-07 05:25:11,16,0,17.16,5513.5569497278,3.28084,0.223694,1.52695871028,0,0,-1.342164,98.1, 2.9, 1.3,0,1,1024,1024,1213,1024,98.4,0,99,4.291,4.291,4.293,4.29,0,0,1.958,75.11,6,P-GPS,
0.339530436862207,36.9018783130672,5513.8850337278,3.608924,0,1.578494145,7900,2018-04-07 05:25:11,16,0,17.16,5513.8850337278,3.608924,0.223694,1.578494145,0,0,-1.342164,98, 2.8, 1.3,0,1,1024,1024,1219,1024,98.4,0,99,4.291,4.291,4.293,4.29,0,0,1.958,75.11,6,P-GPS,
0.339530532759646,36.9018784125194,5514.2131177278,3.937008,0,1.62418640368,8000,2018-04-07 05:25:11,16,0,17.16,5514.2131177278,3.937008,0.223694,1.62418640368,0,0,-1.342164,98.1, 2.9, 1.2,0,1,1024,1024,1227,1024,98.4,0,99,4.291,4.291,4.293,4.29,0,0,1.958,75.11,6,P-GPS,
0.339530600322159,36.9018785130293,5514.2131177278,3.937008,0,1.666994804,8100,2018-04-07 05:25:11,16,0,17.16,5514.2131177278,3.937008,0.223694,1.666994804,0,0,-1.565858,98.1, 2.9, 1.1,0,1,1024,1024,1228,1024,98.4,0,99,4.291,4.291,4.293,4.29,0,0,1.958,75.11,6,P-GPS,
0.339530664384332,36.9018786020301,5514.5412017278,4.265092,0,1.70548889972,8200,2018-04-07 05:25:11,16,0,17.16,5514.5412017278,4.265092,0.223694,1.70548889972,0,0,-1.565858,98.1, 2.9, 1,0,1,1024,1024,1228,1024,98.4,0,99,4.291,4.291,4.293,4.29,0,0,1.958,75.11,6,P-GPS,
0.339530756628356,36.9018786943745,5514.8692857278,4.593176,0,1.74881239192,8300,2018-04-07 05:25:12,16,0,17.16,5514.8692857278,4.593176,0.223694,1.74881239192,0,0,-1.789552,98.1, 2.8, 1.1,0,1,1024,1024,1229,1024,98.4,0,99,4.291,4.291,4.293,4.29,0,0,1.958,75.11,6,P-GPS,
0.339530859235798,36.9018787725354,5515.1973697278,4.92126,0,1.7889272226,8400,2018-04-07 05:25:12,16,0,17.16,5515.1973697278,4.92126,0.223694,1.7889272226,0,0,-1.789552,98.1, 2.8, 1.3,0,1,1024,1024,1231,1024,98.4,0,99,4.291,4.291,4.293,4.29,0,0,1.958,75.11,6,P-GPS,
0.33953095464796,36.9018788294854,5515.1973697278,4.92126,0,1.82121396904,8500,2018-04-07 05:25:12,16,0,16.705,5515.1973697278,4.92126,0.223694,1.82121396904,0,0,-1.789552,98.1, 2.7, 1.3,0,1,1024,1024,1231,1024,98.4,0,99,4.201,4.197,4.202,4.191,0,0,12.746,75.11,6,P-GPS,
0.339531041062155,36.9018788828039,5515.5254537278,5.249344,0,1.85132223772,8600,2018-04-07 05:25:12,16,0,16.705,5515.5254537278,5.249344,0.223694,1.85132223772,0,0,-1.789552,98, 2.5, 1.1,0,1,1024,1024,1236,1024,98.4,0,99,4.201,4.197,4.202,4.191,0,0,12.746,75.11,6,P-GPS,
0.339531062319863,36.9018788739864,5515.8535377278,5.577428,0,1.85141410124,8700,2018-04-07 05:25:12,16,0,16.705,5515.8535377278,5.577428,0.223694,1.85141410124,0,0,-1.789552,98, 2.4, 1,0,1,1024,1024,1240,1024,98.4,0,99,4.201,4.197,4.202,4.191,0,0,12.746,75.11,6,P-GPS,
0.33953109273594,36.9018788879343,5516.1816217278,5.905512,0,1.86049218552,8800,2018-04-07 05:25:12,16,0,16.705,5516.1816217278,5.905512,0.223694,1.86049218552,0,0,-2.013246,98.1, 2.5, 1,0,1,1024,1024,1244,1024,98.4,0,99,4.201,4.197,4.202,4.191,0,0,12.746,75.11,6,P-GPS,
0.339531155528741,36.9018789030749,5516.5097057278,6.233596,0,1.87479992876,8900,2018-04-07 05:25:12,16,0,16.705,5516.5097057278,6.233596,0.223694,1.87479992876,0,0,-2.013246,98.1, 2.3, 1.2,0,1,1024,1024,1248,1024,98.4,0,99,4.201,4.197,4.202,4.191,0,0,12.746,75.11,6,P-GPS,
0.339531208383147,36.9018789299664,5516.8377897278,6.56168,0,1.89167985056,9000,2018-04-07 05:25:12,16,0,16.705,5516.8377897278,6.56168,0.223694,1.89167985056,0,0,-2.013246,98.1, 2.3, 1.1,0,1,1024,1024,1267,1024,98.4,0,99,4.201,4.197,4.202,4.191,0,0,12.746,75.11,6,P-GPS,
0.33953124908122,36.9018789214893,5517.1658737278,6.889764,0,1.89508536248,9100,2018-04-07 05:25:12,16,0,16.705,5517.1658737278,6.889764,0.223694,1.89508536248,0,0,-2.013246,98.1, 2.2, 0.9,0,1,1024,1024,1297,1024,98.4,0,99,4.201,4.197,4.202,4.191,0,0,12.746,75.11,6,P-GPS,
0.339531289083132,36.9018789278017,5517.4939577278,7.217848,0,1.90337276432,9200,2018-04-07 05:25:13,16,0,16.705,5517.4939577278,7.217848,0.223694,1.90337276432,0,0,-2.23694,98.1, 2.3, 0.8,0,1,1024,1024,1302,1024,98.4,0,99,4.201,4.197,4.202,4.191,0,0,12.746,75.11,6,P-GPS,
0.33953137648905,36.9018789468178,5517.8220417278,7.545932,0,1.92346462848,9300,2018-04-07 05:25:13,16,0,16.705,5517.8220417278,7.545932,0.223694,1.92346462848,0,0,-2.460634,98.1, 2.2, 0.5,0,1,1024,1024,1297,1024,98.4,0,99,4.201,4.197,4.202,4.191,0,0,12.746,75.11,6,P-GPS,
0.339531462524631,36.9018789749513,5518.1501257278,7.874016,0,1.9466372014,9400,2018-04-07 05:25:13,16,0,16.705,5518.1501257278,7.874016,0.223694,1.9466372014,0,0,-2.684328,98.1, 2.1, 0.5,0,1,1024,1024,1297,1024,98.4,0,99,4.201,4.197,4.202,4.191,0,0,12.746,75.11,6,P-GPS,
0.339531522474169,36.9018789364115,5518.8062937278,8.530184,0,1.94412079712,9500,2018-04-07 05:25:13,16,0,16.732,5518.8062937278,8.530184,0.223694,1.9466372014,0,0,-2.908022,98.1, 2.2, 0.9,0,1,1024,1024,1302,1024,98.4,0,99,4.192,4.197,4.2,4.189,0,0,12.666,75.11,6,P-GPS,
0.33953159383177,36.9018789224122,5519.1343777278,8.858268,0,1.95180780524,9600,2018-04-07 05:25:13,16,0,16.732,5519.1343777278,8.858268,0.223694,1.95180780524,0,0,-2.908022,98.1, 2.2, 1.4,0,1,1024,1024,1302,1024,98.4,0,99,4.192,4.197,4.2,4.189,0,0,12.666,75.11,6,P-GPS,
0.339531655416265,36.9018788873904,5519.4624617278,9.186352,0,1.95138785772,9700,2018-04-07 05:25:13,16,0,16.732,5519.4624617278,9.186352,0.223694,1.95180780524,0,0,-2.908022,98.1, 2.1, 1.2,0,1,1024,1024,1303,1024,98.4,0,99,4.192,4.197,4.2,4.189,0,0,12.666,75.11,6,P-GPS,
0.339531719511007,36.9018788714619,5520.1186297278,9.84252,0,1.9578084616,9800,2018-04-07 05:25:13,16,0,16.732,5520.1186297278,9.84252,0.223694,1.9578084616,0,0,-3.131716,98.1, 2, 1.3,0,1,1024,1024,1297,1023,98.4,0,99,4.192,4.197,4.2,4.189,0,0,12.666,75.11,6,P-GPS,
0.339531808781493,36.9018788012278,5520.4467137278,10.170604,0,1.95215557428,9900,2018-04-07 05:25:13,16,0,16.732,5520.4467137278,10.170604,0.223694,1.9578084616,0,0,-3.131716,98.1, 2, 1.5,0,1,1024,1024,1296,1024,98.4,-0.2,99,4.192,4.197,4.2,4.189,0,0,12.666,75.11,6,P-GPS,
0.339531887783825,36.9018787582449,5521.1028817278,10.826772,0,1.9538058368,10000,2018-04-07 05:25:13,16,0,16.732,5521.1028817278,10.826772,0.223694,1.9578084616,0,0,-3.131716,98.1, 1.7, 1.4,0,1,1024,1024,1290,1024,98.4,-0.6,99,4.192,4.197,4.2,4.189,0,0,12.666,75.11,6,P-GPS,
0.339531943643525,36.9018787577867,5521.4309657278,11.154856,0,1.9645177794,10100,2018-04-07 05:25:13,16,0,16.732,5521.4309657278,11.154856,0.223694,1.9645177794,0,0,-2.908022,98, 1.4, 1.6,0,1,1024,1024,1296,1024,98.4,-1.1,99,4.192,4.197,4.2,4.189,0,0,12.666,75.11,6,P-GPS,
0.339531999208477,36.901878774242,5521.7590497278,11.48294,0,1.98050203188,10200,2018-04-07 05:25:13,16,0,16.732,5521.7590497278,11.48294,0.223694,1.98050203188,0,0,-2.908022,98, 1.6, 1.6,0,1,1024,1024,1299,1024,98.4,-1.7,99,4.192,4.197,4.2,4.189,0,0,12.666,75.11,6,P-GPS,
0.339532073236727,36.9018787937506,5522.4152177278,12.139108,0,2.0012139748,10300,2018-04-07 05:25:14,16,0,16.732,5522.4152177278,12.139108,0.223694,2.0012139748,0,0,-2.908022,98.1, 1.8, 1.5,0,1,1024,1024,1302,1023,98.4,-2.4,99,4.192,4.197,4.2,4.189,0,0,12.666,75.11,6,P-GPS,
0.339532142128864,36.9018788186316,5522.7433017278,12.467192,0,2.02268051092,10400,2018-04-07 05:25:14,16,0,16.732,5522.7433017278,12.467192,0.223694,2.02268051092,0,0,-2.908022,98, 1.6, 1.3,0,1,1024,1024,1297,1023,98.4,-3.1,99,4.192,4.197,4.2,4.189,0,0,12.666,75.11,6,P-GPS,
0.339532201760041,36.9018787937892,5523.0713857278,12.795276,0,2.02739179716,10500,2018-04-07 05:25:14,16,0,16.625,5523.0713857278,12.795276,0.223694,2.02739179716,0,0,-2.908022,98, 1.7, 1.2,0,1,1024,1024,1296,1023,98.4,-3.9,99,4.181,4.186,4.192,4.181,0,0,13.56,75.11,6,P-GPS,
0.339532269817601,36.9018787940911,5523.7275537278,13.451444,0,2.04163720444,10600,2018-04-07 05:25:14,16,0,16.625,5523.7275537278,13.451444,0.223694,2.04163720444,0,0,-2.908022,98, 1.5, 1.4,0,1,1024,1024,1297,1023,98.4,-4.6,99,4.181,4.186,4.192,4.181,0,0,13.56,75.11,6,P-GPS,
0.339532336392462,36.9018787867338,5524.0556377278,13.779528,0,2.05350072188,10700,2018-04-07 05:25:14,16,0,16.625,5524.0556377278,13.779528,0.223694,2.05350072188,0,0,-2.908022,98, 1.6, 1.9,0,1,1024,1024,1302,1023,98.4,-5.4,99,4.181,4.186,4.192,4.181,0,0,13.56,75.11,6,P-GPS,
0.339532401193949,36.9018788067178,5524.7118057278,14.435696,0,2.07325794036,10800,2018-04-07 05:25:14,16,0,16.625,5524.7118057278,14.435696,0.223694,2.07325794036,0,0,-2.908022,98, 1.8, 2,0,1,1024,1024,1302,1024,98.4,-6.3,99,4.181,4.186,4.192,4.181,0,0,13.56,75.11,6,P-GPS,
0.339532478291815,36.9018788132486,5525.0398897278,14.76378,0,2.0918471798,10900,2018-04-07 05:25:14,16,0,16.625,5525.0398897278,14.76378,0.223694,2.0918471798,0,0,-2.908022,98, 2.2, 1.6,0,1,1024,1024,1302,1023,98.4,-7.2,99,4.181,4.186,4.192,4.181,0,0,13.56,75.11,6,P-GPS,
0.339532546693791,36.901878816985,5525.3679737278,15.091864,0,2.1079232958,11000,2018-04-07 05:25:14,16,0,16.625,5525.3679737278,15.091864,0.223694,2.1079232958,0,0,-2.908022,98, 2.4, 1.6,0,1,1024,1024,1303,1023,98.4,-8.1,99,4.181,4.186,4.192,4.181,0,0,13.56,75.11,6,P-GPS,
0.339532599964265,36.90187881879,5526.0241417278,15.748032,0,2.12023956916,11100,2018-04-07 05:25:14,16,0,16.625,5526.0241417278,15.748032,0.223694,2.12023956916,0,0,-2.908022,98, 1.9, 1.6,0,1,1024,1024,1301,1023,98.4,-8.1,99,4.181,4.186,4.192,4.181,0,0,13.56,75.11,6,P-GPS,
0.339532648236231,36.9018788213145,5526.3522257278,16.076116,0,2.13175203672,11200,2018-04-07 05:25:15,16,0,16.625,5526.3522257278,16.076116,0.223694,2.13175203672,0,0,-3.131716,98.1, 1.5, 1.3,0,1,1024,1024,1302,1024,98.4,-9.1,99,4.181,4.186,4.192,4.181,0,0,13.56,75.11,6,P-GPS,
0.339532686049515,36.9018788420629,5527.0083937278,16.732284,0,2.1462106986,11300,2018-04-07 05:25:15,16,0,16.625,5527.0083937278,16.732284,0.223694,2.1462106986,0,0,-3.131716,98.1, 1.6, 1.2,0,1,1024,1024,1303,1024,98.4,-10.2,99,4.181,4.186,4.192,4.181,0,0,13.56,75.11,6,P-GPS,
0.339532728472923,36.901878878211,5527.3364777278,17.060368,0,2.16614508244,11400,2018-04-07 05:25:15,16,0,16.625,5527.3364777278,17.060368,0.223694,2.16614508244,0,0,-3.131716,98.1, 1.8, 1.2,0,1,1024,1024,1303,1024,98.4,-11.5,99,4.181,4.186,4.192,4.181,0,0,13.56,75.11,6,P-GPS,
0.339532774147521,36.9018788506985,5527.6645617278,17.388452,0,2.16864836336,11500,2018-04-07 05:25:15,16,0,16.705,5527.6645617278,17.388452,0.223694,2.16864836336,0,0,-3.131716,98.1, 1.8, 1.3,0,1,1024,1024,1303,1023,98.4,-12.9,99,4.18,4.183,4.188,4.178,0,0,13.008,75.11,6,P-GPS,
0.339532822937331,36.901878851465,5528.3207297278,18.04462,0,2.18004272068,11600,2018-04-07 05:25:15,16,0,16.705,5528.3207297278,18.04462,0.223694,2.18004272068,0,0,-3.131716,98.1, 1.8, 1.3,0,1,1024,1024,1304,1024,98.4,-14.3,99,4.18,4.183,4.188,4.178,0,0,13.008,75.11,6,P-GPS,
0.339532873288005,36.9018788296182,5528.6488137278,18.372704,0,2.18551844264,11700,2018-04-07 05:25:15,16,0,16.705,5528.6488137278,18.372704,0.223694,2.18551844264,0,0,-3.131716,98.1, 1.6, 1.2,0,1,1024,1024,1304,1024,98.4,-15.6,99,4.18,4.183,4.188,4.178,0,0,13.008,75.11,6,P-GPS,
0.33953292707144,36.9018788332176,5529.3049817278,19.028872,0,2.1990814352,11800,2018-04-07 05:25:15,16,0,16.705,5529.3049817278,19.028872,0.223694,2.1990814352,0,0,-3.131716,98.1, 1.4, 1.3,0,1,1024,1024,1304,1024,98.4,-17,99,4.18,4.183,4.188,4.178,0,0,13.008,75.11,6,P-GPS,
0.339532984684974,36.9018788652588,5529.6330657278,19.356956,0,2.22155847004,11900,2018-04-07 05:25:15,16,0,16.705,5529.6330657278,19.356956,0.223694,2.22155847004,0,0,-3.131716,98.1, 1.4, 1.4,0,1,1024,1024,1304,1024,98.4,-18.4,99,4.18,4.183,4.188,4.178,0,0,13.008,75.11,6,P-GPS,
0.339533044133765,36.9018789210076,5530.2892337278,20.013124,0,2.25109259172,12000,2018-04-07 05:25:15,16,0,16.705,5530.2892337278,20.013124,0.223694,2.25109259172,0,0,-3.131716,98.1, 1.6, 1.6,0,1,1024,1024,1305,1024,98.4,-19.8,99,4.18,4.183,4.188,4.178,0,0,13.008,75.11,6,P-GPS,
0.339533097786109,36.9018789542628,5530.6173177278,20.341208,0,2.2730151646,12100,2018-04-07 05:25:15,16,0,16.705,5530.6173177278,20.341208,0.223694,2.2730151646,0,0,-3.131716,98.1, 1.8, 1.7,0,1,1024,1024,1302,1024,98.4,-21.2,99,4.18,4.183,4.188,4.178,0,0,13.008,75.11,6,P-GPS,
0.339533147702803,36.9018790055729,5530.9454017278,20.669292,0,2.29907487672,12200,2018-04-07 05:25:16,16,0,16.705,5530.9454017278,20.669292,0.223694,2.29907487672,0,0,-3.131716,98.1, 1.9, 1.7,0,1,1024,1024,1303,1023,98.4,-22.8,99,4.18,4.183,4.188,4.178,0,0,13.008,75.11,6,P-GPS,
0.339533225933253,36.9018790138465,5531.6015697278,21.32546,0,2.31998695088,12300,2018-04-07 05:25:16,16,0,16.705,5531.6015697278,21.32546,0.223694,2.31998695088,0,0,-3.131716,98.1, 1.8, 1.8,0,1,1024,1024,1301,1023,98.4,-24.3,99,4.18,4.183,4.188,4.178,0,0,13.008,75.11,6,P-GPS,
0.339533291122308,36.9018790473095,5531.9296537278,21.653544,0,2.34481962884,12400,2018-04-07 05:25:16,16,0,16.705,5531.9296537278,21.653544,0.223694,2.34481962884,0,0,-3.131716,98.1, 1.7, 1.6,0,1,1024,1024,1301,1024,98.4,-25.8,99,4.18,4.183,4.188,4.178,0,0,13.008,75.11,6,P-GPS,
0.339533346419381,36.9018790388496,5532.5858217278,22.309712,0,2.35585309376,12500,2018-04-07 05:25:16,16,0,16.652,5532.5858217278,22.309712,0.223694,2.35585309376,0,0,-3.131716,98.1, 1.8, 1.5,0,1,1024,1024,1295,1023,98.4,-27.3,99,4.18,4.183,4.188,4.178,0,0,13.008,75.11,6,P-GPS,
0.33953339879014,36.9018790633944,5532.9139057278,22.637796,0,2.37525598152,12600,2018-04-07 05:25:16,16,0,16.652,5532.9139057278,22.637796,0.223694,2.37525598152,0,0,-3.131716,98.1, 1.9, 1.5,0,1,1024,1024,1287,1024,98.4,-27.3,99,4.18,4.183,4.188,4.178,0,0,13.008,75.11,6,P-GPS,
0.339533452538563,36.9018790854254,5533.5700737278,23.293964,0,2.3943406278,12700,2018-04-07 05:25:16,16,0,16.652,5533.5700737278,23.293964,0.223694,2.3943406278,0,0,-2.908022,98.1, 2, 1.7,0,1,1024,1024,1287,1024,98.4,-28.4,99,4.18,4.183,4.188,4.178,0,0,13.008,75.11,6,P-GPS,
0.339533506977445,36.9018791278451,5533.8981577278,23.622048,0,2.41914049736,12800,2018-04-07 05:25:16,16,0,16.652,5533.8981577278,23.622048,0.223694,2.41914049736,0,0,-2.908022,98.1, 2.1, 1.8,0,1,1024,1024,1280,1024,98.3,-28.4,99,4.18,4.183,4.188,4.178,0,0,13.008,75.11,6,P-GPS,
0.339533557622868,36.9018791591775,5534.2262417278,23.950132,0,2.44002304396,12900,2018-04-07 05:25:16,16,0,16.652,5534.2262417278,23.950132,0.223694,2.44002304396,0,0,-2.908022,98.1, 2, 1.7,0,1,1024,1024,1263,1024,98.3,-28.4,99,4.18,4.183,4.188,4.178,0,0,13.008,75.11,6,P-GPS,
0.339533607534677,36.901879199835,5534.8824097278,24.6063,0,2.463254672,13000,2018-04-07 05:25:16,16,0,16.652,5534.8824097278,24.6063,0.223694,2.463254672,0,0,-2.908022,98.1, 2, 1.8,0,1,1024,1024,1255,1024,98.3,-28.4,99,4.18,4.183,4.188,4.178,0,0,13.008,75.11,6,P-GPS,
0.339533655754532,36.9018792298742,5535.2104937278,24.934384,0,2.48321530256,13100,2018-04-07 05:25:16,16,0,16.652,5535.2104937278,24.934384,0.223694,2.48321530256,0,0,-2.684328,98.1, 2, 1.8,0,1,1024,1024,1242,1024,98.3,-28.4,99,4.18,4.183,4.188,4.178,0,0,13.008,75.11,6,P-GPS,
0.339533700842075,36.9018792713795,5535.5385777278,25.262468,0,2.505495487,13200,2018-04-07 05:25:17,16,0,16.652,5535.5385777278,25.262468,0.223694,2.505495487,0,0,-2.460634,98.1, 2.2, 1.8,0,1,1024,1024,1240,1024,98.3,-28.4,99,4.18,4.183,4.188,4.178,0,0,13.008,75.11,6,P-GPS,
0.33953370375699,36.9018792618918,5535.8666617278,25.590552,0,2.50366477828,13300,2018-04-07 05:25:17,16,0,16.652,5535.8666617278,25.590552,0.223694,2.505495487,0,0,-2.460634,98.1, 2, 1.7,0,1,1024,1024,1244,1024,98.3,-28.4,99,4.18,4.183,4.188,4.178,0,0,13.008,75.11,6,P-GPS,
0.339533718962585,36.9018792714202,5536.1947457278,25.918636,0,2.50998039528,13400,2018-04-07 05:25:17,16,0,16.652,5536.1947457278,25.918636,0.223694,2.50998039528,0,0,-2.23694,98.1, 2, 1.9,0,1,1024,1024,1281,1024,98.3,-28.4,99,4.18,4.183,4.188,4.178,0,0,13.008,75.11,6,P-GPS,
0.33953374025042,36.9018792817088,5536.5228297278,26.24672,0,2.51800532992,13500,2018-04-07 05:25:17,16,0,16.652,5536.5228297278,26.24672,0.223694,2.51800532992,0,0,-2.013246,98.1, 1.9, 1.9,0,1,1024,1024,1296,1024,98.3,-28.4,99,4.176,4.179,4.185,4.176,0,0,12.954,75.11,6,P-GPS,
0.339533760949571,36.9018792835952,5536.8509137278,26.574804,0,2.52364181304,13600,2018-04-07 05:25:17,16,0,16.652,5536.8509137278,26.574804,0.223694,2.52364181304,0,0,-2.23694,98.1, 2, 1.8,0,1,1024,1024,1307,1024,98.3,-28.4,99,4.176,4.179,4.185,4.176,0,0,12.954,75.11,6,P-GPS,
0.339533785632711,36.9018792811821,5537.5070817278,27.230972,0,2.52913065836,13700,2018-04-07 05:25:17,16,0,16.652,5537.5070817278,27.230972,0.223694,2.52913065836,0,0,-2.460634,98.1, 1.8, 1.6,0,1,1024,1024,1336,1024,98.3,-28.4,99,4.176,4.179,4.185,4.176,0,0,12.954,75.11,6,P-GPS,
0.339533808005089,36.9018792773792,5537.8351657278,27.559056,0,2.5336943068,13800,2018-04-07 05:25:17,16,0,16.652,5537.8351657278,27.559056,0.223694,2.5336943068,0,0,-2.908022,98.1, 1.7, 1.4,0,1,1024,1024,1357,1024,98.3,-28.4,99,4.176,4.179,4.185,4.176,0,0,12.954,75.11,6,P-GPS,
0.339533849992889,36.9018792444923,5538.1632497278,27.88714,0,2.5354987688,13900,2018-04-07 05:25:17,16,0,16.652,5538.1632497278,27.88714,0.223694,2.5354987688,0,0,-3.131716,98.1, 1.5, 1.5,0,1,1024,1024,1370,1024,98.3,-28.4,99,4.176,4.179,4.185,4.176,0,0,12.954,75.11,6,P-GPS,
0.339533886664634,36.901879227992,5538.8194177278,28.543308,0,2.54040690544,14000,2018-04-07 05:25:17,16,0,16.652,5538.8194177278,28.543308,0.223694,2.54040690544,0,0,-3.35541,98.1, 1.4, 1.5,0,1,1024,1024,1364,1024,98.3,-28.4,99,4.176,4.179,4.185,4.176,0,0,12.954,75.11,6,P-GPS,
0.339533899162941,36.9018791622609,5539.4755857278,29.199476,0,2.52637475276,14100,2018-04-07 05:25:17,16,0,16.652,5539.4755857278,29.199476,0.223694,2.54040690544,0,0,-3.802798,98.1, 1.4, 1.5,0,1,1024,1024,1368,1024,98.3,-28.4,99,4.176,4.179,4.185,4.176,0,0,12.954,75.11,6,P-GPS,
0.339533913233512,36.9018791214086,5539.8036697278,29.52756,0,2.51935047432,14200,2018-04-07 05:25:17,16,0,16.652,5539.8036697278,29.52756,0.223694,2.54040690544,0,0,-4.026492,98.1, 1.3, 1.4,0,1,1024,1024,1386,1024,98.3,-28.4,99,4.176,4.179,4.185,4.176,0,0,12.954,75.11,6,P-GPS,
0.339533949451735,36.9018790426181,5540.4598377278,30.183728,0,2.50838590704,14300,2018-04-07 05:25:18,16,0,16.652,5540.4598377278,30.183728,0.223694,2.54040690544,0,0,-4.026492,98.1, 1.1, 1.6,0,1,1024,1024,1405,1024,98.3,-28.4,99,4.176,4.179,4.185,4.176,0,0,12.954,75.11,6,P-GPS,
0.339533974930369,36.9018789925821,5541.1160057278,30.839896,0,2.50225073624,14400,2018-04-07 05:25:18,16,0,16.652,5541.1160057278,30.839896,0.223694,2.54040690544,0,0,-4.250186,98.1, 1.1, 1.6,0,1,1024,1024,1418,1024,98.3,-28.4,99,4.176,4.179,4.185,4.176,0,0,12.954,75.11,6,P-GPS,
0.339534014338714,36.9018789551043,5541.7721737278,31.496064,0,2.50311031632,14500,2018-04-07 05:25:18,16,0,16.598,5541.7721737278,31.496064,0.223694,2.54040690544,0,0,-4.47388,98.2, 1, 1.4,0,1,1024,1024,1432,1024,98.3,-28.4,99,4.166,4.158,4.165,4.157,0,0,13.804,75.11,6,P-GPS,
0.339534036171263,36.9018789355015,5542.4283417278,32.152232,0,2.50394693052,14600,2018-04-07 05:25:18,16,0,16.598,5542.4283417278,32.152232,0.223694,2.54040690544,0,0,-4.921268,98.1, 1, 0.9,0,1,1024,1024,1443,1024,98.3,-28.4,99,4.166,4.158,4.165,4.157,0,0,13.804,75.11,6,P-GPS,
0.339534082019289,36.901878891266,5543.4125937278,33.136484,0,2.505085382,14700,2018-04-07 05:25:18,16,0,16.598,5543.4125937278,33.136484,0.223694,2.54040690544,0,0,-4.921268,98.1, 0.7, 0.6,0,1,1024,1024,1461,1024,98.3,-28.4,99,4.166,4.158,4.165,4.157,0,0,13.804,75.11,6,P-GPS,
0.339534131000442,36.9018788423413,5544.0687617278,33.792652,0,2.50612868912,14800,2018-04-07 05:25:18,16,0,16.598,5544.0687617278,33.792652,0.223694,2.54040690544,0,0,-5.144962,98.1, 0.4, 0.9,0,1,1024,1024,1465,1024,98.3,-28.4,99,4.166,4.158,4.165,4.157,0,0,13.804,75.11,6,P-GPS,
0.339534162732302,36.9018788104393,5544.7249297278,34.44882,0,2.506889844,14900,2018-04-07 05:25:18,16,0,16.598,5544.7249297278,34.44882,0.223694,2.54040690544,0,0,-5.59235,98.1, 1, 0.9,0,1,1024,1024,1482,1024,98.3,-28.4,99,4.166,4.158,4.165,4.157,0,0,13.804,75.11,6,P-GPS,
0.339534194410423,36.9018788001593,5545.7091817278,35.433072,0,2.5129922064,15000,2018-04-07 05:25:18,16,0,16.598,5545.7091817278,35.433072,0.223694,2.54040690544,0,0,-5.816044,98, 1.3, 0.8,0,1,1024,1024,1501,1024,98.3,-28.4,99,4.166,4.158,4.165,4.157,0,0,13.804,75.11,6,P-GPS,
0.339534213714812,36.9018788035381,5546.6934337278,36.417324,0,2.51906832208,15100,2018-04-07 05:25:18,16,0,16.598,5546.6934337278,36.417324,0.223694,2.54040690544,0,0,-6.039738,98.1, 1.3, 0.8,0,1,1024,1024,1545,1024,98.3,-28.4,99,4.166,4.158,4.165,4.157,0,0,13.804,75.11,6,P-GPS,
0.339534247352766,36.9018788272821,5547.6776857278,37.401576,0,2.53399614408,15200,2018-04-07 05:25:19,15,0,16.598,5547.6776857278,37.401576,0.223694,2.54040690544,0,0,-6.263432,98.1, 1.2, 1,0,1,1024,1024,1542,1024,98.3,-28.4,99,4.166,4.158,4.165,4.157,0,0,13.804,75.11,6,P-GPS,
0.339534309518615,36.9018788380546,5548.6619377278,38.385828,0,2.55358932056,15300,2018-04-07 05:25:19,15,0,16.598,5548.6619377278,38.385828,0.223694,2.55358932056,0,0,-6.71082,98.1, 1.5, 0.8,0,1,1024,1024,1520,1024,98.3,-28.4,99,4.166,4.158,4.165,4.157,0,0,13.804,75.11,6,P-GPS,
0.339534384462865,36.9018788497906,5549.6461897278,39.37008,0,2.57698170976,15400,2018-04-07 05:25:19,16,0,16.598,5549.6461897278,39.37008,0.223694,2.57698170976,0,0,-7.381902,98.1, 1.2, 1.1,0,1,1024,1024,1504,1024,98.3,-28.4,99,4.166,4.158,4.165,4.157,0,0,13.804,75.11,6,P-GPS,
0.339534471277657,36.9018788665649,5550.9585257278,40.682416,0,2.60494102824,15500,2018-04-07 05:25:19,16,0,16.598,5550.9585257278,40.682416,0.223694,2.60494102824,0,0,-7.381902,98.1, 0.7, 1.7,0,1,1024,1024,1492,1024,98.3,-28.4,99,4.166,4.158,4.165,4.157,0,0,13.804,75.11,6,P-GPS,
0.339534554854288,36.901878887339,5551.9427777278,41.666668,0,2.63304470368,15600,2018-04-07 05:25:19,16,0,16.598,5551.9427777278,41.666668,0.223694,2.63304470368,0,0,-7.381902,98.1, 0.5, 1.6,0,1,1024,1024,1484,1024,98.3,-28.4,99,4.166,4.158,4.165,4.157,0,0,13.804,75.11,6,P-GPS,
0.339534622357363,36.9018789461498,5553.2551137278,42.979004,0,2.66570874672,15700,2018-04-07 05:25:19,16,0,16.598,5553.2551137278,42.979004,0.223694,2.66570874672,0,0,-6.934514,98.1, 0.5, 1.2,0,1,1024,1024,1482,1024,98.3,-28.4,99,4.166,4.158,4.165,4.157,0,0,13.804,75.11,6,P-GPS,
0.339534686847816,36.9018789922566,5554.2393657278,43.963256,0,2.69453092612,15800,2018-04-07 05:25:19,16,0,16.598,5554.2393657278,43.963256,0.223694,2.69453092612,0,0,-6.934514,98.1, 0.6, 1.1,0,1,1024,1024,1486,1024,98.3,-28.4,99,4.166,4.158,4.165,4.157,0,0,13.804,75.11,6,P-GPS,
0.339534751852858,36.9018790323595,5555.2236177278,44.947508,0,2.72208342044,15900,2018-04-07 05:25:19,16,0,16.598,5555.2236177278,44.947508,0.223694,2.72208342044,0,0,-6.71082,98.1, 1.2, 1.3,0,1,1024,1024,1465,1024,98.3,-28.4,99,4.166,4.158,4.165,4.157,0,0,13.804,75.11,6,P-GPS,
0.339534919154309,36.9018791112228,5557.5202057278,47.244096,0,2.787319643,16100,2018-04-07 05:25:19,16,0,16.598,5557.5202057278,47.244096,0.223694,2.787319643,0,0,-6.71082,98.1, 1.5, 1.6,0,1,1024,1024,1466,1024,98.3,-28.4,99,4.166,4.158,4.165,4.157,0,0,13.804,75.11,6,P-GPS,
0.339535114939688,36.9018792427215,5559.4887097278,49.2126,0,2.87291019692,16300,2018-04-07 05:25:20,16,0,16.598,5559.4887097278,49.2126,0.223694,2.87291019692,0,0,-6.263432,98.1, 1.5, 1.6,0,1,1024,1024,1464,1024,98.3,-28.4,99,4.166,4.158,4.165,4.157,0,0,13.804,75.11,6,P-GPS,
0.339535209345472,36.9018793373634,5560.4729617278,50.196852,0,2.9214731906,16400,2018-04-07 05:25:20,16,0,16.598,5560.4729617278,50.196852,0.223694,2.9214731906,0,0,-6.487126,98.1, 1.9, 1.7,0,1,1024,1024,1449,1024,98.3,-28.4,99,4.166,4.158,4.165,4.157,0,0,13.804,75.11,6,P-GPS,
0.339535311496135,36.9018793846736,5561.4572137278,51.181104,0,2.96117463544,16500,2018-04-07 05:25:20,16,0,16.571,5561.4572137278,51.181104,0.223694,2.96117463544,0,0,-6.487126,98.1, 1.8, 1.7,0,1,1024,1024,1468,1024,98.3,-28.4,99,4.166,4.158,4.165,4.157,0,0,16.418,75.11,6,P-GPS,
0.339535407393574,36.9018794471009,5562.4414657278,52.165356,0,3.0026575764,16600,2018-04-07 05:25:20,16,0,16.571,5562.4414657278,52.165356,0.223694,3.0026575764,0,0,-6.263432,98.1, 1.8, 2,0,1,1024,1024,1489,1024,98.3,-28.4,99,4.166,4.158,4.165,4.157,0,0,16.418,75.11,6,P-GPS,
0.339535466639623,36.9018794689905,5563.4257177278,53.149608,0,3.0244259498,16700,2018-04-07 05:25:20,16,0,16.571,5563.4257177278,53.149608,0.223694,3.0244259498,0,0,-6.263432,98.1, 2.1, 2.2,0,1,1024,1024,1497,1024,98.3,-28.4,99,4.166,4.158,4.165,4.157,0,0,16.418,75.11,6,P-GPS,
0.339535524651312,36.9018794990961,5564.4099697278,54.13386,0,3.04776256472,16800,2018-04-07 05:25:20,16,0,16.571,5564.4099697278,54.13386,0.223694,3.04776256472,0,0,-6.487126,98.1, 2.2, 2.2,0,1,1024,1024,1507,1024,98.3,-28.4,99,4.166,4.158,4.165,4.157,0,0,16.418,75.11,6,P-GPS,
0.339535588458633,36.9018794455763,5565.7223057278,55.446196,0,3.0535762132,16900,2018-04-07 05:25:20,16,0,16.571,5565.7223057278,55.446196,0.223694,3.0535762132,0,0,-6.71082,98.1, 1.7, 2.2,0,1,1024,1024,1515,1024,98.3,-28.4,99,4.166,4.158,4.165,4.157,0,0,16.418,75.11,6,P-GPS,
0.339535644635066,36.901879408955,5566.7065577278,56.430448,0,3.06130587224,17000,2018-04-07 05:25:20,16,0,16.571,5566.7065577278,56.430448,0.223694,3.06130587224,0,0,-6.71082,98.1, 1.1, 2,0,1,1024,1024,1516,1024,98.3,-28.4,99,4.166,4.158,4.165,4.157,0,0,16.418,75.11,6,P-GPS,
0.339535677624084,36.9018793757876,5567.6908097278,57.4147,0,3.06331046548,17100,2018-04-07 05:25:20,16,0,16.571,5567.6908097278,57.4147,0.223694,3.06331046548,0,0,-6.934514,98.1, 1.2, 2,0,1,1024,1024,1506,1024,98.3,-28.4,99,4.166,4.158,4.165,4.157,0,0,16.418,75.11,6,P-GPS,
0.339535710298813,36.9018793693253,5568.6750617278,58.398952,0,3.07127306416,17200,2018-04-07 05:25:21,16,0,16.571,5568.6750617278,58.398952,0.223694,3.07127306416,0,0,-6.934514,98.1, 1.2, 2,0,1,1024,1024,1508,1024,98.3,-28.4,99,4.166,4.158,4.165,4.157,0,0,16.418,75.11,6,P-GPS,
0.339535734606597,36.9018793105896,5569.9873977278,59.711288,0,3.0652395994,17300,2018-04-07 05:25:21,16,0,16.571,5569.9873977278,59.711288,0.223694,3.07127306416,0,0,-6.934514,98.1, 1.2, 1.9,0,1,1024,1024,1521,1024,98.3,-28.4,99,4.166,4.158,4.165,4.157,0,0,16.418,75.11,6,P-GPS,
0.339535758948578,36.9018792888091,5570.9716497278,60.69554,0,3.06749681732,17400,2018-04-07 05:25:21,16,0,16.571,5570.9716497278,60.69554,0.223694,3.07127306416,0,0,-6.934514,98.1, 1.3, 2.1,0,1,1024,1024,1525,1024,98.3,-28.4,99,4.166,4.158,4.165,4.157,0,0,16.418,75.11,6,P-GPS,
0.339535786632126,36.9018792209003,5572.2839857278,62.007876,0,3.06070219768,17500,2018-04-07 05:25:21,16,0,16.491,5572.2839857278,62.007876,0.223694,3.07127306416,0,0,-7.158208,98.1, 1.3, 2,0,1,1024,1024,1531,1024,98.3,-28.4,99,4.116,4.12,4.138,4.15,0,0,16.418,75.11,6,P-GPS,
0.339535810275504,36.9018791838358,5573.2682377278,62.992128,0,3.05958999292,17600,2018-04-07 05:25:21,16,0,16.491,5573.2682377278,62.992128,0.223694,3.07127306416,0,0,-7.381902,98.1, 1.2, 2.1,0,1,1024,1024,1542,1024,98.3,-28.4,99,4.116,4.12,4.138,4.15,0,0,16.418,75.11,6,P-GPS,
0.339535847092994,36.9018791864203,5574.5805737278,64.304464,0,3.07097450772,17700,2018-04-07 05:25:21,16,0,16.491,5574.5805737278,64.304464,0.223694,3.07127306416,0,0,-7.381902,98.1, 1.2, 2.1,0,1,1024,1024,1543,1024,98.3,-28.4,99,4.116,4.12,4.138,4.15,0,0,16.418,75.11,6,P-GPS,
0.339535873071561,36.9018791977623,5575.5648257278,65.288716,0,3.08106637156,17800,2018-04-07 05:25:21,16,0,16.491,5575.5648257278,65.288716,0.223694,3.08106637156,0,0,-7.381902,98.1, 1.3, 2.2,0,1,1024,1024,1554,1024,98.3,-28.4,99,4.116,4.12,4.138,4.15,0,0,16.418,75.11,6,P-GPS,
0.339535953293598,36.9018792391478,5576.8771617278,66.601052,0,3.11360902352,17900,2018-04-07 05:25:21,16,0,16.491,5576.8771617278,66.601052,0.223694,3.11360902352,0,0,-7.381902,98.1, 1.3, 2.6,0,1,1024,1024,1569,1024,98.3,-28.4,99,4.116,4.12,4.138,4.15,0,0,16.418,75.11,6,P-GPS,
0.339536004273666,36.9018792741674,5577.8614137278,67.585304,0,3.13616807936,18000,2018-04-07 05:25:21,16,0,16.491,5577.8614137278,67.585304,0.223694,3.13616807936,0,0,-7.605596,98.2, 1.3, 2.5,0,1,1024,1024,1569,1024,98.3,-28.4,99,4.116,4.12,4.138,4.15,0,0,16.418,75.11,6,P-GPS,
0.339536059435578,36.9018793237217,5579.1737497278,68.89764,0,3.16308080988,18100,2018-04-07 05:25:21,16,0,16.491,5579.1737497278,68.89764,0.223694,3.16308080988,0,0,-7.82929,98.1, 1.2, 2.4,0,1,1024,1024,1580,1024,98.3,-28.4,99,4.116,4.12,4.138,4.15,0,0,16.418,75.11,6,P-GPS,
0.339536087723278,36.9018793625998,5580.4860857278,70.209976,0,3.17978356632,18200,2018-04-07 05:25:21,16,0,16.491,5580.4860857278,70.209976,0.223694,3.17978356632,0,0,-8.052984,98.1, 0.9, 2.3,0,1,1024,1024,1566,1024,98.3,-28.4,99,4.116,4.12,4.138,4.15,0,0,16.418,75.11,6,P-GPS,
0.33953608624628,36.9018792998963,5581.7984217278,71.522312,0,3.16588264724,18300,2018-04-07 05:25:22,16,0,16.491,5581.7984217278,71.522312,0.223694,3.17978356632,0,0,-8.276678,98.1, 0.9, 2.2,0,1,1024,1024,1566,1024,98.3,-28.4,99,4.116,4.12,4.138,4.15,0,0,16.418,75.11,6,P-GPS,
0.339536070497598,36.9018792602409,5583.1107577278,72.834648,0,3.15275928724,18400,2018-04-07 05:25:22,16,0,16.491,5583.1107577278,72.834648,0.223694,3.17978356632,0,0,-8.500372,98.1, 0.9, 2.2,0,1,1024,1024,1556,1024,98.3,-28.4,99,4.116,4.12,4.138,4.15,0,0,16.418,75.11,6,P-GPS,
0.339536049331083,36.9018791318234,5584.4230937278,74.146984,0,3.11930128092,18500,2018-04-07 05:25:22,16,0,16.491,5584.4230937278,74.146984,0.223694,3.17978356632,0,0,-8.724066,98.1, 0.7, 1.8,0,1,1024,1024,1551,1024,98.3,-28.4,99,4.158,4.165,4.165,4.153,0,0,14.404,75.11,6,P-GPS,
0.339536029765328,36.9018790516069,5585.7354297278,75.45932,0,3.09668973164,18600,2018-04-07 05:25:22,16,0,16.491,5585.7354297278,75.45932,0.223694,3.17978356632,0,0,-8.500372,98.1, 0.8, 2,0,1,1024,1024,1554,1024,98.3,-28.4,99,4.158,4.165,4.165,4.153,0,0,14.404,75.11,6,P-GPS,
0.339535985939015,36.901878860167,5587.0477657278,76.771656,0,3.04411427064,18700,2018-04-07 05:25:22,16,0,16.491,5587.0477657278,76.771656,0.223694,3.17978356632,0,0,-8.500372,98.1, 0.6, 2.1,0,1,1024,1024,1571,1024,98.3,-28.4,99,4.158,4.165,4.165,4.153,0,0,14.404,75.11,6,P-GPS,
0.33953593771916,36.9018786618172,5588.3601017278,78.083992,0,2.9896162374,18800,2018-04-07 05:25:22,16,0,16.491,5588.3601017278,78.083992,0.223694,3.17978356632,0,0,-8.276678,98.1, 0.3, 2.1,0,1,1024,1024,1586,1024,98.3,-28.4,99,4.158,4.165,4.165,4.153,0,0,14.404,75.11,6,P-GPS,
0.33953588817538,36.9018784989251,5589.6724377278,79.396328,0,2.94244103904,18900,2018-04-07 05:25:22,16,0,16.491,5589.6724377278,79.396328,0.223694,3.17978356632,0,0,-8.500372,98.1, -0.1, 2,0,1,1024,1024,1587,1024,98.3,-28.4,99,4.158,4.165,4.165,4.153,0,0,14.404,75.11,6,P-GPS,
0.339535841803808,36.9018783635443,5590.9847737278,80.708664,0,2.90204733696,19000,2018-04-07 05:25:22,16,0,16.491,5590.9847737278,80.708664,0.223694,3.17978356632,0,0,-8.724066,98, 0, 2.1,0,1,1024,1024,1583,1024,98.3,-28.4,99,4.158,4.165,4.165,4.153,0,0,14.404,75.11,6,P-GPS,
0.339535780520575,36.9018781739982,5592.2971097278,82.021,0,2.847276994,19100,2018-04-07 05:25:22,16,0,16.491,5592.2971097278,82.021,0.223694,3.17978356632,0,0,-8.724066,98, 0, 2.3,0,1,1024,1024,1577,1024,98.3,-28.4,99,4.158,4.165,4.165,4.153,0,0,14.404,75.11,6,P-GPS,
0.33953572384421,36.9018780562858,5593.6094457278,83.333336,0,2.80778552292,19200,2018-04-07 05:25:23,16,0,16.491,5593.6094457278,83.333336,0.223694,3.17978356632,0,0,-8.500372,98, 0.4, 2.2,0,1,1024,1024,1578,1024,98.3,-28.5,99,4.158,4.165,4.165,4.153,0,0,14.404,75.11,6,P-GPS,
0.339535650792213,36.9018779284604,5594.9217817278,84.645672,0,2.76153552144,19300,2018-04-07 05:25:23,16,0,16.491,5594.9217817278,84.645672,0.223694,3.17978356632,0,0,-8.500372,98.1, 0.4, 2.1,0,1,1024,1024,1570,1024,98.3,-28.7,99,4.158,4.165,4.165,4.153,0,0,14.404,75.11,6,P-GPS,
0.339535513711426,36.9018776665057,5597.5464537278,87.270344,0,2.67169299888,19500,2018-04-07 05:25:23,16,0,16.438,5597.5464537278,87.270344,0.223694,3.17978356632,0,0,-8.500372,98.1, 0.4, 1.9,0,1,1024,1024,1567,1024,98.3,-28.8,99,4.124,4.126,4.14,4.132,0,0,16.338,75.11,6,P-GPS,
0.339535458253137,36.9018775434295,5598.8587897278,88.58268,0,2.6328412916,19600,2018-04-07 05:25:23,16,0,16.438,5598.8587897278,88.58268,0.223694,3.17978356632,0,0,-8.500372,98.1, 0.2, 1.9,0,1,1024,1024,1566,1024,98.3,-29,99,4.124,4.126,4.14,4.132,0,0,16.338,75.11,6,P-GPS,
0.339535410795393,36.9018773776338,5600.1711257278,89.895016,0,2.58996399364,19700,2018-04-07 05:25:23,16,0,16.438,5600.1711257278,89.895016,0.223694,3.17978356632,0,0,-8.500372,98, -0.4, 1.9,0,1,1024,1024,1560,1024,98.3,-29.1,99,4.124,4.126,4.14,4.132,0,0,16.338,75.11,6,P-GPS,
0.339535368387455,36.9018772645057,5601.4834617278,91.207352,0,2.5578905018,19800,2018-04-07 05:25:23,16,0,16.438,5601.4834617278,91.207352,0.223694,3.17978356632,0,0,-8.500372,98, -0.6, 1.8,0,1,1024,1024,1561,1024,98.3,-29.2,99,4.124,4.126,4.14,4.132,0,0,16.338,75.11,6,P-GPS,
0.339535326398026,36.9018771013234,5602.7957977278,92.519688,0,2.518618847,19900,2018-04-07 05:25:23,16,0,16.438,5602.7957977278,92.519688,0.223694,3.17978356632,0,0,-8.500372,98, -0.6, 1.8,0,1,1024,1024,1561,1024,98.3,-29.2,99,4.124,4.126,4.14,4.132,0,0,16.338,75.11,6,P-GPS,
0.339535291130815,36.901877002914,5604.1081337278,93.832024,0,2.49205716636,20000,2018-04-07 05:25:23,16,0,16.438,5604.1081337278,93.832024,0.223694,3.17978356632,0,0,-8.500372,98, -0.4, 1.8,0,1,1024,1024,1554,1024,98.3,-29.3,99,4.124,4.126,4.14,4.132,0,0,16.338,75.11,6,P-GPS,
0.339535251067835,36.9018769407266,5605.4204697278,95.14436,0,2.46949154884,20100,2018-04-07 05:25:23,16,0,16.438,5605.4204697278,95.14436,0.223694,3.17978356632,0,0,-8.500372,98, -0.3, 1.8,0,1,1024,1024,1552,1024,98.3,-29.5,99,4.124,4.126,4.14,4.132,0,0,16.338,75.11,6,P-GPS,
0.339535219663293,36.9018769139646,5606.7328057278,96.456696,0,2.45507225704,20200,2018-04-07 05:25:23,16,0,16.438,5606.7328057278,96.456696,0.223694,3.17978356632,0,0,-8.276678,98.1, -0.3, 1.8,0,1,1024,1024,1550,1024,98.3,-29.7,99,4.124,4.126,4.14,4.132,0,0,16.338,75.11,6,P-GPS,
0.339535182187911,36.9018768542171,5608.0451417278,97.769032,0,2.4338419414,20300,2018-04-07 05:25:24,16,0,16.438,5608.0451417278,97.769032,0.223694,3.17978356632,0,0,-8.276678,98.1, -0.1, 1.8,0,1,1024,1024,1546,1024,98.3,-30,99,4.124,4.126,4.14,4.132,0,0,16.338,75.11,6,P-GPS,
0.339535157108245,36.9018768403666,5609.3574777278,99.081368,0,2.42343839776,20400,2018-04-07 05:25:24,16,0,16.438,5609.3574777278,99.081368,0.223694,3.17978356632,0,0,-8.052984,98.1, -0.1, 2,0,1,1024,1024,1547,1024,98.3,-30.3,99,4.124,4.126,4.14,4.132,0,0,16.338,75.11,6,P-GPS,
0.339535161083277,36.9018768145146,5610.3417297278,100.06562,0,2.42105650792,20500,2018-04-07 05:25:24,16,0,16.438,5610.3417297278,100.06562,0.223694,3.17978356632,0,0,-7.82929,98.1, 0.2, 2.2,0,1,1024,1024,1547,1024,98.3,-30.6,99,4.124,4.126,4.14,4.132,0,0,15.926,75.11,6,P-GPS,
0.339535163600037,36.9018768279636,5611.6540657278,101.377956,0,2.42382881772,20600,2018-04-07 05:25:24,16,0,16.438,5611.6540657278,101.377956,0.223694,3.17978356632,0,0,-7.82929,98.1, 0.6, 2.3,0,1,1024,1024,1547,1024,98.3,-30.9,99,4.124,4.126,4.14,4.132,0,0,15.926,75.11,6,P-GPS,
0.339535139303653,36.901876832291,5612.9664017278,102.690292,0,2.41630913244,20700,2018-04-07 05:25:24,16,0,16.438,5612.9664017278,102.690292,0.223694,3.17978356632,0,0,-7.82929,98.1, 0.7, 2.4,0,1,1024,1024,1546,1024,98.3,-31.3,99,4.124,4.126,4.14,4.132,0,0,15.926,75.11,6,P-GPS,
0.339535120969816,36.9018768531122,5613.9506537278,103.674544,0,2.4131890536,20800,2018-04-07 05:25:24,16,0,16.438,5613.9506537278,103.674544,0.223694,3.17978356632,0,0,-7.605596,98.1, 0.5, 2.6,0,1,1024,1024,1541,1024,98.3,-31.8,99,4.124,4.126,4.14,4.132,0,0,15.926,75.11,6,P-GPS,
0.339535100588211,36.9018768397788,5615.2629897278,104.98688,0,2.4044292108,20900,2018-04-07 05:25:24,16,0,16.438,5615.2629897278,104.98688,0.223694,3.17978356632,0,0,-7.605596,98.1, 0.3, 2.1,0,1,1024,1024,1536,1024,98.3,-32.4,99,4.124,4.126,4.14,4.132,0,0,15.926,75.11,6,P-GPS,
0.339535079007257,36.9018768531978,5616.2472417278,105.971132,0,2.39917002428,21000,2018-04-07 05:25:24,16,0,16.438,5616.2472417278,105.971132,0.223694,3.17978356632,0,0,-7.605596,98.1, 0.2, 1.9,0,1,1024,1024,1544,1024,98.3,-32.9,99,4.124,4.126,4.14,4.132,0,0,15.926,75.11,6,P-GPS,
0.33953503201362,36.9018768053041,5617.5595777278,107.283468,0,2.37646989232,21100,2018-04-07 05:25:24,16,0,16.438,5617.5595777278,107.283468,0.223694,3.17978356632,0,0,-7.82929,98.1, 0.2, 1.6,0,1,1024,1024,1552,1024,98.3,-33.4,99,4.124,4.126,4.14,4.132,0,0,15.926,75.11,6,P-GPS,
0.339535006626992,36.9018767958249,5618.5438297278,108.26772,0,2.36659784476,21200,2018-04-07 05:25:25,15,0,16.438,5618.5438297278,108.26772,0.223694,3.17978356632,0,0,-7.605596,98.1, 0.5, 1.9,0,1,1024,1024,1567,1024,98.3,-33.4,99,4.124,4.126,4.14,4.132,0,0,15.926,75.11,6,P-GPS,
0.339535011568506,36.9018768051885,5619.8561657278,109.580056,0,2.36961293672,21300,2018-04-07 05:25:25,15,0,16.438,5619.8561657278,109.580056,0.223694,3.17978356632,0,0,-7.82929,98.1, 0.3, 2.3,0,1,1024,1024,1566,1024,98.3,-33.4,99,4.124,4.126,4.14,4.132,0,0,15.926,75.11,6,P-GPS,
0.339535019982676,36.9018768142234,5621.1685017278,110.892392,0,2.37374351428,21400,2018-04-07 05:25:25,16,0,16.438,5621.1685017278,110.892392,0.223694,3.17978356632,0,0,-8.052984,98.1, 0.1, 2.5,0,1,1024,1024,1568,1024,98.3,-33.4,99,4.124,4.126,4.14,4.132,0,0,15.926,75.11,6,P-GPS,
0.339535024870451,36.9018768284561,5622.1527537278,111.876644,0,2.37745742516,21500,2018-04-07 05:25:25,16,0,16.518,5622.1527537278,111.876644,0.223694,3.17978356632,0,0,-8.052984,98, 0.1, 2.7,0,1,1024,1024,1581,1024,98.3,-33.4,99,4.13,4.135,4.14,4.132,0,0,15.926,75.11,6,P-GPS,
0.33953501489786,36.9018768509089,5623.4650897278,113.18898,0,2.37743117844,21600,2018-04-07 05:25:25,16,0,16.518,5623.4650897278,113.18898,0.223694,3.17978356632,0,0,-8.276678,98.1, 0, 2.3,0,1,1024,1024,1583,1024,98.3,-33.4,99,4.13,4.135,4.14,4.132,0,0,15.926,75.11,6,P-GPS,
0.339535029025425,36.9018768469284,5624.7774257278,114.501316,0,2.38155847516,21700,2018-04-07 05:25:25,16,0,16.518,5624.7774257278,114.501316,0.223694,3.17978356632,0,0,-8.500372,98.1, -0.1, 1.9,0,1,1024,1024,1587,1024,98.3,-33.4,99,4.13,4.135,4.14,4.132,0,0,15.926,75.11,6,P-GPS,
0.339535030478812,36.901876876808,5626.0897617278,115.813652,0,2.38646333096,21800,2018-04-07 05:25:25,16,0,16.518,5626.0897617278,115.813652,0.223694,3.17978356632,0,0,-8.500372,98.2, 0.1, 2,0,1,1024,1024,1584,1024,98.3,-33.4,99,4.13,4.135,4.14,4.132,0,0,15.926,75.11,6,P-GPS,
0.339535031001542,36.901876841267,5627.4020977278,117.125988,0,2.38138459064,21900,2018-04-07 05:25:25,16,0,16.518,5627.4020977278,117.125988,0.223694,3.17978356632,0,0,-8.500372,98.1, 0.2, 2.1,0,1,1024,1024,1586,1024,98.3,-33.4,99,4.13,4.135,4.14,4.132,0,0,15.926,75.11,6,P-GPS,
0.339535021156784,36.9018768423858,5628.7144337278,118.438324,0,2.37826123096,22000,2018-04-07 05:25:25,16,0,16.518,5628.7144337278,118.438324,0.223694,3.17978356632,0,0,-8.500372,98.1, 0.3, 1.9,0,1,1024,1024,1591,1024,98.3,-33.4,99,4.13,4.135,4.14,4.132,0,0,15.926,75.11,6,P-GPS,
0.339535022948887,36.9018768144182,5630.0267697278,119.75066,0,2.37476385552,22100,2018-04-07 05:25:25,16,0,16.518,5630.0267697278,119.75066,0.223694,3.17978356632,0,0,-8.724066,98.1, 0.4, 1.6,0,1,1024,1024,1609,1024,98.3,-33.4,99,4.13,4.135,4.14,4.132,0,0,15.926,75.11,6,P-GPS,
0.339535027175513,36.9018768146784,5631.3391057278,121.062996,0,2.3762139868,22200,2018-04-07 05:25:25,16,0,16.518,5631.3391057278,121.062996,0.223694,3.17978356632,0,0,-8.724066,98.1, 0.3, 1.9,0,1,1024,1024,1619,1024,98.3,-33.4,99,4.13,4.135,4.14,4.132,0,0,15.926,75.11,6,P-GPS,
0.339535054277706,36.9018768204126,5632.6514417278,122.375332,0,2.38611556192,22300,2018-04-07 05:25:26,16,0,16.518,5632.6514417278,122.375332,0.223694,3.17978356632,0,0,-8.724066,98.1, 0.1, 1.9,0,1,1024,1024,1619,1024,98.3,-33.4,99,4.13,4.135,4.14,4.132,0,0,15.926,75.11,6,P-GPS,
