latitude,longitude,altitude(feet),ascent(feet),speed(mph),distance(feet),time(millisecond),datetime(utc),satellites,gpslevel,voltage(v),max_altitude(feet),max_ascent(feet),max_speed(mph),max_distance(feet), xSpeed(mph), ySpeed(mph), zSpeed(mph), compass_heading(degrees), pitch(degrees), roll(degrees),isPhoto,isVideo,rc_elevator,rc_aileron,rc_throttle,rc_rudder,gimbal_heading(degrees),gimbal_pitch(degrees),battery_percent,voltageCell1,voltageCell2,voltageCell3,voltageCell4,voltageCell5,voltageCell6,current(A),battery_temperature(f),flycStateRaw,flycState,message
0.364685964670322,36.9257815025477,5342.5379583628,0,0,0,0,2018-04-03 07:22:04,12,0,0,5342.5379583628,0,0,0,0,0,0,38.9, 3.3, 9.9,0,0,1024,1024,1024,1024,42.8,0,99,4.298,4.297,4.298,4.298,0,0,0,84.11,41,Motors_Started,
0.364685962320478,36.9257815199911,5342.5379583628,0,0,0.0064215553236,100,2018-04-03 07:22:04,12,0,0,5342.5379583628,0,0,0.0064215553236,0,0,0,38.9, 3.4, 9.9,0,0,364,364,364,1684,42.8,0,99,4.298,4.297,4.298,4.298,0,0,0,84.11,41,Motors_Started,
0.364685984572351,36.9257815277172,5342.5379583628,0,0,0.0117068901384,200,2018-04-03 07:22:04,12,0,0,5342.5379583628,0,0,0.0117068901384,0,0,0,38.9, 3.4, 9.9,0,0,364,364,364,1684,42.9,0,99,4.298,4.297,4.298,4.298,0,0,0,84.11,41,Motors_Started,
0.364686010049764,36.9257815357057,5342.5379583628,0,0,0.0205053812336,300,2018-04-03 07:22:04,12,0,17.176,5342.5379583628,0,0,0.0205053812336,0,0,0,39, 3.3, 9.9,0,0,364,364,364,1684,42.8,0,99,4.298,4.297,4.298,4.298,0,0,1.496,84.11,41,Motors_Started,Setting new Return-To-Home altitude to 30m (98 ft). Setting new Maximum Flight Altitude to 150m (492 ft)
0.364686027468415,36.9257815338369,5342.5379583628,0,0,0.0255982291656,400,2018-04-03 07:22:04,12,0,17.176,5342.5379583628,0,0,0.0255982291656,0,0,0,38.9, 3.4, 9.9,0,0,364,364,364,1684,42.8,0,99,4.298,4.297,4.298,4.298,0,0,1.496,84.11,41,Motors_Started,
0.364686042443994,36.925781535419,5342.5379583628,0,0,0.0308059721144,500,2018-04-03 07:22:04,12,0,17.176,5342.5379583628,0,0,0.0308059721144,0,0,0,38.9, 3.4, 9.9,0,0,364,364,364,1684,42.8,0,99,4.298,4.297,4.298,4.298,0,0,1.496,84.11,41,Motors_Started,
0.364686047792211,36.9257815289688,5342.5379583628,0,0,0.0318220810708,600,2018-04-03 07:22:04,12,0,17.176,5342.5379583628,0,0,0.0318220810708,0,0,0,38.9, 3.4, 9.9,0,0,364,364,364,1684,42.8,0,99,4.298,4.297,4.298,4.298,0,0,1.496,84.11,41,Motors_Started,
0.364686054795741,36.9257815267678,5342.5379583628,0,0,0.034048885604,700,2018-04-03 07:22:04,12,0,17.176,5342.5379583628,0,0,0.034048885604,0,0,0,38.9, 3.4, 9.9,0,0,364,364,364,1684,42.8,0,99,4.298,4.297,4.298,4.298,0,0,1.496,84.11,41,Motors_Started,
0.364686052569251,36.9257815520284,5342.5379583628,0,0,0.036801838448,800,2018-04-03 07:22:05,12,0,17.176,5342.5379583628,0,0,0.036801838448,0,0,0,38.9, 3.4, 9.9,0,0,364,364,364,1684,42.8,0,99,4.298,4.297,4.298,4.298,0,0,1.496,84.11,41,Motors_Started,
0.364686053963606,36.9257815783748,5342.5379583628,0,0,0.042740158848,900,2018-04-03 07:22:05,12,0,17.176,5342.5379583628,0,0,0.042740158848,0,0,0,38.9, 3.4, 9.9,0,0,364,364,364,1684,42.8,0,99,4.298,4.297,4.298,4.298,0,0,1.496,84.11,41,Motors_Started,
0.364686080333814,36.9257815980836,5342.5379583628,0,0,0.054733269468,1000,2018-04-03 07:22:05,12,0,17.176,5342.5379583628,0,0,0.054733269468,0,0,0,38.9, 3.4, 9.8,0,0,364,364,364,1684,42.8,0,99,4.298,4.297,4.298,4.298,0,0,1.496,84.11,41,Motors_Started,
0.36468610879128,36.9257816106875,5342.5379583628,0,0,0.06573819108,1100,2018-04-03 07:22:05,12,0,17.176,5342.5379583628,0,0,0.06573819108,0,0,0,38.9, 3.4, 9.7,0,0,364,364,364,1684,42.8,0,99,4.298,4.297,4.298,4.298,0,0,1.496,84.11,41,Motors_Started,
0.364686129925633,36.9257816176803,5342.5379583628,0,0,0.073482941984,1200,2018-04-03 07:22:05,12,0,17.176,5342.5379583628,0,0,0.073482941984,0,0,0,38.9, 3.5, 9.8,0,0,364,364,364,1684,42.8,0,99,4.298,4.297,4.298,4.298,0,0,1.496,84.11,41,Motors_Started,
0.364686146432356,36.9257816241688,5342.5379583628,0,0,0.07979166922,1300,2018-04-03 07:22:05,12,0,17.176,5342.5379583628,0,0,0.07979166922,0,0,0,38.9, 3.4, 9.8,0,0,364,364,366,1684,42.8,0,99,4.298,4.297,4.298,4.298,0,0,1.496,84.11,41,Motors_Started,
0.36468615083689,36.9257816547907,5342.5379583628,0,0,0.087742456876,1400,2018-04-03 07:22:05,12,0,17.176,5342.5379583628,0,0,0.087742456876,0,0,0,38.9, 3.6, 9.9,0,0,771,684,719,1482,42.8,0,99,4.298,4.297,4.298,4.298,0,0,1.496,84.11,41,Motors_Started,
0.364686157593711,36.9257816861005,5342.5379583628,0,0,0.097155186836,1500,2018-04-03 07:22:05,12,0,17.176,5342.5379583628,0,0,0.097155186836,0,0,0,39, 3.4, 9.7,0,0,1024,1024,1024,1073,42.4,0,99,4.298,4.297,4.298,4.298,0,0,1.496,84.11,10,Assisted_Takeoff,
0.364686162272638,36.9257817394759,5342.5379583628,0,0,0.112560371056,1600,2018-04-03 07:22:05,12,0,17.176,5342.5379583628,0,0,0.112560371056,0,0,0,38.9, 3.5, 9.6,0,0,1024,1024,1024,1024,41,0,99,4.298,4.297,4.298,4.298,0,0,1.496,84.11,10,Assisted_Takeoff,
0.364686166750859,36.9257818010305,5342.5379583628,0,0,0.131510502896,1700,2018-04-03 07:22:05,12,0,17.176,5342.5379583628,0,0,0.131510502896,0,0,0,38.8, 3.4, 9.7,0,0,1024,1024,1024,1024,40,0,99,4.298,4.297,4.298,4.298,0,0,1.496,84.11,10,Assisted_Takeoff,
0.364686192139115,36.925781855552,5342.5379583628,0,0,0.153214571832,1800,2018-04-03 07:22:06,12,0,17.176,5342.5379583628,0,0,0.153214571832,0,0,0,38.9, 3.4, 9.7,0,0,1024,1024,1024,1024,39.6,0,99,4.298,4.297,4.298,4.298,0,0,1.496,84.11,10,Assisted_Takeoff,
0.364686223262751,36.9257819148995,5342.5379583628,0,0,0.177579730092,1900,2018-04-03 07:22:06,12,0,17.176,5342.5379583628,0,0,0.177579730092,0,0,0,38.8, 3.4, 9.8,0,0,1024,1024,1024,1024,39.3,0,99,4.298,4.297,4.298,4.298,0,0,1.496,84.11,10,Assisted_Takeoff,
0.364686240939918,36.9257819845395,5342.5379583628,0,0,0.202690623284,2000,2018-04-03 07:22:06,12,0,17.176,5342.5379583628,0,0,0.202690623284,0,0,0,38.9, 3.4, 9.7,0,0,1024,1024,1024,1024,39.2,0,99,4.298,4.297,4.298,4.298,0,0,1.496,84.11,10,Assisted_Takeoff,
0.364686256713026,36.9257820457138,5342.5379583628,0,0,0.224999022948,2100,2018-04-03 07:22:06,12,0,17.176,5342.5379583628,0,0,0.224999022948,0,0,0,38.8, 3.4, 9.7,0,0,1024,1024,1024,1024,39,0,99,4.298,4.297,4.298,4.298,0,0,1.496,84.11,10,Assisted_Takeoff,
0.364686262125567,36.9257821156722,5342.5379583628,0,0,0.248629929216,2200,2018-04-03 07:22:06,12,0,17.176,5342.5379583628,0,0,0.248629929216,0,0,0,38.9, 3.4, 9.7,0,0,1024,1024,1024,1024,39,0,99,4.298,4.297,4.298,4.298,0,0,1.496,84.11,10,Assisted_Takeoff,
0.364686270141583,36.9257821765617,5342.5379583628,0,0,0.269985901028,2300,2018-04-03 07:22:06,12,0,17.095,5342.5379583628,0,0,0.269985901028,0,0,0,38.9, 3.4, 9.7,0,0,1024,1024,1024,1024,38.9,0,99,4.296,4.293,4.292,4.29,0,0,1.886,84.11,10,Assisted_Takeoff,
0.364686298506227,36.9257822429015,5342.5379583628,0,0,0.296303487172,2400,2018-04-03 07:22:06,12,0,17.095,5342.5379583628,0,0,0.296303487172,0,0,0,38.8, 3.4, 9.8,0,0,1024,1024,1024,1024,38.8,0,99,4.296,4.293,4.292,4.29,0,0,1.886,84.11,10,Assisted_Takeoff,
0.364686331203754,36.9257823020622,5342.5379583628,0,0,0.320890102132,2500,2018-04-03 07:22:06,12,0,17.095,5342.5379583628,0,0,0.320890102132,0,0,0,38.8, 3.4, 9.7,0,0,1024,1024,1025,1024,38.8,0,99,4.296,4.293,4.292,4.29,0,0,1.886,84.11,10,Assisted_Takeoff,
0.364686352639777,36.9257823635109,5342.5379583628,0,0,0.3445374126,2600,2018-04-03 07:22:06,12,0,17.095,5342.5379583628,0,0,0.3445374126,0,0,0,38.8, 3.4, 9.8,0,0,1024,1024,1071,1024,38.8,0,99,4.296,4.293,4.292,4.29,0,0,1.886,84.11,10,Assisted_Takeoff,
0.36468637197185,36.9257824200181,5342.5379583628,0,0,0.36623688836,2700,2018-04-03 07:22:06,12,0,17.095,5342.5379583628,0,0,0.36623688836,0,0,0,38.8, 3.4, 9.8,0,0,1024,1024,1095,1024,38.7,0,99,4.296,4.293,4.292,4.29,0,0,1.886,84.11,10,Assisted_Takeoff,
0.364686408652551,36.9257824767369,5342.5379583628,0,0,0.39059712536,2800,2018-04-03 07:22:07,12,0,17.095,5342.5379583628,0,0,0.39059712536,0,0,0,38.8, 3.4, 9.8,0,0,1024,1024,1100,1024,38.7,0,99,4.296,4.293,4.292,4.29,0,0,1.886,84.11,10,Assisted_Takeoff,
0.364686447722586,36.9257825308973,5342.5379583628,0,0,0.4145177298,2900,2018-04-03 07:22:07,12,0,17.095,5342.5379583628,0,0,0.4145177298,0,0,0,38.8, 3.4, 9.7,0,0,1024,1024,1184,1024,38.7,0,99,4.296,4.293,4.292,4.29,0,0,1.886,84.11,10,Assisted_Takeoff,
0.364686471565856,36.9257825859236,5342.5379583628,0,0,0.43638780924,3000,2018-04-03 07:22:07,12,0,17.095,5342.5379583628,0,0,0.43638780924,0,0,0,38.8, 3.5, 9.8,0,0,1024,1024,1241,1024,38.7,0,99,4.296,4.293,4.292,4.29,0,0,1.886,84.11,10,Assisted_Takeoff,
0.364686493906072,36.9257826388763,5342.5379583628,0,0,0.45734253432,3100,2018-04-03 07:22:07,12,0,17.095,5342.5379583628,0,0,0.45734253432,0,0,0,38.8, 3.4, 9.6,0,0,1024,1024,1293,1024,38.7,0,99,4.296,4.293,4.292,4.29,0,0,1.886,84.11,10,Assisted_Takeoff,
0.364686531485267,36.9257826920766,5342.5379583628,0,0,0.48074476604,3200,2018-04-03 07:22:07,12,0,17.095,5342.5379583628,0,0,0.48074476604,0,0,0,38.8, 3.3, 9.6,0,0,1024,1024,1424,1024,38.6,0,99,4.296,4.293,4.292,4.29,0,0,1.886,84.11,10,Assisted_Takeoff,
0.364686567403449,36.925782743583,5342.5379583628,0,0,0.50335959616,3300,2018-04-03 07:22:07,12,0,17.149,5342.5379583628,0,0,0.50335959616,0,0,0,39.3, 3.1, 8.8,0,0,1024,1024,1578,1024,38.6,0,99,4.296,4.293,4.292,4.29,0,0,3.032,84.11,10,Assisted_Takeoff,
0.364686530936482,36.9257828275561,5342.5379583628,0,0.223694,0.52571523992,3400,2018-04-03 07:22:07,12,0,17.149,5342.5379583628,0,0.223694,0.52571523992,-0.223694,0,0,39.7, 3.8, 5.3,0,0,1024,1024,1657,1024,38.7,0,99,4.296,4.293,4.292,4.29,0,0,3.032,84.11,10,Assisted_Takeoff,
0.364686399653769,36.9257829435636,5342.5379583628,0,0.447388,0.54917324592,3500,2018-04-03 07:22:07,12,0,17.149,5342.5379583628,0,0.447388,0.54917324592,-0.447388,0,-0.223694,39.8, 4.9, 1.3,0,0,1024,1024,1684,1024,38.7,0,99,4.296,4.293,4.292,4.29,0,0,3.032,84.11,10,Assisted_Takeoff,
0.364686174878016,36.9257830054153,5342.5379583628,0,0.447388,0.55364831168,3600,2018-04-03 07:22:07,12,0,17.149,5342.5379583628,0,0.447388,0.55364831168,-0.447388,0,-0.894776,39.7, 2.7, 0,0,0,1024,1024,1684,1024,38.8,0,99,4.296,4.293,4.292,4.29,0,0,3.032,84.11,6,P-GPS,
0.364685925811578,36.9257829991174,5342.5379583628,0,0.4921268,0.5461942432,3700,2018-04-03 07:22:07,12,0,17.149,5342.5379583628,0,0.4921268,0.55364831168,-0.447388,-0.223694,-1.565858,39.7, 0.2, -0.3,0,0,1024,1024,1684,1024,38.9,0,99,4.296,4.293,4.292,4.29,0,0,3.032,84.11,6,P-GPS,
0.364685649715412,36.9257829683326,5342.8660423628,0.328084,0.4921268,0.54698492564,3800,2018-04-03 07:22:07,12,0,17.149,5342.8660423628,0.328084,0.4921268,0.55364831168,-0.447388,-0.223694,-2.23694,39.7, -1.1, -0.6,0,0,1024,1024,1684,1024,38.9,0,99,4.296,4.293,4.292,4.29,0,0,3.032,84.11,6,P-GPS,
0.36468544209613,36.9257829156704,5343.1941263628,0.656168,0.3131716,0.54969161864,3900,2018-04-03 07:22:08,12,0,17.149,5343.1941263628,0.656168,0.4921268,0.55364831168,-0.223694,-0.223694,-3.131716,39.7, -1.4, -0.3,0,0,1024,1024,1684,1024,39,0,99,4.296,4.293,4.292,4.29,0,0,3.032,84.11,6,P-GPS,
0.36468528518863,36.9257828782116,5343.8502943628,1.312336,0.223694,0.55978676332,4000,2018-04-03 07:22:08,12,0,17.149,5343.8502943628,1.312336,0.4921268,0.55978676332,0,-0.223694,-4.026492,39.7, -1.2, 0.1,0,0,1024,1024,1684,1024,39,0,99,4.296,4.293,4.292,4.29,0,0,3.032,84.11,6,P-GPS,
0.364685198627875,36.9257828200998,5344.5064623628,1.968504,0.223694,0.55604332488,4100,2018-04-03 07:22:08,12,0,17.149,5344.5064623628,1.968504,0.4921268,0.55978676332,0,-0.223694,-4.921268,39.6, -1.2, 0.9,0,0,1024,1024,1684,1024,39,0,99,4.296,4.293,4.292,4.29,0,0,3.032,84.11,6,P-GPS,
0.364685229229595,36.9257826885475,5345.1626303628,2.624672,0.223694,0.50914699792,4200,2018-04-03 07:22:08,12,0,17.149,5345.1626303628,2.624672,0.4921268,0.55978676332,0,-0.223694,-5.816044,39.6, -1.3, 2,0,0,1024,1024,1684,1024,39.1,0,99,4.296,4.293,4.292,4.29,0,0,3.032,84.11,6,P-GPS,
0.364685295198675,36.9257825766445,5346.1468823628,3.608924,0,0.46176510664,4300,2018-04-03 07:22:08,12,0,17.122,5346.1468823628,3.608924,0.4921268,0.55978676332,0,0,-7.158208,39.6, -0.6, 2.7,0,0,1024,1024,1684,1024,39.1,0,99,4.29,4.289,4.29,4.289,0,0,3.032,84.11,6,P-GPS,
0.364685360337657,36.9257824931614,5347.4592183628,4.92126,0,0.42336615528,4400,2018-04-03 07:22:08,12,0,17.122,5347.4592183628,4.92126,0.4921268,0.55978676332,0,0,-8.500372,39.6, -0.1, 2.4,0,0,1024,1024,1684,1024,39.1,0,99,4.29,4.289,4.29,4.289,0,0,3.032,84.11,6,P-GPS,Home Point Recorded. RTH Altitude:  30m.
0.364685399480565,36.9257824424181,5348.7715543628,6.233596,0,0.4001312464,4500,2018-04-03 07:22:08,12,0,17.122,5348.7715543628,6.233596,0.4921268,0.55978676332,0,0,-9.618842,39.5, -1, 2,0,0,1024,1024,1684,1024,39.1,0,99,4.29,4.289,4.29,4.289,0,0,3.032,84.11,6,P-GPS,
0.36468543474452,36.925782436833,5350.4119743628,7.874016,0,0.39188321464,4600,2018-04-03 07:22:08,12,0,17.122,5350.4119743628,7.874016,0.4921268,0.55978676332,0,0,-10.289924,39.5, -1.7, 1.4,0,0,1024,1024,1684,1024,39.1,0,99,4.29,4.289,4.29,4.289,0,0,3.032,84.11,6,P-GPS,
0.36468551177562,36.9257824684924,5351.7243103628,9.186352,0,0.38923229592,4700,2018-04-03 07:22:08,12,0,17.122,5351.7243103628,9.186352,0.4921268,0.55978676332,0,0,-10.961006,39.6, -1, 1.1,0,0,1024,1024,1684,1024,39.1,0,99,4.29,4.289,4.29,4.289,0,0,3.032,84.11,6,P-GPS,
0.364685616411289,36.925782500087,5353.6928143628,11.154856,0,0.38548557664,4800,2018-04-03 07:22:09,12,0,17.122,5353.6928143628,11.154856,0.4921268,0.55978676332,0,0,-11.408394,39.6, -0.4, 1.4,0,0,1024,1024,1684,1024,39.1,0,99,4.29,4.289,4.29,4.289,0,0,3.032,84.11,6,P-GPS,
0.364685737516634,36.9257825380344,5355.3332343628,12.795276,0,0.38677166592,4900,2018-04-03 07:22:09,12,0,17.122,5355.3332343628,12.795276,0.4921268,0.55978676332,0,0,-11.632088,39.6, -0.1, 1.3,0,0,1024,1024,1684,1024,39.1,0,99,4.29,4.289,4.29,4.289,0,0,3.032,84.11,6,P-GPS,
0.364685870823502,36.9257825942961,5356.9736543628,14.435696,0,0.39978347736,5000,2018-04-03 07:22:09,13,0,17.122,5356.9736543628,14.435696,0.4921268,0.55978676332,0,0,-11.632088,39.6, 0.4, 1.2,0,0,1024,1024,1684,1024,39.1,0,99,4.29,4.289,4.29,4.289,0,0,3.032,84.11,6,P-GPS,
0.364686139925908,36.9257826541677,5360.5825783628,18.04462,0,0.42499673276,5200,2018-04-03 07:22:09,13,0,17.122,5360.5825783628,18.04462,0.4921268,0.55978676332,0,0,-11.632088,39.6, 0.3, 0.7,0,0,1024,1024,1684,1024,39.1,0,99,4.29,4.289,4.29,4.289,0,0,3.032,84.11,6,P-GPS,
0.364686267775453,36.9257826426208,5362.2229983628,19.68504,0,0.4303969954,5300,2018-04-03 07:22:09,13,0,16.556,5362.2229983628,19.68504,0.4921268,0.55978676332,0,0,-11.408394,39.7, -0.6, 0.1,0,0,1024,1024,1684,1024,39.1,0,99,4.248,4.248,4.245,4.238,0,0,8.71,84.11,6,P-GPS,
0.36468639609969,36.9257826195802,5363.8634183628,21.32546,0,0.43688321608,5400,2018-04-03 07:22:09,13,0,16.556,5363.8634183628,21.32546,0.4921268,0.55978676332,0,0,-11.1847,39.7, -0.8, 0.4,0,0,1024,1024,1684,1024,39.1,0,99,4.248,4.248,4.245,4.238,0,0,8.71,84.11,6,P-GPS,
0.364686554695887,36.9257825880587,5365.5038383628,22.96588,0,0.45076445012,5500,2018-04-03 07:22:09,13,0,16.556,5365.5038383628,22.96588,0.4921268,0.55978676332,0,0,-11.1847,39.8, 0, 0.8,0,0,1024,1024,1684,1024,39.1,0,99,4.248,4.248,4.245,4.238,0,0,8.71,84.11,6,P-GPS,
0.364686704980912,36.9257824863064,5367.1442583628,24.6063,0,0.4491962086,5600,2018-04-03 07:22:09,13,0,16.556,5367.1442583628,24.6063,0.4921268,0.55978676332,0,0,-11.1847,39.7, 0, 1.6,0,0,1024,1024,1684,1024,39.2,0,99,4.248,4.248,4.245,4.238,0,0,8.71,84.11,6,P-GPS,
0.364686856006472,36.9257823494552,5368.7846783628,26.24672,0,0.44858597236,5700,2018-04-03 07:22:09,13,0,16.556,5368.7846783628,26.24672,0.4921268,0.55978676332,0,-0.223694,-10.961006,39.8, -0.3, 2.4,0,0,1024,1024,1684,1024,39.2,0,99,4.248,4.248,4.245,4.238,0,0,8.71,84.11,6,P-GPS,
0.364686972619754,36.9257821851291,5370.4250983628,27.88714,0.223694,0.44413715332,5800,2018-04-03 07:22:09,13,0,16.556,5370.4250983628,27.88714,0.4921268,0.55978676332,0,-0.223694,-10.961006,39.6, -1.1, 3,0,0,1024,1024,1684,1024,39.2,0,99,4.248,4.248,4.245,4.238,0,0,8.71,84.11,6,P-GPS,
0.364687066485301,36.925782032218,5372.0655183628,29.52756,0,0.44603347884,5900,2018-04-03 07:22:10,13,0,16.556,5372.0655183628,29.52756,0.4921268,0.55978676332,0,0,-10.961006,39.6, -1.8, 2.3,0,0,1024,1024,1684,1024,39.2,0,99,4.248,4.248,4.245,4.238,0,0,8.71,84.11,6,P-GPS,
0.364687142182706,36.9257818589723,5373.7059383628,31.16798,0,0.44886484376,6000,2018-04-03 07:22:10,13,0,16.556,5373.7059383628,31.16798,0.4921268,0.55978676332,0,0,-10.961006,39.7, -2.2, 1.7,0,0,1024,1024,1684,1024,39.2,0,99,4.248,4.248,4.245,4.238,0,0,8.71,84.11,6,P-GPS,
0.364687222464181,36.9257816876163,5375.3463583628,32.8084,0.223694,0.4638451592,6100,2018-04-03 07:22:10,13,0,16.556,5375.3463583628,32.8084,0.4921268,0.55978676332,0,-0.223694,-10.961006,39.7, -1.7, 0.1,0,0,1024,1024,1684,1024,39.2,0,99,4.248,4.248,4.245,4.238,0,0,8.71,84.11,6,P-GPS,
0.364687300867653,36.9257814656779,5376.9867783628,34.44882,0.447388,0.487696866,6200,2018-04-03 07:22:10,13,0,16.556,5376.9867783628,34.44882,0.4921268,0.55978676332,0,-0.447388,-10.961006,39.7, -2.3, 1,0,0,1024,1024,1684,1024,39.2,0,99,4.248,4.248,4.245,4.238,0,0,8.71,84.11,6,P-GPS,
0.364687400461252,36.9257811717163,5378.6271983628,36.08924,0.671082,0.53757219568,6300,2018-04-03 07:22:10,13,0,16.664,5378.6271983628,36.08924,0.671082,0.55978676332,0,-0.671082,-10.961006,39.5, -3.8, 3.6,0,0,1024,1024,1684,1024,39.2,0,99,4.177,4.182,4.183,4.174,0,0,22.514,84.11,6,P-GPS,
0.364687500452599,36.925780820807,5380.2676183628,37.72966,0.447388,0.61305448156,6400,2018-04-03 07:22:10,13,0,16.664,5380.2676183628,37.72966,0.671082,0.61305448156,0,-0.447388,-10.961006,39.5, -4.6, 5.3,0,0,1024,1024,1684,1024,39.2,0,99,4.177,4.182,4.183,4.174,0,0,22.514,84.11,6,P-GPS,
0.364687588504194,36.9257805235875,5381.9080383628,39.37008,0.223694,0.69178807988,6500,2018-04-03 07:22:10,13,0,16.664,5381.9080383628,39.37008,0.671082,0.69178807988,0,-0.223694,-10.961006,39.4, -5, 5.5,0,0,1024,1024,1684,1024,39.2,0,99,4.177,4.182,4.183,4.174,0,0,22.514,84.11,6,P-GPS,
0.364687641050825,36.9257803186554,5383.5484583628,41.0105,0,0.748769709,6600,2018-04-03 07:22:10,13,0,16.664,5383.5484583628,41.0105,0.671082,0.748769709,0,0,-10.961006,39.5, -5.2, 3.4,0,0,1024,1024,1684,1024,39.2,0,99,4.177,4.182,4.183,4.174,0,0,22.514,84.11,6,P-GPS,
0.364687710503962,36.9257801799413,5385.1888783628,42.65092,0.223694,0.79910763712,6700,2018-04-03 07:22:10,13,0,16.664,5385.1888783628,42.65092,0.671082,0.79910763712,0,-0.223694,-10.961006,39.6, -4.3, 1.8,0,0,1024,1024,1684,1024,39.2,0,99,4.177,4.182,4.183,4.174,0,0,22.514,84.11,6,P-GPS,
0.364687816921556,36.9257800712924,5386.8292983628,44.29134,0.223694,0.85403217956,6800,2018-04-03 07:22:11,13,0,16.664,5386.8292983628,44.29134,0.671082,0.85403217956,0,-0.223694,-10.961006,39.6, -4.4, 2.9,0,0,1024,1024,1684,1024,39.3,0,99,4.177,4.182,4.183,4.174,0,0,22.514,84.11,6,P-GPS,
0.364687942745724,36.9257799692497,5388.4697183628,45.93176,0.223694,0.9131233888,6900,2018-04-03 07:22:11,13,0,16.664,5388.4697183628,45.93176,0.671082,0.9131233888,0,-0.223694,-10.961006,39.6, -4.4, 4.1,0,0,1024,1024,1684,1024,39.3,0,99,4.177,4.182,4.183,4.174,0,0,22.514,84.11,6,P-GPS,
0.364688038957045,36.9257798779947,5390.1101383628,47.57218,0.223694,0.96127627748,7000,2018-04-03 07:22:11,13,0,16.664,5390.1101383628,47.57218,0.671082,0.96127627748,0,-0.223694,-10.961006,39.6, -4.2, 3.6,0,0,1024,1024,1684,1024,39.3,0,99,4.177,4.182,4.183,4.174,0,0,22.514,84.11,6,P-GPS,
0.364688130674268,36.9257798102971,5391.7505583628,49.2126,0,1.00285108196,7100,2018-04-03 07:22:11,13,0,16.664,5391.7505583628,49.2126,0.671082,1.00285108196,0,0,-10.961006,39.5, -4.2, 4,0,0,1024,1024,1684,1024,39.3,0,99,4.177,4.182,4.183,4.174,0,0,22.514,84.11,6,P-GPS,
0.364688242170164,36.9257797855342,5393.3909783628,50.85302,0,1.04062339288,7200,2018-04-03 07:22:11,13,0,16.664,5393.3909783628,50.85302,0.671082,1.04062339288,0,0,-10.961006,39.5, -3.3, 3.6,0,0,1024,1024,1684,1027,39.3,0,99,4.177,4.182,4.183,4.174,0,0,22.514,84.11,6,P-GPS,
0.364688342933393,36.9257797910955,5395.0313983628,52.49344,0,1.06901906308,7300,2018-04-03 07:22:11,13,0,16.637,5395.0313983628,52.49344,0.671082,1.06901906308,0,0,-11.1847,39.6, -2.4, 2.8,0,0,1024,1024,1684,1027,39.3,0,99,4.177,4.182,4.183,4.174,0,0,22.514,84.11,6,P-GPS,
0.364688422792287,36.9257798037273,5396.6718183628,54.13386,0,1.09017720024,7400,2018-04-03 07:22:11,13,0,16.637,5396.6718183628,54.13386,0.671082,1.09017720024,0,0,-11.1847,39.7, -2.8, 2.9,0,0,1024,1024,1684,1024,39.3,0,99,4.177,4.182,4.183,4.174,0,0,22.514,84.11,6,P-GPS,
0.364688485891642,36.9257797919488,5398.3122383628,55.77428,0,1.1115978046,7500,2018-04-03 07:22:11,13,0,16.637,5398.3122383628,55.77428,0.671082,1.1115978046,0,0,-11.1847,39.6, -3.3, 3.9,0,0,1024,1024,1684,1024,39.3,0,99,4.177,4.182,4.183,4.174,0,0,22.514,84.11,6,P-GPS,
0.364688504879706,36.9257797785002,5400.2807423628,57.742784,0,1.12008533768,7600,2018-04-03 07:22:11,13,0,16.637,5400.2807423628,57.742784,0.671082,1.12008533768,0,0,-11.1847,39.5, -4.1, 4.3,0,0,1024,1024,1684,1024,39.3,0,99,4.177,4.182,4.183,4.174,0,0,22.514,84.11,6,P-GPS,
0.364688502426455,36.9257797876508,5401.9211623628,59.383204,0,1.11747378904,7700,2018-04-03 07:22:11,13,0,16.637,5401.9211623628,59.383204,0.671082,1.12008533768,0,0,-11.1847,39.5, -3.8, 3.3,0,0,1024,1024,1684,1024,39.3,-2.2,99,4.177,4.182,4.183,4.174,0,0,22.514,84.11,6,P-GPS,
0.364688456057734,36.925779792391,5403.5615823628,61.023624,0,1.10251643948,7800,2018-04-03 07:22:12,13,0,16.637,5403.5615823628,61.023624,0.671082,1.12008533768,0,0,-11.408394,39.5, -4, 3.2,0,0,1024,1024,1684,1024,39.3,-6.1,99,4.177,4.182,4.183,4.174,0,0,22.514,84.11,6,P-GPS,
0.364688416245942,36.9257797869115,5405.2020023628,62.664044,0,1.09171919504,7900,2018-04-03 07:22:12,13,0,16.637,5405.2020023628,62.664044,0.671082,1.12008533768,0,0,-11.1847,39.5, -4.6, 3.2,0,0,1024,1024,1684,1024,39.3,-10.8,99,4.177,4.182,4.183,4.174,0,0,22.514,84.11,6,P-GPS,
0.36468837603681,36.9257797925756,5406.8424223628,64.304464,0,1.07853349908,8000,2018-04-03 07:22:12,13,0,16.637,5406.8424223628,64.304464,0.671082,1.12008533768,0,0,-11.408394,39.5, -4.3, 3.5,0,0,1024,1024,1684,1024,39.3,-16.5,99,4.177,4.182,4.183,4.174,0,0,22.514,84.11,6,P-GPS,
0.364688348035308,36.9257798134522,5408.4828423628,65.944884,0,1.06579399736,8100,2018-04-03 07:22:12,13,0,16.637,5408.4828423628,65.944884,0.671082,1.12008533768,0,0,-11.408394,39.6, -3.9, 3.8,0,0,1024,1024,1684,1024,39.3,-20.3,99,4.177,4.182,4.183,4.174,0,0,22.514,84.11,6,P-GPS,
0.364688282672823,36.9257798679603,5410.4513463628,67.913388,0,1.0348425528,8200,2018-04-03 07:22:12,13,0,16.637,5410.4513463628,67.913388,0.671082,1.12008533768,0,0,-11.1847,39.6, -4.2, 3.9,0,0,1024,1024,1684,1024,39.3,-20.3,99,4.177,4.182,4.183,4.174,0,0,22.514,84.11,6,P-GPS,
0.364688213576316,36.9257799436565,5412.0917663628,69.553808,0,0.99835633116,8300,2018-04-03 07:22:12,13,0,16.637,5412.0917663628,69.553808,0.671082,1.12008533768,0,0,-10.961006,39.6, -3.9, 3.9,0,0,1024,1024,1684,1024,39.3,-20.3,99,4.187,4.187,4.186,4.178,0,0,16.8,84.11,6,P-GPS,
0.364688131173793,36.9257800649634,5413.7321863628,71.194228,0,0.94862863928,8400,2018-04-03 07:22:12,13,0,16.637,5413.7321863628,71.194228,0.671082,1.12008533768,0,0,-10.961006,39.5, -4, 3,0,0,1024,1024,1684,1024,39.3,-20.3,99,4.187,4.187,4.186,4.178,0,0,16.8,84.11,6,P-GPS,
0.364688039603537,36.9257801982655,5415.3726063628,72.834648,0.223694,0.89417325696,8500,2018-04-03 07:22:12,13,0,16.637,5415.3726063628,72.834648,0.671082,1.12008533768,0,0.223694,-10.961006,39.5, -4.3, 2.2,0,0,1024,1024,1684,1024,39.4,-20.3,99,4.187,4.187,4.186,4.178,0,0,16.8,84.11,6,P-GPS,
0.364687916569708,36.9257804041596,5417.0130263628,74.475068,0.223694,0.8171588188,8600,2018-04-03 07:22:12,13,0,16.637,5417.0130263628,74.475068,0.671082,1.12008533768,0,0.223694,-10.961006,39.6, -4.1, 1.2,0,0,1024,1024,1684,1024,39.4,-20.3,99,4.187,4.187,4.186,4.178,0,0,16.8,84.11,6,P-GPS,
0.364687807121173,36.9257805996568,5418.6534463628,76.115488,0.223694,0.74859254364,8700,2018-04-03 07:22:12,13,0,16.637,5418.6534463628,76.115488,0.671082,1.12008533768,0,0.223694,-10.961006,39.5, -4.7, 0.5,0,0,1024,1024,1684,1024,39.4,-20.3,99,4.187,4.187,4.186,4.178,0,0,16.8,84.11,6,P-GPS,
0.364687684163066,36.9257807962857,5420.6219503628,78.083992,0.223694,0.67821196396,8800,2018-04-03 07:22:13,13,0,16.637,5420.6219503628,78.083992,0.671082,1.12008533768,0,0.223694,-10.961006,39.5, -4, -0.4,0,0,1024,1024,1684,1024,39.4,-20.3,99,4.187,4.187,4.186,4.178,0,0,16.8,84.11,6,P-GPS,
0.364687622995452,36.9257809255302,5422.2623703628,79.724412,0,0.6406168184,8900,2018-04-03 07:22:13,13,0,16.637,5422.2623703628,79.724412,0.671082,1.12008533768,0,0,-11.408394,39.5, -2.6, 0.1,0,0,1024,1024,1684,1024,39.4,-20.3,99,4.187,4.187,4.186,4.178,0,0,16.8,84.11,6,P-GPS,
0.364687575470129,36.9257810088452,5423.9027903628,81.364832,0,0.6146817782,9000,2018-04-03 07:22:13,13,0,16.637,5423.9027903628,81.364832,0.671082,1.12008533768,0,0,-11.408394,39.6, -3.3, 1.8,0,0,1024,1024,1684,1024,39.4,-20.3,99,4.187,4.187,4.186,4.178,0,0,16.8,84.11,6,P-GPS,
0.364687544893243,36.9257810327372,5425.8712943628,83.333336,0,0.60148295888,9100,2018-04-03 07:22:13,13,0,16.637,5425.8712943628,83.333336,0.671082,1.12008533768,0,0,-11.408394,39.5, -4.3, 3.7,0,0,1024,1024,1684,1024,39.4,-20.3,99,4.187,4.187,4.186,4.178,0,0,16.8,84.11,6,P-GPS,
0.364687518077656,36.9257810921316,5427.5117143628,84.973756,0,0.58620736784,9200,2018-04-03 07:22:13,13,0,16.637,5427.5117143628,84.973756,0.671082,1.12008533768,0,0,-11.1847,39.5, -4.5, 3.9,0,0,1024,1024,1684,1024,39.4,-20.3,99,4.187,4.187,4.186,4.178,0,0,16.8,84.11,6,P-GPS,
0.364687490638781,36.925781169676,5429.1521343628,86.614176,0,0.56983925708,9300,2018-04-03 07:22:13,13,0,16.637,5429.1521343628,86.614176,0.671082,1.12008533768,0,0,-10.961006,39.5, -4.3, 3,0,0,1024,1024,1684,1024,39.4,-20.3,99,4.18,4.185,4.186,4.178,0,0,16.29,84.11,6,P-GPS,
0.36468743280785,36.925781353497,5430.7925543628,88.254596,0,0.5384022482,9400,2018-04-03 07:22:13,13,0,16.637,5430.7925543628,88.254596,0.671082,1.12008533768,0,0,-11.1847,39.5, -4.5, 2.1,0,0,1024,1024,1684,1024,39.4,-20.3,99,4.18,4.185,4.186,4.178,0,0,16.29,84.11,6,P-GPS,
0.364687403070834,36.9257815265974,5432.4329743628,89.895016,0,0.52487206404,9500,2018-04-03 07:22:13,13,0,16.637,5432.4329743628,89.895016,0.671082,1.12008533768,0,0,-11.1847,39.7, -3.7, 1.1,0,0,1024,1024,1684,1024,39.4,-20.3,99,4.18,4.185,4.186,4.178,0,0,16.29,84.11,6,P-GPS,
0.364687367335037,36.9257817304939,5434.4014783628,91.86352,0,0.51847442604,9600,2018-04-03 07:22:13,13,0,16.637,5434.4014783628,91.86352,0.671082,1.12008533768,0,0,-11.1847,39.7, -3.3, 1.2,0,0,1024,1024,1684,1024,39.4,-20.3,99,4.18,4.185,4.186,4.178,0,0,16.29,84.11,6,P-GPS,
0.364687373006908,36.9257818663928,5436.0418983628,93.50394,0,0.53070211672,9700,2018-04-03 07:22:13,13,0,16.637,5436.0418983628,93.50394,0.671082,1.12008533768,0,0,-10.961006,39.6, -3.3, 2.2,0,0,1024,1024,1684,1024,39.4,-20.3,99,4.18,4.185,4.186,4.178,0,0,16.29,84.11,6,P-GPS,
0.364687371652042,36.9257820252362,5437.6823183628,95.14436,0,0.54761484692,9800,2018-04-03 07:22:13,13,0,16.637,5437.6823183628,95.14436,0.671082,1.12008533768,0,0,-10.961006,39.6, -2.8, 3.1,0,0,1024,1024,1684,1024,39.4,-20.3,99,4.18,4.185,4.186,4.178,0,0,16.29,84.11,6,P-GPS,
0.364687390078293,36.9257821571974,5439.3227383628,96.78478,0,0.57228348288,9900,2018-04-03 07:22:14,13,0,16.637,5439.3227383628,96.78478,0.671082,1.12008533768,0,0,-10.961006,39.6, -3, 2.9,0,0,1024,1024,1684,1024,39.4,-20.3,99,4.18,4.185,4.186,4.178,0,0,16.29,84.11,6,P-GPS,
0.364687381555425,36.9257823473624,5441.2912423628,98.753284,0,0.60186353632,10000,2018-04-03 07:22:14,13,0,16.637,5441.2912423628,98.753284,0.671082,1.12008533768,0,0,-10.961006,39.6, -2.8, 2.4,0,0,1024,1024,1684,1024,39.4,-20.3,99,4.18,4.185,4.186,4.178,0,0,16.29,84.11,6,P-GPS,
0.364687401893469,36.9257825102075,5442.9316623628,100.393704,0,0.64040684464,10100,2018-04-03 07:22:14,13,0,16.637,5442.9316623628,100.393704,0.671082,1.12008533768,0,0,-11.1847,39.6, -2.1, 2.2,0,0,1024,1024,1684,1024,39.4,-20.3,99,4.18,4.185,4.186,4.178,0,0,16.29,84.11,6,P-GPS,
0.36468738581177,36.9257827029129,5444.5720823628,102.034124,0,0.67870408996,10200,2018-04-03 07:22:14,13,0,16.637,5444.5720823628,102.034124,0.671082,1.12008533768,0,0,-11.1847,39.6, -2.2, 2.1,0,0,1024,1024,1684,1024,39.4,-20.3,99,4.18,4.185,4.186,4.178,0,0,16.29,84.11,6,P-GPS,
0.364687380249005,36.9257828531442,5446.2125023628,103.674544,0,0.713828763,10300,2018-04-03 07:22:14,13,0,16.637,5446.2125023628,103.674544,0.671082,1.12008533768,0,0,-10.961006,39.6, -2.3, 2,0,0,1024,1024,1684,1024,39.4,-20.3,99,4.178,4.18,4.18,4.17,0,0,16.624,84.11,6,P-GPS,
0.364687340969308,36.9257830232494,5447.8529223628,105.314964,0,0.7483103914,10400,2018-04-03 07:22:14,13,0,16.637,5447.8529223628,105.314964,0.671082,1.12008533768,0,0,-10.961006,39.6, -2.2, 1.7,0,0,1024,1024,1684,1024,39.4,-20.3,99,4.178,4.18,4.18,4.17,0,0,16.624,84.11,6,P-GPS,
0.364687314605207,36.925783149891,5449.8214263628,107.283468,0,0.77704726896,10500,2018-04-03 07:22:14,13,0,16.637,5449.8214263628,107.283468,0.671082,1.12008533768,0,0,-11.1847,39.6, -1.2, 1.7,0,0,1024,1024,1684,1024,39.4,-20.3,99,4.178,4.18,4.18,4.17,0,0,16.624,84.11,6,P-GPS,
0.364687245191967,36.9257832777405,5451.4618463628,108.923888,0,0.7985892644,10600,2018-04-03 07:22:14,13,0,16.637,5451.4618463628,108.923888,0.671082,1.12008533768,0,0,-11.1847,39.6, -1.8, 1.4,0,0,1024,1024,1684,1024,39.4,-20.3,99,4.178,4.18,4.18,4.17,0,0,16.624,84.11,6,P-GPS,
0.364687157155435,36.9257833464668,5453.1022663628,110.564308,0,0.80116800464,10700,2018-04-03 07:22:14,13,0,16.637,5453.1022663628,110.564308,0.671082,1.12008533768,0,0,-11.408394,39.6, -3.5, 1.3,0,0,1024,1024,1684,1024,39.4,-20.3,99,4.178,4.18,4.18,4.17,0,0,16.624,84.11,6,P-GPS,
0.364687035862819,36.9257834121919,5455.0707703628,112.532812,0,0.79884845076,10800,2018-04-03 07:22:15,13,0,16.637,5455.0707703628,112.532812,0.671082,1.12008533768,0,0,-11.408394,39.6, -4.2, 1.3,0,0,1024,1024,1684,1024,39.4,-20.3,99,4.178,4.18,4.18,4.17,0,0,16.624,84.11,6,P-GPS,
0.364686938713514,36.9257834611391,5456.7111903628,114.173232,0,0.79806761084,10900,2018-04-03 07:22:15,13,0,16.637,5456.7111903628,114.173232,0.671082,1.12008533768,0,0,-11.1847,39.5, -4.7, 1.2,0,0,1024,1024,1684,1034,39.4,-20.3,99,4.178,4.18,4.18,4.17,0,0,16.624,84.11,6,P-GPS,
0.364686865073241,36.9257835293572,5458.3516103628,115.813652,0,0.8091535692,11000,2018-04-03 07:22:15,13,0,16.637,5458.3516103628,115.813652,0.671082,1.12008533768,0,0,-11.1847,39.5, -4.6, 0.9,0,0,1024,1024,1684,1034,39.4,-20.3,99,4.178,4.18,4.18,4.17,0,0,16.624,84.11,6,P-GPS,
0.36468684114,36.9257835821342,5460.3201143628,117.782156,0,0.82335632556,11100,2018-04-03 07:22:15,13,0,16.637,5460.3201143628,117.782156,0.671082,1.12008533768,0,0,-11.1847,39.6, -3.8, 1,0,0,1024,1024,1684,1030,39.4,-20.3,99,4.178,4.18,4.18,4.17,0,0,16.624,84.11,6,P-GPS,
0.364686825595281,36.9257836731598,5461.9605343628,119.422576,0,0.85194884616,11200,2018-04-03 07:22:15,13,0,16.637,5461.9605343628,119.422576,0.671082,1.12008533768,0,0,-11.1847,39.5, -3.8, 1.2,0,0,1024,1024,1684,1024,39.4,-20.3,99,4.178,4.18,4.18,4.17,0,0,16.624,84.11,6,P-GPS,
0.364686819363225,36.9257837432778,5463.6009543628,121.062996,0,0.8749672196,11300,2018-04-03 07:22:15,13,0,16.664,5463.6009543628,121.062996,0.671082,1.12008533768,0,0,-10.961006,39.5, -3.9, 1.4,0,0,1024,1024,1684,1024,39.4,-20.3,99,4.178,4.18,4.18,4.17,0,0,16.624,84.11,6,P-GPS,
0.364686788815244,36.9257838337249,5465.2413743628,122.703416,0,0.9020997664,11400,2018-04-03 07:22:15,13,0,16.664,5465.2413743628,122.703416,0.671082,1.12008533768,0,0,-10.961006,39.5, -3.5, 1.9,0,0,1024,1024,1684,1024,39.4,-20.3,99,4.178,4.18,4.18,4.17,0,0,16.624,84.11,6,P-GPS,
0.364686736893936,36.9257839202993,5466.8817943628,124.343836,0,0.9260006858,11500,2018-04-03 07:22:15,13,0,16.664,5466.8817943628,124.343836,0.671082,1.12008533768,0,0,-10.961006,39.4, -4.2, 1,0,0,1024,1024,1684,1029,39.4,-20.3,99,4.178,4.18,4.18,4.17,0,0,16.624,84.11,6,P-GPS,
0.364686659846958,36.9257840569447,5468.5222143628,125.984256,0,0.96584976844,11600,2018-04-03 07:22:15,13,0,16.664,5468.5222143628,125.984256,0.671082,1.12008533768,0,0,-10.961006,39.4, -4.6, 0.8,0,0,1024,1024,1684,1038,39.4,-20.3,99,4.178,4.18,4.18,4.17,0,0,16.624,84.11,6,P-GPS,
0.364686617773665,36.9257841975598,5470.4907183628,127.95276,0,1.01171591164,11700,2018-04-03 07:22:15,13,0,16.664,5470.4907183628,127.95276,0.671082,1.12008533768,0,0,-10.737312,39.5, -4.1, -0.4,0,0,1024,1024,1684,1044,39.4,-20.3,99,4.178,4.18,4.18,4.17,0,0,16.624,84.11,6,P-GPS,
0.364686573409151,36.9257843273263,5472.1311383628,129.59318,0,1.05425856392,11800,2018-04-03 07:22:15,13,0,16.664,5472.1311383628,129.59318,0.671082,1.12008533768,0,0,-10.961006,39.5, -3, -1.2,0,0,1024,1024,1684,1046,39.4,-20.3,99,4.178,4.18,4.18,4.17,0,0,16.624,84.11,6,P-GPS,
0.364686585461672,36.9257843953195,5473.7715583628,131.2336,0,1.07943573008,11900,2018-04-03 07:22:16,13,0,16.664,5473.7715583628,131.2336,0.671082,1.12008533768,0,0,-10.961006,39.6, -2.8, -0.4,0,0,1024,1024,1684,1039,39.4,-20.5,99,4.178,4.18,4.18,4.17,0,0,16.624,84.11,6,P-GPS,
0.364686638660087,36.9257843990455,5475.4119783628,132.87402,0.223694,1.08499675388,12000,2018-04-03 07:22:16,13,0,16.664,5475.4119783628,132.87402,0.671082,1.12008533768,0.223694,0,-10.961006,39.5, -3.1, 0.6,0,0,1024,1024,1684,1029,39.4,-21.3,99,4.178,4.18,4.18,4.17,0,0,16.624,84.11,6,P-GPS,
0.36468673451193,36.9257843860996,5477.0523983628,134.51444,0.223694,1.08889111096,12100,2018-04-03 07:22:16,13,0,16.664,5477.0523983628,134.51444,0.671082,1.12008533768,0.223694,0,-10.961006,39.5, -2.4, 1.3,0,0,1024,1024,1684,1025,39.4,-22.2,99,4.178,4.18,4.18,4.17,0,0,16.624,84.11,6,P-GPS,
0.3646868376649,36.9257843956292,5478.6928183628,136.15486,0.223694,1.102526282,12200,2018-04-03 07:22:16,13,0,16.664,5478.6928183628,136.15486,0.671082,1.12008533768,0.223694,0,-10.961006,39.5, -2, 2.2,0,0,1024,1024,1684,1024,39.4,-22.7,99,4.178,4.18,4.18,4.17,0,0,16.624,84.11,6,P-GPS,
0.364686942143832,36.9257843992635,5480.3332383628,137.79528,0.223694,1.11539373648,12300,2018-04-03 07:22:16,13,0,16.61,5480.3332383628,137.79528,0.671082,1.12008533768,0.223694,0,-10.961006,39.5, -2.4, 2.3,0,0,1024,1024,1684,1036,39.4,-22.7,99,4.174,4.176,4.176,4.167,0,0,15.952,84.11,6,P-GPS,
0.364687019071119,36.9257843753661,5481.9736583628,139.4357,0.223694,1.11649281788,12400,2018-04-03 07:22:16,13,0,16.61,5481.9736583628,139.4357,0.671082,1.12008533768,0.223694,0,-11.1847,39.5, -1.8, 2.4,0,0,1024,1024,1684,1030,39.4,-22.7,99,4.174,4.176,4.176,4.167,0,0,15.952,84.11,6,P-GPS,
0.364687100024734,36.9257843253341,5483.6140783628,141.07612,0.223694,1.1100558098,12500,2018-04-03 07:22:16,13,0,16.61,5483.6140783628,141.07612,0.671082,1.12008533768,0.223694,0,-11.1847,39.5, -1.6, 2.7,0,0,1024,1024,1684,1034,39.4,-22.7,99,4.174,4.176,4.176,4.167,0,0,15.952,84.11,6,P-GPS,
0.364687137962594,36.9257842702439,5485.5825823628,143.044624,0.223694,1.09676184612,12600,2018-04-03 07:22:16,13,0,16.61,5485.5825823628,143.044624,0.671082,1.12008533768,0.223694,0,-10.961006,39.5, -1.9, 3.1,0,0,1024,1024,1684,1043,39.4,-22.8,99,4.174,4.176,4.176,4.167,0,0,15.952,84.11,6,P-GPS,
0.364687177041586,36.9257842151477,5487.2230023628,144.685044,0,1.0840223444,12700,2018-04-03 07:22:16,13,0,16.61,5487.2230023628,144.685044,0.671082,1.12008533768,0,0,-11.1847,39.5, -1.9, 3.6,0,0,1024,1024,1684,1038,39.4,-24.1,99,4.174,4.176,4.176,4.167,0,0,15.952,84.11,6,P-GPS,
0.364687187684689,36.925784169575,5488.8634223628,146.325464,0,1.07047903688,12800,2018-04-03 07:22:17,13,0,16.61,5488.8634223628,146.325464,0.671082,1.12008533768,0,0,-11.1847,39.5, -2.3, 3.1,0,0,1024,1024,1684,1034,39.4,-26.5,99,4.174,4.176,4.176,4.167,0,0,15.952,84.11,6,P-GPS,
0.364687201095332,36.9257841373953,5490.5038423628,147.965884,0,1.06188651692,12900,2018-04-03 07:22:17,13,0,16.61,5490.5038423628,147.965884,0.671082,1.12008533768,0,0,-11.1847,39.5, -2.3, 2.5,0,0,1024,1024,1684,1034,39.4,-28.1,99,4.174,4.176,4.176,4.167,0,0,15.952,84.11,6,P-GPS,
0.364687158741539,36.9257841135914,5492.1442623628,149.606304,0,1.04750987604,13000,2018-04-03 07:22:17,13,0,16.61,5492.1442623628,149.606304,0.671082,1.12008533768,0,0,-11.1847,39.5, -2.5, 2.2,0,0,1024,1024,1684,1034,39.4,-28.1,99,4.174,4.176,4.176,4.167,0,0,15.952,84.11,6,P-GPS,
0.364687121015784,36.9257840865487,5494.1127663628,151.574808,0,1.03284780208,13100,2018-04-03 07:22:17,13,0,16.61,5494.1127663628,151.574808,0.671082,1.12008533768,0,0,-11.1847,39.5, -2.5, 2.2,0,0,1024,1024,1684,1041,39.4,-28.1,99,4.174,4.176,4.176,4.167,0,0,15.952,84.11,6,P-GPS,
0.364687087331013,36.925784078332,5495.7531863628,153.215228,0,1.02514110892,13200,2018-04-03 07:22:17,13,0,16.61,5495.7531863628,153.215228,0.671082,1.12008533768,0,0,-11.1847,39.5, -2.4, 2,0,0,1024,1024,1684,1035,39.4,-28.1,99,4.174,4.176,4.176,4.167,0,0,15.952,84.11,6,P-GPS,
0.364687069957144,36.9257840689052,5497.3936063628,154.855648,0,1.01946525572,13300,2018-04-03 07:22:17,13,0,16.61,5497.3936063628,154.855648,0.671082,1.12008533768,0,0,-11.1847,39.6, -2.7, 1.7,0,0,1024,1024,1684,1028,39.4,-28.1,99,4.175,4.175,4.173,4.163,0,0,15.678,84.11,6,P-GPS,
0.364687053502532,36.9257840696914,5499.0340263628,156.496068,0,1.01736879896,13400,2018-04-03 07:22:17,13,0,16.61,5499.0340263628,156.496068,0.671082,1.12008533768,0,0,-11.1847,39.6, -2.9, 2.1,0,0,1024,1024,1684,1031,39.4,-28.1,99,4.175,4.175,4.173,4.163,0,0,15.678,84.11,6,P-GPS,
0.364687041456931,36.9257840707494,5500.6744463628,158.136488,0,1.01601709288,13500,2018-04-03 07:22:17,13,0,16.61,5500.6744463628,158.136488,0.671082,1.12008533768,0,0,-11.1847,39.6, -3.1, 2,0,0,1024,1024,1684,1024,39.4,-28.1,99,4.175,4.175,4.173,4.163,0,0,15.678,84.11,6,P-GPS,
0.364687029938947,36.9257840963808,5502.3148663628,159.776908,0,1.02304137132,13600,2018-04-03 07:22:17,13,0,16.61,5502.3148663628,159.776908,0.671082,1.12008533768,0,0,-10.961006,39.6, -3.1, 1.9,0,0,1024,1024,1684,1024,39.4,-28.1,99,4.175,4.175,4.173,4.163,0,0,15.678,84.11,6,P-GPS,
0.364687024292317,36.9257841279198,5503.9552863628,161.417328,0,1.0329232614,13700,2018-04-03 07:22:17,13,0,16.61,5503.9552863628,161.417328,0.671082,1.12008533768,0,0,-10.961006,39.5, -2.8, 1.5,0,0,1024,1024,1684,1027,39.4,-28.1,99,4.175,4.175,4.173,4.163,0,0,15.678,84.11,6,P-GPS,
0.364687020340491,36.9257841397729,5505.5957063628,163.057748,0,1.03639767096,13800,2018-04-03 07:22:18,13,0,16.61,5505.5957063628,163.057748,0.671082,1.12008533768,0,0,-10.961006,39.5, -2.5, 1,0,1,1024,1024,1684,1024,39.4,-28.1,99,4.175,4.175,4.173,4.163,0,0,15.678,84.11,6,P-GPS,
0.364687023045744,36.9257841272777,5507.2361263628,164.698168,0,1.03253612228,13900,2018-04-03 07:22:18,13,0,16.61,5507.2361263628,164.698168,0.671082,1.12008533768,0,0,-11.1847,39.5, -2.6, 1.1,0,1,1024,1024,1684,1024,39.4,-28.1,99,4.175,4.175,4.173,4.163,0,0,15.678,84.11,6,P-GPS,
0.364687004981821,36.9257840990728,5508.8765463628,166.338588,0,1.02053152872,14000,2018-04-03 07:22:18,13,0,16.61,5508.8765463628,166.338588,0.671082,1.12008533768,0,0,-11.1847,39.4, -2.8, 1.4,0,1,1024,1024,1684,1024,39.4,-28.1,99,4.175,4.175,4.173,4.163,0,0,15.678,84.11,6,P-GPS,
0.364686990451623,36.9257840789437,5510.8450503628,168.307092,0,1.01174215836,14100,2018-04-03 07:22:18,13,0,16.61,5510.8450503628,168.307092,0.671082,1.12008533768,0,0,-11.1847,39.4, -3.2, 1.4,0,1,1024,1024,1684,1026,39.4,-28.1,99,4.175,4.175,4.173,4.163,0,0,15.678,84.11,6,P-GPS,
0.364686984317681,36.9257840700544,5512.4854703628,169.947512,0,1.00790357556,14200,2018-04-03 07:22:18,13,0,16.61,5512.4854703628,169.947512,0.671082,1.12008533768,0,0,-11.408394,39.4, -3.4, 1.1,0,1,1024,1024,1684,1038,39.4,-28.1,99,4.175,4.175,4.173,4.163,0,0,15.678,84.11,6,P-GPS,
0.36468701038052,36.9257840661915,5514.1258903628,171.587932,0,1.01014767012,14300,2018-04-03 07:22:18,13,0,16.61,5514.1258903628,171.587932,0.671082,1.12008533768,0,0,-11.408394,39.4, -3, 1.4,0,1,1024,1024,1684,1039,39.4,-28.1,99,4.177,4.178,4.178,4.169,0,0,14.948,84.11,6,P-GPS,
0.364687050743948,36.925784037009,5516.0943943628,173.556436,0,1.0060039692,14400,2018-04-03 07:22:18,13,0,16.61,5516.0943943628,173.556436,0.671082,1.12008533768,0,0,-11.408394,39.5, -2.6, 2,0,1,1024,1024,1684,1038,39.4,-28.1,99,4.177,4.178,4.178,4.169,0,0,14.948,84.11,6,P-GPS,
0.364687101009128,36.9257840144155,5517.7348143628,175.196856,0,1.00585305056,14500,2018-04-03 07:22:18,13,0,16.61,5517.7348143628,175.196856,0.671082,1.12008533768,0,0,-11.1847,39.5, -2.2, 2.2,0,1,1024,1024,1684,1038,39.4,-28.1,99,4.177,4.178,4.178,4.169,0,0,14.948,84.11,6,P-GPS,
0.364687125406883,36.9257839986601,5519.3752343628,176.837276,0,1.00434058332,14600,2018-04-03 07:22:18,13,0,16.61,5519.3752343628,176.837276,0.671082,1.12008533768,0,0,-11.1847,39.5, -2.1, 2.3,0,1,1024,1024,1684,1070,39.4,-28.1,99,4.177,4.178,4.178,4.169,0,0,14.948,84.11,6,P-GPS,
0.364687146353151,36.9257839985565,5521.0156543628,178.477696,0,1.00755252568,14700,2018-04-03 07:22:18,13,0,16.61,5521.0156543628,178.477696,0.671082,1.12008533768,0,0,-11.1847,39.6, -2.1, 1.9,0,1,1024,1024,1684,1024,39.5,-28.1,99,4.177,4.178,4.178,4.169,0,0,14.948,84.11,6,P-GPS,
0.364687140800565,36.925783997896,5522.6560743628,180.118116,0,1.00646984848,14800,2018-04-03 07:22:18,13,0,16.61,5522.6560743628,180.118116,0.671082,1.12008533768,0,0,-10.961006,39.8, -2.2, 1.9,0,1,1024,1024,1684,1039,39.5,-28.1,99,4.177,4.178,4.178,4.169,0,0,14.948,84.11,6,P-GPS,
0.364687141293576,36.9257840020361,5524.2964943628,181.758536,0,1.00791013724,14900,2018-04-03 07:22:19,13,0,16.61,5524.2964943628,181.758536,0.671082,1.12008533768,0,0,-11.1847,39.9, -2.6, 1.5,0,1,1024,1024,1684,1054,39.5,-28.1,99,4.177,4.178,4.178,4.169,0,0,14.948,84.11,6,P-GPS,
0.364687131341748,36.925783999392,5525.9369143628,183.398956,0,1.005495439,15000,2018-04-03 07:22:19,13,0,16.61,5525.9369143628,183.398956,0.671082,1.12008533768,0,0,-11.1847,39.9, -2.8, 2.1,0,1,1024,1024,1684,1063,39.5,-28.1,99,4.177,4.178,4.178,4.169,0,0,14.948,84.11,6,P-GPS,
0.364687146047411,36.925784002151,5527.5773343628,185.039376,0,1.00868769632,15100,2018-04-03 07:22:19,13,0,16.61,5527.5773343628,185.039376,0.671082,1.12008533768,0,0,-11.1847,40, -2, 1.9,0,1,1024,1024,1684,1057,39.6,-28.1,99,4.177,4.178,4.178,4.169,0,0,14.948,84.11,6,P-GPS,
0.364687156572045,36.9257839962071,5529.2177543628,186.679796,0,1.00837929736,15200,2018-04-03 07:22:19,13,0,16.61,5529.2177543628,186.679796,0.671082,1.12008533768,0,0,-11.408394,40.4, -2.1, 1.3,0,1,1024,1024,1684,1041,39.6,-28.1,99,4.177,4.178,4.178,4.169,0,0,14.948,84.11,6,P-GPS,
0.364687176030322,36.9257839562156,5531.1862583628,188.6483,0,0.99835633116,15300,2018-04-03 07:22:19,13,0,16.61,5531.1862583628,188.6483,0.671082,1.12008533768,0,0,-11.408394,40.7, -2.6, 2.1,0,1,1024,1024,1684,1041,39.6,-28.1,99,4.177,4.178,4.178,4.169,0,0,14.948,84.11,6,P-GPS,
0.364687173748465,36.9257838531227,5532.8266783628,190.28872,0.223694,0.96439307548,15400,2018-04-03 07:22:19,13,0,16.61,5532.8266783628,190.28872,0.671082,1.12008533768,0,-0.223694,-11.408394,40.8, -3.2, 3.2,0,1,1024,1024,1684,1043,39.7,-28.1,99,4.177,4.178,4.178,4.169,0,0,14.948,84.11,6,P-GPS,
0.364687165119747,36.925783745594,5534.7951823628,192.257224,0.223694,0.92819228692,15500,2018-04-03 07:22:19,13,0,16.61,5534.7951823628,192.257224,0.671082,1.12008533768,0,-0.223694,-11.632088,40.9, -3.5, 3,0,1,1024,1024,1684,1040,39.7,-28.1,99,4.177,4.178,4.178,4.169,0,0,14.948,84.11,6,P-GPS,
0.364687138588731,36.9257836073918,5536.4356023628,193.897644,0.223694,0.87930120924,15600,2018-04-03 07:22:19,13,0,16.61,5536.4356023628,193.897644,0.671082,1.12008533768,0,-0.223694,-11.408394,40.9, -3.9, 3.4,0,1,1024,1024,1684,1040,39.8,-28.1,99,4.177,4.178,4.178,4.169,0,0,14.948,84.11,6,P-GPS,
0.364687128943457,36.9257834886972,5538.0760223628,195.538064,0,0.8399606568,15700,2018-04-03 07:22:19,13,0,16.61,5538.0760223628,195.538064,0.671082,1.12008533768,0,0,-11.1847,40.8, -4.3, 3.5,0,1,1024,1024,1684,1040,39.8,-28.1,99,4.177,4.178,4.178,4.169,0,0,14.948,84.11,6,P-GPS,
0.364687090130715,36.9257833812979,5539.7164423628,197.178484,0,0.79902889696,15800,2018-04-03 07:22:20,13,0,16.61,5539.7164423628,197.178484,0.671082,1.12008533768,0,0,-11.1847,40.9, -4.1, 3.4,0,1,1024,1024,1684,1041,39.8,-28.1,99,4.177,4.178,4.178,4.169,0,0,14.948,84.11,6,P-GPS,
0.364687064863371,36.9257833074558,5541.6849463628,199.146988,0,0.77120409292,15900,2018-04-03 07:22:20,13,0,16.61,5541.6849463628,199.146988,0.671082,1.12008533768,0,0,-11.1847,40.9, -3.6, 3.2,0,1,1024,1024,1684,1041,39.9,-28.1,99,4.177,4.178,4.178,4.169,0,0,14.948,84.11,6,P-GPS,
0.364687031107763,36.9257832258464,5543.3253663628,200.787408,0,0.7393865066,16000,2018-04-03 07:22:20,13,0,16.61,5543.3253663628,200.787408,0.671082,1.12008533768,0,0,-11.1847,40.9, -3.7, 3.2,0,1,1024,1024,1684,1037,39.9,-28.1,99,4.177,4.178,4.178,4.169,0,0,14.948,84.11,6,P-GPS,
0.364687012920079,36.9257831592382,5544.9657863628,202.427828,0,0.71526577092,16100,2018-04-03 07:22:20,13,0,16.61,5544.9657863628,202.427828,0.671082,1.12008533768,0,0,-10.961006,40.9, -3.7, 3.1,0,1,1024,1024,1684,1035,40,-28.1,99,4.177,4.178,4.178,4.169,0,0,14.948,84.11,6,P-GPS,
0.36468696797991,36.9257830789509,5546.6062063628,204.068248,0,0.68174870948,16200,2018-04-03 07:22:20,13,0,16.61,5546.6062063628,204.068248,0.671082,1.12008533768,0,0,-10.961006,40.8, -3.8, 2.8,0,1,1024,1024,1684,1034,40,-28.1,99,4.177,4.178,4.178,4.169,0,0,14.948,84.11,6,P-GPS,
0.364686933802127,36.9257830044194,5548.2466263628,205.708668,0,0.65212600512,16300,2018-04-03 07:22:20,13,0,16.664,5548.2466263628,205.708668,0.671082,1.12008533768,0,0,-11.1847,40.9, -4.1, 3.2,0,1,1024,1024,1684,1034,40,-28.1,99,4.176,4.178,4.179,4.169,0,0,14.526,84.11,6,P-GPS,
0.364686904298793,36.925782924211,5549.8870463628,207.349088,0,0.62173886504,16400,2018-04-03 07:22:20,13,0,16.664,5549.8870463628,207.349088,0.671082,1.12008533768,0,0,-11.1847,40.9, -4.1, 3.7,0,1,1024,1024,1684,1034,40,-28.1,99,4.176,4.178,4.179,4.169,0,0,14.526,84.11,6,P-GPS,
0.364686882884755,36.9257828690565,5551.5274663628,208.989508,0,0.60065946804,16500,2018-04-03 07:22:20,13,0,16.664,5551.5274663628,208.989508,0.671082,1.12008533768,0,0,-11.1847,40.9, -4.1, 3.4,0,1,1024,1024,1684,1032,40.1,-28.1,99,4.176,4.178,4.179,4.169,0,0,14.526,84.11,6,P-GPS,
0.364686825530957,36.9257827853315,5553.4959703628,210.958012,0,0.56363518864,16600,2018-04-03 07:22:20,13,0,16.664,5553.4959703628,210.958012,0.671082,1.12008533768,0,0,-10.961006,40.8, -4.9, 3.5,0,1,1024,1024,1684,1026,40.1,-28.1,99,4.176,4.178,4.179,4.169,0,0,14.526,84.11,6,P-GPS,
0.36468678310022,36.9257827282384,5555.1363903628,212.598432,0,0.5377132718,16700,2018-04-03 07:22:20,13,0,16.664,5555.1363903628,212.598432,0.671082,1.12008533768,0,0,-10.961006,40.8, -4.4, 3.1,0,1,1024,1024,1684,1024,40.1,-28.1,99,4.176,4.178,4.179,4.169,0,0,14.526,84.11,6,P-GPS,
0.36468672484345,36.9257826560204,5556.7768103628,214.238852,0,0.50400920248,16800,2018-04-03 07:22:20,13,0,16.664,5556.7768103628,214.238852,0.671082,1.12008533768,0,0,-10.961006,40.8, -3.9, 3.2,0,1,1024,1024,1024,1024,40.1,-28.1,99,4.176,4.178,4.179,4.169,0,0,14.526,84.11,6,P-GPS,
0.364686673861754,36.9257826044065,5558.4172303628,215.879272,0,0.47807744312,16900,2018-04-03 07:22:21,13,0,16.664,5558.4172303628,215.879272,0.671082,1.12008533768,0,0,-10.961006,40.8, -4.6, 2.9,0,1,1024,1024,1047,1024,40.1,-28.1,99,4.176,4.178,4.179,4.169,0,0,14.526,84.11,6,P-GPS,
0.364686629606346,36.9257825507036,5559.7295663628,217.191608,0,0.45287403024,17000,2018-04-03 07:22:21,13,0,16.664,5559.7295663628,217.191608,0.671082,1.12008533768,0,0,-10.06623,40.7, -7.3, 2.7,0,1,1024,1024,1024,1024,40.2,-28.1,99,4.176,4.178,4.179,4.169,0,0,14.526,84.11,6,P-GPS,
0.364686624466977,36.9257825194165,5561.3699863628,218.832028,0,0.44225395116,17100,2018-04-03 07:22:21,13,0,16.664,5561.3699863628,218.832028,0.671082,1.12008533768,0,0,-8.724066,40.6, -7.5, 3,0,1,1024,1024,1024,1024,40.2,-28.1,99,4.176,4.178,4.179,4.169,0,0,14.526,84.11,6,P-GPS,
0.364686629217962,36.9257824745256,5562.3542383628,219.81628,0,0.42958334708,17200,2018-04-03 07:22:21,13,0,16.664,5562.3542383628,219.81628,0.671082,1.12008533768,0,0,-7.158208,40.7, -6, 3,0,1,1024,1024,1024,1024,40.2,-28.1,99,4.176,4.178,4.179,4.169,0,0,14.526,84.11,6,P-GPS,
0.364686645817913,36.925782439437,5563.3384903628,220.800532,0,0.42260828124,17300,2018-04-03 07:22:21,13,0,16.664,5563.3384903628,220.800532,0.671082,1.12008533768,0,0,-5.59235,40.7, -5.6, 3,0,1,1024,1024,1024,1024,40.2,-28.1,98,4.181,4.182,4.181,4.173,0,0,13.168,84.11,6,P-GPS,
0.364686633075746,36.9257823667723,5563.9946583628,221.4567,0,0.39860893664,17400,2018-04-03 07:22:21,13,0,16.664,5563.9946583628,221.4567,0.671082,1.12008533768,0,0,-3.579104,40.7, -5.1, 3.4,0,1,1024,1024,1024,1024,40.2,-28.1,98,4.181,4.182,4.181,4.173,0,0,13.168,84.11,6,P-GPS,
0.364686638404422,36.9257823074873,5563.9946583628,221.4567,0,0.3829724532,17500,2018-04-03 07:22:21,13,0,16.664,5563.9946583628,221.4567,0.671082,1.12008533768,0,0,-2.013246,40.8, -3.6, 3.4,0,1,1024,1024,1024,1024,40.2,-28.1,98,4.181,4.182,4.181,4.173,0,0,13.168,84.11,6,P-GPS,
0.364686602957674,36.9257822381849,5564.3227423628,221.784784,0,0.35534121872,17600,2018-04-03 07:22:21,13,0,16.664,5564.3227423628,221.784784,0.671082,1.12008533768,0,0,-1.11847,41, -2.1, 2.8,0,1,1024,1024,1024,1024,40.3,-28.1,98,4.181,4.182,4.181,4.173,0,0,13.168,84.11,6,P-GPS,
0.364686575116574,36.9257821755529,5564.3227423628,221.784784,0,0.33150263528,17700,2018-04-03 07:22:21,13,0,16.664,5564.3227423628,221.784784,0.671082,1.12008533768,0,0,-0.447388,41.1, -1.8, 2.7,0,1,1024,1024,1024,1024,40.3,-28.1,98,4.181,4.182,4.181,4.173,0,0,13.168,84.11,6,P-GPS,
0.36468649599048,36.9257820812397,5564.3227423628,221.784784,0,0.286626649592,17800,2018-04-03 07:22:22,13,0,16.664,5564.3227423628,221.784784,0.671082,1.12008533768,0,0,-0.223694,41.2, -2.4, 3.2,0,1,1024,1024,1054,1024,40.3,-28.1,98,4.181,4.182,4.181,4.173,0,0,13.168,84.11,6,P-GPS,
0.364686427483063,36.9257819953466,5564.3227423628,221.784784,0.223694,0.246654535452,17900,2018-04-03 07:22:22,13,0,16.664,5564.3227423628,221.784784,0.671082,1.12008533768,-0.223694,0,0,41.2, -4, 2.7,0,1,1024,1024,1054,1024,40.3,-28.1,98,4.181,4.182,4.181,4.173,0,0,13.168,84.11,6,P-GPS,
0.364686359367693,36.925781938553,5564.3227423628,221.784784,0.223694,0.214573169596,18000,2018-04-03 07:22:22,13,0,16.664,5564.3227423628,221.784784,0.671082,1.12008533768,-0.223694,0,0,41.1, -5.1, 2,0,1,1024,1024,1110,1024,40.3,-28.1,98,4.181,4.182,4.181,4.173,0,0,13.168,84.11,6,P-GPS,
0.364686355772496,36.9257819032594,5564.3227423628,221.784784,0,0.204291017036,18100,2018-04-03 07:22:22,13,0,16.664,5564.3227423628,221.784784,0.671082,1.12008533768,0,0,0,41.1, -5.1, 2.3,0,1,1024,1024,1151,1024,40.4,-28.1,98,4.181,4.182,4.181,4.173,0,0,13.168,84.11,6,P-GPS,
0.364686392315186,36.9257818941139,5564.6508263628,222.112868,0,0.211549219368,18200,2018-04-03 07:22:22,13,0,16.664,5564.6508263628,222.112868,0.671082,1.12008533768,0,0,-0.447388,41.1, -4.7, 1.6,0,1,1024,1024,1198,1024,40.4,-28.1,98,4.181,4.182,4.181,4.173,0,0,13.168,84.11,6,P-GPS,
0.364686475284001,36.9257818894195,5564.6508263628,222.112868,0,0.23372868202,18300,2018-04-03 07:22:22,13,0,16.934,5564.6508263628,222.112868,0.671082,1.12008533768,0,0,-0.671082,41.1, -5, 2,0,1,1024,1024,1233,1024,40.4,-28.1,98,4.181,4.182,4.181,4.173,0,0,8.028,85.91,6,P-GPS,
0.364686571764422,36.9257819138037,5564.9789103628,222.440952,0,0.267533801212,18400,2018-04-03 07:22:22,13,0,16.934,5564.9789103628,222.440952,0.671082,1.12008533768,0,0,-1.342164,41.1, -5, 2.5,0,1,1024,1024,1262,1024,40.4,-28.1,98,4.181,4.182,4.181,4.173,0,0,8.028,85.91,6,P-GPS,
0.364686696919707,36.9257819620344,5565.3069943628,222.769036,0,0.315401584896,18500,2018-04-03 07:22:22,13,0,16.934,5565.3069943628,222.769036,0.671082,1.12008533768,0,0,-1.789552,41.1, -5.6, 2.3,0,1,1024,1024,1280,1024,40.5,-28.1,98,4.181,4.182,4.181,4.173,0,0,8.028,85.91,6,P-GPS,
0.364686806207433,36.9257820167652,5565.9631623628,223.425204,0.223694,0.35981628448,18600,2018-04-03 07:22:22,13,0,16.934,5565.9631623628,223.425204,0.671082,1.12008533768,0,0.223694,-2.460634,41, -5.6, 1.5,0,1,1024,1024,1289,1024,40.5,-28.1,98,4.181,4.182,4.181,4.173,0,0,8.028,85.91,6,P-GPS,
0.364686957117781,36.9257820884273,5566.2912463628,223.753288,0.223694,0.42047901608,18700,2018-04-03 07:22:22,13,0,16.934,5566.2912463628,223.753288,0.671082,1.12008533768,0,0.223694,-2.684328,41.1, -5.3, 1.4,0,1,1024,1024,1300,1024,40.5,-28.1,98,4.181,4.182,4.181,4.173,0,0,8.028,85.91,6,P-GPS,
0.364687107084853,36.9257822081408,5566.9474143628,224.409456,0.223694,0.48989830964,18800,2018-04-03 07:22:22,13,0,16.934,5566.9474143628,224.409456,0.671082,1.12008533768,0,0.223694,-2.908022,41.1, -4.7, 1.1,0,1,1024,1024,1302,1024,40.5,-28.1,98,4.181,4.182,4.181,4.173,0,0,8.028,85.91,6,P-GPS,
0.36468729236514,36.925782345488,5567.2754983628,224.73754,0.3131716,0.57378938844,18900,2018-04-03 07:22:23,13,0,16.934,5567.2754983628,224.73754,0.671082,1.12008533768,0.223694,0.223694,-3.131716,41.1, -4.2, 1,0,1,1024,1024,1311,1024,40.5,-28.1,98,4.181,4.182,4.181,4.173,0,0,8.028,85.91,6,P-GPS,
0.364687467645152,36.9257824627131,5567.9316663628,225.393708,0.3131716,0.65070212056,19000,2018-04-03 07:22:23,12,0,16.934,5567.9316663628,225.393708,0.671082,1.12008533768,0.223694,0.223694,-3.131716,41.1, -3.8, 1.3,0,1,1024,1024,1316,1024,40.5,-28.1,98,4.181,4.182,4.181,4.173,0,0,8.028,85.91,6,P-GPS,
0.364687666024235,36.9257825739808,5568.2597503628,225.721792,0.3131716,0.73356629644,19100,2018-04-03 07:22:23,12,0,16.934,5568.2597503628,225.721792,0.671082,1.12008533768,0.223694,0.223694,-3.35541,41, -3.1, 1,0,1,1024,1024,1317,1024,40.5,-28.1,98,4.181,4.182,4.181,4.173,0,0,8.028,85.91,6,P-GPS,
0.364687821743785,36.9257826714267,5568.9159183628,226.37796,0.3131716,0.80058729596,19200,2018-04-03 07:22:23,13,0,16.934,5568.9159183628,226.37796,0.671082,1.12008533768,0.223694,0.223694,-3.35541,41, -2.7, 0.7,0,1,1024,1024,1319,1024,40.5,-28.1,98,4.181,4.182,4.181,4.173,0,0,8.028,85.91,6,P-GPS,
0.364687998233732,36.9257827536459,5569.2440023628,226.706044,0.3131716,0.87110895176,19300,2018-04-03 07:22:23,13,0,16.664,5569.2440023628,226.706044,0.671082,1.12008533768,0.223694,0.223694,-3.35541,41, -2.5, 0.9,0,1,1024,1024,1320,1024,40.5,-28.1,98,4.223,4.217,4.216,4.212,0,0,8.028,85.91,6,P-GPS,
0.364688099079604,36.9257827498755,5569.9001703628,227.362212,0.223694,0.90195869028,19400,2018-04-03 07:22:23,13,0,16.664,5569.9001703628,227.362212,0.671082,1.12008533768,0.223694,0,-3.35541,41, -2.7, 1.6,0,1,1024,1024,1317,1024,40.5,-28.1,98,4.223,4.217,4.216,4.212,0,0,8.028,85.91,6,P-GPS,
0.364688208512262,36.9257827356738,5570.5563383628,228.01838,0.223694,0.93414044984,19500,2018-04-03 07:22:23,13,0,16.664,5570.5563383628,228.01838,0.671082,1.12008533768,0.223694,0,-3.35541,40.9, -2.7, 2.3,0,1,1024,1024,1319,1024,40.5,-28.1,98,4.223,4.217,4.216,4.212,0,0,8.028,85.91,6,P-GPS,
0.364688262679602,36.9257827381944,5570.8844223628,228.346464,0.223694,0.95194228768,19600,2018-04-03 07:22:23,13,0,16.664,5570.8844223628,228.346464,0.671082,1.12008533768,0.223694,0,-3.35541,40.9, -2.9, 2.3,0,1,1024,1024,1131,1024,40.5,-28.1,98,4.223,4.217,4.216,4.212,0,0,8.028,85.91,6,P-GPS,
0.36468833226505,36.9257827755561,5571.5405903628,229.002632,0.223694,0.9807579054,19700,2018-04-03 07:22:23,13,0,16.664,5571.5405903628,229.002632,0.671082,1.12008533768,0.223694,0,-3.131716,40.8, -3.1, 1.6,0,1,1024,1024,1024,1024,40.5,-28.1,98,4.223,4.217,4.216,4.212,0,0,8.028,85.91,6,P-GPS,
0.364688340049826,36.9257828104493,5571.8686743628,229.330716,0,0.989337302,19800,2018-04-03 07:22:24,13,0,16.664,5571.8686743628,229.330716,0.671082,1.12008533768,0,0,-2.460634,40.7, -5, 1.3,0,1,1024,1024,1024,1024,40.5,-28.1,98,4.223,4.217,4.216,4.212,0,0,8.028,85.91,6,P-GPS,
0.364688398849275,36.9257828611824,5572.1967583628,229.6588,0.223694,1.0170768042,19900,2018-04-03 07:22:24,13,0,16.664,5572.1967583628,229.6588,0.671082,1.12008533768,0.223694,0,-1.342164,40.9, -2.7, 1.7,0,1,1024,1024,1024,1024,40.5,-28.1,98,4.223,4.217,4.216,4.212,0,0,8.028,85.91,6,P-GPS,
0.36468844980858,36.9257828659319,5572.1967583628,229.6588,0.223694,1.03418310396,20000,2018-04-03 07:22:24,13,0,16.664,5572.1967583628,229.6588,0.671082,1.12008533768,0.223694,0,-0.894776,40.9, -0.8, 1.7,0,1,1024,1024,1024,1024,40.5,-28.1,98,4.223,4.217,4.216,4.212,0,0,8.028,85.91,6,P-GPS,
0.364688511744412,36.9257828515151,5572.5248423628,229.986884,0,1.05157811764,20100,2018-04-03 07:22:24,13,0,16.664,5572.5248423628,229.986884,0.671082,1.12008533768,0,0,-0.447388,41, 0, 2.8,0,1,1024,1024,1024,1024,40.6,-28.1,98,4.223,4.217,4.216,4.212,0,0,8.028,85.91,6,P-GPS,
0.364688467478826,36.925782821707,5572.5248423628,229.986884,0,1.0322178808,20200,2018-04-03 07:22:24,13,0,16.664,5572.5248423628,229.986884,0.671082,1.12008533768,0,0,-0.223694,41.1, -0.1, 3.2,0,1,1024,1024,1024,1024,40.6,-28.1,98,4.223,4.217,4.216,4.212,0,0,8.028,85.91,6,P-GPS,
0.364688382350287,36.9257828105987,5572.5248423628,229.986884,0,1.00291013708,20300,2018-04-03 07:22:24,13,0,16.637,5572.5248423628,229.986884,0.671082,1.12008533768,0,0,0,40.9, -1.6, 1.5,0,1,1024,1024,1024,1024,40.6,-28.1,98,4.186,4.183,4.185,4.179,0,0,13.598,85.91,6,P-GPS,
0.364688223832663,36.9257827758407,5572.5248423628,229.986884,0,0.94615160508,20400,2018-04-03 07:22:24,13,0,16.637,5572.5248423628,229.986884,0.671082,1.12008533768,0,0,0,40.9, -3, 0.4,0,1,1024,1024,1024,1024,40.6,-28.1,98,4.186,4.183,4.185,4.179,0,0,13.598,85.91,6,P-GPS,
0.364688118841179,36.9257827313329,5572.5248423628,229.986884,0,0.90481958276,20500,2018-04-03 07:22:24,13,0,16.637,5572.5248423628,229.986884,0.671082,1.12008533768,0,0,0,40.8, -4.1, 1.1,0,1,1024,1024,1024,1024,40.6,-28.1,98,4.186,4.183,4.185,4.179,0,0,13.598,85.91,6,P-GPS,
0.364688021100342,36.9257826681546,5572.5248423628,229.986884,0,0.86242784912,20600,2018-04-03 07:22:24,13,0,16.637,5572.5248423628,229.986884,0.671082,1.12008533768,0,0,0,40.9, -3.8, 2.1,0,1,1024,1024,1024,1024,40.6,-28.1,98,4.186,4.183,4.185,4.179,0,0,13.598,85.91,6,P-GPS,
0.364687954082951,36.9257826417579,5572.8529263628,230.314968,0,0.83641406876,20700,2018-04-03 07:22:24,13,0,16.637,5572.8529263628,230.314968,0.671082,1.12008533768,0,0,0,40.8, -3.9, 1.1,0,1,1024,1024,1024,1024,40.6,-28.1,98,4.186,4.183,4.185,4.179,0,0,13.598,85.91,6,P-GPS,
0.364687871665772,36.9257826270475,5572.8529263628,230.314968,0,0.80771656128,20800,2018-04-03 07:22:24,13,0,16.637,5572.8529263628,230.314968,0.671082,1.12008533768,0,0,0,40.7, -4.3, -0.9,0,1,1024,1024,1024,1024,40.6,-28.1,98,4.186,4.183,4.185,4.179,0,0,13.598,85.91,6,P-GPS,
0.364687870534003,36.9257825983572,5572.8529263628,230.314968,0,0.80209320152,20900,2018-04-03 07:22:25,13,0,16.637,5572.8529263628,230.314968,0.671082,1.12008533768,0,0,0,40.9, -4, 1.4,0,1,1024,1024,1024,1024,40.6,-28.1,98,4.186,4.183,4.185,4.179,0,0,13.598,85.91,6,P-GPS,
0.364687874719918,36.9257825521593,5572.8529263628,230.314968,0,0.79516406744,21000,2018-04-03 07:22:25,13,0,16.637,5572.8529263628,230.314968,0.671082,1.12008533768,0,0,0,40.8, -4.1, 0.6,0,1,1024,1024,1024,1024,40.6,-28.1,98,4.186,4.183,4.185,4.179,0,0,13.598,85.91,6,P-GPS,
0.364687918609741,36.9257825440545,5572.8529263628,230.314968,0,0.8078412332,21100,2018-04-03 07:22:25,13,0,16.637,5572.8529263628,230.314968,0.671082,1.12008533768,0,0,0,40.7, -4.4, 0.2,0,1,1024,1024,1024,1024,40.6,-28.1,98,4.186,4.183,4.185,4.179,0,0,13.598,85.91,6,P-GPS,
0.364687964210651,36.9257825070125,5572.8529263628,230.314968,0,0.8164042256,21200,2018-04-03 07:22:25,13,0,16.637,5572.8529263628,230.314968,0.671082,1.12008533768,0,0,0,40.6, -4, 0.8,0,1,1024,1024,1024,1024,40.6,-28.1,98,4.186,4.183,4.185,4.179,0,0,13.598,85.91,6,P-GPS,
0.364688056636247,36.9257824979936,5572.8529263628,230.314968,0.223694,0.84525265172,21300,2018-04-03 07:22:25,13,0,16.718,5572.8529263628,230.314968,0.671082,1.12008533768,0.223694,0,0,40.6, -4.1, 1.6,0,1,1024,1024,1024,1024,40.6,-28.1,98,4.198,4.202,4.203,4.194,0,0,10.284,85.91,6,P-GPS,
