latitude,longitude,altitude(feet),ascent(feet),speed(mph),distance(feet),time(millisecond),datetime(utc),satellites,voltage(v),max_altitude(feet),max_ascent(feet),max_speed(mph),max_distance(feet),compass_heading(degrees), pitch(degrees), roll(degrees),isPhoto,isVideo,rc_elevator,rc_aileron,rc_throttle,rc_rudder,gimbal_heading(degrees),gimbal_pitch(degrees),battery_percent,voltageCell1,voltageCell2,voltageCell3,voltageCell4,voltageCell5,voltageCell6,battery_temperature(f),flycStateRaw,flycState,message
0.30515069592415,36.8794113456835,5833.5830272258,0,0,0,11200,2017-11-10 13:10:16,17,0,5833.5830272258,0,0,0,97.1, -2.6, 1.4,0,0,1024,1024,1024,1024,101.7,0,97,4.274,4.275,4.276,4.274,0,0,96.71,41,Motors_Started,
0.30515071708695,36.8794113637963,5833.5830272258,0,0,0.010163058068,11300,2017-11-10 13:10:16,17,0,5833.5830272258,0,0,0.010163058068,97.1, -2.6, 1.4,0,0,1024,1024,1024,1024,101.7,0,97,4.274,4.275,4.276,4.274,0,0,96.71,41,Motors_Started,
0.305150732689835,36.8794113753675,5833.5830272258,0,0,0.017240158032,11400,2017-11-10 13:10:16,17,0,5833.5830272258,0,0,0.017240158032,97.1, -2.6, 1.4,0,0,1024,1024,1024,1024,101.7,0,97,4.274,4.275,4.276,4.274,0,0,96.71,41,Motors_Started,
0.305150741908559,36.8794113852244,5833.5830272258,0,0,0.0221268379784,11500,2017-11-10 13:10:16,17,0,5833.5830272258,0,0,0.0221268379784,97.1, -2.6, 1.4,0,0,1024,1024,1024,1024,101.7,0,97,4.274,4.275,4.276,4.274,0,0,96.71,41,Motors_Started,
0.305150749719746,36.8794113913851,5833.5830272258,0,0,0.0257536753648,11600,2017-11-10 13:10:16,17,0,5833.5830272258,0,0,0.0257536753648,97.1, -2.6, 1.4,0,0,1024,1024,1024,1024,101.7,0,97,4.274,4.275,4.276,4.274,0,0,96.71,41,Motors_Started,
0.305150751079497,36.8794113943702,5833.5830272258,0,0,0.026841700334,11700,2017-11-10 13:10:16,17,17.094,5833.5830272258,0,0,0.026841700334,97.1, -2.6, 1.4,0,0,1024,1024,1024,1024,101.7,0,97,4.274,4.275,4.276,4.274,0,0,96.71,41,Motors_Started,Setting new Return-To-Home altitude to 30m (98 ft). Setting new Maximum Flight Altitude to 100m (328 ft)
0.305150753263953,36.8794113956233,5833.5830272258,0,0,0.0277423893392,11800,2017-11-10 13:10:16,17,17.094,5833.5830272258,0,0,0.0277423893392,97.1, -2.6, 1.4,0,0,1024,1024,1024,1024,101.7,0,97,4.274,4.275,4.276,4.274,0,0,96.71,41,Motors_Started,
0.305150750209959,36.8794114270984,5833.5830272258,0,0,0.035701444712,11900,2017-11-10 13:10:16,17,17.094,5833.5830272258,0,0,0.035701444712,97.1, -2.6, 1.4,0,0,1024,1024,1024,1024,101.7,0,97,4.274,4.275,4.276,4.274,0,0,96.71,41,Motors_Started,
0.305150750053272,36.8794114550943,5833.5830272258,0,0,0.044536090664,12000,2017-11-10 13:10:16,17,17.094,5833.5830272258,0,0,0.044536090664,97.1, -2.6, 1.4,0,0,577,488,692,1337,101.7,0,97,4.274,4.275,4.276,4.274,0,0,96.71,41,Motors_Started,
0.305150745999413,36.8794114778304,5833.5830272258,0,0,0.0515584006,12100,2017-11-10 13:10:16,17,17.094,5833.5830272258,0,0,0.0515584006,97.1, -2.6, 1.4,0,0,930,888,1024,1024,101.7,0,97,4.274,4.275,4.276,4.274,0,0,96.71,41,Motors_Started,
0.305150743754603,36.879411494125,5833.5830272258,0,0,0.056900264288,12200,2017-11-10 13:10:17,17,17.094,5833.5830272258,0,0,0.056900264288,97.1, -2.6, 1.4,0,0,1024,1024,1024,1024,100.3,0,97,4.274,4.275,4.276,4.274,0,0,96.71,41,Motors_Started,
0.305150739012727,36.8794115043197,5833.5830272258,0,0,0.059974411368,12300,2017-11-10 13:10:17,17,17.094,5833.5830272258,0,0,0.059974411368,97.1, -2.6, 1.4,0,0,1024,1024,1024,1024,99.1,0,97,4.274,4.275,4.276,4.274,0,0,96.71,41,Motors_Started,
0.305150737543616,36.8794115107863,5833.5830272258,0,0,0.062121393064,12400,2017-11-10 13:10:17,17,17.094,5833.5830272258,0,0,0.062121393064,97.1, -2.6, 1.4,0,0,1024,1024,1024,1024,98.5,0,97,4.274,4.275,4.276,4.274,0,0,96.71,41,Motors_Started,
0.305150765491634,36.8794115126481,5833.5830272258,0,0,0.06599245618,12500,2017-11-10 13:10:17,17,17.094,5833.5830272258,0,0,0.06599245618,97.1, -2.6, 1.4,0,0,1024,1024,1024,1024,98.3,0,97,4.274,4.275,4.276,4.274,0,0,96.71,41,Motors_Started,
0.305150792884606,36.8794115152017,5833.5830272258,0,0,0.071250330364,12600,2017-11-10 13:10:17,17,17.094,5833.5830272258,0,0,0.071250330364,97.1, -2.6, 1.5,0,0,1024,1024,1024,1024,98.1,0,97,4.274,4.275,4.276,4.274,0,0,96.71,10,Assisted_Takeoff,
0.30515081821004,36.8794115115879,5833.5830272258,0,0,0.075195540464,12700,2017-11-10 13:10:17,17,17.121,5833.5830272258,0,0,0.075195540464,97.1, -2.6, 1.4,0,0,1024,1024,1024,1024,98,0,97,4.274,4.275,4.276,4.274,0,0,96.71,10,Assisted_Takeoff,
0.305150834415017,36.879411511896,5833.5830272258,0,0,0.07893372956,12800,2017-11-10 13:10:17,17,17.121,5833.5830272258,0,0,0.07893372956,97.1, -2.6, 1.4,0,0,1024,1024,1024,1024,97.9,0,97,4.274,4.275,4.276,4.274,0,0,96.71,10,Assisted_Takeoff,
0.305150845231803,36.8794115413915,5833.5830272258,0,0,0.089810370328,12900,2017-11-10 13:10:17,17,17.121,5833.5830272258,0,0,0.089810370328,97.1, -2.6, 1.4,0,0,1024,1024,1024,1024,97.8,0,97,4.274,4.275,4.276,4.274,0,0,96.71,10,Assisted_Takeoff,
0.305150854996641,36.8794115683074,5833.5830272258,0,0,0.099827431016,13000,2017-11-10 13:10:17,17,17.121,5833.5830272258,0,0,0.099827431016,97.1, -2.6, 1.4,0,0,1024,1024,1024,1024,97.8,0,97,4.274,4.275,4.276,4.274,0,0,96.71,10,Assisted_Takeoff,
0.305150857008838,36.8794115908356,5833.5830272258,0,0,0.107023625472,13100,2017-11-10 13:10:17,17,17.121,5833.5830272258,0,0,0.107023625472,97.1, -2.6, 1.4,0,0,1024,1024,1024,1024,97.7,0,97,4.274,4.275,4.276,4.274,0,0,96.71,10,Assisted_Takeoff,
0.305150860176874,36.8794116081593,5833.5830272258,0,0,0.112968179468,13200,2017-11-10 13:10:18,17,17.121,5833.5830272258,0,0,0.112968179468,97.1, -2.6, 1.4,0,0,1024,1024,1024,1024,97.7,0,97,4.274,4.275,4.276,4.274,0,0,96.71,10,Assisted_Takeoff,
0.305150856713072,36.8794116191503,5833.5830272258,0,0,0.115741145436,13300,2017-11-10 13:10:18,17,17.121,5833.5830272258,0,0,0.115741145436,97.1, -2.6, 1.4,0,1,1024,1024,1024,1024,97.7,0,97,4.274,4.275,4.276,4.274,0,0,96.71,10,Assisted_Takeoff,
0.305150856796911,36.8794116284981,5833.5830272258,0,0,0.1187089933,13400,2017-11-10 13:10:18,17,17.121,5833.5830272258,0,0,0.1187089933,97.1, -2.6, 1.4,0,1,1024,1024,1024,1024,97.6,0,97,4.274,4.275,4.276,4.274,0,0,96.71,10,Assisted_Takeoff,
0.305150884934922,36.8794116305662,5833.5830272258,0,0,0.12473425596,13500,2017-11-10 13:10:18,17,17.121,5833.5830272258,0,0,0.12473425596,97.1, -2.6, 1.4,0,1,1024,1024,1024,1024,97.6,0,97,4.274,4.275,4.276,4.274,0,0,96.71,10,Assisted_Takeoff,
0.30515091392466,36.879411633824,5833.5830272258,0,0,0.131824807368,13600,2017-11-10 13:10:18,17,17.121,5833.5830272258,0,0,0.131824807368,97.1, -2.6, 1.4,0,1,1024,1024,1024,1024,97.6,0,97,4.274,4.275,4.276,4.274,0,0,96.71,10,Assisted_Takeoff,
0.305150935934556,36.8794116634571,5833.5830272258,0,0,0.145291671316,13700,2017-11-10 13:10:18,17,17.149,5833.5830272258,0,0,0.145291671316,97.1, -2.6, 1.4,0,1,1024,1024,1024,1024,97.6,0,97,4.257,4.275,4.276,4.274,0,0,96.71,10,Assisted_Takeoff,
0.30515095322596,36.8794116927078,5833.5830272258,0,0,0.157616146776,13800,2017-11-10 13:10:18,17,17.149,5833.5830272258,0,0,0.157616146776,97.1, -2.6, 1.4,0,1,1024,1024,1024,1024,97.6,0,97,4.257,4.275,4.276,4.274,0,0,96.71,10,Assisted_Takeoff,
0.305150961352252,36.8794117149691,5833.5830272258,0,0,0.165924217908,13900,2017-11-10 13:10:18,17,17.149,5833.5830272258,0,0,0.165924217908,97.1, -2.6, 1.4,0,1,1024,1024,1024,1024,97.6,0,97,4.257,4.275,4.276,4.274,0,0,96.71,10,Assisted_Takeoff,
0.305150969975372,36.8794117322446,5833.5830272258,0,0,0.17288222338,14000,2017-11-10 13:10:18,17,17.149,5833.5830272258,0,0,0.17288222338,97.1, -2.6, 1.4,0,1,1024,1024,1024,1024,97.6,0,97,4.257,4.275,4.276,4.274,0,0,96.71,10,Assisted_Takeoff,
0.305150970441234,36.8794117401761,5833.5830272258,0,0,0.17534777464,14100,2017-11-10 13:10:18,17,17.149,5833.5830272258,0,0,0.17534777464,97.1, -2.6, 1.4,0,1,1024,1024,1024,1024,97.5,0,97,4.257,4.275,4.276,4.274,0,0,96.71,10,Assisted_Takeoff,
0.305150972009247,36.8794117475455,5833.5830272258,0,0,0.177884848212,14200,2017-11-10 13:10:19,17,17.149,5833.5830272258,0,0,0.177884848212,97.1, -2.6, 1.4,0,1,1024,1024,1024,1024,97.5,0,97,4.257,4.275,4.276,4.274,0,0,96.71,10,Assisted_Takeoff,
0.305150998270095,36.8794117459856,5833.5830272258,0,0,0.183025924492,14300,2017-11-10 13:10:19,17,17.149,5833.5830272258,0,0,0.183025924492,97.1, -2.6, 1.4,0,1,1024,1024,1024,1024,97.5,0,97,4.257,4.275,4.276,4.274,0,0,96.71,10,Assisted_Takeoff,
0.305151027018925,36.8794117479132,5833.5830272258,0,0,0.190074809232,14400,2017-11-10 13:10:19,17,17.149,5833.5830272258,0,0,0.190074809232,97.1, -2.6, 1.4,0,1,1024,1024,1024,1024,97.5,0,97,4.257,4.275,4.276,4.274,0,0,96.71,10,Assisted_Takeoff,
0.305151047376727,36.8794117749311,5833.5830272258,0,0,0.20240650254,14500,2017-11-10 13:10:19,17,17.149,5833.5830272258,0,0,0.20240650254,97.1, -2.6, 1.4,0,1,1024,1024,1024,1024,97.5,0,97,4.257,4.275,4.276,4.274,0,0,96.71,10,Assisted_Takeoff,
0.305151064098519,36.8794118029728,5833.5830272258,0,0,0.214194888744,14600,2017-11-10 13:10:19,17,17.149,5833.5830272258,0,0,0.214194888744,97.1, -2.6, 1.4,0,1,1024,1024,1024,1024,97.5,0,97,4.257,4.275,4.276,4.274,0,0,96.71,10,Assisted_Takeoff,
0.30515107076776,36.8794118227635,5833.5830272258,0,0,0.221360571388,14700,2017-11-10 13:10:19,17,17.094,5833.5830272258,0,0,0.221360571388,97.1, -2.6, 1.4,0,1,1024,1024,1024,1024,97.5,0,97,4.27,4.271,4.272,4.27,0,0,96.71,10,Assisted_Takeoff,
0.305151078928249,36.8794118384743,5833.5830272258,0,0,0.227710637208,14800,2017-11-10 13:10:19,17,17.094,5833.5830272258,0,0,0.227710637208,97.1, -2.6, 1.4,0,1,1024,1024,1024,1024,97.5,0,97,4.27,4.271,4.272,4.27,0,0,96.71,10,Assisted_Takeoff,
0.305151076876588,36.8794118441415,5833.5830272258,0,0,0.22889108344,14900,2017-11-10 13:10:19,17,17.094,5833.5830272258,0,0,0.22889108344,97.1, -2.6, 1.4,0,1,1024,1024,1024,1024,97.5,0,97,4.27,4.271,4.272,4.27,0,0,96.71,10,Assisted_Takeoff,
0.305151077454024,36.8794118505183,5833.5830272258,0,0,0.23087107038,15000,2017-11-10 13:10:19,17,17.094,5833.5830272258,0,0,0.23087107038,97.1, -2.6, 1.4,0,1,1024,1024,1024,1024,97.5,0,97,4.27,4.271,4.272,4.27,0,0,96.71,10,Assisted_Takeoff,
0.305151102209286,36.8794118808538,5833.5830272258,0,0,0.245146989472,15100,2017-11-10 13:10:19,17,17.094,5833.5830272258,0,0,0.245146989472,97.1, -2.6, 1.4,0,1,1024,1024,1024,1024,97.5,0,97,4.27,4.271,4.272,4.27,0,0,96.71,10,Assisted_Takeoff,
0.305151128991917,36.8794119116911,5833.5830272258,0,0,0.260018381024,15200,2017-11-10 13:10:20,17,17.094,5833.5830272258,0,0,0.260018381024,97.1, -2.6, 1.4,0,1,1024,1024,1024,1024,97.5,0,97,4.27,4.271,4.272,4.27,0,0,96.71,10,Assisted_Takeoff,
0.305151147070762,36.879411900136,5833.5830272258,0,0,0.260795283936,15300,2017-11-10 13:10:20,17,17.094,5833.5830272258,0,0,0.260795283936,97.1, -2.6, 1.4,0,1,1024,1024,1024,1024,97.5,0,97,4.27,4.271,4.272,4.27,0,0,96.71,10,Assisted_Takeoff,
0.30515116167967,36.8794118858248,5833.5830272258,0,0,0.260215231424,15400,2017-11-10 13:10:20,17,17.094,5833.5830272258,0,0,0.260795283936,97.1, -2.6, 1.4,0,1,1024,1024,1024,1024,97.5,0,97,4.27,4.271,4.272,4.27,0,0,96.71,10,Assisted_Takeoff,
0.305151166439799,36.8794118958055,5833.5830272258,0,0,0.26410926042,15500,2017-11-10 13:10:20,17,17.094,5833.5830272258,0,0,0.26410926042,97.1, -2.6, 1.4,0,1,1024,1024,1024,1024,97.5,0,97,4.27,4.271,4.272,4.27,0,0,96.71,10,Assisted_Takeoff,
0.305151172967592,36.8794119132951,5833.5830272258,0,0,0.27051674094,15600,2017-11-10 13:10:20,17,17.094,5833.5830272258,0,0,0.27051674094,97.1, -2.6, 1.4,0,1,1024,1024,1024,1024,97.5,0,97,4.27,4.271,4.272,4.27,0,0,96.71,10,Assisted_Takeoff,
0.305151170384743,36.8794119238751,5833.5830272258,0,0,0.272884195084,15700,2017-11-10 13:10:20,17,17.094,5833.5830272258,0,0,0.272884195084,97.1, -2.6, 1.4,0,1,1024,1024,1024,1024,97.5,0,97,4.27,4.271,4.272,4.27,0,0,96.71,10,Assisted_Takeoff,
0.305151171167986,36.8794119336315,5833.5830272258,0,0,0.275824483892,15800,2017-11-10 13:10:20,17,17.094,5833.5830272258,0,0,0.275824483892,97.1, -2.6, 1.4,0,1,1024,1024,1024,1024,97.5,0,97,4.27,4.271,4.272,4.27,0,0,96.71,10,Assisted_Takeoff,
0.305151164750047,36.8794119363461,5833.5830272258,0,0,0.275133867072,15900,2017-11-10 13:10:20,17,17.094,5833.5830272258,0,0,0.275824483892,97.1, -2.6, 1.4,0,1,1024,1024,1024,1024,97.5,0,97,4.27,4.271,4.272,4.27,0,0,96.71,10,Assisted_Takeoff,
0.305151162122797,36.8794119412732,5833.5830272258,0,0,0.275952108568,16000,2017-11-10 13:10:20,17,17.094,5833.5830272258,0,0,0.275952108568,97.1, -2.6, 1.4,0,1,1024,1024,1024,1024,97.5,0,97,4.27,4.271,4.272,4.27,0,0,96.71,10,Assisted_Takeoff,
0.305151184595218,36.8794119397378,5833.5830272258,0,0,0.280647318692,16100,2017-11-10 13:10:20,17,17.094,5833.5830272258,0,0,0.280647318692,97.1, -2.6, 1.4,0,1,1024,1024,1027,1024,97.5,0,97,4.27,4.271,4.272,4.27,0,0,96.71,10,Assisted_Takeoff,
0.305151210821879,36.8794119403317,5833.5830272258,0,0,0.286985245404,16200,2017-11-10 13:10:21,17,17.094,5833.5830272258,0,0,0.286985245404,97.1, -2.6, 1.4,0,1,1024,1024,1024,1024,97.5,0,97,4.27,4.271,4.272,4.27,0,0,96.71,10,Assisted_Takeoff,
0.305151231688347,36.8794119348624,5833.5830272258,0,0,0.290545941056,16300,2017-11-10 13:10:21,17,17.094,5833.5830272258,0,0,0.290545941056,97.1, -2.6, 1.4,0,1,1024,1024,1024,1024,97.5,0,97,4.27,4.271,4.272,4.27,0,0,96.71,10,Assisted_Takeoff,
0.305151246736051,36.8794119341795,5833.5830272258,0,0,0.294085639332,16400,2017-11-10 13:10:21,17,17.094,5833.5830272258,0,0,0.294085639332,97.1, -2.6, 1.4,0,1,1024,1024,1044,1024,97.5,0,97,4.27,4.271,4.272,4.27,0,0,96.71,10,Assisted_Takeoff,
0.305151253686552,36.8794119287447,5833.5830272258,0,0,0.294388460864,16500,2017-11-10 13:10:21,17,17.094,5833.5830272258,0,0,0.294388460864,97.1, -2.6, 1.4,0,1,1024,1024,1233,1024,97.5,0,97,4.27,4.271,4.272,4.27,0,0,96.71,10,Assisted_Takeoff,
0.305151260256204,36.8794119272546,5833.5830272258,0,0,0.295659786364,16600,2017-11-10 13:10:21,17,17.094,5833.5830272258,0,0,0.295659786364,97.1, -2.6, 1.4,0,1,1024,1024,1364,1024,97.5,0,97,4.27,4.271,4.272,4.27,0,0,96.71,10,Assisted_Takeoff,
0.305151258633717,36.8794119218477,5833.5830272258,0,0,0.29383367082,16700,2017-11-10 13:10:21,17,17.094,5833.5830272258,0,0,0.295659786364,97.1, -2.6, 1.4,0,1,1024,1024,1549,1024,97.5,0,97,4.27,4.271,4.272,4.27,0,0,96.71,10,Assisted_Takeoff,
0.305151259611098,36.8794119199889,5833.5830272258,0,0,0.293598434592,16800,2017-11-10 13:10:21,17,17.094,5833.5830272258,0,0,0.295659786364,97.1, -2.6, 1.4,0,1,1024,1024,1684,1024,97.5,0,97,4.27,4.271,4.272,4.27,0,0,96.71,10,Assisted_Takeoff,
0.305151288181172,36.8794119476134,5833.5830272258,0,0,0.308093185712,16900,2017-11-10 13:10:21,17,17.094,5833.5830272258,0,0,0.308093185712,97.1, -2.4, 1.3,0,1,1024,1024,1684,1024,97.5,0,97,4.27,4.271,4.272,4.27,0,0,96.71,10,Assisted_Takeoff,
0.30515131179929,36.8794119740448,5833.5830272258,0,0,0.321011165128,17000,2017-11-10 13:10:21,17,17.094,5833.5830272258,0,0,0.321011165128,97.3, -1.3, 1.1,0,1,1024,1024,1684,1024,97.5,0,97,4.27,4.271,4.272,4.27,0,0,96.71,10,Assisted_Takeoff,
0.305151313796418,36.8794120255896,5833.5830272258,0,0,0.33519029944,17100,2017-11-10 13:10:21,17,17.094,5833.5830272258,0,0,0.33519029944,97.4, 1.5, 0.4,0,1,1024,1024,1684,1024,97.5,0,97,4.27,4.271,4.272,4.27,0,0,96.71,10,Assisted_Takeoff,
0.305151313266697,36.8794120626442,5833.5830272258,0,0,0.34519029976,17200,2017-11-10 13:10:22,17,17.094,5833.5830272258,0,0,0.34519029976,97.4, 2.8, 0.1,0,1,1024,1024,1684,1024,97.5,0,97,4.27,4.271,4.272,4.27,0,0,96.71,6,GPS_Atti,
0.305151323683497,36.879412030089,5833.5830272258,0,0,0.33883531268,17300,2017-11-10 13:10:22,17,17.094,5833.5830272258,0,0,0.34519029976,97.4, 0.9, 0.3,0,1,1024,1024,1684,1024,97.5,0,97,4.27,4.271,4.272,4.27,0,0,96.71,6,GPS_Atti,
0.305151338400648,36.8794119739831,5833.9111112258,0.328084,0,0.3278625433,17400,2017-11-10 13:10:22,17,17.094,5833.9111112258,0.328084,0,0.34519029976,97.6, -0.2, 0.2,0,1,1024,1024,1684,1024,97.5,0,97,4.27,4.271,4.272,4.27,0,0,96.71,6,GPS_Atti,
0.305151353042828,36.8794119306585,5834.2391952258,0.656168,0,0.32098262182,17500,2017-11-10 13:10:22,17,17.094,5834.2391952258,0.656168,0,0.34519029976,97.6, 0.1, 0.4,0,1,1024,1024,1684,1024,97.5,0,97,4.27,4.271,4.272,4.27,0,0,96.71,6,GPS_Atti,
0.305151370797702,36.8794118972206,5834.5672792258,0.984252,0,0.317992792328,17600,2017-11-10 13:10:22,17,17.094,5834.5672792258,0.984252,0,0.34519029976,97.5, 0.9, 0.1,0,1,1024,1024,1684,1023,97.5,0,97,4.27,4.271,4.272,4.27,0,0,96.71,6,GPS_Atti,
0.305151385644786,36.8794118396226,5835.2234472258,1.64042,0,0.309517070272,17700,2017-11-10 13:10:22,17,16.875,5835.2234472258,1.64042,0,0.34519029976,97.4, 0.7, -0.4,0,1,1024,1024,1684,1024,97.5,0,97,4.259,4.259,4.255,4.254,0,0,96.71,6,GPS_Atti,Home Point Recorded. RTH Altitude:  30m.
0.305151429262022,36.8794117669627,5836.2076992258,2.624672,0,0.308563330084,17800,2017-11-10 13:10:22,17,16.875,5836.2076992258,2.624672,0,0.34519029976,97.4, -0.3, -0.4,0,1,1024,1024,1684,1024,97.5,0,97,4.259,4.259,4.255,4.254,0,0,96.71,6,GPS_Atti,
0.305151455608337,36.8794117322109,5836.8638672258,3.28084,0,0.310983277668,17900,2017-11-10 13:10:22,17,16.875,5836.8638672258,3.28084,0,0.34519029976,97.4, -0.6, 0.6,0,1,1024,1024,1684,1023,97.5,0,97,4.259,4.259,4.255,4.254,0,0,96.71,6,GPS_Atti,
0.305151489927922,36.8794117302825,5838.1762032258,4.593176,0,0.321886165156,18000,2017-11-10 13:10:22,17,16.875,5838.1762032258,4.593176,0,0.34519029976,97.5, -0.1, 1.7,0,1,1024,1024,1684,1022,97.5,0,97,4.259,4.259,4.255,4.254,0,0,96.71,6,GPS_Atti,
0.305151523085841,36.8794117406399,5839.4885392258,5.905512,0,0.33442586372,18100,2017-11-10 13:10:22,17,16.875,5839.4885392258,5.905512,0,0.34519029976,97.4, -0.3, 1.7,0,1,1024,1024,1684,1022,97.5,0,97,4.259,4.259,4.255,4.254,0,0,96.71,6,GPS_Atti,
0.305151520779175,36.8794117535986,5840.8008752258,7.217848,0,0.33573491888,18200,2017-11-10 13:10:23,17,16.875,5840.8008752258,7.217848,0,0.34519029976,97.2, -0.2, 0.2,0,1,1024,1024,1684,1024,97.5,0,97,4.259,4.259,4.255,4.254,0,0,96.71,6,GPS_Atti,
0.305151461457785,36.8794117915579,5842.4412952258,8.858268,0,0.323224419792,18300,2017-11-10 13:10:23,17,16.875,5842.4412952258,8.858268,0,0.34519029976,97.2, 0.5, -0.6,0,1,1024,1024,1684,1024,97.5,0,97,4.259,4.259,4.255,4.254,0,0,96.71,6,GPS_Atti,
0.305151419300868,36.8794118111227,5844.4097992258,10.826772,0,0.313834327628,18400,2017-11-10 13:10:23,17,16.875,5844.4097992258,10.826772,0,0.34519029976,97.2, 0, 0,0,1,1024,1024,1684,1024,97.5,0,97,4.259,4.259,4.255,4.254,0,0,96.71,6,GPS_Atti,
0.305151417844848,36.8794117949514,5846.0502192258,12.467192,0,0.310230324888,18500,2017-11-10 13:10:23,18,16.875,5846.0502192258,12.467192,0,0.34519029976,97.3, -0.9, 0.6,0,1,1024,1024,1684,1024,97.5,0,97,4.259,4.259,4.255,4.254,0,0,96.71,6,GPS_Atti,
0.305151403627247,36.8794117651733,5847.6906392258,14.107612,0,0.300156177584,18600,2017-11-10 13:10:23,18,16.875,5847.6906392258,14.107612,0,0.34519029976,97.5, -0.5, 0.4,0,1,1024,1024,1684,1023,97.5,0,97,4.259,4.259,4.255,4.254,0,0,96.71,6,GPS_Atti,
0.305151392504288,36.8794117067084,5849.3310592258,15.748032,0.31540854,0.286251977664,18700,2017-11-10 13:10:23,18,16.382,5849.3310592258,15.748032,0.31540854,0.34519029976,97.5, -0.5, 1.3,0,1,1024,1024,1684,1024,97.5,0,97,4.156,4.155,4.143,4.148,0,0,96.71,6,GPS_Atti,
0.305151201825347,36.8794113811313,5852.9399832258,19.356956,0.50107456,0.185030189648,18900,2017-11-10 13:10:23,18,16.382,5852.9399832258,19.356956,0.50107456,0.34519029976,97.4, -2.1, -2.9,0,1,1024,1024,1684,1024,97.5,0,97,4.156,4.155,4.143,4.148,0,0,96.71,6,GPS_Atti,
0.305151115753825,36.8794111277314,5854.5804032258,20.997376,0.50107456,0.17258530736,19000,2017-11-10 13:10:23,18,16.382,5854.5804032258,20.997376,0.50107456,0.34519029976,97.5, -4.1, -2.7,0,1,1024,1024,1684,1024,97.5,0,97,4.156,4.155,4.143,4.148,0,0,96.71,6,GPS_Atti,
0.305151054663111,36.8794108194323,5856.2208232258,22.637796,0.50107456,0.232368117672,19100,2017-11-10 13:10:23,18,16.382,5856.2208232258,22.637796,0.50107456,0.34519029976,97.5, -5.2, -3.1,0,1,1024,1024,1684,1024,97.5,0,97,4.156,4.155,4.143,4.148,0,0,96.71,6,GPS_Atti,
0.305150973301596,36.8794105457594,5857.8612432258,24.278216,0.50107456,0.30889600726,19200,2017-11-10 13:10:24,18,16.382,5857.8612432258,24.278216,0.50107456,0.34519029976,97.6, -5.4, -4.1,0,1,1024,1024,1684,1024,97.5,0,97,4.156,4.155,4.143,4.148,0,0,96.71,6,GPS_Atti,
0.305150929009827,36.879410241095,5859.5016632258,25.918636,0.50107456,0.4118766536,19300,2017-11-10 13:10:24,19,16.382,5859.5016632258,25.918636,0.50107456,0.4118766536,97.6, -6, -4.2,0,1,1024,1024,1684,1024,97.5,0,97,4.156,4.155,4.143,4.148,0,0,96.71,6,GPS_Atti,
0.30515087543346,36.8794099827262,5861.1420832258,27.559056,0.50107456,0.50156169584,19400,2017-11-10 13:10:24,19,16.382,5861.1420832258,27.559056,0.50107456,0.50156169584,97.8, -6.3, -4,0,1,1024,1024,1684,1024,97.5,0,97,4.156,4.155,4.143,4.148,0,0,96.71,6,GPS_Atti,
0.305150830151852,36.8794097393074,5862.7825032258,29.199476,0.63305402,0.58812009756,19500,2017-11-10 13:10:24,19,16.382,5862.7825032258,29.199476,0.63305402,0.58812009756,97.9, -6.4, -4.1,0,1,1024,1024,1684,1024,97.5,0,97,4.156,4.155,4.143,4.148,0,0,96.71,6,GPS_Atti,
0.305150730193736,36.8794095518128,5864.4229232258,30.839896,0.63305402,0.65460303932,19600,2017-11-10 13:10:24,19,16.382,5864.4229232258,30.839896,0.63305402,0.65460303932,97.7, -5.2, -5.4,0,1,1024,1024,1684,1024,97.4,0,97,4.156,4.155,4.143,4.148,0,0,96.71,6,GPS_Atti,
0.305150603428785,36.8794093662021,5866.0633432258,32.480316,0.63305402,0.72298886828,19700,2017-11-10 13:10:24,19,16.628,5866.0633432258,32.480316,0.63305402,0.72298886828,97.6, -4.5, -6.9,0,1,1024,1024,1684,1024,97.4,0,97,4.156,4.155,4.143,4.148,0,0,96.71,6,GPS_Atti,
0.305150479049912,36.8794091682282,5867.7037632258,34.120736,0.63305402,0.79836288644,19800,2017-11-10 13:10:24,19,16.628,5867.7037632258,34.120736,0.63305402,0.79836288644,97.8, -6.2, -7.7,0,1,1024,1024,1684,1024,97.5,0,97,4.156,4.155,4.143,4.148,0,0,96.71,6,GPS_Atti,
0.305150336123927,36.879408983997,5869.3441832258,35.761156,0.50107456,0.87159123524,19900,2017-11-10 13:10:24,19,16.628,5869.3441832258,35.761156,0.63305402,0.87159123524,98.1, -7.6, -7.6,0,1,1024,1024,1684,1024,97.4,0,97,4.156,4.155,4.143,4.148,0,0,96.71,6,GPS_Atti,
0.305150192335681,36.8794088614247,5870.9846032258,37.401576,0.50107456,0.9248031792,20000,2017-11-10 13:10:24,19,16.628,5870.9846032258,37.401576,0.63305402,0.9248031792,98, -7.3, -7.6,0,1,1024,1024,1684,1024,97.4,0,97,4.156,4.155,4.143,4.148,0,0,96.71,6,GPS_Atti,
0.305150075978472,36.8794088394219,5872.6250232258,39.041996,0.50107456,0.94195541072,20100,2017-11-10 13:10:24,19,16.628,5872.6250232258,39.041996,0.63305402,0.94195541072,98, -6.5, -7.9,0,1,1024,1024,1684,1022,97.4,0,97,4.156,4.155,4.143,4.148,0,0,96.71,6,GPS_Atti,
0.305149975921682,36.8794088637093,5874.2654432258,40.682416,0.31540854,0.94286748424,20200,2017-11-10 13:10:25,19,16.628,5874.2654432258,40.682416,0.63305402,0.94286748424,98, -6.1, -8.1,0,1,1024,1024,1684,1023,97.4,0,97,4.156,4.155,4.143,4.148,0,0,96.71,6,GPS_Atti,
0.305149883835413,36.8794089506797,5875.9058632258,42.322836,0.31540854,0.9226706332,20300,2017-11-10 13:10:25,19,16.628,5875.9058632258,42.322836,0.63305402,0.94286748424,97.8, -5.1, -7.7,0,1,1024,1024,1684,979,97.4,0,97,4.156,4.155,4.143,4.148,0,0,96.71,6,GPS_Atti,
0.305149817378003,36.8794090308888,5877.5462832258,43.963256,0.31540854,0.90332351972,20400,2017-11-10 13:10:25,19,16.628,5877.5462832258,43.963256,0.63305402,0.94286748424,97.9, -5.5, -7.9,0,1,1024,1024,1684,887,97,0,97,4.156,4.155,4.143,4.148,0,0,96.71,6,GPS_Atti,
0.305149796872229,36.879409119753,5879.1867032258,45.603676,0,0.87585960808,20500,2017-11-10 13:10:25,19,16.628,5879.1867032258,45.603676,0.63305402,0.94286748424,97.6, -6.9, -7.2,0,1,1024,1024,1684,867,96.2,0,97,4.156,4.155,4.143,4.148,0,0,96.71,6,GPS_Atti,
0.305149795528254,36.8794092379696,5880.8271232258,47.244096,0,0.83621721836,20600,2017-11-10 13:10:25,19,16.628,5880.8271232258,47.244096,0.63305402,0.94286748424,96, -6.2, -6.4,0,1,1024,1024,1684,773,96.2,0,97,4.156,4.155,4.143,4.148,0,0,96.71,6,GPS_Atti,
0.305149774413136,36.8794093974322,5882.4675432258,48.884516,0,0.78631236112,20700,2017-11-10 13:10:25,19,16.601,5882.4675432258,48.884516,0.63305402,0.94286748424,93.4, -5.3, -5.6,0,1,1024,1024,1684,763,94.9,0,97,4.176,4.176,4.167,4.168,0,0,96.71,6,GPS_Atti,
0.305149768528754,36.8794095443973,5884.1079632258,50.524936,0,0.73917981368,20800,2017-11-10 13:10:25,19,16.601,5884.1079632258,50.524936,0.63305402,0.94286748424,89.7, -5.2, -5.9,0,1,1024,1024,1684,819,93.1,0,97,4.176,4.176,4.167,4.168,0,0,96.71,6,GPS_Atti,
0.305149763804434,36.8794097360959,5885.7483832258,52.165356,0,0.67861550728,20900,2017-11-10 13:10:25,19,16.601,5885.7483832258,52.165356,0.63305402,0.94286748424,85.7, -5.7, -5.3,0,1,1024,1024,1684,902,90.6,0,97,4.176,4.176,4.167,4.168,0,0,96.71,6,GPS_Atti,
0.305149803910873,36.8794099157288,5887.0607192258,53.477692,0,0.61489831364,21000,2017-11-10 13:10:25,19,16.601,5887.0607192258,53.477692,0.63305402,0.94286748424,82.6, -6.1, -4.5,0,1,1024,1024,1684,878,88.1,0,97,4.176,4.176,4.167,4.168,0,0,96.71,6,GPS_Atti,
0.305149888398618,36.8794101398625,5888.7011392258,55.118112,0,0.5294783634,21100,2017-11-10 13:10:25,19,16.601,5888.7011392258,55.118112,0.63305402,0.94286748424,81.1, -6.4, -4.1,0,1,1024,1024,1684,808,85.8,0,97,4.176,4.176,4.167,4.168,0,0,96.71,6,GPS_Atti,
0.305150002017599,36.8794103337518,5890.3415592258,56.758532,0.223694,0.44766405632,21200,2017-11-10 13:10:26,19,16.601,5890.3415592258,56.758532,0.63305402,0.94286748424,79.1, -6.6, -3.2,0,1,1024,1024,1684,1024,83.4,0,97,4.176,4.176,4.167,4.168,0,0,96.71,6,GPS_Atti,
0.305150122875216,36.8794105156692,5891.9819792258,58.398952,0,0.36798885692,21300,2017-11-10 13:10:26,19,16.601,5891.9819792258,58.398952,0.63305402,0.94286748424,76.5, -6.7, -2.2,0,1,1024,1024,1684,1235,81.7,0,97,4.176,4.176,4.167,4.168,0,0,96.71,6,GPS_Atti,
0.305150217324968,36.8794106761931,5893.6223992258,60.039372,0,0.300256243204,21400,2017-11-10 13:10:26,19,16.601,5893.6223992258,60.039372,0.63305402,0.94286748424,76.1, -7, -2.3,0,1,1024,1024,1684,1165,81.1,0,97,4.176,4.176,4.167,4.168,0,0,96.71,6,GPS_Atti,
0.305150302802909,36.8794108678545,5895.2628192258,61.679792,0,0.225752631896,21500,2017-11-10 13:10:26,19,16.601,5895.2628192258,61.679792,0.63305402,0.94286748424,77.8, -7, -3,0,1,1024,1024,1684,1114,80.9,0,97,4.176,4.176,4.167,4.168,0,0,96.71,6,GPS_Atti,
0.305150364980921,36.8794110440772,5896.9032392258,63.320212,0,0.163364178456,21600,2017-11-10 13:10:26,19,16.601,5896.9032392258,63.320212,0.63305402,0.94286748424,79.6, -6.4, -3.2,0,1,1024,1024,1684,1089,81,0,97,4.176,4.176,4.167,4.168,0,0,96.71,6,GPS_Atti,
0.30515041993083,36.8794112436344,5898.5436592258,64.960632,0,0.10735892732,21700,2017-11-10 13:10:26,19,16.573,5898.5436592258,64.960632,0.63305402,0.94286748424,80.6, -6.9, -2.8,0,1,1024,1024,1684,1093,81.2,0,97,4.165,4.166,4.156,4.161,0,0,96.71,6,GPS_Atti,
0.305150427860437,36.8794114232052,5900.1840792258,66.601052,0,0.101810370712,21800,2017-11-10 13:10:26,19,16.573,5900.1840792258,66.601052,0.63305402,0.94286748424,81.1, -7.3, -3.9,0,1,1024,1024,1684,1089,81.4,0,97,4.165,4.166,4.156,4.161,0,0,96.71,6,GPS_Atti,
0.305150418372867,36.8794116560229,5901.8244992258,68.241472,0.223694,0.151902892,21900,2017-11-10 13:10:26,18,16.573,5901.8244992258,68.241472,0.63305402,0.94286748424,81.6, -6.7, -5.2,0,1,1024,1024,1684,1049,81.6,0,97,4.165,4.166,4.156,4.161,0,0,96.71,6,GPS_Atti,
0.30515040546236,36.8794118669789,5903.4649192258,69.881892,0.223694,0.217723432164,22000,2017-11-10 13:10:26,18,16.573,5903.4649192258,69.881892,0.63305402,0.94286748424,82.1, -6.3, -5.5,0,1,1024,1024,1684,1039,81.6,0,97,4.165,4.166,4.156,4.161,0,0,96.71,6,GPS_Atti,
0.305150444493516,36.8794121213015,5905.1053392258,71.522312,0.223694,0.297477371724,22100,2017-11-10 13:10:26,19,16.573,5905.1053392258,71.522312,0.63305402,0.94286748424,82.1, -5.5, -4.7,0,1,1024,1024,1684,1024,81.6,0,97,4.165,4.166,4.156,4.161,0,0,96.71,6,GPS_Atti,
0.305150482197593,36.8794123357033,5906.7457592258,73.162732,0,0.36952429004,22200,2017-11-10 13:10:27,19,16.573,5906.7457592258,73.162732,0.63305402,0.94286748424,82, -5.5, -4.5,0,1,1024,1024,1684,1024,81.6,0,97,4.165,4.166,4.156,4.161,0,0,96.71,6,GPS_Atti,
0.305150553819816,36.8794125458567,5908.3861792258,74.803152,0,0.44093505348,22300,2017-11-10 13:10:27,19,16.573,5908.3861792258,74.803152,0.63305402,0.94286748424,82, -6, -4.8,0,1,1024,1024,1684,1024,81.6,0,97,4.165,4.166,4.156,4.161,0,0,96.71,6,GPS_Atti,
0.305150608672578,36.8794126989596,5910.0265992258,76.443572,0,0.49476051452,22400,2017-11-10 13:10:27,19,16.573,5910.0265992258,76.443572,0.63305402,0.94286748424,82.1, -6.7, -5.1,0,1,1024,1024,1684,1024,81.6,0,97,4.165,4.166,4.156,4.161,0,0,96.71,6,GPS_Atti,
0.30515069835048,36.8794128737116,5911.6670192258,78.083992,0,0.55749345616,22500,2017-11-10 13:10:27,19,16.573,5911.6670192258,78.083992,0.63305402,0.94286748424,82.1, -6.3, -4.6,0,1,1024,1024,1684,1024,81.6,0,97,4.165,4.166,4.156,4.161,0,0,96.71,6,GPS_Atti,
0.305150779931504,36.8794130179597,5913.3074392258,79.724412,0,0.61088912716,22600,2017-11-10 13:10:27,19,16.573,5913.3074392258,79.724412,0.63305402,0.94286748424,82, -5.9, -4.1,0,1,1024,1024,1684,1024,81.6,0,97,4.165,4.166,4.156,4.161,0,0,96.71,6,GPS_Atti,
0.3051509051461,36.8794131662938,5915.2759432258,81.692916,0,0.66861222612,22700,2017-11-10 13:10:27,19,16.601,5915.2759432258,81.692916,0.63305402,0.94286748424,82, -5.9, -3.6,0,1,1024,1024,1684,1024,81.6,0,97,4.162,4.164,4.153,4.157,0,0,96.71,6,GPS_Atti,
0.30515100095003,36.8794132730828,5916.9163632258,83.333336,0,0.71195212252,22800,2017-11-10 13:10:27,19,16.601,5916.9163632258,83.333336,0.63305402,0.94286748424,81.9, -5.9, -3.3,0,1,1024,1024,1684,1024,81.6,0,97,4.162,4.164,4.153,4.157,0,0,96.71,6,GPS_Atti,
0.305151103157333,36.8794134219046,5918.5567832258,84.973756,0,0.7719324394,22900,2017-11-10 13:10:27,19,16.601,5918.5567832258,84.973756,0.63305402,0.94286748424,81.9, -6.2, -4.2,0,1,1024,1024,1684,1024,81.6,0,97,4.162,4.164,4.153,4.157,0,0,96.71,6,GPS_Atti,
0.305151160512279,36.8794135261885,5920.1972032258,86.614176,0,0.813402257,23000,2017-11-10 13:10:27,19,16.601,5920.1972032258,86.614176,0.63305402,0.94286748424,82, -7, -5.2,0,1,1024,1024,1684,1024,81.6,0,97,4.162,4.164,4.153,4.157,0,0,96.71,6,GPS_Atti,
0.305151260963938,36.8794136396414,5921.8376232258,88.254596,0,0.86195212732,23100,2017-11-10 13:10:27,19,16.601,5921.8376232258,88.254596,0.63305402,0.94286748424,82.1, -7.2, -5.4,0,1,1024,1024,1684,1024,81.6,0,97,4.162,4.164,4.153,4.157,0,0,96.71,6,GPS_Atti,
0.305151357882983,36.8794137372183,5923.4780432258,89.895016,0,0.905347798,23200,2017-11-10 13:10:28,19,16.601,5923.4780432258,89.895016,0.63305402,0.94286748424,82.1, -6.6, -4.7,0,1,1024,1024,1684,1024,81.6,0,97,4.162,4.164,4.153,4.157,0,0,96.71,6,GPS_Atti,
0.305151496738075,36.8794138736089,5925.1184632258,91.535436,0,0.96747378424,23300,2017-11-10 13:10:28,18,16.601,5925.1184632258,91.535436,0.63305402,0.96747378424,82.1, -5.9, -3.9,0,1,1024,1024,1684,1024,81.6,0,97,4.162,4.164,4.153,4.157,0,0,96.71,6,GPS_Atti,
0.305151626066985,36.8794139819526,5926.7588832258,93.175856,0,1.01994097752,23400,2017-11-10 13:10:28,18,16.601,5926.7588832258,93.175856,0.63305402,1.01994097752,82, -5.5, -3.2,0,1,1024,1024,1684,1024,81.6,0,97,4.162,4.164,4.153,4.157,0,0,96.71,6,GPS_Atti,
0.305151784109358,36.8794140961212,5928.3993032258,94.816276,0,1.0791667012,23500,2017-11-10 13:10:28,19,16.601,5928.3993032258,94.816276,0.63305402,1.0791667012,82, -6.2, -2.8,0,1,1024,1024,1684,1024,81.6,0,97,4.162,4.164,4.153,4.157,0,0,96.71,6,GPS_Atti,
0.305151918633386,36.8794141868813,5930.0397232258,96.456696,0,1.1285105348,23600,2017-11-10 13:10:28,19,16.601,5930.0397232258,96.456696,0.63305402,1.1285105348,82, -6.4, -2.1,0,1,1024,1024,1684,1024,81.6,0,97,4.162,4.164,4.153,4.157,0,0,96.71,6,GPS_Atti,
0.305152029849292,36.879414307546,5931.6801432258,98.097116,0,1.18515751824,23700,2017-11-10 13:10:28,19,16.573,5931.6801432258,98.097116,0.63305402,1.18515751824,82, -5.9, -1.2,0,1,1024,1024,1684,1024,81.6,0,97,4.162,4.164,4.153,4.157,0,0,96.71,6,GPS_Atti,
0.305152065257059,36.8794144224411,5933.3205632258,99.737536,0,1.22869426504,23800,2017-11-10 13:10:28,19,16.573,5933.3205632258,99.737536,0.63305402,1.22869426504,82, -5.4, -2.4,0,1,1024,1024,1684,1024,81.6,0,97,4.162,4.164,4.153,4.157,0,0,96.71,6,GPS_Atti,
0.305152080995563,36.8794145949904,5934.9609832258,101.377956,0,1.28870410948,23900,2017-11-10 13:10:28,19,16.573,5934.9609832258,101.377956,0.63305402,1.28870410948,82, -5.1, -4.4,0,1,1024,1024,1684,1024,81.6,0,97,4.162,4.164,4.153,4.157,0,0,96.71,6,GPS_Atti,
0.305152080524536,36.8794147444787,5936.6014032258,103.018376,0,1.33898298248,24000,2017-11-10 13:10:28,19,16.573,5936.6014032258,103.018376,0.63305402,1.33898298248,82, -5, -5.4,0,1,1024,1024,1684,1024,81.6,0,97,4.162,4.164,4.153,4.157,0,0,96.71,6,GPS_Atti,
0.305152111619979,36.8794148178382,5938.5699072258,104.98688,0,1.36804794404,24100,2017-11-10 13:10:28,19,16.573,5938.5699072258,104.98688,0.63305402,1.36804794404,82.1, -5.2, -5,0,1,1024,1024,1684,1024,81.6,0,97,4.162,4.164,4.153,4.157,0,0,96.71,6,GPS_Atti,
0.305152158747759,36.8794148615828,5940.2103272258,106.6273,0,1.38935699984,24200,2017-11-10 13:10:29,19,16.573,5940.2103272258,106.6273,0.63305402,1.38935699984,82.1, -5.3, -4.4,0,1,1024,1024,1684,1024,81.6,0,97,4.162,4.164,4.153,4.157,0,0,96.71,6,GPS_Atti,
0.305152267186659,36.8794148814674,5941.8507472258,108.26772,0,1.41165358848,24300,2017-11-10 13:10:29,19,16.573,5941.8507472258,108.26772,0.63305402,1.41165358848,82.1, -5.6, -3.8,0,1,1024,1024,1684,1024,81.6,0,97,4.162,4.164,4.153,4.157,0,0,96.71,6,GPS_Atti,
0.305152359587523,36.8794149164303,5943.4911672258,109.90814,0,1.43723101712,24400,2017-11-10 13:10:29,19,16.573,5943.4911672258,109.90814,0.63305402,1.43723101712,82, -5.2, -3.5,0,1,1024,1024,1684,1024,81.6,0,97,4.162,4.164,4.153,4.157,0,0,96.71,6,GPS_Atti,
0.305152439709614,36.8794149910371,5945.1315872258,111.54856,0,1.474327475,24500,2017-11-10 13:10:29,19,16.573,5945.1315872258,111.54856,0.63305402,1.474327475,81.9, -4.7, -2.9,0,1,1024,1024,1684,1024,81.6,0,97,4.162,4.164,4.153,4.157,0,0,96.71,6,GPS_Atti,
0.305152488321619,36.879415070606,5946.7720072258,113.18898,0,1.50817262044,24600,2017-11-10 13:10:29,19,16.573,5946.7720072258,113.18898,0.63305402,1.50817262044,81.9, -4, -3.4,0,1,1024,1024,1684,1024,81.6,0,97,4.162,4.164,4.153,4.157,0,0,96.71,6,GPS_Atti,
0.305152524617091,36.8794151529602,5948.4124272258,114.8294,0,1.54099086296,24700,2017-11-10 13:10:29,19,16.573,5948.4124272258,114.8294,0.63305402,1.54099086296,81.9, -4.3, -3.8,0,1,1024,1024,1684,1024,81.6,0,97,4.162,4.163,4.156,4.159,0,0,96.71,6,GPS_Atti,
0.305152560751856,36.8794152031681,5950.0528472258,116.46982,0,1.56321527312,24800,2017-11-10 13:10:29,19,16.573,5950.0528472258,116.46982,0.63305402,1.56321527312,81.9, -4.7, -3.9,0,1,1024,1024,1684,1024,81.6,0,97,4.162,4.163,4.156,4.159,0,0,96.71,6,GPS_Atti,
0.305152626710962,36.879415230703,5951.6932672258,118.11024,0,1.58282813464,24900,2017-11-10 13:10:29,19,16.573,5951.6932672258,118.11024,0.63305402,1.58282813464,81.9, -4.7, -3,0,1,1024,1024,1684,1024,81.6,0,97,4.162,4.163,4.156,4.159,0,0,96.71,6,GPS_Atti,
0.30515269845308,36.8794152422361,5953.3336872258,119.75066,0,1.5983924396,25000,2017-11-10 13:10:29,19,16.573,5953.3336872258,119.75066,0.63305402,1.5983924396,81.9, -5.1, -2.7,0,1,1024,1024,1684,1024,81.6,0,97,4.162,4.163,4.156,4.159,0,0,96.71,6,GPS_Atti,
0.305152815206103,36.8794152686301,5954.9741072258,121.39108,0,1.6267717056,25100,2017-11-10 13:10:29,19,16.573,5954.9741072258,121.39108,0.63305402,1.6267717056,81.9, -5, -3.1,0,1,1024,1024,1684,1024,81.6,0,97,4.162,4.163,4.156,4.159,0,0,96.71,6,GPS_Atti,
0.305152944415297,36.8794152972424,5956.6145272258,123.0315,0.223694,1.65876645728,25200,2017-11-10 13:10:30,19,16.573,5956.6145272258,123.0315,0.63305402,1.65876645728,81.9, -4.8, -2.2,0,1,1024,1024,1684,1024,81.6,0,97,4.162,4.163,4.156,4.159,0,0,96.71,6,GPS_Atti,
0.3051530831687,36.8794153881484,5958.2549472258,124.67192,0.223694,1.71285110468,25300,2017-11-10 13:10:30,19,16.573,5958.2549472258,124.67192,0.63305402,1.71285110468,81.9, -4.5, -1.5,0,1,1024,1024,1684,1024,81.6,0,97,4.162,4.163,4.156,4.159,0,0,96.71,6,GPS_Atti,
0.305153206088538,36.8794154712347,5959.8953672258,126.31234,0.223694,1.7619095052,25400,2017-11-10 13:10:30,19,16.573,5959.8953672258,126.31234,0.63305402,1.7619095052,81.9, -3.3, -1.5,0,1,1024,1024,1684,1024,81.6,0,97,4.162,4.163,4.156,4.159,0,0,96.71,6,GPS_Atti,
0.305153327014957,36.8794155047222,5961.5357872258,127.95276,0.223694,1.7955545194,25500,2017-11-10 13:10:30,19,16.573,5961.5357872258,127.95276,0.63305402,1.7955545194,81.9, -3.6, -0.7,0,1,1024,1024,1684,1024,81.6,0,97,4.162,4.163,4.156,4.159,0,0,96.71,6,GPS_Atti,
0.305153426322358,36.8794154778608,5963.5042912258,129.921264,0,1.80699808932,25600,2017-11-10 13:10:30,19,16.573,5963.5042912258,129.921264,0.63305402,1.80699808932,81.9, -4.5, -0.5,0,1,1024,1024,1684,1024,81.6,0,97,4.162,4.163,4.156,4.159,0,0,96.71,6,GPS_Atti,
0.305153526289888,36.8794154060986,5965.1447112258,131.561684,0.223694,1.80582026776,25700,2017-11-10 13:10:30,19,16.519,5965.1447112258,131.561684,0.63305402,1.80699808932,81.8, -5.5, -0.5,0,1,1024,1024,1684,1024,81.6,0,97,4.162,4.163,4.156,4.159,0,0,96.71,6,GPS_Atti,
0.305153608823501,36.8794153201468,5966.7851312258,133.202104,0.223694,1.797818299,25800,2017-11-10 13:10:30,19,16.519,5966.7851312258,133.202104,0.63305402,1.80699808932,81.8, -6.4, -0.2,0,1,1024,1024,1684,1024,81.6,0,97,4.162,4.163,4.156,4.159,0,0,96.71,6,GPS_Atti,
0.305153672856769,36.8794152723863,5968.4255512258,134.842524,0,1.79781173732,25900,2017-11-10 13:10:30,19,16.519,5968.4255512258,134.842524,0.63305402,1.80699808932,81.8, -6.4, -1.2,0,1,1024,1024,1684,1024,81.6,0,97,4.162,4.163,4.156,4.159,0,0,96.71,6,GPS_Atti,
0.305153717808337,36.8794152465563,5970.0659712258,136.482944,0,1.80030845656,26000,2017-11-10 13:10:30,19,16.519,5970.0659712258,136.482944,0.63305402,1.80699808932,81.9, -6.1, -1.5,0,1,1024,1024,1684,1024,81.6,0,97,4.162,4.163,4.156,4.159,0,0,96.71,6,GPS_Atti,
0.305153760508581,36.8794152450428,5971.7063912258,138.123364,0,1.80945543848,26100,2017-11-10 13:10:30,19,16.519,5971.7063912258,138.123364,0.63305402,1.80945543848,81.9, -6, -1.2,0,1,1024,1024,1684,1024,81.6,0,97,4.162,4.163,4.156,4.159,0,0,96.71,6,GPS_Atti,
0.30515380434548,36.8794152571668,5973.3468112258,139.763784,0,1.82284454652,26200,2017-11-10 13:10:31,19,16.519,5973.3468112258,139.763784,0.63305402,1.82284454652,81.9, -5.7, -1.2,0,1,1024,1024,1684,1024,81.6,0,97,4.162,4.163,4.156,4.159,0,0,96.71,6,GPS_Atti,
0.30515389092374,36.8794152706516,5974.9872312258,141.404204,0,1.84647643704,26300,2017-11-10 13:10:31,19,16.519,5974.9872312258,141.404204,0.63305402,1.84647643704,81.9, -5.7, -0.5,0,1,1024,1024,1684,1024,81.6,0,97,4.162,4.163,4.156,4.159,0,0,96.71,6,GPS_Atti,
0.305153976968075,36.8794152939791,5976.6276512258,143.044624,0,1.87299218592,26400,2017-11-10 13:10:31,19,16.519,5976.6276512258,143.044624,0.63305402,1.87299218592,81.9, -5.5, 0.4,0,1,1024,1024,1684,1024,81.6,0,97,4.162,4.163,4.156,4.159,0,0,96.71,6,GPS_Atti,
0.305154023298731,36.8794153135848,5978.2680712258,144.685044,0,1.88931436492,26500,2017-11-10 13:10:31,19,16.519,5978.2680712258,144.685044,0.63305402,1.88931436492,81.9, -5.3, 0,0,1,1024,1024,1684,1024,81.6,0,97,4.162,4.163,4.156,4.159,0,0,96.71,6,GPS_Atti,
0.30515400565047,36.8794153580399,5979.9084912258,146.325464,0,1.89766738356,26600,2017-11-10 13:10:31,19,16.519,5979.9084912258,146.325464,0.63305402,1.89766738356,81.9, -4.7, -1.3,0,1,1024,1024,1684,1024,81.6,0,97,4.162,4.163,4.156,4.159,0,0,96.71,6,GPS_Atti,
0.305153993925266,36.8794153592607,5981.5489112258,147.965884,0,1.8952920554,26700,2017-11-10 13:10:31,19,16.519,5981.5489112258,147.965884,0.63305402,1.89766738356,81.9, -4.3, -2.3,0,1,1024,1024,1684,1024,81.6,0,97,4.162,4.163,4.156,4.159,0,0,96.71,6,GPS_Atti,
0.305153965727129,36.879415361667,5983.1893312258,149.606304,0,1.88945872188,26800,2017-11-10 13:10:31,19,16.519,5983.1893312258,149.606304,0.63305402,1.89766738356,81.9, -4.4, -2.5,0,1,1024,1024,1684,1024,81.6,0,97,4.162,4.163,4.156,4.159,0,0,96.71,6,GPS_Atti,
0.305153922665778,36.8794153447466,5985.1578352258,151.574808,0,1.8747704012,26900,2017-11-10 13:10:31,19,16.519,5985.1578352258,151.574808,0.63305402,1.89766738356,82, -4.5, -2.3,0,1,1024,1024,1684,1024,81.6,0,97,4.162,4.163,4.156,4.159,0,0,96.71,6,GPS_Atti,
0.305153869049056,36.8794153232744,5986.7982552258,153.215228,0,1.85641738224,27000,2017-11-10 13:10:31,19,16.519,5986.7982552258,153.215228,0.63305402,1.89766738356,82, -5, -2.1,0,1,1024,1024,1684,1024,81.6,0,97,4.162,4.163,4.156,4.159,0,0,96.71,6,GPS_Atti,
0.305153808906548,36.8794152253311,5988.4386752258,154.855648,0,1.81480648852,27100,2017-11-10 13:10:31,19,16.519,5988.4386752258,154.855648,0.63305402,1.89766738356,82, -5.4, -2.3,0,1,1024,1024,1684,1024,81.6,0,97,4.162,4.163,4.156,4.159,0,0,96.71,6,GPS_Atti,
0.305153734340097,36.8794151329742,5990.0790952258,156.496068,0,1.77149940052,27200,2017-11-10 13:10:32,19,16.519,5990.0790952258,156.496068,0.63305402,1.89766738356,82, -5.6, -2.3,0,1,1024,1024,1684,1024,81.6,0,97,4.162,4.163,4.156,4.159,0,0,96.71,6,GPS_Atti,
0.305153688243122,36.8794149999723,5991.7195152258,158.136488,0,1.7232119974,27300,2017-11-10 13:10:32,19,16.519,5991.7195152258,158.136488,0.63305402,1.89766738356,82, -6.5, -2.4,0,1,1024,1024,1684,1024,81.6,0,97,4.162,4.163,4.156,4.159,0,0,96.71,6,GPS_Atti,
0.305153630831311,36.8794148907789,5993.3599352258,159.776908,0,1.67914047368,27400,2017-11-10 13:10:32,19,16.519,5993.3599352258,159.776908,0.63305402,1.89766738356,82, -6.7, -2.7,0,1,1024,1024,1684,1024,81.6,0,97,4.162,4.163,4.156,4.159,0,0,96.71,6,GPS_Atti,
0.305153551128952,36.8794147648728,5995.0003552258,161.417328,0,1.62522642996,27500,2017-11-10 13:10:32,19,16.519,5995.0003552258,161.417328,0.63305402,1.89766738356,82, -6.4, -3.2,0,1,1024,1024,1684,1024,81.6,0,97,4.162,4.163,4.156,4.159,0,0,96.71,6,GPS_Atti,
0.305153465212043,36.8794146615937,5996.6407752258,163.057748,0,1.5762139612,27600,2017-11-10 13:10:32,19,16.519,5996.6407752258,163.057748,0.63305402,1.89766738356,82.1, -6.6, -3.1,0,1,1024,1024,1684,1024,81.6,0,97,4.162,4.163,4.156,4.159,0,0,96.71,6,GPS_Atti,
0.305153413236182,36.879414541432,5998.2811952258,164.698168,0,1.53046920908,27700,2017-11-10 13:10:32,19,16.628,5998.2811952258,164.698168,0.63305402,1.89766738356,82.1, -7, -3.2,0,1,1024,1024,1684,1024,81.6,0,97,4.162,4.163,4.155,4.158,0,0,96.71,6,GPS_Atti,
0.305153361645244,36.8794144382925,5999.9216152258,166.338588,0,1.48964243612,27800,2017-11-10 13:10:32,19,16.628,5999.9216152258,166.338588,0.63305402,1.89766738356,82.1, -7.3, -3,0,1,1024,1024,1684,1024,81.6,0,97,4.162,4.163,4.155,4.158,0,0,96.71,6,GPS_Atti,
0.305153306226852,36.8794143152251,6001.5620352258,167.979008,0,1.44250004616,27900,2017-11-10 13:10:32,19,16.628,6001.5620352258,167.979008,0.63305402,1.89766738356,82, -7.4, -1.9,0,1,1024,1024,1684,1024,81.6,0,97,4.162,4.163,4.155,4.158,0,0,96.71,6,GPS_Atti,
0.30515322286599,36.8794142181959,6003.2024552258,169.619428,0.223694,1.39583009716,28000,2017-11-10 13:10:32,19,16.628,6003.2024552258,169.619428,0.63305402,1.89766738356,82.1, -7.3, -2.9,0,1,1024,1024,1684,1024,81.6,0,97,4.162,4.163,4.155,4.158,0,0,96.71,6,GPS_Atti,
0.305153106948664,36.8794141415302,6004.8428752258,171.259848,0.223694,1.34696198536,28100,2017-11-10 13:10:32,19,16.628,6004.8428752258,171.259848,0.63305402,1.89766738356,82.1, -7.5, -3.7,0,1,1024,1024,1684,1024,81.6,0,97,4.162,4.163,4.155,4.158,0,0,96.71,6,GPS_Atti,
0.305153005908599,36.8794140801875,6006.4832952258,172.900268,0,1.3060039788,28200,2017-11-10 13:10:33,19,16.628,6006.4832952258,172.900268,0.63305402,1.89766738356,82.1, -7.4, -3.8,0,1,1024,1024,1684,1024,81.6,0,97,4.162,4.163,4.155,4.158,0,0,96.71,6,GPS_Atti,
0.305152910788641,36.8794139997904,6008.1237152258,174.540688,0,1.26122379364,28300,2017-11-10 13:10:33,19,16.628,6008.1237152258,174.540688,0.63305402,1.89766738356,82.1, -7.3, -3.3,0,1,1024,1024,1684,1055,81.6,0,97,4.162,4.163,4.155,4.158,0,0,96.71,6,GPS_Atti,
0.305152819765848,36.8794139200138,6009.7641352258,176.181108,0,1.2176181492,28400,2017-11-10 13:10:33,19,16.628,6009.7641352258,176.181108,0.63305402,1.89766738356,82.1, -7.8, -3.4,0,1,1024,1024,1684,1024,81.6,0,97,4.162,4.163,4.155,4.158,0,0,96.71,6,GPS_Atti,
0.305152682575242,36.8794138099471,6011.7326392258,178.149612,0,1.15486224168,28500,2017-11-10 13:10:33,19,16.628,6011.7326392258,178.149612,0.63305402,1.89766738356,82.2, -8.3, -3.5,0,1,1024,1024,1684,1038,81.6,0,97,4.162,4.163,4.155,4.158,0,0,96.71,6,GPS_Atti,
0.305152560426472,36.8794137263941,6013.3730592258,179.790032,0,1.10326775184,28600,2017-11-10 13:10:33,19,16.628,6013.3730592258,179.790032,0.63305402,1.89766738356,82.2, -8.4, -3.3,0,1,1024,1024,1684,1041,81.6,0,97,4.162,4.163,4.155,4.158,0,0,96.71,6,GPS_Atti,
0.305152425418186,36.8794136435656,6015.0134792258,181.430452,0.223694,1.04930121468,28700,2017-11-10 13:10:33,19,16.573,6015.0134792258,181.430452,0.63305402,1.89766738356,82.2, -8, -3.6,0,1,1024,1024,1684,1040,81.6,0,97,4.162,4.163,4.155,4.158,0,0,96.71,6,GPS_Atti,
0.305152286884928,36.8794135841041,6016.6538992258,183.070872,0.223694,1.00194557012,28800,2017-11-10 13:10:33,19,16.573,6016.6538992258,183.070872,0.63305402,1.89766738356,82.2, -8.6, -4.1,0,1,1024,1024,1684,1053,81.6,0,97,4.162,4.163,4.155,4.158,0,0,96.71,6,GPS_Atti,
0.305152128396311,36.8794135127153,6018.2943192258,184.711292,0.223694,0.94775593584,28900,2017-11-10 13:10:33,19,16.573,6018.2943192258,184.711292,0.63305402,1.89766738356,82.2, -8.1, -4.8,0,1,1024,1024,1684,1032,81.6,0,97,4.162,4.163,4.155,4.158,0,0,96.71,6,GPS_Atti,
0.305151975839555,36.8794134694653,6019.9347392258,186.351712,0.223694,0.90468834916,29000,2017-11-10 13:10:33,19,16.573,6019.9347392258,186.351712,0.63305402,1.89766738356,82.2, -7.8, -5.7,0,1,1024,1024,1684,1024,81.6,0,97,4.162,4.163,4.155,4.158,0,0,96.71,6,GPS_Atti,
0.305151791330286,36.8794134111609,6021.5751592258,187.992132,0.223694,0.85299871496,29100,2017-11-10 13:10:33,19,16.573,6021.5751592258,187.992132,0.63305402,1.89766738356,82.2, -7.9, -5.7,0,1,1024,1024,1684,1026,81.6,0,97,4.162,4.163,4.155,4.158,0,0,96.71,6,GPS_Atti,
0.305151656264698,36.8794133713984,6023.2155792258,189.632552,0,0.81791997368,29200,2017-11-10 13:10:34,19,16.573,6023.2155792258,189.632552,0.63305402,1.89766738356,82.2, -7.9, -5.1,0,1,1024,1024,1684,1056,81.6,0,97,4.162,4.163,4.155,4.158,0,0,96.71,6,GPS_Atti,
0.305151540524746,36.8794133134351,6024.8559992258,191.272972,0,0.78126314836,29300,2017-11-10 13:10:34,19,16.573,6024.8559992258,191.272972,0.63305402,1.89766738356,82.2, -8.4, -4.9,0,1,1024,1024,1684,1041,81.6,-0.8,97,4.162,4.163,4.155,4.158,0,0,96.71,6,GPS_Atti,
0.305151359619261,36.8794132828847,6028.1368392258,194.553812,0,0.74710632312,29500,2017-11-10 13:10:34,19,16.573,6028.1368392258,194.553812,0.63305402,1.89766738356,82.3, -8.3, -4.9,0,1,1024,1024,1684,1050,81.6,-3.3,97,4.162,4.163,4.155,4.158,0,0,96.71,6,GPS_Atti,
0.305151304994017,36.8794133175091,6029.7772592258,196.194232,0,0.75294949916,29600,2017-11-10 13:10:34,19,16.573,6029.7772592258,196.194232,0.63305402,1.89766738356,82.3, -7.7, -4.2,0,1,1024,1024,1684,1059,81.6,-6.2,97,4.162,4.163,4.155,4.158,0,0,96.71,6,GPS_Atti,
0.30515123450391,36.8794133280022,6031.4176792258,197.834652,0,0.74945540456,29700,2017-11-10 13:10:34,19,16.519,6031.4176792258,197.834652,0.63305402,1.89766738356,82.5, -7.3, -3.7,0,1,1024,1024,1684,1069,81.6,-9.1,97,4.157,4.158,4.15,4.154,0,0,96.71,6,GPS_Atti,
0.305151173470648,36.8794133299044,6033.3861832258,199.803156,0,0.7446030422,29800,2017-11-10 13:10:34,19,16.519,6033.3861832258,199.803156,0.63305402,1.89766738356,82.7, -7.5, -4.1,0,1,1024,1024,1684,1060,81.7,-12.1,97,4.157,4.158,4.15,4.154,0,0,96.71,6,GPS_Atti,
0.305151055970459,36.8794132955832,6035.0266032258,201.443576,0,0.72343506252,29900,2017-11-10 13:10:34,19,16.519,6035.0266032258,201.443576,0.63305402,1.89766738356,83, -6.9, -3.5,0,1,1024,1024,1684,1047,81.8,-14.7,97,4.157,4.158,4.15,4.154,0,0,96.71,6,GPS_Atti,
0.305150923675935,36.8794132446972,6036.6670232258,203.083996,0.223694,0.69780842128,30000,2017-11-10 13:10:34,19,16.519,6036.6670232258,203.083996,0.63305402,1.89766738356,83.3, -7.5, -3.8,0,1,1024,1024,1684,1030,81.8,-17.1,97,4.157,4.158,4.15,4.154,0,0,96.71,6,GPS_Atti,
0.305150702467238,36.8794131722576,6038.3074432258,204.724416,0.223694,0.666420625,30100,2017-11-10 13:10:34,19,16.519,6038.3074432258,204.724416,0.63305402,1.89766738356,83.3, -9.8, -5.7,0,1,1024,1024,1684,1030,81.8,-17.9,97,4.157,4.158,4.15,4.154,0,0,96.71,6,GPS_Atti,
0.305150476854871,36.8794131084796,6040.2759472258,206.69292,0.223694,0.64809385276,30200,2017-11-10 13:10:35,19,16.519,6040.2759472258,206.69292,0.63305402,1.89766738356,83.6, -10.3, -7.2,0,1,1024,1024,1684,1024,81.8,-17.9,97,4.157,4.158,4.15,4.154,0,0,96.71,6,GPS_Atti,
0.305150277724465,36.8794130652375,6041.9163672258,208.33334,0.223694,0.64565618864,30300,2017-11-10 13:10:35,19,16.519,6041.9163672258,208.33334,0.63305402,1.89766738356,83.7, -10.1, -6.6,0,1,1024,1024,1684,1024,81.8,-17.9,97,4.157,4.158,4.15,4.154,0,0,96.71,6,GPS_Atti,
0.305150115765124,36.8794130538428,6043.5567872258,209.97376,0.223694,0.65817915492,30400,2017-11-10 13:10:35,19,16.519,6043.5567872258,209.97376,0.63305402,1.89766738356,83.6, -10, -6.9,0,1,1024,1024,1684,1024,81.8,-17.9,97,4.157,4.158,4.15,4.154,0,0,96.71,6,GPS_Atti,
0.305149917922715,36.8794130744101,6045.1972072258,211.61418,0.223694,0.69164700376,30500,2017-11-10 13:10:35,19,16.519,6045.1972072258,211.61418,0.63305402,1.89766738356,83.8, -10.5, -7.7,0,1,1024,1024,1684,1024,81.8,-17.9,97,4.157,4.158,4.15,4.154,0,0,96.71,6,GPS_Atti,
0.30514974173739,36.8794131570316,6046.8376272258,213.2546,0.31540854,0.7469488428,30600,2017-11-10 13:10:35,19,16.519,6046.8376272258,213.2546,0.63305402,1.89766738356,83.8, -9.9, -7.9,0,1,1024,1024,1684,1024,81.8,-17.9,97,4.157,4.158,4.15,4.154,0,0,96.71,6,GPS_Atti,
0.305149573797894,36.8794133193042,6048.4780472258,214.89502,0.31540854,0.82831695564,30700,2017-11-10 13:10:35,19,16.573,6048.4780472258,214.89502,0.63305402,1.89766738356,83.5, -7.8, -8.4,0,1,1024,1024,1684,1024,81.8,-17.9,96,4.148,4.149,4.143,4.148,0,0,98.51,6,GPS_Atti,
0.30514942633486,36.8794135114476,6050.1184672258,216.53544,0.31540854,0.915928507,30800,2017-11-10 13:10:35,19,16.573,6050.1184672258,216.53544,0.63305402,1.89766738356,83.4, -6.2, -9,0,1,1024,1024,1684,1024,81.8,-17.9,96,4.148,4.149,4.143,4.148,0,0,98.51,6,GPS_Atti,
0.30514923474476,36.8794136586091,6051.7588872258,218.17586,0.223694,0.99814963824,30900,2017-11-10 13:10:35,19,16.573,6051.7588872258,218.17586,0.63305402,1.89766738356,83.3, -5.3, -9.2,0,1,1024,1024,1684,1024,81.8,-17.9,96,4.148,4.149,4.143,4.148,0,0,98.51,6,GPS_Atti,
0.305149092454988,36.8794137700654,6053.3993072258,219.81628,0,1.06048559824,31000,2017-11-10 13:10:35,19,16.573,6053.3993072258,219.81628,0.63305402,1.89766738356,83.2, -5, -8.7,0,1,1024,1024,1684,1024,81.8,-17.9,96,4.148,4.149,4.143,4.148,0,0,98.51,6,GPS_Atti,
0.305148963946533,36.8794138070565,6055.0397272258,221.4567,0,1.0980643396,31100,2017-11-10 13:10:35,19,16.573,6055.0397272258,221.4567,0.63305402,1.89766738356,83.2, -6.1, -7.9,0,1,1024,1024,1684,1024,81.8,-17.9,96,4.148,4.149,4.143,4.148,0,0,98.51,6,GPS_Atti,
0.305148860955796,36.8794138113504,6056.6801472258,223.09712,0,1.12136814612,31200,2017-11-10 13:10:36,19,16.573,6056.6801472258,223.09712,0.63305402,1.89766738356,83.3, -7.1, -8,0,1,1024,1024,1684,1024,81.9,-17.9,96,4.148,4.149,4.143,4.148,0,0,98.51,6,GPS_Atti,
0.305148767831598,36.8794137835239,6058.3205672258,224.73754,0,1.13399609928,31300,2017-11-10 13:10:36,19,16.573,6058.3205672258,224.73754,0.63305402,1.89766738356,83.4, -7.7, -8,0,1,1024,1024,1684,1024,81.9,-17.9,96,4.148,4.149,4.143,4.148,0,0,98.51,6,GPS_Atti,
0.305148702906146,36.8794137493277,6060.2890712258,226.706044,0,1.13920935404,31400,2017-11-10 13:10:36,19,16.573,6060.2890712258,226.706044,0.63305402,1.89766738356,83.5, -8.7, -7.5,0,1,1024,1024,1684,1024,81.9,-17.9,96,4.148,4.149,4.143,4.148,0,0,98.51,6,GPS_Atti,
0.305148620902796,36.8794137057031,6061.9294912258,228.346464,0,1.14653546976,31500,2017-11-10 13:10:36,19,16.573,6061.9294912258,228.346464,0.63305402,1.89766738356,83.6, -9.4, -7.5,0,1,1024,1024,1684,1024,81.9,-17.9,96,4.148,4.149,4.143,4.148,0,0,98.51,6,GPS_Atti,
0.305148534293798,36.879413690203,6063.5699112258,229.986884,0,1.16347772752,31600,2017-11-10 13:10:36,19,16.573,6063.5699112258,229.986884,0.63305402,1.89766738356,83.6, -9.6, -8.4,0,1,1024,1024,1684,1024,81.9,-17.9,96,4.148,4.149,4.143,4.148,0,0,98.51,6,GPS_Atti,
0.305148421291184,36.8794137010455,6065.2103312258,231.627304,0,1.1946522692,31700,2017-11-10 13:10:36,19,16.628,6065.2103312258,231.627304,0.63305402,1.89766738356,83.5, -9.2, -9.2,0,1,1024,1024,1684,1024,81.9,-17.9,96,4.147,4.14,4.128,4.133,0,0,98.51,6,GPS_Atti,
0.305148339838044,36.8794137339633,6066.8507512258,233.267724,0,1.22400594468,31800,2017-11-10 13:10:36,19,16.628,6066.8507512258,233.267724,0.63305402,1.89766738356,83.4, -8.1, -8.9,0,1,1024,1024,1684,1024,81.9,-17.9,96,4.147,4.14,4.128,4.133,0,0,98.51,6,GPS_Atti,
0.305148260798257,36.8794137803197,6068.4911712258,234.908144,0,1.25632878036,31900,2017-11-10 13:10:36,19,16.628,6068.4911712258,234.908144,0.63305402,1.89766738356,83.3, -7.9, -8.5,0,1,1024,1024,1684,1024,81.9,-17.9,96,4.147,4.14,4.128,4.133,0,0,98.51,6,GPS_Atti,
0.305148209912843,36.8794138026279,6070.1315912258,236.548564,0,1.27523298044,32000,2017-11-10 13:10:36,19,16.628,6070.1315912258,236.548564,0.63305402,1.89766738356,83.4, -8.2, -8.3,0,1,1024,1024,1684,1024,81.9,-17.9,96,4.147,4.14,4.128,4.133,0,0,98.51,6,GPS_Atti,
0.305148175544329,36.8794137864052,6072.1000952258,238.517068,0,1.28005909608,32100,2017-11-10 13:10:36,19,16.628,6072.1000952258,238.517068,0.63305402,1.89766738356,83.5, -8.8, -8,0,1,1024,1024,1684,1024,81.9,-17.9,96,4.147,4.14,4.128,4.133,0,0,98.51,6,GPS_Atti,
0.305148145536788,36.8794137598649,6073.7405152258,240.157488,0,1.28126972604,32200,2017-11-10 13:10:37,19,16.628,6073.7405152258,240.157488,0.63305402,1.89766738356,83.5, -9.2, -8.5,0,1,1024,1024,1684,1024,81.9,-17.9,96,4.147,4.14,4.128,4.133,0,0,98.51,6,GPS_Atti,
0.305148101644319,36.8794137693455,6075.3809352258,241.797908,0,1.29530515956,32300,2017-11-10 13:10:37,19,16.628,6075.3809352258,241.797908,0.63305402,1.89766738356,83.5, -8.9, -8.8,0,1,1024,1024,1684,1024,81.9,-17.9,96,4.147,4.14,4.128,4.133,0,0,98.51,6,GPS_Atti,
0.305148095807161,36.8794137800009,6077.0213552258,243.438328,0,1.29951775812,32400,2017-11-10 13:10:37,19,16.628,6077.0213552258,243.438328,0.63305402,1.89766738356,83.5, -9.5, -8.6,0,1,1024,1024,1684,1024,81.9,-17.9,96,4.147,4.14,4.128,4.133,0,0,98.51,6,GPS_Atti,
0.305148122983449,36.8794138003828,6078.6617752258,245.078748,0,1.29741802052,32500,2017-11-10 13:10:37,19,16.628,6078.6617752258,245.078748,0.63305402,1.89766738356,83.5, -9.2, -8,0,1,1024,1024,1684,1024,81.9,-17.9,96,4.147,4.14,4.128,4.133,0,0,98.51,6,GPS_Atti,
0.305148169216806,36.8794138192367,6080.3021952258,246.719168,0,1.29006893892,32600,2017-11-10 13:10:37,19,16.628,6080.3021952258,246.719168,0.63305402,1.89766738356,83.4, -8.6, -7.7,0,1,1024,1024,1684,1024,81.9,-17.9,96,4.147,4.14,4.128,4.133,0,0,98.51,6,GPS_Atti,
0.305148214121149,36.8794138277212,6082.2706992258,248.687672,0,1.28060043468,32700,2017-11-10 13:10:37,19,16.437,6082.2706992258,248.687672,0.63305402,1.89766738356,83.4, -8.4, -7.4,0,1,1024,1024,1585,1024,81.9,-17.9,96,4.147,4.14,4.128,4.133,0,0,98.51,6,GPS_Atti,
0.305148262163504,36.8794138088534,6083.9111192258,250.328092,0,1.26335962048,32800,2017-11-10 13:10:37,19,16.437,6083.9111192258,250.328092,0.63305402,1.89766738356,83.4, -9, -7.1,0,1,1024,1024,1042,1024,81.9,-17.9,96,4.147,4.14,4.128,4.133,0,0,98.51,6,GPS_Atti,
0.305148299757762,36.8794137368663,6085.5515392258,251.968512,0,1.23506893716,32900,2017-11-10 13:10:37,19,16.437,6085.5515392258,251.968512,0.63305402,1.89766738356,83.5, -10, -7.4,0,1,1024,1024,1024,1024,81.9,-17.9,96,4.147,4.14,4.128,4.133,0,0,98.51,6,GPS_Atti,
0.305148310095125,36.8794136434657,6087.1919592258,253.608932,0.223694,1.20851709904,33000,2017-11-10 13:10:37,19,16.437,6087.1919592258,253.608932,0.63305402,1.89766738356,84, -13.1, -9.9,0,1,1024,1024,1024,1024,81.9,-17.9,96,4.147,4.14,4.128,4.133,0,0,98.51,6,GPS_Atti,
0.305148287660255,36.879413544552,6088.8323792258,255.249352,0.223694,1.18980318768,33100,2017-11-10 13:10:37,19,16.437,6088.8323792258,255.249352,0.63305402,1.89766738356,84.4, -15.4, -12,0,1,1024,1024,1024,1024,81.9,-17.9,96,4.147,4.14,4.128,4.133,0,0,98.51,6,GPS_Atti,
0.305148271006158,36.8794134453015,6090.1447152258,256.561688,0.223694,1.17027890884,33200,2017-11-10 13:10:38,19,16.437,6090.1447152258,256.561688,0.63305402,1.89766738356,84.3, -15, -11.3,0,1,1024,1024,1024,1024,81.9,-17.9,96,4.147,4.14,4.128,4.133,0,0,98.51,6,GPS_Atti,
0.305148275040018,36.8794133182091,6091.1289672258,257.54594,0.223694,1.13932418344,33300,2017-11-10 13:10:38,19,16.437,6091.1289672258,257.54594,0.63305402,1.89766738356,84.3, -14.3, -10.4,0,1,1024,1024,1024,1024,81.9,-17.9,96,4.147,4.14,4.128,4.133,0,0,98.51,6,GPS_Atti,
0.305148248445695,36.8794131675768,6091.7851352258,258.202108,0.223694,1.11319885452,33400,2017-11-10 13:10:38,19,16.437,6091.7851352258,258.202108,0.63305402,1.89766738356,84.3, -14.8, -10.4,0,1,1024,1024,1024,1024,81.9,-17.9,96,4.147,4.14,4.128,4.133,0,0,98.51,6,GPS_Atti,
0.30514816406217,36.879412963832,6092.4413032258,258.858276,0.223694,1.09628940516,33500,2017-11-10 13:10:38,19,16.437,6092.4413032258,258.858276,0.63305402,1.89766738356,84.2, -14.4, -10.8,0,1,1024,1024,1024,1024,81.9,-17.9,96,4.147,4.14,4.128,4.133,0,0,98.51,6,GPS_Atti,
0.305148081440418,36.879412767104,6092.7693872258,259.18636,0.223694,1.08575134708,33600,2017-11-10 13:10:38,19,16.437,6092.7693872258,259.18636,0.63305402,1.89766738356,83.9, -13, -9.4,0,1,1024,1024,1024,1024,81.9,-17.9,96,4.147,4.14,4.128,4.133,0,0,98.51,6,GPS_Atti,
0.305147973265529,36.8794125787923,6092.7693872258,259.18636,0.223694,1.09048888004,33700,2017-11-10 13:10:38,19,16.437,6092.7693872258,259.18636,0.63305402,1.89766738356,83.8, -12.5, -8.7,0,1,1024,1024,1024,1024,81.9,-17.9,96,4.137,4.135,4.123,4.129,0,0,98.51,6,GPS_Atti,
0.305147871788024,36.8794124266568,6092.7693872258,259.18636,0.223694,1.10328415604,33800,2017-11-10 13:10:38,19,16.437,6092.7693872258,259.18636,0.63305402,1.89766738356,83.6, -11.6, -8.4,0,1,1024,1024,1024,1024,81.9,-17.9,96,4.137,4.135,4.123,4.129,0,0,98.51,6,GPS_Atti,
0.305147770559874,36.8794123234721,6093.0974712258,259.514444,0.223694,1.12535764756,33900,2017-11-10 13:10:38,19,16.437,6093.0974712258,259.514444,0.63305402,1.89766738356,83.5, -11.3, -8.1,0,1,1024,1024,1024,1024,81.9,-17.9,96,4.137,4.135,4.123,4.129,0,0,98.51,6,GPS_Atti,
0.305147688976051,36.8794122481982,6093.0974712258,259.514444,0,1.14543310752,34000,2017-11-10 13:10:38,19,16.437,6093.0974712258,259.514444,0.63305402,1.89766738356,83.4, -10.9, -8,0,1,1024,1024,1024,1024,81.9,-17.9,96,4.137,4.135,4.123,4.129,0,0,98.51,6,GPS_Atti,
0.305147643236316,36.8794121901321,6093.0974712258,259.514444,0,1.15559714984,34100,2017-11-10 13:10:38,19,16.437,6093.0974712258,259.514444,0.63305402,1.89766738356,83.3, -10.9, -7.4,0,1,1024,1024,1024,1024,81.9,-17.9,96,4.137,4.135,4.123,4.129,0,0,98.51,6,GPS_Atti,
0.305147602147824,36.8794121546046,6093.4255552258,259.842528,0,1.16670607408,34200,2017-11-10 13:10:39,19,16.437,6093.4255552258,259.842528,0.63305402,1.89766738356,83.3, -11.4, -7.8,0,1,1024,1024,1024,1024,81.9,-17.9,96,4.137,4.135,4.123,4.129,0,0,98.51,6,GPS_Atti,
0.305147566740159,36.8794122070933,6093.4255552258,259.842528,0.223694,1.18414701952,34400,2017-11-10 13:10:39,19,16.437,6093.4255552258,259.842528,0.63305402,1.89766738356,83.3, -11.5, -7.2,0,1,1024,1024,1024,1024,81.9,-17.9,96,4.137,4.135,4.123,4.129,0,0,98.51,6,GPS_Atti,
