latitude,longitude,altitude(feet),ascent(feet),speed(mph),distance(feet),time(millisecond),datetime(utc),satellites,voltage(v),max_altitude(feet),max_ascent(feet),max_speed(mph),max_distance(feet),compass_heading(degrees), pitch(degrees), roll(degrees),isPhoto,isVideo,rc_elevator,rc_aileron,rc_throttle,rc_rudder,gimbal_heading(degrees),gimbal_pitch(degrees),battery_percent,voltageCell1,voltageCell2,voltageCell3,voltageCell4,voltageCell5,voltageCell6,battery_temperature(f),flycStateRaw,flycState,message
0.35733249925989,36.8942248289672,5811.7529458186,0,0,0,0,2017-11-10 08:37:52,13,0,5811.7529458186,0,0,0,247.4, -1.7, 6.1,0,0,1024,1024,1024,1024,252.1,0,98,4.287,4.286,4.281,4.268,0,0,82.31,41,Motors_Started,
0.357332502293477,36.8942248500189,5811.7529458186,0,0,0.0077598755764,100,2017-11-10 08:37:52,13,17.108,5811.7529458186,0,0,0.0077598755764,247.4, -1.7, 6.1,0,0,1024,1024,1024,1024,252.1,0,98,4.287,4.286,4.281,4.268,0,0,82.31,41,Motors_Started,Setting new Return-To-Home altitude to 30m (98 ft). Setting new Maximum Flight Altitude to 120m (394 ft)
0.357332507403127,36.8942248667906,5811.7529458186,0,0,0.0141157812916,200,2017-11-10 08:37:52,13,17.108,5811.7529458186,0,0,0.0141157812916,247.3, -1.7, 6.1,0,0,1024,1024,1024,1024,252.1,0,98,4.287,4.286,4.281,4.268,0,0,82.31,41,Motors_Started,
0.357332506837447,36.894224872419,5811.7529458186,0,0,0.0160923233496,300,2017-11-10 08:37:52,13,17.108,5811.7529458186,0,0,0.0160923233496,247.4, -1.7, 6.1,0,0,1024,1024,1024,1024,252.1,0,98,4.287,4.286,4.281,4.268,0,0,82.31,41,Motors_Started,
0.357332508585785,36.894224878667,5811.7529458186,0,0,0.0184490819552,400,2017-11-10 08:37:52,13,17.108,5811.7529458186,0,0,0.0184490819552,247.3, -1.7, 6.1,0,0,1024,1024,1024,1024,252.1,0,98,4.287,4.286,4.281,4.268,0,0,82.31,41,Motors_Started,
0.357332505488077,36.8942249098267,5811.7529458186,0,0,0.0295883539652,500,2017-11-10 08:37:52,13,17.108,5811.7529458186,0,0,0.0295883539652,247.4, -1.7, 6.1,0,0,1024,1024,1024,1024,252.1,0,98,4.287,4.286,4.281,4.268,0,0,82.31,41,Motors_Started,
0.357332505919004,36.8942249408261,5811.7529458186,0,0,0.040883203408,600,2017-11-10 08:37:52,13,17.108,5811.7529458186,0,0,0.040883203408,247.3, -1.7, 6.1,0,0,1024,1024,1024,1024,252.1,0,98,4.287,4.286,4.281,4.268,0,0,82.31,41,Motors_Started,
0.357332501311933,36.8942249606191,5811.7529458186,0,0,0.04803805928,700,2017-11-10 08:37:53,13,17.108,5811.7529458186,0,0,0.04803805928,247.3, -1.7, 6.2,0,0,1024,1024,1024,1024,252.1,0,98,4.287,4.286,4.281,4.268,0,0,82.31,41,Motors_Started,
0.357332500620251,36.8942249765453,5811.7529458186,0,0,0.05384514608,800,2017-11-10 08:37:53,13,17.108,5811.7529458186,0,0,0.05384514608,247.3, -1.8, 6.2,0,0,698,590,811,1253,252.1,0,98,4.287,4.286,4.281,4.268,0,0,82.31,41,Motors_Started,
0.357332495520779,36.8942249836372,5811.7529458186,0,0,0.056446524116,1000,2017-11-10 08:37:53,13,17.108,5811.7529458186,0,0,0.056446524116,247.3, -1.9, 6.3,0,0,962,808,1024,1024,251.8,0,98,4.287,4.286,4.281,4.268,0,0,82.31,41,Motors_Started,
0.357332526037412,36.8942249776951,5811.7529458186,0,0,0.055134844284,1100,2017-11-10 08:37:53,13,17.055,5811.7529458186,0,0,0.056446524116,247.3, -1.8, 6.3,0,0,1024,971,1024,1024,250.4,0,98,4.285,4.285,4.279,4.264,0,0,82.31,41,Motors_Started,
0.357332553798718,36.8942249796294,5811.7529458186,0,0,0.058458663288,1200,2017-11-10 08:37:53,13,17.055,5811.7529458186,0,0,0.058458663288,247.3, -1.8, 6.2,0,0,1024,1024,1024,1024,249.3,0,98,4.285,4.285,4.279,4.264,0,0,82.31,41,Motors_Started,
0.357332577143684,36.8942249692026,5811.7529458186,0,0,0.05852526434,1300,2017-11-10 08:37:53,13,17.055,5811.7529458186,0,0,0.05852526434,247.3, -1.8, 6.3,0,0,1024,1024,1024,1024,248.8,0,98,4.285,4.285,4.279,4.264,0,0,82.31,41,Motors_Started,
0.357332593731015,36.8942249666449,5811.7529458186,0,0,0.060919293288,1400,2017-11-10 08:37:53,13,17.055,5811.7529458186,0,0,0.060919293288,247.3, -1.9, 6.3,0,0,1024,1024,1024,1024,248.6,0,98,4.285,4.285,4.279,4.264,0,0,82.31,41,Motors_Started,
0.357332604651157,36.8942249525987,5811.7529458186,0,0,0.059271327356,1500,2017-11-10 08:37:53,13,17.055,5811.7529458186,0,0,0.060919293288,247.3, -1.9, 6.4,0,0,1024,1024,1024,1024,248.4,0,98,4.285,4.285,4.279,4.264,0,0,82.31,10,Assisted_Takeoff,
0.357332614816515,36.8942249502118,5811.7529458186,0,0,0.061108597756,1600,2017-11-10 08:37:53,13,17.055,5811.7529458186,0,0,0.061108597756,247.3, -1.7, 6.1,0,0,1024,1024,1024,1024,248.3,0,98,4.285,4.285,4.279,4.264,0,0,82.31,10,Assisted_Takeoff,
0.357332616159574,36.894224941153,5811.7529458186,0,0,0.059113190868,1700,2017-11-10 08:37:54,13,17.055,5811.7529458186,0,0,0.061108597756,247.3, -1.8, 6.3,0,0,1024,1024,1024,1024,248.2,0,98,4.285,4.285,4.279,4.264,0,0,82.31,10,Assisted_Takeoff,
0.357332619794465,36.8942249380536,5811.7529458186,0,0,0.059312337856,1800,2017-11-10 08:37:54,13,17.055,5811.7529458186,0,0,0.061108597756,247.4, -1.7, 6.1,0,0,1024,1024,1024,1024,248.1,0,98,4.285,4.285,4.279,4.264,0,0,82.31,10,Assisted_Takeoff,
0.357332582889445,36.8942249273586,5811.7529458186,0,0,0.0471128624,1900,2017-11-10 08:37:54,13,17.055,5811.7529458186,0,0,0.061108597756,247.3, -1.8, 6.2,0,0,1024,1024,1024,1024,248.1,0,98,4.285,4.285,4.279,4.264,0,0,82.31,10,Assisted_Takeoff,
0.357332556047396,36.8942249238947,5811.7529458186,0,0,0.040357940924,2000,2017-11-10 08:37:54,13,17.055,5811.7529458186,0,0,0.061108597756,247.3, -1.7, 6.2,0,0,1024,1024,1024,1024,248,0,98,4.285,4.285,4.279,4.264,0,0,82.31,10,Assisted_Takeoff,
0.357332561445891,36.8942249501433,5811.7529458186,0,0,0.049692258808,2100,2017-11-10 08:37:54,13,17.002,5811.7529458186,0,0,0.061108597756,247.3, -1.8, 6.2,0,0,1024,1024,1024,1024,248,0,98,4.285,4.285,4.279,4.264,0,0,82.31,10,Assisted_Takeoff,
0.35733257220726,36.8942249759717,5811.7529458186,0,0,0.059874017664,2200,2017-11-10 08:37:54,13,17.002,5811.7529458186,0,0,0.061108597756,247.3, -1.7, 6.2,0,0,1024,1024,1024,1024,248,0,98,4.285,4.285,4.279,4.264,0,0,82.31,10,Assisted_Takeoff,
0.357332583237729,36.8942249968299,5811.7529458186,0,0,0.068479989068,2300,2017-11-10 08:37:54,13,17.002,5811.7529458186,0,0,0.068479989068,247.3, -1.8, 6.2,0,0,1024,1024,1024,1024,248,0,98,4.285,4.285,4.279,4.264,0,0,82.31,10,Assisted_Takeoff,
0.357332590492243,36.8942250126044,5811.7529458186,0,0,0.074811682184,2400,2017-11-10 08:37:54,13,17.002,5811.7529458186,0,0,0.074811682184,247.3, -1.7, 6.2,0,0,1024,1024,1024,1024,248,0,98,4.285,4.285,4.279,4.264,0,0,82.31,10,Assisted_Takeoff,
0.357332595808502,36.8942250201858,5811.7529458186,0,0,0.078153545808,2500,2017-11-10 08:37:54,13,17.002,5811.7529458186,0,0,0.078153545808,247.3, -1.7, 6.2,0,0,1024,1024,1024,1024,248,0,98,4.285,4.285,4.279,4.264,0,0,82.31,10,Assisted_Takeoff,
0.357332602053585,36.8942250273031,5811.7529458186,0,0,0.081502955364,2600,2017-11-10 08:37:54,13,17.002,5811.7529458186,0,0,0.081502955364,247.3, -1.8, 6.2,0,0,1024,1024,1024,1024,247.9,0,98,4.285,4.285,4.279,4.264,0,0,82.31,10,Assisted_Takeoff,
0.357332604423378,36.8942250264707,5811.7529458186,0,0,0.081636157468,2700,2017-11-10 08:37:55,13,17.002,5811.7529458186,0,0,0.081636157468,247.3, -1.7, 6.2,0,1,1024,1024,1024,1024,247.9,0,98,4.285,4.285,4.279,4.264,0,0,82.31,10,Assisted_Takeoff,
0.357332609349421,36.8942250264472,5811.7529458186,0,0,0.0824885197,2800,2017-11-10 08:37:55,13,17.002,5811.7529458186,0,0,0.0824885197,247.3, -1.8, 6.2,0,1,1024,1024,1024,1024,247.9,0,98,4.285,4.285,4.279,4.264,0,0,82.31,10,Assisted_Takeoff,
0.357332609428808,36.8942250219268,5811.7529458186,0,0,0.081066603644,2900,2017-11-10 08:37:55,13,17.002,5811.7529458186,0,0,0.0824885197,247.3, -1.7, 6.2,0,1,1024,1024,1024,1024,247.9,0,98,4.285,4.285,4.279,4.264,0,0,82.31,10,Assisted_Takeoff,Insufficient DJI Device Storage
0.357332613638336,36.8942250179049,5811.7529458186,0,0,0.080580055072,3000,2017-11-10 08:37:55,13,17.002,5811.7529458186,0,0,0.0824885197,247.3, -1.8, 6.2,0,1,1024,1024,1024,1024,247.9,0,98,4.285,4.285,4.279,4.264,0,0,82.31,10,Assisted_Takeoff,
0.357332612122051,36.8942250484838,5811.7529458186,0,0,0.090054792908,3100,2017-11-10 08:37:55,13,17.055,5811.7529458186,0,0,0.090054792908,247.3, -1.8, 6.2,0,1,1024,1024,1024,1024,247.9,0,98,4.278,4.276,4.269,4.256,0,0,82.31,10,Assisted_Takeoff,
0.357332615894748,36.8942250700363,5811.7529458186,0,0,0.097706039872,3200,2017-11-10 08:37:55,13,17.055,5811.7529458186,0,0,0.097706039872,247.3, -1.8, 6.3,0,1,1024,1024,1024,1024,247.9,0,98,4.278,4.276,4.269,4.256,0,0,82.31,10,Assisted_Takeoff,
0.35733261431129,36.8942250902901,5811.7529458186,0,0,0.10417323168,3300,2017-11-10 08:37:55,13,17.055,5811.7529458186,0,0,0.10417323168,247.3, -1.8, 6.2,0,1,1024,1024,1024,1024,247.9,0,98,4.278,4.276,4.269,4.256,0,0,82.31,10,Assisted_Takeoff,
0.357332618200625,36.894225100878,5811.7529458186,0,0,0.10828084336,3400,2017-11-10 08:37:55,13,17.055,5811.7529458186,0,0,0.10828084336,247.3, -1.8, 6.3,0,1,1024,1024,1024,1024,247.8,0,98,4.278,4.276,4.269,4.256,0,0,82.31,10,Assisted_Takeoff,
0.357332615714398,36.8942251100367,5811.7529458186,0,0,0.110999675468,3500,2017-11-10 08:37:55,13,17.055,5811.7529458186,0,0,0.110999675468,247.3, -1.8, 6.3,0,1,1024,1024,1024,1024,247.9,0,98,4.278,4.276,4.269,4.256,0,0,82.31,10,Assisted_Takeoff,
0.357332620021633,36.8942251119132,5811.7529458186,0,0,0.112240161072,3600,2017-11-10 08:37:55,13,17.055,5811.7529458186,0,0,0.112240161072,247.3, -1.8, 6.3,0,1,1024,1024,1024,1024,247.9,0,98,4.278,4.276,4.269,4.256,0,0,82.31,10,Assisted_Takeoff,
0.357332617800842,36.8942251123016,5811.7529458186,0,0,0.112055121696,3700,2017-11-10 08:37:56,13,17.055,5811.7529458186,0,0,0.112240161072,247.3, -1.8, 6.3,0,1,1024,1024,1024,1024,247.8,0,98,4.278,4.276,4.269,4.256,0,0,82.31,10,Assisted_Takeoff,
0.357332620855599,36.8942251085007,5811.7529458186,0,0,0.11121719516,3800,2017-11-10 08:37:56,13,17.055,5811.7529458186,0,0,0.112240161072,247.3, -1.8, 6.2,0,1,1024,1024,1024,1024,247.8,0,98,4.278,4.276,4.269,4.256,0,0,82.31,10,Assisted_Takeoff,
0.357332581868411,36.8942250917365,5811.7529458186,0,0,0.10049541004,4100,2017-11-10 08:37:56,13,17.028,5811.7529458186,0,0,0.112240161072,247.3, -1.8, 6.3,0,1,1024,1024,1024,1024,247.8,0,98,4.28,4.28,4.275,4.262,0,0,82.31,10,Assisted_Takeoff,
0.357332556440054,36.8942250840582,5811.7529458186,0,0,0.095377627724,4200,2017-11-10 08:37:56,13,17.028,5811.7529458186,0,0,0.112240161072,247.3, -1.8, 6.3,0,1,1024,1024,1024,1024,247.8,0,98,4.28,4.28,4.275,4.262,0,0,82.31,10,Assisted_Takeoff,
0.357332527400216,36.8942250442252,5811.7529458186,0,0,0.079203414608,4300,2017-11-10 08:37:56,13,17.028,5811.7529458186,0,0,0.112240161072,247.3, -1.8, 6.3,0,1,1024,1024,1024,1024,247.8,0,98,4.28,4.28,4.275,4.262,0,0,82.31,10,Assisted_Takeoff,
0.357332510998732,36.8942250060726,5811.7529458186,0,0,0.06475721992,4400,2017-11-10 08:37:56,13,17.028,5811.7529458186,0,0,0.112240161072,247.3, -1.8, 6.2,0,1,1024,1024,1024,1024,247.8,0,98,4.28,4.28,4.275,4.262,0,0,82.31,10,Assisted_Takeoff,
0.357332487910653,36.894224949088,5811.7529458186,0,0,0.044020342616,4600,2017-11-10 08:37:56,13,17.028,5811.7529458186,0,0,0.112240161072,247.3, -1.8, 6.3,0,1,1024,1024,1083,1024,247.8,0,98,4.28,4.28,4.275,4.262,0,0,82.31,10,Assisted_Takeoff,
0.357332480844224,36.8942249333416,5811.7529458186,0,0,0.038668308324,4700,2017-11-10 08:37:57,13,17.028,5811.7529458186,0,0,0.112240161072,247.3, -1.8, 6.3,0,1,1024,1024,1114,1024,247.8,0,98,4.28,4.28,4.275,4.262,0,0,82.31,10,Assisted_Takeoff,
0.357332479074716,36.8942249142157,5811.7529458186,0,0,0.031962271364,4800,2017-11-10 08:37:57,13,17.028,5811.7529458186,0,0,0.112240161072,247.3, -1.9, 6.3,0,1,1024,1024,1164,1024,247.8,0,98,4.28,4.28,4.275,4.262,0,0,82.31,10,Assisted_Takeoff,
0.357332479144128,36.8942248955104,5811.7529458186,0,0,0.025362861704,5000,2017-11-10 08:37:57,13,17.028,5811.7529458186,0,0,0.112240161072,247.3, -1.9, 6.3,0,1,1024,1024,1168,1024,247.8,0,98,4.28,4.28,4.275,4.262,0,0,82.31,10,Assisted_Takeoff,
0.357332480168216,36.8942248968704,5811.7529458186,0,0,0.025734580876,5100,2017-11-10 08:37:57,13,17.055,5811.7529458186,0,0,0.112240161072,247.3, -1.9, 6.3,0,1,1024,1024,1213,1024,247.8,0,98,4.28,4.28,4.275,4.262,0,0,82.31,10,Assisted_Takeoff,
0.35733248397389,36.8942248890853,5811.7529458186,0,0,0.022631562404,5200,2017-11-10 08:37:57,13,17.055,5811.7529458186,0,0,0.112240161072,247.3, -2, 6.3,0,1,1024,1024,1297,1024,247.8,0,98,4.28,4.28,4.275,4.262,0,0,82.31,10,Assisted_Takeoff,
0.357332487352097,36.8942248610586,5811.7529458186,0,0,0.0124883862264,5300,2017-11-10 08:37:57,13,17.055,5811.7529458186,0,0,0.112240161072,247.1, -2, 6.3,0,1,1024,1024,1406,1024,247.8,0,98,4.28,4.28,4.275,4.262,0,0,82.31,10,Assisted_Takeoff,
0.357332507766881,36.8942248122322,5811.7529458186,0,0,0.006849245626,5400,2017-11-10 08:37:57,13,17.055,5811.7529458186,0,0,0.112240161072,247.1, -0.9, 5,0,1,1024,1024,1531,1024,247.8,0,98,4.28,4.28,4.275,4.262,0,0,82.31,10,Assisted_Takeoff,
0.357332682377196,36.8942246111678,5811.7529458186,0,0.31540854,0.103816604372,5600,2017-11-10 08:37:57,13,17.055,5811.7529458186,0,0.31540854,0.112240161072,247.7, 1.5, 0.2,0,1,1024,1024,1575,1024,247.8,0,98,4.28,4.28,4.275,4.262,0,0,82.31,6,GPS_Atti,
0.357332819711003,36.89422453756,5811.7529458186,0,0.223694,0.15802822028,5700,2017-11-10 08:37:58,13,17.055,5811.7529458186,0,0.31540854,0.15802822028,247.7, 0.8, -1.5,0,1,1024,1024,1611,1024,247.8,0,98,4.28,4.28,4.275,4.262,0,0,82.31,6,GPS_Atti,
0.357332923341922,36.8942244733742,5812.0810298186,0.328084,0,0.2019192978,5800,2017-11-10 08:37:58,13,17.055,5812.0810298186,0.328084,0.31540854,0.2019192978,247.5, 0, -1,0,1,1024,1024,1651,1024,247.8,0,98,4.28,4.28,4.275,4.262,0,0,82.31,6,GPS_Atti,
0.35733297272815,36.8942243632608,5812.0810298186,0.328084,0.223694,0.242301188856,5900,2017-11-10 08:37:58,13,17.055,5812.0810298186,0.328084,0.31540854,0.242301188856,247.6, 0.3, -0.5,0,1,1024,1024,1684,1024,247.8,0,98,4.28,4.28,4.275,4.262,0,0,82.31,6,GPS_Atti,
0.357332987614571,36.8942242149001,5812.7371978186,0.984252,0.223694,0.286250665328,6000,2017-11-10 08:37:58,13,17.055,5812.7371978186,0.984252,0.31540854,0.286250665328,247.7, 0, -1.7,0,1,1024,1024,1684,1024,247.8,0,98,4.28,4.28,4.275,4.262,0,0,82.31,6,GPS_Atti,
0.357332970447514,36.8942240444648,5813.0652818186,1.312336,0.31540854,0.33388124428,6100,2017-11-10 08:37:58,13,16.71,5813.0652818186,1.312336,0.31540854,0.33388124428,247.6, 1.2, -1.7,0,1,1024,1024,1684,1024,247.8,0,98,4.279,4.279,4.261,4.26,0,0,82.31,6,GPS_Atti,
0.357332853729605,36.8942238805697,5813.7214498186,1.968504,0.31540854,0.36939633728,6200,2017-11-10 08:37:58,13,16.71,5813.7214498186,1.968504,0.31540854,0.36939633728,247.5, 2.7, 0.3,0,1,1024,1024,1684,1024,247.8,0,98,4.279,4.279,4.261,4.26,0,0,82.31,6,GPS_Atti,Home Point Recorded. RTH Altitude:  30m.
0.357332632563705,36.8942237882511,5814.7057018186,2.952756,0.223694,0.38279856868,6300,2017-11-10 08:37:58,13,16.71,5814.7057018186,2.952756,0.31540854,0.38279856868,247.4, 3, 2.8,0,1,1024,1024,1684,1024,247.8,0,98,4.279,4.279,4.261,4.26,0,0,82.31,6,GPS_Atti,
0.357332457820265,36.8942237183362,5815.6899538186,3.937008,0,0.40548557728,6400,2017-11-10 08:37:58,13,16.71,5815.6899538186,3.937008,0.31540854,0.40548557728,247.2, 2.5, 2.6,0,1,1024,1024,1684,1024,247.8,0,98,4.279,4.279,4.261,4.26,0,0,82.31,6,GPS_Atti,
0.357332326317305,36.8942237492936,5817.0022898186,5.249344,0,0.3989337398,6500,2017-11-10 08:37:58,13,16.71,5817.0022898186,5.249344,0.31540854,0.40548557728,247.1, 1.9, 2.4,0,1,1024,1024,1684,1024,247.8,0,98,4.279,4.279,4.261,4.26,0,0,82.31,6,GPS_Atti,
0.357332233075248,36.8942237433358,5818.6427098186,6.889764,0.223694,0.40781825452,6600,2017-11-10 08:37:58,13,16.71,5818.6427098186,6.889764,0.31540854,0.40781825452,247.4, 1.4, 1.4,0,1,1024,1024,1684,1024,247.8,0,98,4.279,4.279,4.261,4.26,0,0,82.31,6,GPS_Atti,
0.357332167413536,36.8942237132375,5819.9550458186,8.2021,0.223694,0.4246883338,6700,2017-11-10 08:37:59,13,16.71,5819.9550458186,8.2021,0.31540854,0.4246883338,247.5, 1.7, 1.1,0,1,1024,1024,1684,1024,247.8,0,98,4.279,4.279,4.261,4.26,0,0,82.31,6,GPS_Atti,
0.357332089027774,36.8942236156285,5821.5954658186,9.84252,0.223694,0.46729660288,6800,2017-11-10 08:37:59,13,16.71,5821.5954658186,9.84252,0.31540854,0.46729660288,247.5, 3.5, 1.2,0,1,1024,1024,1684,1024,247.8,0,98,4.279,4.279,4.261,4.26,0,0,82.31,6,GPS_Atti,
0.357331967056097,36.8942234583636,5823.5639698186,11.811024,0.223694,0.53643046336,6900,2017-11-10 08:37:59,13,16.71,5823.5639698186,11.811024,0.31540854,0.53643046336,247.4, 5.1, 0.9,0,1,1024,1024,1684,1024,247.8,0,98,4.279,4.279,4.261,4.26,0,0,82.31,6,GPS_Atti,
0.357331858441936,36.8942233065096,5825.2043898186,13.451444,0.223694,0.6026574996,7000,2017-11-10 08:37:59,13,16.71,5825.2043898186,13.451444,0.31540854,0.6026574996,247.5, 5.3, 0.4,0,1,1024,1024,1684,1024,247.8,0,98,4.279,4.279,4.261,4.26,0,0,82.31,6,GPS_Atti,
0.357331736319018,36.8942232075248,5826.8448098186,15.091864,0,0.653789391,7100,2017-11-10 08:37:59,13,16.364,5826.8448098186,15.091864,0.31540854,0.653789391,247.4, 4.7, 0.5,0,1,1024,1024,1684,1024,247.8,0,98,4.129,4.143,4.131,4.113,0,0,82.31,6,GPS_Atti,
0.357331635601792,36.8942231373252,5828.4852298186,16.732284,0,0.69296918228,7200,2017-11-10 08:37:59,13,16.364,5828.4852298186,16.732284,0.31540854,0.69296918228,247.5, 3.9, 0.2,0,1,1024,1024,1684,1024,247.8,0,98,4.129,4.143,4.131,4.113,0,0,82.31,6,GPS_Atti,
0.357331332661745,36.8942230810953,5831.7660698186,20.013124,0.223694,0.76669621876,7400,2017-11-10 08:37:59,13,16.364,5831.7660698186,20.013124,0.31540854,0.76669621876,247.5, 4.3, 0.1,0,1,1024,1024,1684,1024,247.8,0,98,4.129,4.143,4.131,4.113,0,0,82.31,6,GPS_Atti,
0.357331130483196,36.8942230604328,5833.4064898186,21.653544,0.223694,0.81592194212,7500,2017-11-10 08:37:59,13,16.364,5833.4064898186,21.653544,0.31540854,0.81592194212,247.5, 4.7, 0,0,1,1024,1024,1684,1024,247.8,0,98,4.129,4.143,4.131,4.113,0,0,82.31,6,GPS_Atti,
0.357330931778322,36.8942230400208,5835.0469098186,23.293964,0,0.86778874168,7600,2017-11-10 08:37:59,13,16.364,5835.0469098186,23.293964,0.31540854,0.86778874168,247.5, 4.9, 0.4,0,1,1024,1024,1684,1024,247.8,0,98,4.129,4.143,4.131,4.113,0,0,82.31,6,GPS_Atti,
0.357330698953272,36.8942230203277,5836.3592458186,24.6063,0,0.93105646024,7700,2017-11-10 08:38:00,13,16.364,5836.3592458186,24.6063,0.31540854,0.93105646024,247.5, 4.9, 1.1,0,1,1024,1024,1684,1024,247.8,0,98,4.129,4.143,4.131,4.113,0,0,82.31,6,GPS_Atti,
0.357330489693944,36.8942230019867,5837.9996658186,26.24672,0,0.99089242016,7800,2017-11-10 08:38:00,13,16.364,5837.9996658186,26.24672,0.31540854,0.99089242016,247.5, 4.4, 1.2,0,1,1024,1024,1684,1024,247.8,0,98,4.129,4.143,4.131,4.113,0,0,82.31,6,GPS_Atti,
0.357330257321041,36.8942229901593,5839.6400858186,27.88714,0,1.05789701548,7900,2017-11-10 08:38:00,13,16.364,5839.6400858186,27.88714,0.31540854,1.05789701548,247.5, 4.2, 1.2,0,1,1024,1024,1684,1116,247.8,0,98,4.129,4.143,4.131,4.113,0,0,82.31,6,GPS_Atti,
0.357330023047719,36.8942229696381,5841.2805058186,29.52756,0,1.1297736582,8000,2017-11-10 08:38:00,13,16.364,5841.2805058186,29.52756,0.31540854,1.1297736582,247.6, 4.7, 1.2,0,1,1024,1024,1684,1062,248,0,98,4.129,4.143,4.131,4.113,0,0,82.31,6,GPS_Atti,
0.357329786582847,36.8942229701241,5842.9209258186,31.16798,0,1.19978350296,8100,2017-11-10 08:38:00,13,16.47,5842.9209258186,31.16798,0.31540854,1.19978350296,248.5, 5, 1.5,0,1,1024,1024,1684,1024,248.4,0,98,4.136,4.151,4.143,4.131,0,0,82.31,6,GPS_Atti,
0.357329569396821,36.8942229728055,5844.5613458186,32.8084,0,1.26541670716,8200,2017-11-10 08:38:00,13,16.47,5844.5613458186,32.8084,0.31540854,1.26541670716,248.6, 4.9, 1.6,0,1,1024,1024,1684,1024,248.4,0,98,4.136,4.151,4.143,4.131,0,0,82.31,6,GPS_Atti,
0.357329327859404,36.8942229938925,5845.8736818186,34.120736,0,1.33682090892,8300,2017-11-10 08:38:00,13,16.47,5845.8736818186,34.120736,0.31540854,1.33682090892,248.6, 4.7, 1.6,0,1,1024,1024,1684,1024,248.4,0,98,4.136,4.151,4.143,4.131,0,0,82.31,6,GPS_Atti,
0.357329109774368,36.8942230037275,5847.5141018186,35.761156,0,1.40455056988,8400,2017-11-10 08:38:00,13,16.47,5847.5141018186,35.761156,0.31540854,1.40455056988,248.6, 4.8, 1.6,0,1,1024,1024,1684,1024,248.4,0,98,4.136,4.151,4.143,4.131,0,0,82.31,6,GPS_Atti,
0.357328909587254,36.8942230524595,5849.1545218186,37.401576,0,1.46129269768,8500,2017-11-10 08:38:00,13,16.47,5849.1545218186,37.401576,0.31540854,1.46129269768,248.6, 4.9, 1.4,0,1,1024,1024,1684,1024,248.4,0,98,4.136,4.151,4.143,4.131,0,0,82.31,6,GPS_Atti,
0.357328726803168,36.8942230932011,5850.7949418186,39.041996,0,1.51507878864,8600,2017-11-10 08:38:00,13,16.47,5850.7949418186,39.041996,0.31540854,1.51507878864,248.6, 5, 1.6,0,1,1024,1024,1684,1041,248.4,0,98,4.136,4.151,4.143,4.131,0,0,82.31,6,GPS_Atti,
0.357328541465377,36.8942231371031,5852.4353618186,40.682416,0,1.57039703188,8700,2017-11-10 08:38:01,13,16.47,5852.4353618186,40.682416,0.31540854,1.57039703188,248.6, 5.4, 1.9,0,1,1024,1024,1684,1058,248.4,0,98,4.136,4.151,4.143,4.131,0,0,82.31,6,GPS_Atti,
0.357328390087258,36.8942231729622,5853.7476978186,41.994752,0,1.61639112784,8800,2017-11-10 08:38:01,13,16.47,5853.7476978186,41.994752,0.31540854,1.61639112784,248.6, 5.2, 1.4,0,1,1024,1024,1684,1024,248.4,0,98,4.136,4.151,4.143,4.131,0,0,82.31,6,GPS_Atti,
0.357328088052117,36.8942233834234,5857.0285378186,45.275592,0,1.6936352248,9000,2017-11-10 08:38:01,13,16.47,5857.0285378186,45.275592,0.31540854,1.6936352248,248.7, 5.1, 1.2,0,1,1024,1024,1684,1024,248.4,0,98,4.136,4.151,4.143,4.131,0,0,82.31,6,GPS_Atti,
0.357327936682242,36.8942235120985,5858.6689578186,46.916012,0,1.73260176148,9100,2017-11-10 08:38:01,13,16.417,5858.6689578186,46.916012,0.31540854,1.73260176148,248.7, 4.8, 1.4,0,1,1024,1024,1684,1024,248.4,-3.1,98,4.136,4.151,4.143,4.131,0,0,82.31,6,GPS_Atti,
0.3573278003025,36.894223625402,5860.3093778186,48.556432,0,1.76975399364,9200,2017-11-10 08:38:01,13,16.417,5860.3093778186,48.556432,0.31540854,1.76975399364,248.7, 4.7, 1.6,0,1,1024,1024,1684,1024,248.4,-8.8,98,4.136,4.151,4.143,4.131,0,0,82.31,6,GPS_Atti,
0.357327627321037,36.8942237631531,5861.9497978186,50.196852,0,1.81956042568,9300,2017-11-10 08:38:01,13,16.417,5861.9497978186,50.196852,0.31540854,1.81956042568,248.7, 4.8, 1.4,0,1,1024,1024,1684,1024,248.4,-8.8,98,4.136,4.151,4.143,4.131,0,0,82.31,6,GPS_Atti,
0.357327467681415,36.8942238892657,5863.9183018186,52.165356,0,1.86750662144,9400,2017-11-10 08:38:01,13,16.417,5863.9183018186,52.165356,0.31540854,1.86750662144,248.7, 4.7, 1.4,0,1,1024,1024,1684,1024,248.4,-20,98,4.136,4.151,4.143,4.131,0,0,82.31,6,GPS_Atti,
0.357327146507476,36.8942241630629,5867.1991418186,55.446196,0,1.96800203148,9600,2017-11-10 08:38:01,13,16.417,5867.1991418186,55.446196,0.31540854,1.96800203148,248.7, 4.2, 1.9,0,1,1024,1024,1684,1024,248.4,-25.6,98,4.136,4.151,4.143,4.131,0,0,82.31,6,GPS_Atti,
0.357326990260514,36.8942243578795,5868.8395618186,57.086616,0,2.0172900908,9700,2017-11-10 08:38:02,13,16.417,5868.8395618186,57.086616,0.31540854,2.0172900908,248.7, 4.1, 2.3,0,1,1024,1024,1684,1024,248.4,-31.3,98,4.136,4.151,4.143,4.131,0,0,82.31,6,GPS_Atti,
0.357326857747309,36.8942245291826,5870.8080658186,59.05512,0,2.06120741504,9800,2017-11-10 08:38:02,13,16.417,5870.8080658186,59.05512,0.31540854,2.06120741504,248.7, 4, 2.5,0,1,1024,1024,1684,1024,248.4,-37,98,4.136,4.151,4.143,4.131,0,0,82.31,6,GPS_Atti,
0.357326724591071,36.8942247102018,5872.4484858186,60.69554,0,2.10732946376,9900,2017-11-10 08:38:02,13,16.417,5872.4484858186,60.69554,0.31540854,2.10732946376,248.7, 4.2, 2.1,0,1,1024,1024,1684,1024,248.4,-42.6,98,4.136,4.151,4.143,4.131,0,0,82.31,6,GPS_Atti,
0.357326611657666,36.8942248627957,5874.0889058186,62.33596,0,2.14812342832,10000,2017-11-10 08:38:02,13,16.417,5874.0889058186,62.33596,0.31540854,2.14812342832,248.7, 4.2, 2.2,0,1,1024,1024,1684,1024,248.4,-48.2,98,4.136,4.151,4.143,4.131,0,0,82.31,6,GPS_Atti,
0.357326518869741,36.8942250324198,5876.0574098186,64.304464,0,2.18320545044,10100,2017-11-10 08:38:02,13,16.417,5876.0574098186,64.304464,0.31540854,2.18320545044,248.7, 3.8, 2.1,0,1,1024,1024,1684,1024,248.4,-48.2,98,4.118,4.134,4.123,4.113,0,0,82.31,6,GPS_Atti,
0.357326444975227,36.8942251758747,5877.6978298186,65.944884,0,2.21252631752,10200,2017-11-10 08:38:02,13,16.417,5877.6978298186,65.944884,0.31540854,2.21252631752,248.7, 3.4, 2,0,1,1024,1024,1684,1024,248.4,-59.5,98,4.118,4.134,4.123,4.113,0,0,82.31,6,GPS_Atti,
0.357326368873358,36.8942253588088,5879.6663338186,67.913388,0,2.24500663352,10300,2017-11-10 08:38:02,13,16.417,5879.6663338186,67.913388,0.31540854,2.24500663352,248.7, 3.3, 2.1,0,1,1024,1024,1684,1024,248.4,-65.2,98,4.118,4.134,4.123,4.113,0,0,82.31,6,GPS_Atti,
0.357326296739395,36.8942254987931,5881.3067538186,69.553808,0,2.27614180512,10400,2017-11-10 08:38:02,13,16.417,5881.3067538186,69.553808,0.31540854,2.27614180512,248.7, 3.1, 2.8,0,1,1024,1024,1684,1024,248.4,-70.8,98,4.118,4.134,4.123,4.113,0,0,82.31,6,GPS_Atti,
0.357326209787407,36.8942256753699,5883.2752578186,71.522312,0,2.31539377488,10500,2017-11-10 08:38:02,13,16.417,5883.2752578186,71.522312,0.31540854,2.31539377488,248.8, 3.6, 3.1,0,1,1024,1024,1684,1024,248.4,-76.5,98,4.118,4.134,4.123,4.113,0,0,82.31,6,GPS_Atti,
0.357326161619255,36.8942257870413,5885.2437618186,73.490816,0,2.33855650528,10600,2017-11-10 08:38:02,13,16.417,5885.2437618186,73.490816,0.31540854,2.33855650528,248.7, 4.1, 2.3,0,1,1024,1024,1684,1024,248.4,-82.1,98,4.118,4.134,4.123,4.113,0,0,82.31,6,GPS_Atti,
0.357326113845186,36.8942259477103,5886.8841818186,75.131236,0,2.36520020692,10700,2017-11-10 08:38:03,13,16.417,5886.8841818186,75.131236,0.31540854,2.36520020692,248.7, 3.9, 1.7,0,1,1024,1024,1684,1024,248.4,-82.1,98,4.118,4.134,4.123,4.113,0,0,82.31,6,GPS_Atti,
0.357326061843677,36.894226078399,5888.8526858186,77.09974,0,2.39251648076,10800,2017-11-10 08:38:03,13,16.417,5888.8526858186,77.09974,0.31540854,2.39251648076,248.8, 4.1, 1.7,0,1,1024,1024,1684,1024,248.4,-87.8,98,4.118,4.134,4.123,4.113,0,0,82.31,6,GPS_Atti,
0.35732599440004,36.894226216691,5890.8211898186,79.068244,0,2.42669955272,10900,2017-11-10 08:38:03,13,16.417,5890.8211898186,79.068244,0.31540854,2.42669955272,248.8, 4, 2.3,0,1,1024,1024,1684,1024,248.4,-89.9,98,4.118,4.134,4.123,4.113,0,0,82.31,6,GPS_Atti,
0.357325936916374,36.8942263156631,5892.4616098186,80.708664,0,2.4549377426,11000,2017-11-10 08:38:03,13,16.417,5892.4616098186,80.708664,0.31540854,2.4549377426,248.7, 3.9, 2.8,0,1,1024,1024,1684,1024,248.4,-89.9,98,4.118,4.134,4.123,4.113,0,0,82.31,6,GPS_Atti,
0.357325875281804,36.8942264630568,5894.4301138186,82.677168,0,2.48920283556,11100,2017-11-10 08:38:03,13,16.444,5894.4301138186,82.677168,0.31540854,2.48920283556,248.7, 3.8, 2.7,0,1,1024,1024,1684,1024,248.4,-89.9,98,4.116,4.132,4.123,4.112,0,0,82.31,6,GPS_Atti,
0.357325809149879,36.8942266985905,5898.0390378186,86.286092,0,2.53440296824,11300,2017-11-10 08:38:03,13,16.444,5898.0390378186,86.286092,0.31540854,2.53440296824,248.7, 3.7, 3.4,0,1,1024,1024,1684,1024,248.4,-90,98,4.116,4.132,4.123,4.112,0,0,82.31,6,GPS_Atti,
0.357325813370806,36.8942267723037,5900.0075418186,88.254596,0,2.54029207604,11400,2017-11-10 08:38:03,13,16.444,5900.0075418186,88.254596,0.31540854,2.54029207604,248.7, 3.9, 3,0,1,1024,1024,1684,1024,248.4,-90,98,4.116,4.132,4.123,4.112,0,0,82.31,6,GPS_Atti,
0.357325813979844,36.8942268594904,5901.6479618186,89.895016,0,2.54914050152,11500,2017-11-10 08:38:03,13,16.444,5901.6479618186,89.895016,0.31540854,2.54914050152,248.7, 4.2, 2.4,0,1,1024,1024,1684,1024,248.4,-90,98,4.116,4.132,4.123,4.112,0,0,82.31,6,GPS_Atti,
0.35732580709519,36.89422691973,5903.6164658186,91.86352,0,2.55801189288,11600,2017-11-10 08:38:03,13,16.444,5903.6164658186,91.86352,0.31540854,2.55801189288,248.8, 4.5, 2.5,0,1,1024,1024,1684,1024,248.4,-89.9,98,4.116,4.132,4.123,4.112,0,0,82.31,6,GPS_Atti,
0.357325797429968,36.8942270262026,5905.5849698186,93.832024,0,2.57321530544,11700,2017-11-10 08:38:04,13,16.444,5905.5849698186,93.832024,0.31540854,2.57321530544,248.8, 4.6, 2.9,0,1,1024,1024,1684,1024,248.4,-89.9,98,4.116,4.132,4.123,4.112,0,0,82.31,6,GPS_Atti,
0.357325790367406,36.8942270918577,5907.2253898186,95.472444,0,2.5832185866,11800,2017-11-10 08:38:04,13,16.444,5907.2253898186,95.472444,0.31540854,2.5832185866,248.8, 5, 3.5,0,1,1024,1024,1684,1024,248.4,-90,98,4.116,4.132,4.123,4.112,0,0,82.31,6,GPS_Atti,
0.357325795733944,36.8942272078311,5909.1938938186,97.440948,0,2.59520677596,11900,2017-11-10 08:38:04,13,16.444,5909.1938938186,97.440948,0.31540854,2.59520677596,248.8, 4.5, 4.1,0,1,1024,1024,1684,1024,248.4,-90,98,4.116,4.132,4.123,4.112,0,0,82.31,6,GPS_Atti,
0.357325829700028,36.8942272825196,5910.8343138186,99.081368,0,2.59281176276,12000,2017-11-10 08:38:04,13,16.444,5910.8343138186,99.081368,0.31540854,2.59520677596,248.7, 4.1, 3.6,0,1,1024,1024,1684,1024,248.4,-90,98,4.116,4.132,4.123,4.112,0,0,82.31,6,GPS_Atti,
0.357325884941327,36.894227349649,5912.8028178186,101.049872,0,2.58252632936,12100,2017-11-10 08:38:04,13,16.47,5912.8028178186,101.049872,0.31540854,2.59520677596,248.7, 4.5, 3.2,0,1,1024,1024,1684,1024,248.4,-89.9,97,4.125,4.14,4.131,4.119,0,0,82.31,6,GPS_Atti,
0.357325949208276,36.8942273810719,5914.4432378186,102.690292,0,2.56476714244,12200,2017-11-10 08:38:04,13,16.47,5914.4432378186,102.690292,0.31540854,2.59520677596,248.7, 4.9, 3.1,0,1,1024,1024,1684,1024,248.4,-89.9,97,4.125,4.14,4.131,4.119,0,0,82.31,6,GPS_Atti,
0.357326042016557,36.8942274693332,5916.4117418186,104.658796,0,2.5452592678,12300,2017-11-10 08:38:04,13,16.47,5916.4117418186,104.658796,0.31540854,2.59520677596,248.7, 4.8, 2.8,0,1,1024,1024,1684,1024,248.4,-89.9,97,4.125,4.14,4.131,4.119,0,0,82.31,6,GPS_Atti,
0.357326148239144,36.8942275277005,5918.0521618186,106.299216,0,2.51768052676,12400,2017-11-10 08:38:04,13,16.47,5918.0521618186,106.299216,0.31540854,2.59520677596,248.7, 4.5, 2.6,0,1,1024,1024,1684,1024,248.4,-90,97,4.125,4.14,4.131,4.119,0,0,82.31,6,GPS_Atti,
0.357326282476261,36.8942276091345,5919.6925818186,107.939636,0.223694,2.48465887216,12500,2017-11-10 08:38:04,13,16.47,5919.6925818186,107.939636,0.31540854,2.59520677596,248.7, 4.1, 2.3,0,1,1024,1024,1684,1024,248.4,-90,97,4.125,4.14,4.131,4.119,0,0,82.31,6,GPS_Atti,
0.357326418708833,36.89422765145,5921.3330018186,109.580056,0.223694,2.44583013076,12600,2017-11-10 08:38:04,13,16.47,5921.3330018186,109.580056,0.31540854,2.59520677596,248.7, 4.2, 2.2,0,1,1024,1024,1684,1024,248.4,-89.9,97,4.125,4.14,4.131,4.119,0,0,82.31,6,GPS_Atti,
0.357326551495006,36.8942276999706,5923.3015058186,111.54856,0.223694,2.40961621884,12700,2017-11-10 08:38:05,13,16.47,5923.3015058186,111.54856,0.31540854,2.59520677596,248.7, 4.8, 1.9,0,1,1024,1024,1684,1024,248.4,-89.9,97,4.125,4.14,4.131,4.119,0,0,82.31,6,GPS_Atti,
0.357326680045393,36.8942277279923,5924.9419258186,113.18898,0.223694,2.37200466908,12800,2017-11-10 08:38:05,13,16.47,5924.9419258186,113.18898,0.31540854,2.59520677596,248.7, 4.7, 1.7,0,1,1024,1024,1684,1024,248.4,-89.9,97,4.125,4.14,4.131,4.119,0,0,82.31,6,GPS_Atti,
0.357326832936336,36.8942277616951,5926.5823458186,114.8294,0.223694,2.32783472016,12900,2017-11-10 08:38:05,13,16.47,5926.5823458186,114.8294,0.31540854,2.59520677596,248.6, 4.6, 1.9,0,1,1024,1024,1684,1024,248.4,-89.9,97,4.125,4.14,4.131,4.119,0,0,82.31,6,GPS_Atti,
0.357326992262279,36.8942277683077,5928.5508498186,116.797904,0.223694,2.27750335372,13000,2017-11-10 08:38:05,13,16.47,5928.5508498186,116.797904,0.31540854,2.59520677596,248.7, 4.4, 1.4,0,1,1024,1024,1684,1024,248.4,-89.9,97,4.125,4.14,4.131,4.119,0,0,82.31,6,GPS_Atti,
0.35732715181315,36.894227845347,5930.1912698186,118.438324,0.223694,2.23999022916,13100,2017-11-10 08:38:05,13,16.47,5930.1912698186,118.438324,0.31540854,2.59520677596,248.7, 4.3, 0.8,0,1,1024,1024,1684,1024,248.4,-89.9,97,4.125,4.14,4.131,4.119,0,0,82.31,6,GPS_Atti,
0.357327276528755,36.8942278932842,5932.1597738186,120.406828,0.223694,2.20927172424,13200,2017-11-10 08:38:05,13,16.47,5932.1597738186,120.406828,0.31540854,2.59520677596,248.7, 4.3, 0.9,0,1,1024,1024,1684,1024,248.4,-89.9,97,4.125,4.14,4.131,4.119,0,0,82.31,6,GPS_Atti,
0.357327432888284,36.8942279448177,5933.8001938186,122.047248,0.223694,2.17004928204,13300,2017-11-10 08:38:05,13,16.47,5933.8001938186,122.047248,0.31540854,2.59520677596,248.7, 4.5, 1,0,1,1024,1024,1684,1024,248.4,-89.9,97,4.125,4.14,4.131,4.119,0,0,82.31,6,GPS_Atti,
0.357327579344023,36.8942279771447,5935.4406138186,123.687668,0.223694,2.1310532178,13400,2017-11-10 08:38:05,13,16.47,5935.4406138186,123.687668,0.31540854,2.59520677596,248.7, 4.3, 1,0,1,1024,1024,1684,1024,248.4,-90,97,4.125,4.14,4.131,4.119,0,0,82.31,6,GPS_Atti,
0.357327727881932,36.8942280132319,5937.0810338186,125.328088,0.223694,2.09288720608,13500,2017-11-10 08:38:05,13,16.47,5937.0810338186,125.328088,0.31540854,2.59520677596,248.7, 3.8, 0.9,0,1,1024,1024,1684,1024,248.4,-90,97,4.125,4.14,4.131,4.119,0,0,82.31,6,GPS_Atti,
0.357327852000712,36.8942280269257,5939.0495378186,127.296592,0,2.0582021656,13600,2017-11-10 08:38:05,13,16.47,5939.0495378186,127.296592,0.31540854,2.59520677596,248.7, 3.6, 0.6,0,1,1024,1024,1684,1024,248.4,-89.9,97,4.125,4.14,4.131,4.119,0,0,82.31,6,GPS_Atti,
0.357327935225396,36.8942280576275,5940.6899578186,128.937012,0,2.03970807052,13700,2017-11-10 08:38:06,13,16.47,5940.6899578186,128.937012,0.31540854,2.59520677596,248.7, 4, 0.8,0,1,1024,1024,1684,1024,248.4,-89.9,97,4.125,4.14,4.131,4.119,0,0,82.31,6,GPS_Atti,
0.357327983830785,36.8942280683316,5942.6584618186,130.905516,0,2.02753287328,13800,2017-11-10 08:38:06,13,16.47,5942.6584618186,130.905516,0.31540854,2.59520677596,248.7, 4.3, 1.1,0,1,1024,1024,1684,1024,248.4,-89.9,97,4.125,4.14,4.131,4.119,0,0,82.31,6,GPS_Atti,
0.357328118006326,36.8942282905228,5947.9078058186,136.15486,0,2.03719494708,14100,2017-11-10 08:38:06,13,16.417,5947.9078058186,136.15486,0.31540854,2.59520677596,248.7, 4.6, 2.6,0,1,1024,1024,1684,1024,248.4,-89.9,97,4.125,4.14,4.131,4.119,0,0,82.31,6,GPS_Atti,
0.357328149588267,36.8942283536896,5949.5482258186,137.79528,0,2.04259849056,14200,2017-11-10 08:38:06,13,16.417,5949.5482258186,137.79528,0.31540854,2.59520677596,248.7, 4.6, 3,0,1,1024,1024,1684,1024,248.4,-89.9,97,4.125,4.14,4.131,4.119,0,0,82.31,6,GPS_Atti,
0.357328224809352,36.8942284092563,5951.1886458186,139.4357,0,2.03430780788,14300,2017-11-10 08:38:06,13,16.417,5951.1886458186,139.4357,0.31540854,2.59520677596,248.7, 4.2, 2.3,0,1,1024,1024,1684,1024,248.4,-90,97,4.125,4.14,4.131,4.119,0,0,82.31,6,GPS_Atti,
0.357328306810159,36.8942284309247,5952.8290658186,141.07612,0,2.01660439524,14400,2017-11-10 08:38:06,13,16.417,5952.8290658186,141.07612,0.31540854,2.59520677596,248.8, 3.7, 1.4,0,1,1024,1024,1684,1024,248.4,-89.9,97,4.125,4.14,4.131,4.119,0,0,82.31,6,GPS_Atti,
0.35732841887652,36.8942284666562,5954.4694858186,142.71654,0,1.994422636,14500,2017-11-10 08:38:06,13,16.417,5954.4694858186,142.71654,0.31540854,2.59520677596,248.7, 3.7, 0.9,0,1,1024,1024,1684,1024,248.4,-89.9,97,4.125,4.14,4.131,4.119,0,0,82.31,6,GPS_Atti,
0.357328495996777,36.894228484583,5956.1099058186,144.35696,0,1.97791344912,14600,2017-11-10 08:38:06,13,16.417,5956.1099058186,144.35696,0.31540854,2.59520677596,248.7, 3.8, 1.5,0,1,1024,1024,1684,1024,248.4,-89.9,97,4.125,4.14,4.131,4.119,0,0,82.31,6,GPS_Atti,
0.357328544222027,36.8942285302415,5957.7503258186,145.99738,0,1.97629927584,14700,2017-11-10 08:38:07,13,16.417,5957.7503258186,145.99738,0.31540854,2.59520677596,248.7, 3.5, 2.3,0,1,1024,1024,1684,1024,248.4,-89.9,97,4.125,4.14,4.131,4.119,0,0,82.31,6,GPS_Atti,
0.357328583723804,36.8942285392211,5959.7188298186,147.965884,0,1.96805452492,14800,2017-11-10 08:38:07,13,16.417,5959.7188298186,147.965884,0.31540854,2.59520677596,248.7, 4.1, 1.7,0,1,1024,1024,1684,1024,248.4,-90,97,4.125,4.14,4.131,4.119,0,0,82.31,6,GPS_Atti,
0.357328621691993,36.8942285974231,5961.3592498186,149.606304,0,1.97275924948,14900,2017-11-10 08:38:07,13,16.417,5961.3592498186,149.606304,0.31540854,2.59520677596,248.7, 4.5, 1.5,0,1,1024,1024,1684,1024,248.4,-89.9,97,4.125,4.14,4.131,4.119,0,0,82.31,6,GPS_Atti,
0.357328638474025,36.8942286323521,5962.9996698186,151.246724,0,1.9772966512,15000,2017-11-10 08:38:07,13,16.417,5962.9996698186,151.246724,0.31540854,2.59520677596,248.7, 4.4, 1.8,0,1,1024,1024,1684,1024,248.4,-90,97,4.125,4.14,4.131,4.119,0,0,82.31,6,GPS_Atti,
0.357328648047443,36.8942286658063,5964.9681738186,153.215228,0,1.98340557528,15100,2017-11-10 08:38:07,13,16.364,5964.9681738186,153.215228,0.31540854,2.59520677596,248.7, 4.8, 2.5,0,1,1024,1024,1684,1024,248.4,-90,97,4.117,4.13,4.122,4.119,0,0,82.31,6,GPS_Atti,
0.357328649488209,36.8942286612717,5966.6085938186,154.855648,0,1.98186686132,15200,2017-11-10 08:38:07,13,16.364,5966.6085938186,154.855648,0.31540854,2.59520677596,248.7, 4.3, 2.3,0,1,1024,1024,1684,1024,248.4,-89.9,97,4.117,4.13,4.122,4.119,0,0,82.31,6,GPS_Atti,
0.357328638717273,36.8942286928611,5968.2490138186,156.496068,0,1.99278877768,15300,2017-11-10 08:38:07,13,16.364,5968.2490138186,156.496068,0.31540854,2.59520677596,248.7, 4.4, 2.2,0,1,1024,1024,1684,1024,248.4,-89.9,97,4.117,4.13,4.122,4.119,0,0,82.31,6,GPS_Atti,
0.35732860397839,36.8942286838571,5969.8894338186,158.136488,0,1.99945544456,15400,2017-11-10 08:38:07,13,16.364,5969.8894338186,158.136488,0.31540854,2.59520677596,248.7, 4.8, 2.5,0,1,1024,1024,1684,1024,248.4,-89.9,97,4.117,4.13,4.122,4.119,0,0,82.31,6,GPS_Atti,
0.357328568531744,36.8942287160148,5971.8579378186,160.104992,0,2.01689967084,15500,2017-11-10 08:38:07,13,16.364,5971.8579378186,160.104992,0.31540854,2.59520677596,248.7, 5, 2.7,0,1,1024,1024,1684,1024,248.4,-89.9,97,4.117,4.13,4.122,4.119,0,0,82.31,6,GPS_Atti,
0.357328526443286,36.8942287130963,5973.4983578186,161.745412,0.223694,2.02710308324,15600,2017-11-10 08:38:07,13,16.364,5973.4983578186,161.745412,0.31540854,2.59520677596,248.7, 5.4, 2.9,0,1,1024,1024,1684,1024,248.4,-89.9,97,4.117,4.13,4.122,4.119,0,0,82.31,6,GPS_Atti,
0.357328473860626,36.8942287313328,5975.1387778186,163.385832,0.223694,2.04549219144,15700,2017-11-10 08:38:08,13,16.364,5975.1387778186,163.385832,0.31540854,2.59520677596,248.7, 5.9, 2.8,0,1,1024,1024,1684,1024,248.4,-89.9,97,4.117,4.13,4.122,4.119,0,0,82.31,6,GPS_Atti,
0.357328418485286,36.8942287205096,5977.1072818186,165.354336,0,2.05731961964,15800,2017-11-10 08:38:08,13,16.364,5977.1072818186,165.354336,0.31540854,2.59520677596,248.7, 5.8, 2.8,0,1,1024,1024,1684,1024,248.4,-89.9,97,4.117,4.13,4.122,4.119,0,0,82.31,6,GPS_Atti,
0.357328359310786,36.8942287182175,5978.7477018186,166.994756,0,2.072424607,15900,2017-11-10 08:38:08,13,16.364,5978.7477018186,166.994756,0.31540854,2.59520677596,248.7, 5.7, 3.1,0,1,1024,1024,1684,1024,248.4,-89.9,97,4.117,4.13,4.122,4.119,0,0,82.31,6,GPS_Atti,
0.357328301378891,36.894228685995,5980.3881218186,168.635176,0,2.07990820304,16000,2017-11-10 08:38:08,13,16.364,5980.3881218186,168.635176,0.31540854,2.59520677596,248.7, 5.7, 3.4,0,1,1024,1024,1684,1024,248.4,-89.9,97,4.117,4.13,4.122,4.119,0,0,82.31,6,GPS_Atti,
0.35732822392928,36.8942287204123,5982.0285418186,170.275596,0,2.10923235096,16100,2017-11-10 08:38:08,13,16.364,5982.0285418186,170.275596,0.31540854,2.59520677596,248.7, 5.9, 3.5,0,1,1024,1024,1684,1024,248.4,-89.9,97,4.117,4.13,4.122,4.119,0,0,82.31,6,GPS_Atti,
0.357328167163453,36.8942287321808,5983.9970458186,172.2441,0,2.12746725968,16200,2017-11-10 08:38:08,13,16.364,5983.9970458186,172.2441,0.31540854,2.59520677596,248.7, 5.7, 3.4,0,1,1024,1024,1684,1024,248.4,-89.9,97,4.117,4.13,4.122,4.119,0,0,82.31,6,GPS_Atti,
0.357328131821231,36.89422878924,5986.9498018186,175.196856,0,2.15099416332,16400,2017-11-10 08:38:08,13,16.364,5986.9498018186,175.196856,0.31540854,2.59520677596,248.8, 5.5, 3,0,1,1024,1024,1684,1024,248.4,-89.9,97,4.117,4.13,4.122,4.119,0,0,82.31,6,GPS_Atti,
0.357328144682071,36.894228824962,5988.5902218186,176.837276,0,2.15630912412,16500,2017-11-10 08:38:08,13,16.364,5988.5902218186,176.837276,0.31540854,2.59520677596,248.8, 5.4, 2.4,0,1,1024,1024,1684,1024,248.4,-90,97,4.117,4.13,4.122,4.119,0,0,82.31,6,GPS_Atti,
0.357328168809199,36.894228834618,5990.2306418186,178.477696,0,2.15222119748,16600,2017-11-10 08:38:08,13,16.364,5990.2306418186,178.477696,0.31540854,2.59520677596,248.7, 5.3, 2.1,0,1,1024,1024,1684,1024,248.4,-89.9,97,4.117,4.13,4.122,4.119,0,0,82.31,6,GPS_Atti,
0.357328158776763,36.8942288941084,5992.1991458186,180.4462,0,2.16968838964,16700,2017-11-10 08:38:09,14,16.364,5992.1991458186,180.4462,0.31540854,2.59520677596,248.8, 5.2, 2.2,0,1,1024,1024,1684,1024,248.4,-90,97,4.117,4.13,4.122,4.119,0,0,82.31,6,GPS_Atti,
0.357328134003142,36.894228986189,5995.1519018186,183.398956,0,2.1993274982,16900,2017-11-10 08:38:09,14,16.364,5995.1519018186,183.398956,0.31540854,2.59520677596,248.8, 5, 2.4,0,1,1024,1024,1684,1024,248.4,-90,97,4.117,4.13,4.122,4.119,0,0,82.31,6,GPS_Atti,
0.357328135877787,36.8942290013392,5996.7923218186,185.039376,0,2.20264770828,17000,2017-11-10 08:38:09,14,16.364,5996.7923218186,185.039376,0.31540854,2.59520677596,248.8, 4.8, 2.4,0,1,1024,1024,1684,1024,248.4,-90,97,4.117,4.13,4.122,4.119,0,0,82.31,6,GPS_Atti,
0.357328098375637,36.8942290510285,5998.4327418186,186.679796,0,2.22506896884,17100,2017-11-10 08:38:09,14,16.417,5998.4327418186,186.679796,0.31540854,2.59520677596,248.7, 4.6, 2.5,0,1,1024,1024,1684,1024,248.4,-90,97,4.111,4.124,4.117,4.104,0,0,82.31,6,GPS_Atti,
0.357328078217943,36.8942290641028,6000.4012458186,188.6483,0,2.23368117384,17200,2017-11-10 08:38:09,14,16.417,6000.4012458186,188.6483,0.31540854,2.59520677596,248.7, 4.7, 2.6,0,1,1024,1024,1684,1024,248.4,-89.9,97,4.111,4.124,4.117,4.104,0,0,82.31,6,GPS_Atti,
0.35732805126058,36.8942291016898,6002.0416658186,190.28872,0,2.25026910088,17300,2017-11-10 08:38:09,14,16.417,6002.0416658186,190.28872,0.31540854,2.59520677596,248.7, 4.8, 2.6,0,1,1024,1024,1684,1024,248.4,-89.9,97,4.111,4.124,4.117,4.104,0,0,82.31,6,GPS_Atti,
0.357328053552004,36.8942291026329,6003.6820858186,191.92914,0,2.24990492764,17400,2017-11-10 08:38:09,14,16.417,6003.6820858186,191.92914,0.31540854,2.59520677596,248.7, 4.6, 2.4,0,1,1024,1024,1684,1024,248.4,-89.9,97,4.111,4.124,4.117,4.104,0,0,82.31,6,GPS_Atti,
0.357328051061502,36.8942291328732,6005.3225058186,193.56956,0,2.2582185762,17500,2017-11-10 08:38:09,14,16.417,6005.3225058186,193.56956,0.31540854,2.59520677596,248.7, 4.9, 2,0,1,1024,1024,1684,1024,248.4,-90,97,4.111,4.124,4.117,4.104,0,0,82.31,6,GPS_Atti,
0.357328063172851,36.8942291226354,6006.9629258186,195.20998,0,2.25244757864,17600,2017-11-10 08:38:09,14,16.417,6006.9629258186,195.20998,0.31540854,2.59520677596,248.7, 5.2, 1.8,0,1,1024,1024,1684,1024,248.4,-89.9,97,4.111,4.124,4.117,4.104,0,0,82.31,6,GPS_Atti,
0.357328055764856,36.8942291698353,6008.6033458186,196.8504,0,2.2663878678,17700,2017-11-10 08:38:10,14,16.417,6008.6033458186,196.8504,0.31540854,2.59520677596,248.7, 5.4, 1.8,0,1,1024,1024,1684,1024,248.4,-89.9,97,4.111,4.124,4.117,4.104,0,0,82.31,6,GPS_Atti,
0.35732805893849,36.8942291937342,6010.2437658186,198.49082,0,2.27166345852,17800,2017-11-10 08:38:10,14,16.417,6010.2437658186,198.49082,0.31540854,2.59520677596,248.7, 5.3, 2.1,0,1,1024,1024,1684,1024,248.4,-89.9,97,4.111,4.124,4.117,4.104,0,0,82.31,6,GPS_Atti,
0.35732805108369,36.8942292927638,6013.5246058186,201.77166,0,2.29915689772,18000,2017-11-10 08:38:10,14,16.417,6013.5246058186,201.77166,0.31540854,2.59520677596,248.8, 4.6, 2.3,0,1,1024,1024,1684,1024,248.4,-89.9,97,4.111,4.124,4.117,4.104,0,0,82.31,6,GPS_Atti,
0.357328045020993,36.8942294055983,6015.1650258186,203.41208,0,2.33004272548,18100,2017-11-10 08:38:10,14,16.364,6015.1650258186,203.41208,0.31540854,2.59520677596,248.7, 4.6, 2.5,0,1,1024,1024,1684,1024,248.4,-90,97,4.111,4.124,4.117,4.104,0,0,82.31,6,GPS_Atti,
0.357328057473704,36.8942294734358,6016.8054458186,205.0525,0,2.34469823776,18200,2017-11-10 08:38:10,14,16.364,6016.8054458186,205.0525,0.31540854,2.59520677596,248.7, 4.5, 2.7,0,1,1024,1024,1684,1024,248.4,-90,97,4.111,4.124,4.117,4.104,0,0,82.31,6,GPS_Atti,
0.357328072717467,36.8942296064013,6018.4458658186,206.69292,0,2.37621070596,18300,2017-11-10 08:38:10,14,16.364,6018.4458658186,206.69292,0.31540854,2.59520677596,248.6, 4.1, 2.5,0,1,1024,1024,1684,1024,248.4,-90,97,4.111,4.124,4.117,4.104,0,0,82.31,6,GPS_Atti,
0.357328117552703,36.8942296716544,6020.0862858186,208.33334,0,2.38272317336,18400,2017-11-10 08:38:10,14,16.364,6020.0862858186,208.33334,0.31540854,2.59520677596,248.7, 3.9, 2,0,1,1024,1024,1684,1024,248.4,-90,97,4.111,4.124,4.117,4.104,0,0,82.31,6,GPS_Atti,
0.357328140971254,36.8942297509591,6021.7267058186,209.97376,0,2.39858275392,18500,2017-11-10 08:38:10,14,16.364,6021.7267058186,209.97376,0.31540854,2.59520677596,248.7, 4.1, 1.8,0,1,1024,1024,1684,1024,248.4,-90,97,4.111,4.124,4.117,4.104,0,0,82.31,6,GPS_Atti,
0.357328170636822,36.8942297794761,6023.3671258186,211.61418,0,2.3992454836,18600,2017-11-10 08:38:10,14,16.364,6023.3671258186,211.61418,0.31540854,2.59520677596,248.7, 4.3, 2.2,0,1,1024,1024,1684,1024,248.4,-89.9,97,4.111,4.124,4.117,4.104,0,0,82.31,6,GPS_Atti,
0.357328200812602,36.8942298399369,6025.0075458186,213.2546,0,2.408710707,18700,2017-11-10 08:38:11,14,16.364,6025.0075458186,213.2546,0.31540854,2.59520677596,248.7, 4.3, 2.1,0,1,1024,1024,1684,1024,248.4,-90,97,4.111,4.124,4.117,4.104,0,0,82.31,6,GPS_Atti,
0.357328250390579,36.8942298531356,6026.6479658186,214.89502,0,2.40064640228,18800,2017-11-10 08:38:11,14,16.364,6026.6479658186,214.89502,0.31540854,2.59520677596,248.7, 4.2, 1.9,0,1,1024,1024,1684,1024,248.4,-89.9,97,4.111,4.124,4.117,4.104,0,0,82.31,6,GPS_Atti,
0.35732826355716,36.8942299387981,6028.2883858186,216.53544,0,2.42152566804,18900,2017-11-10 08:38:11,14,16.364,6028.2883858186,216.53544,0.31540854,2.59520677596,248.7, 4.4, 1.7,0,1,1024,1024,1684,1024,248.4,-89.9,97,4.111,4.124,4.117,4.104,0,0,82.31,6,GPS_Atti,
0.357328286354358,36.8942299818281,6029.9288058186,218.17586,0,2.42835965776,19000,2017-11-10 08:38:11,14,16.364,6029.9288058186,218.17586,0.31540854,2.59520677596,248.7, 4.3, 1.7,0,1,1024,1024,1684,1024,248.4,-90,97,4.111,4.124,4.117,4.104,0,0,82.31,6,GPS_Atti,
0.357328298507537,36.8942300797041,6031.5692258186,219.81628,0,2.45333669268,19100,2017-11-10 08:38:11,14,16.364,6031.5692258186,219.81628,0.31540854,2.59520677596,248.8, 4.2, 1.8,0,1,1024,1024,1684,1024,248.4,-90,97,4.111,4.124,4.117,4.104,0,0,82.31,6,GPS_Atti,
0.357328331274782,36.8942301214246,6033.2096458186,221.4567,0,2.45782816264,19200,2017-11-10 08:38:11,14,16.364,6033.2096458186,221.4567,0.31540854,2.59520677596,248.7, 4, 2.1,0,1,1024,1024,1684,1024,248.4,-90,97,4.111,4.124,4.117,4.104,0,0,82.31,6,GPS_Atti,
0.357328339899123,36.89423020054,6034.8500658186,223.09712,0,2.47863853076,19300,2017-11-10 08:38:11,14,16.364,6034.8500658186,223.09712,0.31540854,2.59520677596,248.7, 3.9, 2.2,0,1,1024,1024,1684,1024,248.4,-90,97,4.111,4.124,4.117,4.104,0,0,82.31,6,GPS_Atti,
0.357328370724448,36.8942302251676,6036.1624018186,224.409456,0,2.47890099796,19400,2017-11-10 08:38:11,14,16.364,6036.1624018186,224.409456,0.31540854,2.59520677596,248.7, 3.9, 1.8,0,1,1024,1024,1684,1024,248.4,-90,97,4.111,4.124,4.117,4.104,0,0,82.31,6,GPS_Atti,
0.357328409947659,36.8942302854526,6037.8028218186,226.049876,0,2.4877953552,19500,2017-11-10 08:38:11,14,16.364,6037.8028218186,226.049876,0.31540854,2.59520677596,248.7, 3.9, 1.3,0,1,1024,1024,1684,1024,248.4,-90,97,4.111,4.124,4.117,4.104,0,0,82.31,6,GPS_Atti,
0.357328458690652,36.8942302984435,6039.4432418186,227.690296,0,2.48098105052,19600,2017-11-10 08:38:11,14,16.364,6039.4432418186,227.690296,0.31540854,2.59520677596,248.7, 3.8, 1.5,0,1,1024,1024,1684,1024,248.4,-90,97,4.111,4.124,4.117,4.104,0,0,82.31,6,GPS_Atti,
0.357328492307232,36.8942303569727,6041.4117458186,229.6588,0,2.49097120832,19700,2017-11-10 08:38:12,14,16.364,6041.4117458186,229.6588,0.31540854,2.59520677596,248.7, 3.8, 1.6,0,1,1024,1024,1684,1024,248.4,-90,97,4.111,4.124,4.117,4.104,0,0,82.31,6,GPS_Atti,
0.357328533465951,36.894230363387,6043.0521658186,231.29922,0,2.484088006,19800,2017-11-10 08:38:12,14,16.364,6043.0521658186,231.29922,0.31540854,2.59520677596,248.7, 4, 1.8,0,1,1024,1024,1684,1024,248.4,-89.9,97,4.111,4.124,4.117,4.104,0,0,82.31,6,GPS_Atti,
0.357328572592269,36.8942304579955,6044.6925858186,232.93964,0,2.50403223236,19900,2017-11-10 08:38:12,14,16.364,6044.6925858186,232.93964,0.31540854,2.59520677596,248.7, 4, 1.6,0,1,1024,1024,1684,1024,248.4,-89.9,97,4.111,4.124,4.117,4.104,0,0,82.31,6,GPS_Atti,
0.357328623406236,36.8942304964507,6046.3330058186,234.58006,0,2.50503945024,20000,2017-11-10 08:38:12,14,16.364,6046.3330058186,234.58006,0.31540854,2.59520677596,248.8, 4, 1.6,0,1,1024,1024,1684,1024,248.4,-89.9,97,4.111,4.124,4.117,4.104,0,0,82.31,6,GPS_Atti,
0.357328724348594,36.8942306293359,6049.6138458186,237.8609,0,2.52493118316,20200,2017-11-10 08:38:12,14,16.364,6049.6138458186,237.8609,0.31540854,2.59520677596,248.7, 4.1, 1.4,0,1,1024,1024,1684,1024,248.4,-89.9,97,4.111,4.124,4.117,4.104,0,0,82.31,6,GPS_Atti,
0.357328745368244,36.8942307315366,6051.2542658186,239.50132,0,2.55213918928,20300,2017-11-10 08:38:12,14,16.364,6051.2542658186,239.50132,0.31540854,2.59520677596,248.7, 3.8, 1.4,0,1,1024,1024,1684,1024,248.4,-90,97,4.111,4.124,4.117,4.104,0,0,82.31,6,GPS_Atti,
0.357328767505006,36.8942307868534,6052.8946858186,241.14174,0,2.5648950952,20400,2017-11-10 08:38:12,14,16.364,6052.8946858186,241.14174,0.31540854,2.59520677596,248.6, 2.8, 1.9,0,1,1024,1024,1684,1024,248.4,-90,97,4.111,4.124,4.117,4.104,0,0,82.31,6,GPS_Atti,
0.357328783175828,36.8942308772805,6054.5351058186,242.78216,0,2.58991478104,20500,2017-11-10 08:38:12,14,16.364,6054.5351058186,242.78216,0.31540854,2.59520677596,248.6, 2.5, 2.2,0,1,1024,1024,1684,1024,248.4,-90,97,4.111,4.124,4.117,4.104,0,0,82.31,6,GPS_Atti,
0.357328814404295,36.8942308802442,6056.1755258186,244.42258,0.223694,2.584891815,20600,2017-11-10 08:38:12,14,16.364,6056.1755258186,244.42258,0.31540854,2.59520677596,248.6, 3.3, 2,0,1,1024,1024,1684,1024,248.4,-90,97,4.111,4.124,4.117,4.104,0,0,82.31,6,GPS_Atti,
0.357328824717027,36.8942309010847,6057.8159458186,246.063,0.223694,2.58943905924,20700,2017-11-10 08:38:13,14,16.364,6057.8159458186,246.063,0.31540854,2.59520677596,248.7, 3.9, 1.7,0,1,1024,1024,1684,1024,248.4,-89.9,97,4.111,4.124,4.117,4.104,0,0,82.31,6,GPS_Atti,
0.357328853943933,36.8942308623288,6059.4563658186,247.70342,0.223694,2.57182094844,20800,2017-11-10 08:38:13,14,16.364,6059.4563658186,247.70342,0.31540854,2.59520677596,248.7, 4.2, 1.5,0,1,1024,1024,1684,1024,248.4,-89.9,97,4.111,4.124,4.117,4.104,0,0,82.31,6,GPS_Atti,
0.357328892891937,36.8942308914292,6061.0967858186,249.34384,0.223694,2.5736221296,20900,2017-11-10 08:38:13,14,16.364,6061.0967858186,249.34384,0.31540854,2.59520677596,248.7, 4.4, 1.3,0,1,1024,1024,1684,1024,248.4,-90,97,4.111,4.124,4.117,4.104,0,0,82.31,6,GPS_Atti,
0.357328953550611,36.8942308742302,6062.7372058186,250.98426,0.223694,2.55696202408,21000,2017-11-10 08:38:13,14,16.364,6062.7372058186,250.98426,0.31540854,2.59520677596,248.7, 4.3, 1,0,1,1024,1024,1684,1024,248.4,-90,97,4.111,4.124,4.117,4.104,0,0,82.31,6,GPS_Atti,
0.357329011424849,36.8942309539511,6064.3776258186,252.62468,0.223694,2.57157816628,21100,2017-11-10 08:38:13,14,16.338,6064.3776258186,252.62468,0.31540854,2.59520677596,248.7, 3.9, 0.9,0,1,1024,1024,1684,1024,248.4,-89.9,97,4.097,4.116,4.108,4.096,0,0,82.31,6,GPS_Atti,
0.357329110433226,36.8942310242561,6067.6584658186,255.90552,0.223694,2.57637147352,21300,2017-11-10 08:38:13,14,16.338,6067.6584658186,255.90552,0.31540854,2.59520677596,248.7, 4.1, 1.2,0,1,1024,1024,1684,1024,248.4,-89.9,97,4.097,4.116,4.108,4.096,0,0,82.31,6,GPS_Atti,
0.357329162337945,36.8942310228087,6069.2988858186,257.54594,0.223694,2.56687016088,21400,2017-11-10 08:38:13,14,16.338,6069.2988858186,257.54594,0.31540854,2.59520677596,248.7, 4, 1.2,0,1,1024,1024,1684,1024,248.4,-90,97,4.097,4.116,4.108,4.096,0,0,82.31,6,GPS_Atti,
0.357329217888597,36.8942310980497,6070.6112218186,258.858276,0.223694,2.581610975,21500,2017-11-10 08:38:13,14,16.338,6070.6112218186,258.858276,0.31540854,2.59520677596,248.7, 3.7, 0.8,0,1,1024,1024,1684,1024,248.4,-89.9,97,4.097,4.116,4.108,4.096,0,0,82.31,6,GPS_Atti,
0.35732928331566,36.894231106941,6072.2516418186,260.498696,0.223694,2.57351386188,21600,2017-11-10 08:38:13,14,16.338,6072.2516418186,260.498696,0.31540854,2.59520677596,248.7, 3.7, 0.5,0,1,1024,1024,1684,1024,248.4,-90,97,4.097,4.116,4.108,4.096,0,0,82.31,6,GPS_Atti,
0.357329292756971,36.8942311569449,6073.8920618186,262.139116,0.223694,2.5882054634,21700,2017-11-10 08:38:14,14,16.338,6073.8920618186,262.139116,0.31540854,2.59520677596,248.7, 4, 1,0,1,1024,1024,1684,1024,248.4,-89.9,97,4.097,4.116,4.108,4.096,0,0,82.31,6,GPS_Atti,
0.357329316498056,36.8942311406335,6075.5324818186,263.779536,0.223694,2.578986303,21800,2017-11-10 08:38:14,14,16.338,6075.5324818186,263.779536,0.31540854,2.59520677596,248.7, 4.4, 0.9,0,1,1024,1024,1684,1024,248.4,-89.9,97,4.097,4.116,4.108,4.096,0,0,82.31,6,GPS_Atti,
0.357329342932129,36.8942312086159,6077.1729018186,265.419956,0.223694,2.59686360016,21900,2017-11-10 08:38:14,14,16.338,6077.1729018186,265.419956,0.31540854,2.59686360016,248.7, 4.3, 0.5,0,1,1024,1024,1684,1024,248.4,-90,97,4.097,4.116,4.108,4.096,0,0,82.31,6,GPS_Atti,
0.35732943152849,36.8942313681855,6080.4537418186,268.700796,0.223694,2.63528223656,22100,2017-11-10 08:38:14,14,16.284,6080.4537418186,268.700796,0.31540854,2.63528223656,248.6, 3.5, 0.8,0,1,1024,1024,1684,1024,248.4,-90,97,4.098,4.11,4.1,4.085,0,0,82.31,6,GPS_Atti,
0.357329493334275,36.8942314344169,6082.0941618186,270.341216,0,2.64775927108,22200,2017-11-10 08:38:14,14,16.284,6082.0941618186,270.341216,0.31540854,2.64775927108,248.7, 3.2, 0.7,0,1,1024,1024,1684,1024,248.4,-90,97,4.098,4.11,4.1,4.085,0,0,82.31,6,GPS_Atti,
0.357329541232513,36.8942315559246,6083.7345818186,271.981636,0,2.68108932464,22300,2017-11-10 08:38:14,14,16.284,6083.7345818186,271.981636,0.31540854,2.68108932464,248.7, 2.9, 0.8,0,1,1024,1024,1684,1024,248.4,-90,97,4.098,4.11,4.1,4.085,0,0,82.31,6,GPS_Atti,
0.357329597374481,36.8942316115772,6085.3750018186,273.622056,0,2.69156504676,22400,2017-11-10 08:38:14,14,16.284,6085.3750018186,273.622056,0.31540854,2.69156504676,248.7, 2.7, 0.7,0,1,1024,1024,1684,1024,248.4,-89.9,97,4.098,4.11,4.1,4.085,0,0,82.31,6,GPS_Atti,
0.357329621872614,36.8942317757608,6088.6558418186,276.902896,0.223694,2.74330389356,22600,2017-11-10 08:38:14,14,16.284,6088.6558418186,276.902896,0.31540854,2.74330389356,248.7, 2.8, 0.9,0,1,1024,1024,1684,1024,248.4,-89.9,97,4.098,4.11,4.1,4.085,0,0,82.31,6,GPS_Atti,
0.357329636139336,36.8942318461494,6090.2962618186,278.543316,0.223694,2.7650755478,22700,2017-11-10 08:38:15,14,16.284,6090.2962618186,278.543316,0.31540854,2.7650755478,248.7, 2.8, 0.8,0,1,1024,1024,1684,1024,248.4,-89.9,97,4.098,4.11,4.1,4.085,0,0,82.31,6,GPS_Atti,
0.357329668901861,36.8942318591138,6091.9366818186,280.183736,0.223694,2.76497056092,22800,2017-11-10 08:38:15,14,16.284,6091.9366818186,280.183736,0.31540854,2.7650755478,248.7, 3, 0.5,0,1,1024,1024,1684,1024,248.5,-89.9,97,4.098,4.11,4.1,4.085,0,0,82.31,6,GPS_Atti,
0.357329697019675,36.8942319131399,6093.5771018186,281.824156,0.223694,2.77947515456,22900,2017-11-10 08:38:15,14,16.284,6093.5771018186,281.824156,0.31540854,2.77947515456,248.7, 3.3, 0.6,0,1,1024,1024,1684,1024,248.5,-89.9,97,4.098,4.11,4.1,4.085,0,0,82.31,6,GPS_Atti,
0.357329738500151,36.8942319150107,6095.2175218186,283.464576,0.223694,2.77458014128,23000,2017-11-10 08:38:15,14,16.284,6095.2175218186,283.464576,0.31540854,2.77947515456,248.7, 3.4, 0.5,0,1,1024,1024,1684,1024,248.5,-90,97,4.098,4.11,4.1,4.085,0,0,82.31,6,GPS_Atti,
0.357329748418307,36.8942319805589,6096.8579418186,285.104996,0.223694,2.79557423644,23100,2017-11-10 08:38:15,14,16.364,6096.8579418186,285.104996,0.31540854,2.79557423644,248.6, 3.2, 0.3,0,1,1024,1024,1684,1024,248.5,-89.9,97,4.094,4.108,4.098,4.084,0,0,82.31,6,GPS_Atti,
0.357329766790807,36.8942319889023,6098.4983618186,286.745416,0.223694,2.79602043068,23200,2017-11-10 08:38:15,14,16.364,6098.4983618186,286.745416,0.31540854,2.79602043068,248.7, 3.2, 0.5,0,1,1024,1024,1684,1024,248.4,-89.9,97,4.094,4.108,4.098,4.084,0,0,82.31,6,GPS_Atti,
0.357329780180243,36.8942320558617,6100.1387818186,288.385836,0.223694,2.81713263608,23300,2017-11-10 08:38:15,14,16.364,6100.1387818186,288.385836,0.31540854,2.81713263608,248.7, 3, 0.7,0,1,1024,1024,1684,1024,248.5,-89.9,97,4.094,4.108,4.098,4.084,0,0,82.31,6,GPS_Atti,
0.357329811894981,36.8942320709858,6101.7792018186,290.026256,0.223694,2.81825140252,23400,2017-11-10 08:38:15,14,16.364,6101.7792018186,290.026256,0.31540854,2.81825140252,248.7, 3, 0.5,0,1,1024,1024,1684,1024,248.5,-89.9,97,4.094,4.108,4.098,4.084,0,0,82.31,6,GPS_Atti,
0.357329845891898,36.8942321698865,6103.4196218186,291.666676,0.223694,2.8478675452,23500,2017-11-10 08:38:15,14,16.364,6103.4196218186,291.666676,0.31540854,2.8478675452,248.7, 3.1, 0.3,0,1,1024,1024,1684,1024,248.5,-89.9,97,4.094,4.108,4.098,4.084,0,0,82.31,6,GPS_Atti,
0.357329881157412,36.8942323223604,6106.7004618186,294.947516,0.223694,2.89597778296,23700,2017-11-10 08:38:16,14,16.364,6106.7004618186,294.947516,0.31540854,2.89597778296,248.7, 2.9, 0.4,0,1,1024,1024,1684,1024,248.5,-90,97,4.094,4.108,4.098,4.084,0,0,82.31,6,GPS_Atti,
0.357329872485368,36.8942323614932,6108.3408818186,296.587936,0.223694,2.9104987808,23800,2017-11-10 08:38:16,14,16.364,6108.3408818186,296.587936,0.31540854,2.9104987808,248.7, 2.8, 0.7,0,1,1024,1024,1684,1024,248.5,-89.9,97,4.094,4.108,4.098,4.084,0,0,82.31,6,GPS_Atti,
0.357329837331295,36.8942324495503,6109.9813018186,298.228356,0.223694,2.94505914936,23900,2017-11-10 08:38:16,14,16.364,6109.9813018186,298.228356,0.31540854,2.94505914936,248.7, 3.2, 1.1,0,1,1024,1024,1675,1024,248.5,-89.9,97,4.094,4.108,4.098,4.084,0,0,82.31,6,GPS_Atti,
0.357329822623065,36.8942324702918,6111.6217218186,299.868776,0.223694,2.95397319164,24000,2017-11-10 08:38:16,14,16.364,6111.6217218186,299.868776,0.31540854,2.95397319164,248.7, 3.3, 1.4,0,1,1024,1024,1519,1024,248.5,-89.9,97,4.094,4.108,4.098,4.084,0,0,82.31,6,GPS_Atti,
0.357329818849811,36.8942325436898,6113.2621418186,301.509196,0.223694,2.97971138144,24100,2017-11-10 08:38:16,14,16.364,6113.2621418186,301.509196,0.31540854,2.97971138144,248.8, 3.3, 0.9,0,1,1024,1024,1307,1024,248.5,-89.9,96,4.089,4.107,4.098,4.081,0,0,84.11,6,GPS_Atti,
0.357329844509502,36.8942325532923,6114.9025618186,303.149616,0.223694,2.97996400612,24200,2017-11-10 08:38:16,14,16.364,6114.9025618186,303.149616,0.31540854,2.97996400612,248.7, 3.8, 0.4,0,1,1024,1024,1024,1024,248.5,-89.9,96,4.089,4.107,4.098,4.081,0,0,84.11,6,GPS_Atti,
0.357329853777009,36.894232650786,6116.2148978186,304.461952,0.223694,3.01253946648,24300,2017-11-10 08:38:16,14,16.364,6116.2148978186,304.461952,0.31540854,3.01253946648,248.7, 4.9, 0.2,0,1,1024,1024,1024,1024,248.5,-90,96,4.089,4.107,4.098,4.081,0,0,84.11,6,GPS_Atti,
0.357329870891529,36.89423268904,6117.5272338186,305.774288,0.223694,3.02377634348,24400,2017-11-10 08:38:16,14,16.364,6117.5272338186,305.774288,0.31540854,3.02377634348,248.7, 4.7, 0.3,0,1,1024,1024,1024,1024,248.5,-90,96,4.089,4.107,4.098,4.081,0,0,84.11,6,GPS_Atti,
0.357329887163953,36.8942327929262,6118.5114858186,306.75854,0.223694,3.0578905178,24500,2017-11-10 08:38:16,14,16.364,6118.5114858186,306.75854,0.31540854,3.0578905178,248.8, 4, 0.8,0,1,1024,1024,1024,1024,248.5,-90,96,4.089,4.107,4.098,4.081,0,0,84.11,6,GPS_Atti,
0.357329903998781,36.8942328367217,6119.1676538186,307.414708,0.223694,3.0711779198,24600,2017-11-10 08:38:16,14,16.364,6119.1676538186,307.414708,0.31540854,3.0711779198,248.7, 3.1, 1.1,0,1,1024,1024,1024,1024,248.5,-90,96,4.089,4.107,4.098,4.081,0,0,84.11,6,GPS_Atti,
0.357329894571401,36.8942329019679,6119.8238218186,308.070876,0.223694,3.09488526964,24700,2017-11-10 08:38:17,14,16.364,6119.8238218186,308.070876,0.31540854,3.09488526964,248.8, 3.4, 1.3,0,1,1024,1024,1024,1024,248.5,-90,96,4.089,4.107,4.098,4.081,0,0,84.11,6,GPS_Atti,
