latitude,longitude,altitude(feet),ascent(feet),speed(mph),distance(feet),time(millisecond),datetime(utc),satellites,gpslevel,voltage(v),max_altitude(feet),max_ascent(feet),max_speed(mph),max_distance(feet), xSpeed(mph), ySpeed(mph), zSpeed(mph), compass_heading(degrees), pitch(degrees), roll(degrees),isPhoto,isVideo,rc_elevator,rc_aileron,rc_throttle,rc_rudder,gimbal_heading(degrees),gimbal_pitch(degrees),battery_percent,voltageCell1,voltageCell2,voltageCell3,voltageCell4,voltageCell5,voltageCell6,current(A),battery_temperature(f),flycStateRaw,flycState,message
0.347663061788932,36.8999666039108,5713.3633898486,0,0,0,0,2018-04-05 05:07:19,14,0,0,5713.3633898486,0,0,0,0,0,0,154.9, -5.2, 3.8,0,0,364,364,364,1684,159.8,0,100,4.294,4.3,4.3,4.285,0,0,0,76.91,41,Motors_Started,
0.347663100435979,36.8999666013556,5713.3633898486,0,0,0.0141311356228,100,2018-04-05 05:07:19,14,0,0,5713.3633898486,0,0,0.0141311356228,0,0,0,154.9, -5.2, 3.8,0,0,364,364,364,1684,159.8,0,100,4.294,4.3,4.3,4.285,0,0,0,76.91,41,Motors_Started,
0.347663135359589,36.8999666056594,5713.3633898486,0,0,0.0268498040088,200,2018-04-05 05:07:19,14,0,0,5713.3633898486,0,0,0.0268498040088,0,0,0,154.8, -5.3, 3.8,0,0,364,364,364,1684,159.8,0,100,4.294,4.3,4.3,4.285,0,0,0,76.91,41,Motors_Started,
0.347663147428802,36.899966635766,5713.3633898486,0,0,0.033337271408,300,2018-04-05 05:07:19,14,0,17.149,5713.3633898486,0,0,0.033337271408,0,0,0,154.9, -5.3, 3.8,0,0,364,364,364,1684,159.7,0,100,4.294,4.3,4.3,4.285,0,0,1.454,76.91,41,Motors_Started,Setting new Return-To-Home altitude to 30m (98 ft). Setting new Maximum Flight Altitude to 150m (492 ft)
0.347663164746489,36.8999666620184,5713.3633898486,0,0,0.043133531564,400,2018-04-05 05:07:19,14,0,17.149,5713.3633898486,0,0,0.043133531564,0,0,0,154.8, -5.2, 3.8,0,0,364,364,364,1684,159.7,0,100,4.294,4.3,4.3,4.285,0,0,1.454,76.91,41,Motors_Started,
0.347663161099589,36.8999666709413,5713.3633898486,0,0,0.043714240244,500,2018-04-05 05:07:19,14,0,17.149,5713.3633898486,0,0,0.043714240244,0,0,0,154.9, -5.3, 3.8,0,0,364,364,364,1684,159.7,0,100,4.294,4.3,4.3,4.285,0,0,1.454,76.91,41,Motors_Started,
0.347663166245472,36.8999666828378,5713.3633898486,0,0,0.047766733812,600,2018-04-05 05:07:19,14,0,17.149,5713.3633898486,0,0,0.047766733812,0,0,0,154.8, -5.3, 3.8,0,0,364,364,364,1684,159.7,0,100,4.294,4.3,4.3,4.285,0,0,1.454,76.91,41,Motors_Started,
0.347663195586776,36.8999667215052,5713.3633898486,0,0,0.06499015956,700,2018-04-05 05:07:20,14,0,17.149,5713.3633898486,0,0,0.06499015956,0,0,0,154.9, -5.3, 3.8,0,0,364,364,364,1684,159.7,0,100,4.294,4.3,4.3,4.285,0,0,1.454,76.91,41,Motors_Started,
0.347663222663728,36.8999667533429,5713.3633898486,0,0,0.080108926448,800,2018-04-05 05:07:20,14,0,17.149,5713.3633898486,0,0,0.080108926448,0,0,0,154.8, -5.3, 3.8,0,0,364,364,364,1684,159.7,0,100,4.294,4.3,4.3,4.285,0,0,1.454,76.91,41,Motors_Started,
0.347663229602528,36.8999668083463,5713.3633898486,0,0,0.096498034584,900,2018-04-05 05:07:20,14,0,17.149,5713.3633898486,0,0,0.096498034584,0,0,0,154.8, -5.3, 3.8,0,0,364,364,364,1684,159.7,0,100,4.294,4.3,4.3,4.285,0,0,1.454,76.91,41,Motors_Started,
0.34766324046425,36.8999668525246,5713.3633898486,0,0,0.111700790976,1000,2018-04-05 05:07:20,14,0,17.149,5713.3633898486,0,0,0.111700790976,0,0,0,154.8, -5.4, 3.9,0,0,364,364,364,1684,159.7,0,100,4.294,4.3,4.3,4.285,0,0,1.454,76.91,41,Motors_Started,
0.34766323279265,36.899966873837,5713.3633898486,0,0,0.116580384308,1100,2018-04-05 05:07:20,14,0,17.149,5713.3633898486,0,0,0.116580384308,0,0,0,154.8, -5.5, 3.9,0,0,364,364,364,1684,159.7,0,100,4.294,4.3,4.3,4.285,0,0,1.454,76.91,41,Motors_Started,
0.347663239738778,36.8999668969207,5713.3633898486,0,0,0.125073494816,1200,2018-04-05 05:07:20,14,0,17.149,5713.3633898486,0,0,0.125073494816,0,0,0,154.8, -5.3, 3.8,0,0,364,364,364,1684,159.7,0,100,4.294,4.3,4.3,4.285,0,0,1.454,76.91,41,Motors_Started,
0.347663228436562,36.8999668979994,5713.3633898486,0,0,0.123325791348,1300,2018-04-05 05:07:20,14,0,17.122,5713.3633898486,0,0,0.125073494816,0,0,0,154.8, -5.5, 3.9,0,0,364,364,364,1684,159.7,0,100,4.29,4.296,4.3,4.285,0,0,1.766,76.91,41,Motors_Started,
0.347663234788308,36.8999669083467,5713.3633898486,0,0,0.127752956844,1400,2018-04-05 05:07:20,14,0,17.122,5713.3633898486,0,0,0.127752956844,0,0,0,154.8, -5.4, 3.8,0,0,468,430,463,1659,159.7,0,100,4.29,4.296,4.3,4.285,0,0,1.766,76.91,41,Motors_Started,
0.347663254297881,36.8999669350496,5713.3633898486,0,0,0.139746723632,1500,2018-04-05 05:07:20,14,0,17.122,5713.3633898486,0,0,0.139746723632,0,0,0,154.7, -5.7, 4,0,0,1024,956,1024,1091,159.7,0,100,4.29,4.296,4.3,4.285,0,0,1.766,76.91,41,Motors_Started,
0.347663281299926,36.8999669623162,5713.3633898486,0,0,0.153338587584,1600,2018-04-05 05:07:21,14,0,17.122,5713.3633898486,0,0,0.153338587584,0,0,0,154.9, -5.2, 3.7,0,0,1024,1024,1024,1022,158.5,0,100,4.29,4.296,4.3,4.285,0,0,1.766,76.91,10,Assisted_Takeoff,
0.347663296398858,36.8999670122163,5713.3633898486,0,0,0.171808404448,1700,2018-04-05 05:07:21,14,0,17.122,5713.3633898486,0,0,0.171808404448,0,0,0,154.7, -5.5, 3.9,0,0,1024,1024,1024,1024,157.1,0,100,4.29,4.296,4.3,4.285,0,0,1.766,76.91,10,Assisted_Takeoff,
0.347663309580298,36.8999670537357,5713.3633898486,0,0,0.187369100484,1800,2018-04-05 05:07:21,14,0,17.122,5713.3633898486,0,0,0.187369100484,0,0,0,154.8, -5.2, 3.7,0,0,1024,1024,1024,1024,156.5,0,100,4.29,4.296,4.3,4.285,0,0,1.766,76.91,10,Assisted_Takeoff,
0.347663352076987,36.899967074083,5713.3633898486,0,0,0.201600728236,1900,2018-04-05 05:07:21,14,0,17.122,5713.3633898486,0,0,0.201600728236,0,0,0,154.7, -5.4, 3.8,0,0,1024,1024,1024,1024,156.2,0,100,4.29,4.296,4.3,4.285,0,0,1.766,76.91,10,Assisted_Takeoff,
0.347663387679658,36.899967093896,5713.3633898486,0,0,0.2146981696,2000,2018-04-05 05:07:21,14,0,17.122,5713.3633898486,0,0,0.2146981696,0,0,0,154.8, -5.2, 3.7,0,0,1024,1024,1024,1024,156,0,100,4.29,4.296,4.3,4.285,0,0,1.766,76.91,10,Assisted_Takeoff,
0.347663445190601,36.8999671361542,5713.3633898486,0,0,0.239322842304,2100,2018-04-05 05:07:21,14,0,17.122,5713.3633898486,0,0,0.239322842304,0,0,0,154.8, -5.4, 3.8,0,0,1024,1024,1024,1024,155.9,0,100,4.29,4.296,4.3,4.285,0,0,1.766,76.91,10,Assisted_Takeoff,
0.347663494767764,36.8999671730578,5713.3633898486,0,0,0.260908801,2200,2018-04-05 05:07:21,14,0,17.122,5713.3633898486,0,0,0.260908801,0,0,0,154.8, -5.2, 3.7,0,0,1024,1024,1024,1024,155.8,0,100,4.29,4.296,4.3,4.285,0,0,1.766,76.91,10,Assisted_Takeoff,
0.3476635182198,36.8999672291545,5713.3633898486,0,0,0.282433079904,2300,2018-04-05 05:07:21,14,0,16.936,5713.3633898486,0,0,0.282433079904,0,0,0,154.8, -5.3, 3.8,0,0,1024,1024,1024,1024,155.8,0,100,4.287,4.291,4.292,4.273,0,0,3.904,76.91,10,Assisted_Takeoff,
0.347663545988841,36.8999672763471,5713.3633898486,0,0,0.302319891564,2400,2018-04-05 05:07:21,14,0,16.936,5713.3633898486,0,0,0.302319891564,0,0,0,154.7, -5.2, 3.8,0,0,1024,1024,1024,1024,155.8,0,100,4.287,4.291,4.292,4.273,0,0,3.904,76.91,10,Assisted_Takeoff,
0.347663589967414,36.899967338718,5713.3633898486,0,0,0.33016077172,2500,2018-04-05 05:07:21,14,0,16.936,5713.3633898486,0,0,0.33016077172,0,0,0,154.8, -5.3, 3.8,0,0,1024,1024,1024,1024,155.7,0,100,4.287,4.291,4.292,4.273,0,0,3.904,76.91,10,Assisted_Takeoff,
0.347663632836202,36.8999673917919,5713.3633898486,0,0,0.35501641556,2600,2018-04-05 05:07:21,14,0,16.936,5713.3633898486,0,0,0.35501641556,0,0,0,154.7, -5.3, 3.7,0,0,1024,1024,1024,1021,155.7,0,100,4.287,4.291,4.292,4.273,0,0,3.904,76.91,10,Assisted_Takeoff,
0.347663647073688,36.8999674568715,5713.3633898486,0,0,0.37741471024,2700,2018-04-05 05:07:22,14,0,16.936,5713.3633898486,0,0,0.37741471024,0,0,0,154.7, -5.3, 3.7,0,0,1024,1024,1024,1024,155.6,0,100,4.287,4.291,4.292,4.273,0,0,3.904,76.91,10,Assisted_Takeoff,
0.347663669749771,36.8999675141031,5713.3633898486,0,0,0.3993438448,2800,2018-04-05 05:07:22,14,0,16.936,5713.3633898486,0,0,0.3993438448,0,0,0,154.7, -5.3, 3.7,0,0,1024,1024,1024,1024,155.6,0,100,4.287,4.291,4.292,4.273,0,0,3.904,76.91,10,Assisted_Takeoff,
0.347663708674468,36.8999675375027,5713.3633898486,0,0,0.41439305788,2900,2018-04-05 05:07:22,14,0,16.936,5713.3633898486,0,0,0.41439305788,0,0,0,154.7, -5.3, 3.8,0,0,1024,1024,1024,1024,155.6,0,100,4.287,4.291,4.292,4.273,0,0,3.904,76.91,10,Assisted_Takeoff,
0.347663746850895,36.8999675661433,5713.3633898486,0,0,0.43095145736,3000,2018-04-05 05:07:22,14,0,16.936,5713.3633898486,0,0,0.43095145736,0,0,0,154.7, -5.3, 3.8,0,0,1024,1024,1024,1022,155.5,0,100,4.287,4.291,4.292,4.273,0,0,3.904,76.91,10,Assisted_Takeoff,
0.347663757895816,36.8999676055253,5713.3633898486,0,0,0.44501969928,3100,2018-04-05 05:07:22,14,0,16.936,5713.3633898486,0,0,0.44501969928,0,0,0,154.7, -5.2, 3.8,0,0,1024,1024,1024,1024,155.5,0,100,4.287,4.291,4.292,4.273,0,0,3.904,76.91,10,Assisted_Takeoff,
0.347663776030983,36.8999676444336,5713.3633898486,0,0,0.46046261316,3200,2018-04-05 05:07:22,14,0,16.936,5713.3633898486,0,0,0.46046261316,0,0,0,154.7, -5.3, 3.7,0,0,1024,1024,1024,1024,155.5,0,100,4.287,4.291,4.292,4.273,0,0,3.904,76.91,10,Assisted_Takeoff,
0.347663811991097,36.8999676513277,5713.3633898486,0,0,0.47005250848,3300,2018-04-05 05:07:22,14,0,17.122,5713.3633898486,0,0,0.47005250848,0,0,0,154.7, -5.3, 3.7,0,0,1024,1024,1024,1024,155.5,0,100,4.287,4.291,4.292,4.273,0,0,3.904,76.91,10,Assisted_Takeoff,
0.347663846091529,36.899967667497,5713.3633898486,0,0,0.48213912304,3400,2018-04-05 05:07:22,14,0,17.122,5713.3633898486,0,0,0.48213912304,0,0,0,154.7, -5.3, 3.7,0,0,1024,1024,1024,1024,155.5,0,100,4.287,4.291,4.292,4.273,0,0,3.904,76.91,10,Assisted_Takeoff,
0.347663897538146,36.899967697887,5713.3633898486,0,0,0.50227691896,3500,2018-04-05 05:07:22,14,0,17.122,5713.3633898486,0,0,0.50227691896,0,0,0,154.7, -5.3, 3.8,0,0,1024,1024,1064,1024,155.5,0,100,4.287,4.291,4.292,4.273,0,0,3.904,76.91,10,Assisted_Takeoff,
0.347663942256032,36.8999677285511,5713.3633898486,0,0,0.52110894056,3600,2018-04-05 05:07:23,14,0,17.122,5713.3633898486,0,0,0.52110894056,0,0,0,154.7, -5.3, 3.8,0,0,1024,1024,1391,1031,155.4,0,100,4.287,4.291,4.292,4.273,0,0,3.904,76.91,10,Assisted_Takeoff,
0.347663959939305,36.8999677722278,5713.3633898486,0,0,0.53765421668,3700,2018-04-05 05:07:23,14,0,17.122,5713.3633898486,0,0,0.53765421668,0,0,0,154.7, -5.3, 3.7,0,0,1024,1024,1684,1024,155.4,0,100,4.287,4.291,4.292,4.273,0,0,3.904,76.91,10,Assisted_Takeoff,
0.347663980571691,36.8999678110039,5713.3633898486,0,0,0.55346458464,3800,2018-04-05 05:07:23,14,0,17.122,5713.3633898486,0,0,0.55346458464,0,0,0,154.7, -5.3, 3.8,0,0,1024,1024,1684,1075,155.4,0,100,4.287,4.291,4.292,4.273,0,0,3.904,76.91,10,Assisted_Takeoff,
0.347664017494216,36.8999678223511,5713.3633898486,0,0,0.5649770522,3900,2018-04-05 05:07:23,14,0,17.122,5713.3633898486,0,0,0.5649770522,0,0,0,154.7, -5.4, 3.8,0,0,1024,1024,1684,1073,155.5,0,100,4.287,4.291,4.292,4.273,0,0,3.904,76.91,10,Assisted_Takeoff,
0.347664050765769,36.8999678393003,5713.3633898486,0,0,0.5773622232,4000,2018-04-05 05:07:23,14,0,17.122,5713.3633898486,0,0,0.5773622232,0,0,0,154.8, -5.4, 3.8,0,0,1024,1024,1684,1046,155.6,0,100,4.287,4.291,4.292,4.273,0,0,3.904,76.91,10,Assisted_Takeoff,
0.347664022421073,36.8999678739257,5713.3633898486,0,0,0.58098098972,4100,2018-04-05 05:07:23,14,0,17.122,5713.3633898486,0,0,0.58098098972,0,0,0,155.6, -3.3, 3,0,0,1024,1024,1684,1041,155.6,0,100,4.287,4.291,4.292,4.273,0,0,3.904,76.91,10,Assisted_Takeoff,
0.347663931500974,36.8999679021681,5713.3633898486,0,0.223694,0.57012469016,4200,2018-04-05 05:07:23,14,0,17.122,5713.3633898486,0,0.223694,0.58098098972,-0.223694,0,-0.223694,155.9, -0.2, 1.9,0,0,1024,1024,1684,1040,155.6,0,100,4.287,4.291,4.292,4.273,0,0,3.904,76.91,10,Assisted_Takeoff,
0.347663814529027,36.8999679325105,5713.3633898486,0,0.223694,0.55712600208,4300,2018-04-05 05:07:23,14,0,17.122,5713.3633898486,0,0.223694,0.58098098972,-0.223694,0,-0.671082,155.8, 1, 1,0,0,1024,1024,1684,1032,155.6,0,100,4.287,4.291,4.292,4.273,0,0,3.904,76.91,6,P-GPS,Obstacle Avoided. Revise Flight Route
0.347663692442952,36.8999679442464,5713.3633898486,0,0.223694,0.54043964984,4400,2018-04-05 05:07:23,14,0,17.122,5713.3633898486,0,0.223694,0.58098098972,-0.223694,0,-1.342164,155.7, 1.6, 0.4,0,0,1024,1024,1684,1043,155.6,0,100,4.287,4.291,4.292,4.273,0,0,3.904,76.91,6,P-GPS,Home Point Recorded. RTH Altitude:  30m.
0.347663553167837,36.8999679239821,5713.6914738486,0.328084,0.223694,0.51390421592,4500,2018-04-05 05:07:23,14,0,17.122,5713.6914738486,0.328084,0.223694,0.58098098972,-0.223694,0,-2.013246,155.6, 2, -0.4,0,0,1024,1024,1684,1033,155.6,0,100,4.287,4.291,4.292,4.273,0,0,3.904,76.91,6,P-GPS,
0.347663456303102,36.8999679031686,5714.0195578486,0.656168,0,0.49539699748,4600,2018-04-05 05:07:23,14,0,17.122,5714.0195578486,0.656168,0.223694,0.58098098972,0,0,-2.908022,155.6, 2.1, -1,0,0,1024,1024,1684,1024,155.6,0,100,4.287,4.291,4.292,4.273,0,0,3.904,76.91,6,P-GPS,
0.347663429756208,36.8999679068477,5714.3476418486,0.984252,0,0.49395998956,4700,2018-04-05 05:07:24,14,0,17.122,5714.3476418486,0.984252,0.223694,0.58098098972,0,0,-3.579104,155.7, 2.3, -0.7,0,0,1024,1024,1684,1024,155.6,0,100,4.287,4.291,4.292,4.273,0,0,3.904,76.91,6,P-GPS,
0.347663466329432,36.8999679335441,5715.0038098486,1.64042,0,0.50706366452,4800,2018-04-05 05:07:24,14,0,17.122,5715.0038098486,1.64042,0.223694,0.58098098972,0,0,-4.697574,155.9, 0.9, -0.1,0,0,1024,1024,1684,1024,155.6,0,100,4.287,4.291,4.292,4.273,0,0,3.904,76.91,6,P-GPS,
0.347663522764787,36.8999679457361,5715.6599778486,2.296588,0,0.51764109268,4900,2018-04-05 05:07:24,14,0,17.122,5715.6599778486,2.296588,0.223694,0.58098098972,0,0,-5.816044,155.9, 0, 0.6,0,0,1024,1024,1684,1024,155.6,0,100,4.287,4.291,4.292,4.273,0,0,3.904,76.91,6,P-GPS,
0.347663580245603,36.8999679860779,5716.6442298486,3.28084,0,0.5385826944,5000,2018-04-05 05:07:24,14,0,17.122,5716.6442298486,3.28084,0.223694,0.58098098972,0,0,-7.158208,155.9, 0.8, 1.3,0,0,1024,1024,1684,1024,155.6,0,100,4.287,4.291,4.292,4.273,0,0,3.904,76.91,6,P-GPS,
0.347663633112224,36.8999680766238,5717.9565658486,4.593176,0,0.57632547776,5100,2018-04-05 05:07:24,14,0,17.122,5717.9565658486,4.593176,0.223694,0.58098098972,0,0,-8.276678,156, 1, 1.5,0,0,1024,1024,1684,1024,155.6,0,100,4.287,4.291,4.292,4.273,0,0,3.904,76.91,6,P-GPS,
0.347663717566586,36.8999681299113,5719.2689018486,5.905512,0,0.60598427136,5200,2018-04-05 05:07:24,14,0,17.122,5719.2689018486,5.905512,0.223694,0.60598427136,0,0,-9.395148,156, -0.3, 1.5,0,0,1024,1024,1684,1024,155.6,0,100,4.287,4.291,4.292,4.273,0,0,3.904,76.91,6,P-GPS,
0.347663828499448,36.8999681133588,5720.5812378486,7.217848,0,0.6176837468,5300,2018-04-05 05:07:24,14,0,17.122,5720.5812378486,7.217848,0.223694,0.6176837468,0,0,-10.289924,155.9, -1.3, 0.6,0,0,1024,1024,1684,1024,155.6,0,100,4.288,4.293,4.293,4.278,0,0,2.01,76.91,6,P-GPS,
0.347663911992215,36.8999681064438,5722.2216578486,8.858268,0,0.62986550572,5400,2018-04-05 05:07:24,14,0,17.122,5722.2216578486,8.858268,0.223694,0.62986550572,0,0,-10.961006,155.9, -1.3, 0,0,0,1024,1024,1684,1024,155.6,0,100,4.288,4.293,4.293,4.278,0,0,2.01,76.91,6,P-GPS,
0.3476639085277,36.8999681378498,5723.8620778486,10.498688,0,0.63925198896,5500,2018-04-05 05:07:24,14,0,17.122,5723.8620778486,10.498688,0.223694,0.63925198896,0,0,-11.408394,155.7, -1.6, -0.1,0,0,1024,1024,1684,1024,155.6,0,100,4.288,4.293,4.293,4.278,0,0,2.01,76.91,6,P-GPS,
0.347663905427143,36.899968198101,5725.5024978486,12.139108,0,0.65805120216,5600,2018-04-05 05:07:25,14,0,17.122,5725.5024978486,12.139108,0.223694,0.65805120216,0,0,-11.632088,155.7, -1.4, -0.1,0,0,1024,1024,1684,1024,155.6,0,100,4.288,4.293,4.293,4.278,0,0,2.01,76.91,6,P-GPS,
0.347663874936157,36.8999683253691,5727.4710018486,14.107612,0,0.69460632144,5700,2018-04-05 05:07:25,14,0,17.122,5727.4710018486,14.107612,0.223694,0.69460632144,0,0,-11.632088,155.8, -0.5, 0.3,0,0,1024,1024,1684,1024,155.6,0,100,4.288,4.293,4.293,4.278,0,0,2.01,76.91,6,P-GPS,
0.347663863857853,36.899968467687,5729.1114218486,15.748032,0,0.74027889508,5800,2018-04-05 05:07:25,14,0,17.122,5729.1114218486,15.748032,0.223694,0.74027889508,0,0,-11.632088,155.8, 0.4, 0.6,0,0,1024,1024,1684,1024,155.6,0,100,4.288,4.293,4.293,4.278,0,0,2.01,76.91,6,P-GPS,
0.347663853710204,36.8999686059517,5730.7518418486,17.388452,0,0.7854987128,5900,2018-04-05 05:07:25,14,0,17.122,5730.7518418486,17.388452,0.223694,0.7854987128,0,0,-11.632088,155.9, 0.7, 1,0,0,1024,1024,1684,1024,155.6,0,100,4.288,4.293,4.293,4.278,0,0,2.01,76.91,6,P-GPS,
0.347663888469341,36.8999687314346,5732.3922618486,19.028872,0,0.83275265132,6000,2018-04-05 05:07:25,14,0,17.122,5732.3922618486,19.028872,0.223694,0.83275265132,0,0,-11.408394,155.9, 0.2, 1.3,0,0,1024,1024,1684,1024,155.6,0,100,4.288,4.293,4.293,4.278,0,0,2.01,76.91,6,P-GPS,
0.347663903434741,36.8999688349535,5734.0326818486,20.669292,0,0.86997378112,6100,2018-04-05 05:07:25,14,0,17.122,5734.0326818486,20.669292,0.223694,0.86997378112,0,0,-11.1847,155.9, -0.5, 1.6,0,0,1024,1024,1684,1024,155.6,0,100,4.288,4.293,4.293,4.278,0,0,2.01,76.91,6,P-GPS,
0.347663945841866,36.899968926532,5735.6731018486,22.309712,0,0.90670278492,6200,2018-04-05 05:07:25,14,0,17.122,5735.6731018486,22.309712,0.223694,0.90670278492,0,0,-10.961006,155.9, -1, 0.9,0,0,1024,1024,1684,1024,155.6,0,100,4.288,4.293,4.293,4.278,0,0,2.01,76.91,6,P-GPS,
0.34766403644279,36.8999690046285,5737.3135218486,23.950132,0,0.94531827172,6300,2018-04-05 05:07:25,14,0,16.429,5737.3135218486,23.950132,0.223694,0.94531827172,0,0,-10.961006,155.9, -0.9, 1,0,0,1024,1024,1684,1024,155.6,0,99,4.172,4.17,4.164,4.128,0,0,12.272,76.91,6,P-GPS,
0.347664223737462,36.8999692160708,5740.5943618486,27.230972,0.223694,1.04306433784,6500,2018-04-05 05:07:25,14,0,16.429,5740.5943618486,27.230972,0.223694,1.04306433784,0.223694,0,-10.961006,155.8, -2, 1.3,0,0,1024,1024,1684,1024,155.6,0,99,4.172,4.17,4.164,4.128,0,0,12.272,76.91,6,P-GPS,
0.347664302881469,36.8999693390452,5742.2347818486,28.871392,0,1.09582352588,6600,2018-04-05 05:07:25,14,0,16.429,5742.2347818486,28.871392,0.223694,1.09582352588,0,0,-10.961006,155.8, -2.2, 1.4,0,0,1024,1024,1684,1024,155.6,0,99,4.172,4.17,4.164,4.128,0,0,12.272,76.91,6,P-GPS,
0.347664371470716,36.8999694667811,5743.8752018486,30.511812,0,1.14860896064,6700,2018-04-05 05:07:26,14,0,16.429,5743.8752018486,30.511812,0.223694,1.14860896064,0,0,-10.961006,155.9, -1.9, 1.5,0,0,1024,1024,1684,1024,155.7,0,99,4.172,4.17,4.164,4.128,0,0,12.272,76.91,6,P-GPS,
0.347664432311826,36.8999695897807,5745.5156218486,32.152232,0,1.19865161316,6800,2018-04-05 05:07:26,14,0,16.429,5745.5156218486,32.152232,0.223694,1.19865161316,0,0,-10.961006,155.9, -1.8, 1.5,0,0,1024,1024,1684,1024,155.7,0,99,4.172,4.17,4.164,4.128,0,0,12.272,76.91,6,P-GPS,
0.347664492788979,36.8999697002151,5747.1560418486,33.792652,0,1.24447838628,6900,2018-04-05 05:07:26,14,0,16.429,5747.1560418486,33.792652,0.223694,1.24447838628,0,0,-10.961006,155.8, -1.7, 1.6,0,0,1024,1024,1684,1024,155.7,0,99,4.172,4.17,4.164,4.128,0,0,12.272,76.91,6,P-GPS,
0.347664548141419,36.899969803301,5748.7964618486,35.433072,0,1.28709321704,7000,2018-04-05 05:07:26,14,0,16.429,5748.7964618486,35.433072,0.223694,1.28709321704,0,0,-10.961006,155.8, -1.8, 1.5,0,0,1024,1024,1684,1024,155.7,0,99,4.172,4.17,4.164,4.128,0,0,12.272,76.91,6,P-GPS,
0.347664584667418,36.8999698931885,5750.4368818486,37.073492,0,1.32245411056,7100,2018-04-05 05:07:26,14,0,16.429,5750.4368818486,37.073492,0.223694,1.32245411056,0,0,-11.1847,155.9, -2, 1.4,0,0,1024,1024,1684,1024,155.7,0,99,4.172,4.17,4.164,4.128,0,0,12.272,76.91,6,P-GPS,
0.347664618065176,36.8999699840722,5752.0773018486,38.713912,0,1.35766408544,7200,2018-04-05 05:07:26,14,0,16.429,5752.0773018486,38.713912,0.223694,1.35766408544,0,0,-11.1847,155.9, -2.1, 1.2,0,0,1024,1024,1684,1024,155.7,0,99,4.172,4.17,4.164,4.128,0,0,12.272,76.91,6,P-GPS,
0.347664642329806,36.8999700773937,5753.7177218486,40.354332,0,1.392306475,7300,2018-04-05 05:07:26,14,0,16.429,5753.7177218486,40.354332,0.223694,1.392306475,0,0,-11.1847,155.9, -2.2, 1.3,0,0,1024,1024,1684,1024,155.7,0,99,4.149,4.152,4.148,4.117,0,0,18.438,76.91,6,P-GPS,
0.347664659115807,36.8999701781671,5755.3581418486,41.994752,0,1.42834322156,7400,2018-04-05 05:07:26,14,0,16.429,5755.3581418486,41.994752,0.223694,1.42834322156,0,0,-10.961006,155.9, -2.3, 1.1,0,0,1024,1024,1684,1024,155.7,0,99,4.149,4.152,4.148,4.117,0,0,18.438,76.91,6,P-GPS,
0.347664672435664,36.899970290959,5756.9985618486,43.635172,0,1.4679462412,7500,2018-04-05 05:07:26,14,0,16.429,5756.9985618486,43.635172,0.223694,1.4679462412,0,0,-10.961006,155.8, -2.1, 1.3,0,0,1024,1024,1684,1076,155.7,0,99,4.149,4.152,4.148,4.117,0,0,18.438,76.91,6,P-GPS,
0.347664675265086,36.8999704124292,5758.6389818486,45.275592,0,1.50906500892,7600,2018-04-05 05:07:27,14,0,16.429,5758.6389818486,45.275592,0.223694,1.50906500892,0,0,-11.1847,155.9, -1.8, 1.4,0,0,1024,1024,1684,1212,155.7,0,99,4.149,4.152,4.148,4.117,0,0,18.438,76.91,6,P-GPS,
0.3476646946167,36.8999705266895,5760.2794018486,46.916012,0,1.55023298924,7700,2018-04-05 05:07:27,14,0,16.429,5760.2794018486,46.916012,0.223694,1.55023298924,0,0,-10.961006,156.1, -1.9, 1.2,0,0,1024,1024,1684,1293,156.4,0,99,4.149,4.152,4.148,4.117,0,0,18.438,76.91,6,P-GPS,
0.347664710690256,36.8999706533708,5761.9198218486,48.556432,0,1.59520674396,7800,2018-04-05 05:07:27,14,0,16.429,5761.9198218486,48.556432,0.223694,1.59520674396,0,0,-11.1847,157.9, -2, 1.7,0,0,1024,1024,1684,1318,158,0,99,4.149,4.152,4.148,4.117,0,0,18.438,76.91,6,P-GPS,
0.347664712176211,36.8999708063488,5763.5602418486,50.196852,0,1.64723102384,7900,2018-04-05 05:07:27,14,0,16.429,5763.5602418486,50.196852,0.223694,1.64723102384,0,0,-11.1847,161.7, -2, 2.4,0,0,1024,1024,1684,1329,160.1,0,99,4.149,4.152,4.148,4.117,0,0,18.438,76.91,6,P-GPS,
0.347664695697987,36.8999709271975,5765.2006618486,51.837272,0,1.68621068388,8000,2018-04-05 05:07:27,14,0,16.429,5765.2006618486,51.837272,0.223694,1.68621068388,0,0,-10.961006,166.4, -1.8, 2,0,0,1024,1024,1684,1321,163.3,0,99,4.149,4.152,4.148,4.117,0,0,18.438,76.91,6,P-GPS,
0.347664669967757,36.8999709876275,5766.8410818486,53.477692,0,1.70359585504,8100,2018-04-05 05:07:27,14,0,16.429,5766.8410818486,53.477692,0.223694,1.70359585504,0,0,-10.961006,171.5, -1.7, 1,0,0,1024,1024,1684,1249,167.8,0,99,4.149,4.152,4.148,4.117,0,0,18.438,76.91,6,P-GPS,
0.34766464648071,36.8999710312389,5768.4815018486,55.118112,0,1.71563653784,8200,2018-04-05 05:07:27,14,0,16.429,5768.4815018486,55.118112,0.223694,1.71563653784,0,0,-11.1847,176.4, -2, 0.4,0,0,1024,1024,1684,1112,172.3,0,99,4.149,4.152,4.148,4.117,0,0,18.438,76.91,6,P-GPS,
0.347664599036808,36.8999710627713,5770.1219218486,56.758532,0,1.7207513674,8300,2018-04-05 05:07:27,14,0,16.482,5770.1219218486,56.758532,0.223694,1.7207513674,0,0,-11.1847,180.4, -2, 0,0,0,1024,1024,1684,1059,175.9,0,99,4.149,4.152,4.148,4.117,0,0,18.438,76.91,6,P-GPS,
0.347664551505785,36.8999710950461,5771.7623418486,58.398952,0,1.72635176128,8400,2018-04-05 05:07:27,14,0,16.482,5771.7623418486,58.398952,0.223694,1.72635176128,0,0,-11.1847,182.1, -1.7, 0,0,0,1024,1024,1684,1024,178,0,99,4.149,4.152,4.148,4.117,0,0,18.438,76.91,6,P-GPS,
0.347664532286888,36.8999711207217,5773.4027618486,60.039372,0,1.73306107908,8500,2018-04-05 05:07:27,14,0,16.482,5773.4027618486,60.039372,0.223694,1.73306107908,0,0,-11.1847,182.5, -1.9, -0.1,0,0,1024,1024,1684,1024,178,0,99,4.149,4.152,4.148,4.117,0,0,18.438,76.91,6,P-GPS,
0.347664516545535,36.8999711406461,5775.0431818486,61.679792,0,1.73821199788,8600,2018-04-05 05:07:27,14,0,16.482,5775.0431818486,61.679792,0.223694,1.73821199788,0,0,-11.1847,182.5, -2, -0.6,0,0,1024,1024,1684,1024,179.2,0,99,4.149,4.152,4.148,4.117,0,0,18.438,76.91,6,P-GPS,
0.347664485374674,36.8999711743802,5776.6836018486,63.320212,0,1.7465223656,8700,2018-04-05 05:07:28,14,0,16.482,5776.6836018486,63.320212,0.223694,1.7465223656,0,0,-11.1847,182.5, -2.2, -0.6,0,0,1024,1024,1684,975,179.8,0,99,4.149,4.152,4.148,4.117,0,0,18.438,76.91,6,P-GPS,
0.347664456181558,36.8999712178593,5778.3240218486,64.960632,0,1.7585630484,8800,2018-04-05 05:07:28,14,0,16.482,5778.3240218486,64.960632,0.223694,1.7585630484,0,0,-11.1847,182.5, -2.4, -0.5,0,0,1024,1024,1684,956,180.3,0,99,4.149,4.152,4.148,4.117,0,0,18.438,76.91,6,P-GPS,
0.347664363498668,36.8999712844608,5780.2925258486,66.929136,0,1.77247709084,8900,2018-04-05 05:07:28,14,0,16.482,5780.2925258486,66.929136,0.223694,1.77247709084,0,0,-11.1847,182.4, -2.3, -0.1,0,0,1024,1024,1684,930,180.4,0,99,4.149,4.152,4.148,4.117,0,0,18.438,76.91,6,P-GPS,
0.347664281153955,36.8999713514102,5781.9329458486,68.569556,0,1.78831042468,9000,2018-04-05 05:07:28,14,0,16.482,5781.9329458486,68.569556,0.223694,1.78831042468,0,0,-11.1847,181.9, -1.9, 0.3,0,0,1024,1024,1684,930,180.3,0,99,4.149,4.152,4.148,4.117,0,0,18.438,76.91,6,P-GPS,
0.347664189296686,36.8999714170369,5783.5733658486,70.209976,0,1.80357289236,9100,2018-04-05 05:07:28,14,0,16.482,5783.5733658486,70.209976,0.223694,1.80357289236,0,0,-11.1847,181.1, -1.8, 0.6,0,0,1024,1024,1684,934,179.9,0,99,4.149,4.152,4.148,4.117,0,0,18.438,76.91,6,P-GPS,
0.347664118457744,36.8999714667148,5785.2137858486,71.850396,0,1.81556108172,9200,2018-04-05 05:07:28,14,0,16.482,5785.2137858486,71.850396,0.223694,1.81556108172,0,0,-10.961006,179.9, -1.9, 0.4,0,0,1024,1024,1684,935,179.5,0,99,4.149,4.152,4.148,4.117,0,0,18.438,76.91,6,P-GPS,
0.347664049883153,36.8999715071364,5786.8542058486,73.490816,0,1.8248688248,9300,2018-04-05 05:07:28,14,0,16.429,5786.8542058486,73.490816,0.223694,1.8248688248,0,0,-10.961006,179.1, -2, 0.2,0,0,1024,1024,1684,949,179.1,0,99,4.153,4.152,4.15,4.119,0,0,16.43,76.91,6,P-GPS,
0.3476639956063,36.8999715545918,5788.4946258486,75.131236,0,1.83807092496,9400,2018-04-05 05:07:28,14,0,16.429,5788.4946258486,75.131236,0.223694,1.83807092496,0,0,-10.961006,178.2, -1.7, 0.4,0,0,1024,1024,1684,948,178.6,0,99,4.153,4.152,4.15,4.119,0,0,16.43,76.91,6,P-GPS,
0.347663956592853,36.8999716119866,5790.1350458486,76.771656,0,1.85609585992,9500,2018-04-05 05:07:28,14,0,16.429,5790.1350458486,76.771656,0.223694,1.85609585992,0,0,-11.1847,177.3, -1.6, 0.8,0,0,1024,1024,1684,942,178.3,0,99,4.153,4.152,4.15,4.119,0,0,16.43,76.91,6,P-GPS,
0.34766394423052,36.8999716641933,5791.7754658486,78.412076,0,1.87406830144,9600,2018-04-05 05:07:29,14,0,16.429,5791.7754658486,78.412076,0.223694,1.87406830144,0,0,-11.1847,176.6, -2.2, 1.1,0,0,1024,1024,1684,956,177.9,0,99,4.153,4.152,4.15,4.119,0,0,16.43,76.91,6,P-GPS,
0.347663936985573,36.8999716695013,5793.4158858486,80.052496,0,1.8755249944,9700,2018-04-05 05:07:29,14,0,16.429,5793.4158858486,80.052496,0.223694,1.8755249944,0,0,-11.1847,175.7, -3, 1.2,0,0,1024,1024,1684,959,177.5,0,99,4.153,4.152,4.15,4.119,0,0,16.43,76.91,6,P-GPS,
0.347663926929117,36.8999716710419,5795.0563058486,81.692916,0,1.8754593776,9800,2018-04-05 05:07:29,14,0,16.429,5795.0563058486,81.692916,0.223694,1.8755249944,0,0,-11.1847,175, -3.2, 1.2,0,0,1024,1024,1684,966,177.2,0,99,4.153,4.152,4.15,4.119,0,0,16.43,76.91,6,P-GPS,
0.347663912307318,36.8999716702679,5796.6967258486,83.333336,0,1.87428811772,9900,2018-04-05 05:07:29,14,0,16.429,5796.6967258486,83.333336,0.223694,1.8755249944,0,0,-11.1847,174.3, -3.1, 1.2,0,0,1024,1024,1684,975,177.2,0,99,4.153,4.152,4.15,4.119,0,0,16.43,76.91,6,P-GPS,
0.347663886893821,36.8999716639481,5798.3371458486,84.973756,0,1.87050202836,10000,2018-04-05 05:07:29,14,0,16.429,5798.3371458486,84.973756,0.223694,1.8755249944,0,0,-10.961006,173.7, -2.7, 1,0,0,1024,1024,1684,970,176.8,0,99,4.153,4.152,4.15,4.119,0,0,16.43,76.91,6,P-GPS,
0.347663859596215,36.8999716731382,5799.9775658486,86.614176,0,1.87223759272,10100,2018-04-05 05:07:29,14,0,16.429,5799.9775658486,86.614176,0.223694,1.8755249944,0,0,-10.961006,173.3, -2.5, 1,0,0,1024,1024,1684,974,176.5,0,99,4.153,4.152,4.15,4.119,0,0,16.43,76.91,6,P-GPS,
0.347663833109573,36.8999716717239,5801.6179858486,88.254596,0,1.87024940368,10200,2018-04-05 05:07:29,14,0,16.429,5801.6179858486,88.254596,0.223694,1.8755249944,0,0,-10.961006,172.9, -2.3, 0.9,0,0,1024,1024,1684,989,176.2,0,99,4.153,4.152,4.15,4.119,0,0,16.43,76.91,6,P-GPS,
0.347663827709653,36.8999716607331,5803.5864898486,90.2231,0,1.86598759252,10300,2018-04-05 05:07:29,14,0,16.536,5803.5864898486,90.2231,0.223694,1.8755249944,0,0,-10.961006,172.4, -2.4, 0.8,0,0,1024,1024,1684,1008,175.9,0,99,4.146,4.149,4.148,4.119,0,0,15.994,76.91,6,P-GPS,
0.347663819604073,36.8999716434494,5805.2269098486,91.86352,0,1.85931108312,10400,2018-04-05 05:07:29,14,0,16.536,5805.2269098486,91.86352,0.223694,1.8755249944,0,0,-11.1847,172.1, -2.5, 0.7,0,0,1024,1024,1543,1024,175.6,0,99,4.146,4.149,4.148,4.119,0,0,15.994,76.91,6,P-GPS,
0.347663829874669,36.8999715933143,5806.8673298486,93.50394,0,1.84179139752,10500,2018-04-05 05:07:29,14,0,16.536,5806.8673298486,93.50394,0.223694,1.8755249944,0,0,-11.1847,172, -2.6, 0.6,0,0,1024,1024,1085,1024,175.4,0,99,4.146,4.149,4.148,4.119,0,0,15.994,76.91,6,P-GPS,
0.347663830123821,36.8999715494026,5808.5077498486,95.14436,0,1.82597446788,10600,2018-04-05 05:07:29,14,0,16.536,5808.5077498486,95.14436,0.223694,1.8755249944,0,0,-10.961006,172.1, -2.8, 0.3,0,0,1024,1024,1085,1024,175.3,0,99,4.146,4.149,4.148,4.119,0,0,15.994,76.91,6,P-GPS,
0.347663813115538,36.8999715258815,5810.1481698486,96.78478,0,1.81654533372,10700,2018-04-05 05:07:30,14,0,16.536,5810.1481698486,96.78478,0.223694,1.8755249944,0,0,-10.06623,172.1, -5.2, 0,0,0,1024,1024,1024,1024,175.1,0,99,4.146,4.149,4.148,4.119,0,0,15.994,76.91,6,P-GPS,
0.347663790266026,36.8999715132409,5811.4605058486,98.097116,0,1.8107448086,10800,2018-04-05 05:07:30,14,0,16.536,5811.4605058486,98.097116,0.223694,1.8755249944,0,0,-8.724066,172.1, -5.5, 0.1,0,0,1024,1024,1024,1024,175,0,99,4.146,4.149,4.148,4.119,0,0,15.994,76.91,6,P-GPS,
0.347663765111451,36.8999714947035,5812.7728418486,99.409452,0,1.80272643564,10900,2018-04-05 05:07:30,14,0,16.536,5812.7728418486,99.409452,0.223694,1.8755249944,0,0,-7.381902,172.1, -4, 0.3,0,0,1024,1024,1024,1024,174.8,0,99,4.146,4.149,4.148,4.119,0,0,15.994,76.91,6,P-GPS,
0.34766374119368,36.8999714847062,5813.7570938486,100.393704,0,1.79789375832,11000,2018-04-05 05:07:30,14,0,16.536,5813.7570938486,100.393704,0.223694,1.8755249944,0,0,-5.816044,172.1, -3.7, 0.4,0,0,1024,1024,1024,1024,174.7,0,99,4.146,4.149,4.148,4.119,0,0,15.994,76.91,6,P-GPS,
0.347663743143742,36.8999714532767,5814.4132618486,101.049872,0,1.78663391544,11100,2018-04-05 05:07:30,14,0,16.536,5814.4132618486,101.049872,0.223694,1.8755249944,0,0,-4.250186,172, -3.7, 0.6,0,0,1024,1024,1024,1024,174.6,0,99,4.146,4.149,4.148,4.119,0,0,15.994,76.91,6,P-GPS,
0.347663744447311,36.8999714365817,5815.0694298486,101.70604,0,1.78066934832,11200,2018-04-05 05:07:30,14,0,16.536,5815.0694298486,101.70604,0.223694,1.8755249944,0,0,-2.684328,172.1, -2.8, 0.9,0,0,1024,1024,1024,1024,174.5,0,99,4.146,4.149,4.148,4.119,0,0,15.994,76.91,6,P-GPS,
0.34766376423942,36.899971387741,5815.3975138486,102.034124,0,1.76406173624,11300,2018-04-05 05:07:30,14,0,16.402,5815.3975138486,102.034124,0.223694,1.8755249944,0,0,-1.565858,172.1, -1.7, 0.9,0,0,1024,1024,1024,1024,174.4,0,99,4.142,4.143,4.14,4.108,0,0,16.282,76.91,6,P-GPS,
0.347663795246622,36.8999713498086,5815.3975138486,102.034124,0,1.75206370436,11400,2018-04-05 05:07:30,14,0,16.402,5815.3975138486,102.034124,0.223694,1.8755249944,0,0,-0.894776,172.1, -1.6, 1,0,0,1024,1024,1024,1024,174.4,0,99,4.142,4.143,4.14,4.108,0,0,16.282,76.91,6,P-GPS,
0.347663811809526,36.899971273492,5815.3975138486,102.034124,0,1.72549874288,11500,2018-04-05 05:07:30,14,0,16.402,5815.3975138486,102.034124,0.223694,1.8755249944,0,0,-0.447388,172.1, -1.8, 0.8,0,0,1024,1024,1024,1024,174.3,0,99,4.142,4.143,4.14,4.108,0,0,16.282,76.91,6,P-GPS,
0.347663848201992,36.8999712114427,5815.3975138486,102.034124,0,1.70533470024,11600,2018-04-05 05:07:31,14,0,16.402,5815.3975138486,102.034124,0.223694,1.8755249944,0,0,-0.223694,172.1, -2.1, 0.8,0,0,1024,1024,1024,1024,174.3,0,99,4.142,4.143,4.14,4.108,0,0,16.282,76.91,6,P-GPS,
0.347663929737369,36.8999711638776,5815.7255978486,102.362208,0,1.69354008044,11700,2018-04-05 05:07:31,14,0,16.402,5815.7255978486,102.362208,0.223694,1.8755249944,0,0,0,172.1, -2.6, 0.9,0,0,1024,1024,1024,1024,174.2,0,99,4.142,4.143,4.14,4.108,0,0,16.282,76.91,6,P-GPS,
0.347664014633854,36.8999711209289,5815.7255978486,102.362208,0,1.6842684266,11800,2018-04-05 05:07:31,14,0,16.402,5815.7255978486,102.362208,0.223694,1.8755249944,0,0,0,172.1, -3, 0.9,0,0,1024,1024,1024,1024,174.1,0,99,4.142,4.143,4.14,4.108,0,0,16.282,76.91,6,P-GPS,
0.347664101232877,36.8999710546342,5815.7255978486,102.362208,0,1.66751317672,11900,2018-04-05 05:07:31,14,0,16.402,5815.7255978486,102.362208,0.223694,1.8755249944,0,0,0,172.1, -3.3, 0.9,0,0,1024,1024,1024,1024,174.1,0,99,4.142,4.143,4.14,4.108,0,0,16.282,76.91,6,P-GPS,
0.347664182319618,36.8999709920956,5815.7255978486,102.362208,0,1.65237210012,12000,2018-04-05 05:07:31,14,0,16.402,5815.7255978486,102.362208,0.223694,1.8755249944,0,0,0,172, -3.5, 0.7,0,0,1024,1024,1024,1024,174,0,99,4.142,4.143,4.14,4.108,0,0,16.282,76.91,6,P-GPS,
0.347664236188545,36.8999709200298,5815.7255978486,102.362208,0,1.63195871364,12100,2018-04-05 05:07:31,14,0,16.402,5815.7255978486,102.362208,0.223694,1.8755249944,0,0,0,172, -3.6, 0.6,0,0,1024,1024,1024,1024,173.9,0,99,4.142,4.143,4.14,4.108,0,0,16.282,76.91,6,P-GPS,
0.347664287048108,36.8999708546821,5815.7255978486,102.362208,0,1.61400595716,12200,2018-04-05 05:07:31,14,0,16.402,5815.7255978486,102.362208,0.223694,1.8755249944,0,0,0,172, -3.8, 0.7,0,0,1024,1024,1024,1024,173.9,0,99,4.142,4.143,4.14,4.108,0,0,16.282,76.91,6,P-GPS,
0.3476643132571,36.89997075521,5815.7255978486,102.362208,0,1.58189965692,12300,2018-04-05 05:07:31,14,0,16.456,5815.7255978486,102.362208,0.223694,1.8755249944,0,0,0,172, -3.8, 0.7,0,0,1024,1024,1009,1024,173.8,0,99,4.142,4.143,4.14,4.108,0,0,16.282,76.91,6,P-GPS,
0.34766433548536,36.8999706700781,5816.0536818486,102.690292,0,1.5545932256,12400,2018-04-05 05:07:31,14,0,16.456,5816.0536818486,102.690292,0.223694,1.8755249944,0,0,0,172, -3.8, 0.7,0,0,1024,1024,911,1024,173.8,0,99,4.142,4.143,4.14,4.108,0,0,16.282,76.91,6,P-GPS,
0.347664344011893,36.8999705578739,5816.0536818486,102.690292,0,1.5165354816,12500,2018-04-05 05:07:31,14,0,16.456,5816.0536818486,102.690292,0.223694,1.8755249944,0,0,0,172, -3.8, 0.8,0,0,1024,1024,913,1024,173.7,0,99,4.142,4.143,4.14,4.108,0,0,16.282,76.91,6,P-GPS,
0.347664347107565,36.8999704644951,5816.0536818486,102.690292,0,1.48452104488,12600,2018-04-05 05:07:32,14,0,16.456,5816.0536818486,102.690292,0.223694,1.8755249944,0,0,0,172.1, -3.8, 0.8,0,0,1024,1024,981,1024,173.7,0,99,4.142,4.143,4.14,4.108,0,0,16.282,76.91,6,P-GPS,
0.347664354418464,36.8999703471269,5816.0536818486,102.690292,0,1.44482288088,12700,2018-04-05 05:07:32,14,0,16.456,5816.0536818486,102.690292,0.223694,1.8755249944,0,0,0.223694,172.1, -3.8, 0.9,0,0,1024,1024,1024,1024,173.6,0,99,4.142,4.143,4.14,4.108,0,0,16.282,76.91,6,P-GPS,
0.347664345146919,36.8999702473508,5815.7255978486,102.362208,0,1.40933731544,12800,2018-04-05 05:07:32,14,0,16.456,5816.0536818486,102.690292,0.223694,1.8755249944,0,0,0.223694,172.1, -3, 1,0,0,1024,1024,1024,1024,173.6,0,99,4.142,4.143,4.14,4.108,0,0,16.282,76.91,6,P-GPS,
0.347664322474907,36.8999701216866,5815.7255978486,102.362208,0,1.36336618536,12900,2018-04-05 05:07:32,14,0,16.456,5816.0536818486,102.690292,0.223694,1.8755249944,0,0,0,172.1, -2.8, 0.9,0,0,1024,1024,1024,1024,173.6,0,99,4.142,4.143,4.14,4.108,0,0,16.282,76.91,6,P-GPS,
0.34766431145197,36.8999700085167,5815.7255978486,102.362208,0,1.3231791762,13000,2018-04-05 05:07:32,14,0,16.456,5816.0536818486,102.690292,0.223694,1.8755249944,0,0,0,172.1, -3.5, 0.6,0,0,1024,1024,1024,1024,173.6,0,99,4.142,4.143,4.14,4.108,0,0,16.282,76.91,6,P-GPS,
0.347664263792299,36.899969842532,5815.7255978486,102.362208,0,1.26034780936,13100,2018-04-05 05:07:32,14,0,16.456,5816.0536818486,102.690292,0.223694,1.8755249944,0,0,0,172.1, -3.6, 0.4,0,0,1024,1024,1024,1024,173.5,0,99,4.142,4.143,4.14,4.108,0,0,16.282,76.91,6,P-GPS,
0.347664215552903,36.8999697068293,5815.7255978486,102.362208,0,1.2078084376,13200,2018-04-05 05:07:32,14,0,16.456,5816.0536818486,102.690292,0.223694,1.8755249944,0,0,0,172.1, -3.6, 0.3,0,0,1024,1024,1013,1024,173.5,0,99,4.142,4.143,4.14,4.108,0,0,16.282,76.91,6,P-GPS,
0.347664171056485,36.8999695360938,5815.7255978486,102.362208,0,1.143782845,13300,2018-04-05 05:07:32,14,0,16.642,5816.0536818486,102.690292,0.223694,1.8755249944,0,0,0,172.1, -3.5, 0.1,0,0,1024,1024,911,1024,173.5,0,99,4.203,4.212,4.205,4.175,0,0,6.36,76.91,6,P-GPS,
0.347664127495608,36.899969401307,5815.7255978486,102.362208,0,1.09216538928,13400,2018-04-05 05:07:32,14,0,16.642,5816.0536818486,102.690292,0.223694,1.8755249944,0,0,0,172.1, -3.5, 0,0,0,1024,1024,853,1024,173.5,0,99,4.203,4.212,4.205,4.175,0,0,6.36,76.91,6,P-GPS,
0.347664101990918,36.8999692402669,5815.7255978486,102.362208,0,1.03401906196,13500,2018-04-05 05:07:32,14,0,16.642,5816.0536818486,102.690292,0.223694,1.8755249944,0,0,0,172.1, -3.8, -0.2,0,0,1024,1024,931,1024,173.4,0,99,4.203,4.212,4.205,4.175,0,0,6.36,76.91,6,P-GPS,
0.347664069693174,36.8999691207768,5815.7255978486,102.362208,0,0.9891568558,13600,2018-04-05 05:07:33,14,0,16.642,5816.0536818486,102.690292,0.223694,1.8755249944,0,0,0.447388,172.1, -4.2, -0.2,0,0,1024,1024,1024,1024,173.4,0,99,4.203,4.212,4.205,4.175,0,0,6.36,76.91,6,P-GPS,
0.347664009607661,36.8999689782206,5815.7255978486,102.362208,0,0.93272312696,13700,2018-04-05 05:07:33,14,0,16.642,5816.0536818486,102.690292,0.223694,1.8755249944,0,0,0.447388,172.1, -3.1, 0,0,0,1024,1024,1024,1024,173.4,0,99,4.203,4.212,4.205,4.175,0,0,6.36,76.91,6,P-GPS,
0.347663939299592,36.8999688772646,5815.7255978486,102.362208,0,0.88906498908,13800,2018-04-05 05:07:33,14,0,16.642,5816.0536818486,102.690292,0.223694,1.8755249944,0,0,0.223694,172.1, -2.1, 0.1,0,0,1024,1024,1024,1024,173.3,0,99,4.203,4.212,4.205,4.175,0,0,6.36,76.91,6,P-GPS,
0.347663887870888,36.8999687697973,5815.7255978486,102.362208,0,0.8457349352,13900,2018-04-05 05:07:33,14,0,16.642,5816.0536818486,102.690292,0.223694,1.8755249944,0,0,0.223694,172.1, -2.9, 0,0,0,1024,1024,1024,1024,173.3,0,99,4.203,4.212,4.205,4.175,0,0,6.36,76.91,6,P-GPS,
0.347663850185437,36.8999686934845,5815.7255978486,102.362208,0,0.81482614156,14000,2018-04-05 05:07:33,14,0,16.642,5816.0536818486,102.690292,0.223694,1.8755249944,0,0,0,172.1, -3.2, 0.1,0,0,1024,1024,1024,1024,173.3,0,99,4.203,4.212,4.205,4.175,0,0,6.36,76.91,6,P-GPS,
0.347663820310003,36.8999686006839,5815.7255978486,102.362208,0,0.77930120604,14100,2018-04-05 05:07:33,14,0,16.642,5816.0536818486,102.690292,0.223694,1.8755249944,0,0,0,172.1, -3.4, 0,0,0,1024,1024,1024,1024,173.3,0,99,4.203,4.212,4.205,4.175,0,0,6.36,76.91,6,P-GPS,
0.347663789739224,36.8999685374002,5815.7255978486,102.362208,0,0.75375986664,14200,2018-04-05 05:07:33,14,0,16.642,5816.0536818486,102.690292,0.223694,1.8755249944,0,0,0.223694,172.1, -3.5, 0,0,0,1024,1024,1024,1024,173.2,0,99,4.203,4.212,4.205,4.175,0,0,6.36,76.91,6,P-GPS,
0.347663749690087,36.8999684498471,5815.7255978486,102.362208,0,0.71872377628,14300,2018-04-05 05:07:33,14,0,16.749,5816.0536818486,102.690292,0.223694,1.8755249944,0,0,0,172, -3.7, 0,0,0,1024,1024,1024,1024,173.2,0,99,4.18,4.184,4.205,4.175,0,0,11.942,76.91,6,P-GPS,
0.347663705572282,36.8999683973481,5815.7255978486,102.362208,0,0.69520343432,14400,2018-04-05 05:07:33,14,0,16.749,5816.0536818486,102.690292,0.223694,1.8755249944,0,0,0,172, -3.6, -0.1,0,0,1024,1024,1024,1024,173.2,0,99,4.18,4.184,4.205,4.175,0,0,11.942,76.91,6,P-GPS,
0.347663685043303,36.8999683568399,5815.7255978486,102.362208,0,0.67876642592,14500,2018-04-05 05:07:33,14,0,16.749,5816.0536818486,102.690292,0.223694,1.8755249944,0,0,0,172, -3.5, 0,0,0,1024,1024,1024,1024,173.2,0,99,4.18,4.184,4.205,4.175,0,0,11.942,76.91,6,P-GPS,
0.347663657527484,36.8999683502964,5815.7255978486,102.362208,0,0.67320868296,14600,2018-04-05 05:07:34,14,0,16.749,5816.0536818486,102.690292,0.223694,1.8755249944,0,0,0,172.1, -3.4, 0.4,0,0,1024,1024,1024,1024,173.2,0,99,4.18,4.184,4.205,4.175,0,0,11.942,76.91,6,P-GPS,
0.347663618503453,36.8999683321112,5815.7255978486,102.362208,0,0.66243112356,14700,2018-04-05 05:07:34,14,0,16.749,5816.0536818486,102.690292,0.223694,1.8755249944,0,0,0,172.1, -3.4, 0.4,0,0,1024,1024,1024,1024,173.2,0,99,4.18,4.184,4.205,4.175,0,0,11.942,76.91,6,P-GPS,
0.347663575217783,36.8999683312033,5815.7255978486,102.362208,0,0.65744096592,14800,2018-04-05 05:07:34,14,0,16.749,5816.0536818486,102.690292,0.223694,1.8755249944,0,0,0,172.1, -3.2, 0.3,0,0,1024,1024,1024,1024,173.1,0,99,4.18,4.184,4.205,4.175,0,0,11.942,76.91,6,P-GPS,
0.347663526702365,36.8999682994921,5815.7255978486,102.362208,0,0.6414534326,14900,2018-04-05 05:07:34,14,0,16.749,5816.0536818486,102.690292,0.223694,1.8755249944,0,0,0,172.1, -3.2, 0.4,0,0,1024,1024,1024,1024,173.1,0,99,4.18,4.184,4.205,4.175,0,0,11.942,76.91,6,P-GPS,
0.347663480241229,36.8999682954758,5815.7255978486,102.362208,0,0.63575789436,15000,2018-04-05 05:07:34,14,0,16.749,5816.0536818486,102.690292,0.223694,1.8755249944,0,0,0,172.1, -3.2, 0.6,0,0,1024,1024,1024,1024,173.1,0,99,4.18,4.184,4.205,4.175,0,0,11.942,76.91,6,P-GPS,
0.347663428370403,36.8999682838726,5815.7255978486,102.362208,0,0.6273458206,15100,2018-04-05 05:07:34,14,0,16.749,5816.0536818486,102.690292,0.223694,1.8755249944,0,0,0,172.1, -3.1, 0.6,0,0,1024,1024,1024,1024,173.1,0,99,4.18,4.184,4.205,4.175,0,0,11.942,76.91,6,P-GPS,
0.347663379736108,36.899968299217,5815.7255978486,102.362208,0,0.62930448208,15200,2018-04-05 05:07:34,14,0,16.749,5816.0536818486,102.690292,0.223694,1.8755249944,0,0,0,172.1, -3, 0.6,0,0,1024,1024,1024,1024,173.1,0,99,4.18,4.184,4.205,4.175,0,0,11.942,76.91,6,P-GPS,
0.347663331254074,36.8999682977444,5815.7255978486,102.362208,0,0.6257546132,15300,2018-04-05 05:07:34,14,0,16.722,5816.0536818486,102.690292,0.223694,1.8755249944,0,0,0,172.1, -3, 0.6,0,0,1024,1024,1024,1024,173.1,0,99,4.18,4.184,4.205,4.175,0,0,12.242,76.91,6,P-GPS,
0.347663288260709,36.8999683170526,5815.7255978486,102.362208,0,0.63046589944,15400,2018-04-05 05:07:34,14,0,16.722,5816.0536818486,102.690292,0.223694,1.8755249944,0,0,0,172.1, -3.1, 0.6,0,0,1024,1024,1024,1024,173,0,99,4.18,4.184,4.205,4.175,0,0,12.242,76.91,6,P-GPS,
0.347663244216999,36.8999683160125,5815.7255978486,102.362208,0,0.6281824348,15500,2018-04-05 05:07:34,14,0,16.722,5816.0536818486,102.690292,0.223694,1.8755249944,0,0,0,172.1, -3.1, 0.8,0,0,1024,1024,1024,1024,173,0,99,4.18,4.184,4.205,4.175,0,0,12.242,76.91,6,P-GPS,
0.347663203768078,36.8999683343112,5815.7255978486,102.362208,0,0.63344490216,15600,2018-04-05 05:07:34,14,0,16.722,5816.0536818486,102.690292,0.223694,1.8755249944,0,0,0,172, -3.2, 0.8,0,0,1024,1024,1024,1024,173,0,99,4.18,4.184,4.205,4.175,0,0,12.242,76.91,6,P-GPS,
0.347663156070954,36.8999683623213,5815.7255978486,102.362208,0,0.64246393132,15700,2018-04-05 05:07:35,14,0,16.722,5816.0536818486,102.690292,0.223694,1.8755249944,0,0,0,172, -3.1, 0.6,0,0,1024,1024,1024,1024,173,0,99,4.18,4.184,4.205,4.175,0,0,12.242,76.91,6,P-GPS,
0.347663111347368,36.8999684030014,5815.7255978486,102.362208,0,0.65663387928,15800,2018-04-05 05:07:35,14,0,16.722,5816.0536818486,102.690292,0.223694,1.8755249944,0,0,0,172, -3.1, 0.8,0,0,1024,1024,1024,1024,173,0,99,4.18,4.184,4.205,4.175,0,0,12.242,76.91,6,P-GPS,
0.347663058266607,36.8999684104565,5815.7255978486,102.362208,0,0.65910763264,15900,2018-04-05 05:07:35,14,0,16.722,5816.0536818486,102.690292,0.223694,1.8755249944,0,0,0,172, -3, 0.7,0,0,1024,1024,1024,1024,173,0,99,4.18,4.184,4.205,4.175,0,0,12.242,76.91,6,P-GPS,
0.347663006613992,36.8999684303397,5815.7255978486,102.362208,0,0.66666340716,16000,2018-04-05 05:07:35,14,0,16.722,5816.0536818486,102.690292,0.223694,1.8755249944,0,0,0,172, -2.8, 0.6,0,0,1024,1024,1024,1024,173,0,99,4.18,4.184,4.205,4.175,0,0,12.242,76.91,6,P-GPS,
0.347662910221507,36.8999684580297,5815.7255978486,102.362208,0,0.67871721332,16100,2018-04-05 05:07:35,14,0,16.722,5816.0536818486,102.690292,0.223694,1.8755249944,0,0,0,172, -2.7, 0.5,0,0,1024,1024,1024,1024,173,0,99,4.18,4.184,4.205,4.175,0,0,12.242,76.91,6,P-GPS,
0.347662833782346,36.8999684976071,5815.7255978486,102.362208,0,0.69589241072,16200,2018-04-05 05:07:35,14,0,16.722,5816.0536818486,102.690292,0.223694,1.8755249944,0,0,0,172, -2.8, 0.5,0,0,1024,1024,1024,1024,172.9,0,99,4.18,4.184,4.205,4.175,0,0,12.242,76.91,6,P-GPS,
0.347662764123211,36.8999685469922,5815.7255978486,102.362208,0,0.71718834316,16300,2018-04-05 05:07:35,14,0,16.589,5816.0536818486,102.690292,0.223694,1.8755249944,0,0,0,172, -2.7, 0.7,0,0,1024,1024,1024,1024,172.9,0,99,4.17,4.169,4.165,4.136,0,0,12.242,76.91,6,P-GPS,
0.347662708858707,36.8999686026345,5815.7255978486,102.362208,0,0.7405019922,16400,2018-04-05 05:07:35,14,0,16.589,5816.0536818486,102.690292,0.223694,1.8755249944,0,0,0,172, -2.7, 0.8,0,0,1024,1024,1024,1024,172.9,0,99,4.17,4.169,4.165,4.136,0,0,12.242,76.91,6,P-GPS,
0.347662660687705,36.8999686983461,5815.7255978486,102.362208,0,0.77802495928,16500,2018-04-05 05:07:35,14,0,16.589,5816.0536818486,102.690292,0.223694,1.8755249944,0,0,0,172, -2.8, 0.9,0,0,1024,1024,1024,1024,172.9,0,99,4.17,4.169,4.165,4.136,0,0,12.242,76.91,6,P-GPS,
0.347662619158312,36.8999687853751,5815.7255978486,102.362208,0,0.81210960604,16600,2018-04-05 05:07:36,14,0,16.589,5816.0536818486,102.690292,0.223694,1.8755249944,0,0,0,172, -2.8, 0.9,0,0,1024,1024,1024,1024,172.9,0,99,4.17,4.169,4.165,4.136,0,0,12.242,76.91,6,P-GPS,
0.347662574014588,36.8999688610311,5815.7255978486,102.362208,0,0.8425033078,16700,2018-04-05 05:07:36,14,0,16.589,5816.0536818486,102.690292,0.223694,1.8755249944,0,0,0,172, -2.8, 0.9,0,0,1024,1024,1024,1024,172.9,0,99,4.17,4.169,4.165,4.136,0,0,12.242,76.91,6,P-GPS,
0.347662537162086,36.8999689316211,5815.7255978486,102.362208,0,0.87055120896,16800,2018-04-05 05:07:36,14,0,16.589,5816.0536818486,102.690292,0.223694,1.8755249944,0,0,0,172, -2.8, 0.9,0,0,1024,1024,1024,1024,172.9,0,99,4.17,4.169,4.165,4.136,0,0,12.242,76.91,6,P-GPS,
0.347662491681273,36.8999690250368,5815.7255978486,102.362208,0,0.90749018652,16900,2018-04-05 05:07:36,14,0,16.589,5816.0536818486,102.690292,0.223694,1.8755249944,0,0,0.223694,172, -2.9, 0.9,0,0,1024,1024,1024,1024,172.9,0,99,4.17,4.169,4.165,4.136,0,0,12.242,76.91,6,P-GPS,
0.347662452904765,36.8999691121424,5815.7255978486,102.362208,0,0.94168966268,17000,2018-04-05 05:07:36,14,0,16.589,5816.0536818486,102.690292,0.223694,1.8755249944,0,0,0,172, -2.9, 1,0,0,1024,1024,1024,1024,172.9,0,99,4.17,4.169,4.165,4.136,0,0,12.242,76.91,6,P-GPS,
0.34766240038826,36.8999692213574,5815.7255978486,102.362208,0,0.9849737848,17100,2018-04-05 05:07:36,14,0,16.589,5816.0536818486,102.690292,0.223694,1.8755249944,0,0,0,172, -2.8, 1,0,0,1024,1024,1024,1024,172.8,0,99,4.17,4.169,4.165,4.136,0,0,12.242,76.91,6,P-GPS,
0.347662357188898,36.8999693139734,5815.7255978486,102.362208,0,1.0216207676,17200,2018-04-05 05:07:36,14,0,16.589,5816.0536818486,102.690292,0.223694,1.8755249944,0,0,0,172, -2.9, 0.9,0,0,1024,1024,1024,1024,172.8,0,99,4.17,4.169,4.165,4.136,0,0,12.242,76.91,6,P-GPS,
0.347662341673083,36.8999693845082,5815.7255978486,102.362208,0,1.0479495086,17300,2018-04-05 05:07:36,14,0,16.536,5816.0536818486,102.690292,0.223694,1.8755249944,0,0,0,172, -2.9, 1,0,0,1024,1024,1024,1024,172.8,0,99,4.168,4.169,4.165,4.138,0,0,12.038,76.91,6,P-GPS,
0.347662323413341,36.8999694531079,5815.7255978486,102.362208,0,1.07384845956,17400,2018-04-05 05:07:36,14,0,16.536,5816.0536818486,102.690292,0.223694,1.8755249944,0,0,0,172, -2.9, 1,0,0,1024,1024,1024,1024,172.8,0,99,4.168,4.169,4.165,4.138,0,0,12.038,76.91,6,P-GPS,
0.347662324669685,36.8999695396349,5815.7255978486,102.362208,0,1.10432418232,17500,2018-04-05 05:07:36,14,0,16.536,5816.0536818486,102.690292,0.223694,1.8755249944,0,0,0,172, -2.8, 0.9,0,0,1024,1024,1024,1024,172.8,0,99,4.168,4.169,4.165,4.138,0,0,12.038,76.91,6,P-GPS,
0.347662320659642,36.8999696223777,5815.7255978486,102.362208,0,1.13397641424,17600,2018-04-05 05:07:36,14,0,16.536,5816.0536818486,102.690292,0.223694,1.8755249944,0,0,0,172, -2.7, 1.1,0,0,1024,1024,1024,1024,172.8,0,99,4.168,4.169,4.165,4.138,0,0,12.038,76.91,6,P-GPS,
0.347662334490831,36.8999696858231,5815.7255978486,102.362208,0,1.1552985934,17700,2018-04-05 05:07:37,14,0,16.536,5816.0536818486,102.690292,0.223694,1.8755249944,0,0,0,172, -2.7, 1,0,0,1024,1024,1024,1024,172.8,0,99,4.168,4.169,4.165,4.138,0,0,12.038,76.91,6,P-GPS,
0.347662339774318,36.8999697430771,5815.7255978486,102.362208,0,1.17520673052,17800,2018-04-05 05:07:37,14,0,16.536,5816.0536818486,102.690292,0.223694,1.8755249944,0,0,0,172, -2.8, 1,0,0,1024,1024,1024,1024,172.8,0,99,4.168,4.169,4.165,4.138,0,0,12.038,76.91,6,P-GPS,
0.347662322225391,36.8999697849905,5815.7255978486,102.362208,0,1.19154859456,17900,2018-04-05 05:07:37,14,0,16.536,5816.0536818486,102.690292,0.223694,1.8755249944,0,0,0,172, -2.8, 0.9,0,0,1024,1024,1024,1024,172.8,0,99,4.168,4.169,4.165,4.138,0,0,12.038,76.91,6,P-GPS,
0.347662306076926,36.8999698295698,5815.7255978486,102.362208,0,1.20872379196,18000,2018-04-05 05:07:37,14,0,16.536,5816.0536818486,102.690292,0.223694,1.8755249944,0,0,0,172, -2.8, 0.9,0,0,1024,1024,1024,1024,172.8,0,99,4.168,4.169,4.165,4.138,0,0,12.038,76.91,6,P-GPS,
0.347662302897389,36.8999698293166,5815.7255978486,102.362208,0,1.20890095732,18100,2018-04-05 05:07:37,14,0,16.536,5816.0536818486,102.690292,0.223694,1.8755249944,0,0,0,172, -2.8, 1,0,0,1024,1024,1024,1024,172.8,0,99,4.168,4.169,4.165,4.138,0,0,12.038,76.91,6,P-GPS,
0.347662300872419,36.8999698383754,5815.7255978486,102.362208,0,1.2122867842,18200,2018-04-05 05:07:37,14,0,16.536,5816.0536818486,102.690292,0.223694,1.8755249944,0,0,0,172, -3, 1,0,0,1024,1024,1024,1024,172.8,0,99,4.168,4.169,4.165,4.138,0,0,12.038,76.91,6,P-GPS,
0.347662304160248,36.899969848787,5815.7255978486,102.362208,0,1.21571198116,18300,2018-04-05 05:07:37,14,0,16.616,5816.0536818486,102.690292,0.223694,1.8755249944,0,0,0,172, -3, 1,0,0,1024,1024,1024,1024,172.7,0,99,4.165,4.166,4.164,4.136,0,0,12.048,76.91,6,P-GPS,
0.347662301158211,36.899969867681,5815.7255978486,102.362208,0,1.22267392364,18400,2018-04-05 05:07:37,14,0,16.616,5816.0536818486,102.690292,0.223694,1.8755249944,0,0,0,172, -2.9, 0.8,0,0,1024,1024,1024,1024,172.7,0,99,4.165,4.166,4.164,4.136,0,0,12.048,76.91,6,P-GPS,
0.347662339352551,36.899969859266,5815.7255978486,102.362208,0,1.21658796544,18500,2018-04-05 05:07:37,14,0,16.616,5816.0536818486,102.690292,0.223694,1.8755249944,0,0,0,172.1, -2.9, 0.9,0,0,1024,1024,1024,1024,172.7,0,99,4.165,4.166,4.164,4.136,0,0,12.048,76.91,6,P-GPS,
0.347662367627224,36.8999698655885,5815.7255978486,102.362208,0,1.2166503014,18600,2018-04-05 05:07:38,14,0,16.616,5816.0536818486,102.690292,0.223694,1.8755249944,0,0,0,172, -2.9, 1,0,0,1024,1024,1024,1024,172.7,0,99,4.165,4.166,4.164,4.136,0,0,12.048,76.91,6,P-GPS,
0.34766239792361,36.8999698509603,5815.7255978486,102.362208,0,1.2091699862,18700,2018-04-05 05:07:38,14,0,16.616,5816.0536818486,102.690292,0.223694,1.8755249944,0,0,0,172.1, -3, 1.1,0,0,1024,1024,1024,1024,172.7,0,99,4.165,4.166,4.164,4.136,0,0,12.048,76.91,6,P-GPS,
0.347662421028788,36.8999698445127,5815.7255978486,102.362208,0,1.2052001698,18800,2018-04-05 05:07:38,14,0,16.616,5816.0536818486,102.690292,0.223694,1.8755249944,0,0,0,172.1, -3, 1.1,0,0,1024,1024,1024,1024,172.7,0,99,4.165,4.166,4.164,4.136,0,0,12.048,76.91,6,P-GPS,
0.347662439920367,36.8999698152558,5815.7255978486,102.362208,0,1.19340226916,18900,2018-04-05 05:07:38,14,0,16.616,5816.0536818486,102.690292,0.223694,1.8755249944,0,0,0,172.1, -3.1, 1,0,0,1024,1024,1024,1024,172.7,0,99,4.165,4.166,4.164,4.136,0,0,12.048,76.91,6,P-GPS,
0.347662452814386,36.8999697942571,5815.7255978486,102.362208,0,1.1849901954,19000,2018-04-05 05:07:38,14,0,16.616,5816.0536818486,102.690292,0.223694,1.8755249944,0,0,0,172, -3.1, 0.9,0,0,1024,1024,1024,1024,172.7,0,99,4.165,4.166,4.164,4.136,0,0,12.048,76.91,6,P-GPS,
0.347662493688331,36.8999697636176,5815.7255978486,102.362208,0,1.17128284588,19100,2018-04-05 05:07:38,14,0,16.616,5816.0536818486,102.690292,0.223694,1.8755249944,0,0,0,172, -3.1, 0.9,0,0,1024,1024,1024,1024,172.7,0,99,4.165,4.166,4.164,4.136,0,0,12.048,76.91,6,P-GPS,
0.347662524093008,36.8999697412052,5815.7255978486,102.362208,0,1.16130909228,19200,2018-04-05 05:07:38,14,0,16.616,5816.0536818486,102.690292,0.223694,1.8755249944,0,0,0,172, -3.2, 0.8,0,0,1024,1024,1024,1024,172.7,0,99,4.165,4.166,4.164,4.136,0,0,12.048,76.91,6,P-GPS,
0.34766258129129,36.8999696807736,5815.7255978486,102.362208,0,1.13617785788,19300,2018-04-05 05:07:38,14,0,16.536,5816.0536818486,102.690292,0.223694,1.8755249944,0,0,0,172, -3.2, 0.8,0,0,1024,1024,1024,1024,172.7,0,99,4.165,4.166,4.164,4.136,0,0,12.146,76.91,6,P-GPS,
0.347662622324821,36.8999696364127,5815.7255978486,102.362208,0,1.11794294916,19400,2018-04-05 05:07:38,14,0,16.536,5816.0536818486,102.690292,0.223694,1.8755249944,0,0,0,172, -3.2, 0.7,0,0,1024,1024,1024,1024,172.7,0,99,4.165,4.166,4.164,4.136,0,0,12.146,76.91,6,P-GPS,
0.347662649047587,36.8999695650487,5815.7255978486,102.362208,0,1.09079399816,19500,2018-04-05 05:07:38,14,0,16.536,5816.0536818486,102.690292,0.223694,1.8755249944,0,0,0,172, -3.2, 0.7,0,0,1220,1024,1024,1024,172.7,0,99,4.165,4.166,4.164,4.136,0,0,12.146,76.91,6,P-GPS,
0.347662667194153,36.8999695100253,5815.7255978486,102.362208,0,1.07000331508,19600,2018-04-05 05:07:39,14,0,16.536,5816.0536818486,102.690292,0.223694,1.8755249944,0,0,0,172, -3.2, 0.6,0,0,1469,1024,1024,1024,172.7,0,99,4.165,4.166,4.164,4.136,0,0,12.146,76.91,6,P-GPS,
0.347662672269199,36.8999694392094,5815.7255978486,102.362208,0,1.04415357672,19700,2018-04-05 05:07:39,15,0,16.536,5816.0536818486,102.690292,0.223694,1.8755249944,0,0,0,172, -4.5, 0.6,0,0,1640,1024,1024,1024,172.7,0,99,4.165,4.166,4.164,4.136,0,0,12.146,76.91,6,P-GPS,
0.347662685108665,36.8999693806878,5815.7255978486,102.362208,0,1.02236551828,19800,2018-04-05 05:07:39,15,0,16.536,5816.0536818486,102.690292,0.223694,1.8755249944,0,0,0,171.9, -12.8, 0.6,0,0,1684,1024,1024,1024,172.7,0,99,4.165,4.166,4.164,4.136,0,0,12.146,76.91,6,P-GPS,
0.347662635020985,36.899969355337,5815.7255978486,102.362208,0.447388,1.01584320836,19900,2018-04-05 05:07:39,15,0,16.536,5816.0536818486,102.690292,0.447388,1.8755249944,-0.447388,0,0,171.8, -25.4, 0.8,0,0,1684,1024,1024,1024,172.7,0,99,4.165,4.166,4.164,4.136,0,0,12.146,76.91,6,P-GPS,
0.34766226092913,36.8999693823504,5815.7255978486,102.362208,1.565858,1.05496394452,20000,2018-04-05 05:07:39,15,0,16.536,5816.0536818486,102.690292,1.565858,1.8755249944,-1.565858,0,0,171.7, -30.9, 1,0,0,1684,1024,1024,1024,172.7,0,99,4.165,4.166,4.164,4.136,0,0,12.146,76.91,6,P-GPS,
0.347661336369466,36.8999694879774,5815.7255978486,102.362208,2.684328,1.2261647374,20100,2018-04-05 05:07:39,15,0,16.536,5816.0536818486,102.690292,2.684328,1.8755249944,-2.684328,0.223694,0,171.8, -30, 0.7,0,0,1684,1024,1024,1024,172.7,0,99,4.165,4.166,4.164,4.136,0,0,12.146,76.91,6,P-GPS,
0.347659949915504,36.8999696559212,5815.7255978486,102.362208,3.8251674,1.59026579892,20200,2018-04-05 05:07:39,15,0,16.536,5816.0536818486,102.690292,3.8251674,1.8755249944,-3.802798,0.447388,0,171.9, -28.7, 0.5,0,0,1684,1024,1024,1024,172.7,0,99,4.165,4.166,4.164,4.136,0,0,12.146,76.91,6,P-GPS,
0.347657997486468,36.8999698980453,5815.7255978486,102.362208,4.9660068,2.20418970308,20300,2018-04-05 05:07:39,15,0,16.589,5816.0536818486,102.690292,4.9660068,2.20418970308,-4.921268,0.671082,0,171.9, -27.4, 0.4,0,0,1684,1024,1024,1024,172.7,0,99,4.162,4.163,4.161,4.134,0,0,12.146,76.91,6,P-GPS,
0.34765571555848,36.899970193178,5815.7255978486,102.362208,5.8607828,2.98306439992,20400,2018-04-05 05:07:39,15,0,16.589,5816.0536818486,102.690292,5.8607828,2.98306439992,-5.816044,0.671082,-0.223694,171.9, -26, 0.3,0,0,1684,1024,1024,1024,172.6,0,99,4.162,4.163,4.161,4.134,0,0,12.146,76.91,6,P-GPS,
0.34765295858376,36.8999705414525,5815.7255978486,102.362208,6.5542342,3.956200914,20500,2018-04-05 05:07:39,15,0,16.589,5816.0536818486,102.690292,6.5542342,3.956200914,-6.487126,0.894776,-0.223694,172, -25, 0.4,0,0,1684,1024,1024,1024,172.6,0,99,4.162,4.163,4.161,4.134,0,0,12.146,76.91,6,P-GPS,
0.347649970384446,36.8999709379463,5816.0536818486,102.690292,7.4266408,5.031332182,20600,2018-04-05 05:07:40,15,0,16.589,5816.0536818486,102.690292,7.4266408,5.031332182,-7.381902,0.894776,-0.223694,172, -24.3, 0.4,0,0,1684,1024,1024,1024,172.6,0,99,4.162,4.163,4.161,4.134,0,0,12.146,76.91,6,P-GPS,
0.347646690048894,36.8999713971997,5816.0536818486,102.690292,8.1200922,6.2239503304,20700,2018-04-05 05:07:40,15,0,16.589,5816.0536818486,102.690292,8.1200922,6.2239503304,-8.052984,1.11847,0,171.9, -23.9, 0.4,0,0,1684,1024,1024,1024,172.6,0,99,4.162,4.163,4.161,4.134,0,0,12.146,76.91,6,P-GPS,
0.34764319691683,36.8999718933123,5816.0536818486,102.690292,8.7911742,7.5001970904,20800,2018-04-05 05:07:40,15,0,16.589,5816.0536818486,102.690292,8.7911742,7.5001970904,-8.724066,1.11847,0,171.9, -23.9, 0.4,0,0,1684,1024,1024,1024,172.6,0,99,4.162,4.163,4.161,4.134,0,0,12.146,76.91,6,P-GPS,
0.347639451822955,36.8999723967991,5816.0536818486,102.690292,9.2385622,8.8695540896,20900,2018-04-05 05:07:40,15,0,16.589,5816.0536818486,102.690292,9.2385622,8.8695540896,-9.171454,1.11847,0,171.9, -23.9, 0.5,0,0,1684,1024,1024,1300,172.6,0,99,4.162,4.163,4.161,4.134,0,0,12.146,76.91,6,P-GPS,
0.347635477627364,36.8999729404473,5816.0536818486,102.690292,9.9320136,10.3261814328,21000,2018-04-05 05:07:40,15,0,16.589,5816.0536818486,102.690292,9.9320136,10.3261814328,-9.842536,1.342164,0,171.9, -24, 0.5,0,0,1684,1024,1024,1093,173.2,0,99,4.162,4.163,4.161,4.134,0,0,12.146,76.91,6,P-GPS,
0.347631335536755,36.8999734532826,5816.0536818486,102.690292,10.6030956,11.8419623212,21100,2018-04-05 05:07:40,15,0,16.589,5816.0536818486,102.690292,10.6030956,11.8419623212,-10.513618,1.342164,0,173.2, -24.2, 0.3,0,0,1684,1024,1024,1024,174.7,0,99,4.162,4.163,4.161,4.134,0,0,12.146,76.91,6,P-GPS,
0.347626939044111,36.8999740192154,5816.3817658486,103.018376,11.2741776,13.4541670972,21200,2018-04-05 05:07:40,15,0,16.589,5816.3817658486,103.018376,11.2741776,13.4541670972,-11.1847,1.342164,0,176.4, -24.6, 0.2,0,0,1684,1024,1024,1024,174.9,0,99,4.162,4.163,4.161,4.134,0,0,12.146,76.91,6,P-GPS,
0.347622201123756,36.8999745708557,5816.3817658486,103.018376,11.2741776,15.1887143968,21300,2018-04-05 05:07:40,15,0,16.456,5816.3817658486,103.018376,11.2741776,15.1887143968,-11.632088,1.342164,0,176.6, -24.6, 0,0,0,1684,1024,1024,1024,175.1,0,99,4.156,4.154,4.149,4.113,0,0,12.256,76.91,6,P-GPS,
0.34761722125082,36.8999751566405,5816.3817658486,103.018376,12.3702782,17.0134847964,21400,2018-04-05 05:07:40,15,0,16.456,5816.3817658486,103.018376,12.3702782,17.0134847964,-12.30317,1.342164,0,176.6, -24.6, 0,0,0,1684,1024,1024,1024,175.3,0,99,4.156,4.154,4.149,4.113,0,0,12.256,76.91,6,P-GPS,
0.347611990828749,36.899975727421,5816.3817658486,103.018376,13.0413602,18.9281830204,21500,2018-04-05 05:07:40,15,0,16.456,5816.3817658486,103.018376,13.0413602,18.9281830204,-12.974252,1.342164,0,176.5, -24.6, 0.1,0,0,1684,1024,1024,1024,175.4,0,99,4.156,4.154,4.149,4.113,0,0,12.256,76.91,6,P-GPS,
0.347600780460686,36.8999768923005,5816.7098498486,103.34646,14.1821996,23.0312343328,21700,2018-04-05 05:07:41,15,0,16.456,5816.7098498486,103.34646,14.1821996,23.0312343328,-14.092722,1.565858,0,176.4, -24.8, 0.3,0,0,1684,1024,1024,1024,175.5,0,99,4.156,4.154,4.149,4.113,0,0,12.256,76.91,6,P-GPS,
0.347594821160109,36.8999774867958,5816.7098498486,103.34646,14.8532816,25.2121727228,21800,2018-04-05 05:07:41,15,0,16.456,5816.7098498486,103.34646,14.8532816,25.2121727228,-14.763804,1.565858,0,176.4, -24.8, 0.3,0,0,1684,1024,1024,1024,175.6,0,99,4.156,4.154,4.149,4.113,0,0,12.256,76.91,6,P-GPS,
