latitude,longitude,altitude(feet),ascent(feet),speed(mph),distance(feet),time(millisecond),datetime(utc),satellites,voltage(v),max_altitude(feet),max_ascent(feet),max_speed(mph),max_distance(feet),compass_heading(degrees), pitch(degrees), roll(degrees),isPhoto,isVideo,rc_elevator,rc_aileron,rc_throttle,rc_rudder,gimbal_heading(degrees),gimbal_pitch(degrees),battery_percent,voltageCell1,voltageCell2,voltageCell3,voltageCell4,voltageCell5,voltageCell6,battery_temperature(f),flycStateRaw,flycState,message
0.0697281862901696,36.9622651754465,5915.6761161389,0,0,0,100,2017-11-03 05:39:32,16,0,5915.6761161389,0,0,0,261.1, 0.6, 0.4,0,0,364,364,364,1684,265.6,0,98,4.283,4.283,4.281,4.28,0,0,78.71,41,Motors_Started,
0.0697281871791983,36.9622651770239,5915.6761161389,0,0,0.00066065290828,200,2017-11-03 05:39:32,16,0,5915.6761161389,0,0,0.00066065290828,261.1, 0.6, 0.4,0,0,364,364,364,1684,265.6,0,98,4.283,4.283,4.281,4.28,0,0,78.71,41,Motors_Started,
0.0697281873140538,36.962265174332,5915.6761161389,0,0,0.00055216209116,300,2017-11-03 05:39:32,16,0,5915.6761161389,0,0,0.00066065290828,261.1, 0.6, 0.4,0,0,364,364,364,1684,265.6,0,98,4.283,4.283,4.281,4.28,0,0,78.71,41,Motors_Started,
0.069728187922583,36.9622651731648,5915.6761161389,0,0,0.00102357614824,400,2017-11-03 05:39:32,16,0,5915.6761161389,0,0,0.00102357614824,261, 0.6, 0.5,0,0,364,364,364,1684,265.6,0,98,4.283,4.283,4.281,4.28,0,0,78.71,41,Motors_Started,
0.0697281887933934,36.9622651687396,5915.6761161389,0,0,0.00261187344316,500,2017-11-03 05:39:32,16,0,5915.6761161389,0,0,0.00261187344316,261.1, 0.6, 0.5,0,0,364,364,364,1684,265.6,0,98,4.283,4.283,4.281,4.28,0,0,78.71,41,Motors_Started,
0.0697281900599157,36.9622651661062,5915.6761161389,0,0,0.003674868884,600,2017-11-03 05:39:32,16,0,5915.6761161389,0,0,0.003674868884,261.1, 0.6, 0.5,0,0,364,364,364,1684,265.6,0,98,4.283,4.283,4.281,4.28,0,0,78.71,41,Motors_Started,
0.0697281913039451,36.9622651614659,5915.6761161389,0,0,0.0054188978112,700,2017-11-03 05:39:32,16,0,5915.6761161389,0,0,0.0054188978112,261.1, 0.6, 0.5,0,0,364,364,364,1684,265.6,0,98,4.283,4.283,4.281,4.28,0,0,78.71,41,Motors_Started,
0.0697281933168037,36.9622651596253,5915.6761161389,0,0,0.0063160435092,800,2017-11-03 05:39:33,16,17.103,5915.6761161389,0,0,0.0063160435092,261.1, 0.6, 0.5,0,0,364,364,364,1684,265.6,0,98,4.283,4.283,4.281,4.28,0,0,78.71,41,Motors_Started,
0.0697281963484575,36.9622651555362,5915.6761161389,0,0,0.0081385501292,900,2017-11-03 05:39:33,16,17.103,5915.6761161389,0,0,0.0081385501292,261.1, 0.7, 0.7,0,0,364,364,364,1684,265.6,0,98,4.283,4.283,4.281,4.28,0,0,78.71,41,Motors_Started,
0.069728201338417,36.9622651813068,5915.6761161389,0,0,0.0058919949392,1000,2017-11-03 05:39:33,16,17.103,5915.6761161389,0,0,0.0081385501292,261.1, 0.8, 0.8,0,0,364,364,364,1684,265.6,0,98,4.283,4.283,4.281,4.28,0,0,78.71,41,Motors_Started,
0.0697282042160811,36.9622652072127,5915.6761161389,0,0,0.01330790725,1100,2017-11-03 05:39:33,16,17.103,5915.6761161389,0,0,0.01330790725,261.1, 0.7, 0.6,0,0,364,364,364,1684,265.6,0,98,4.283,4.283,4.281,4.28,0,0,78.71,41,Motors_Started,
0.0697282247099471,36.9622652343656,5915.6761161389,0,0,0.025663058564,1200,2017-11-03 05:39:33,16,17.103,5915.6761161389,0,0,0.025663058564,261.1, 0.7, 0.7,0,0,364,364,364,1684,265.6,0,98,4.283,4.283,4.281,4.28,0,0,78.71,41,Motors_Started,
0.0697282560206505,36.9622652511278,5915.6761161389,0,0,0.03754593296,1300,2017-11-03 05:39:33,16,17.103,5915.6761161389,0,0,0.03754593296,261.1, 0.7, 0.7,0,0,364,364,364,1684,265.6,0,98,4.283,4.283,4.281,4.28,0,0,78.71,41,Motors_Started,
0.0697282630123748,36.9622652683092,5915.6761161389,0,0,0.04394849222,1400,2017-11-03 05:39:33,16,17.103,5915.6761161389,0,0,0.04394849222,261.1, 0.8, 0.9,0,0,393,381,364,1682,265.6,0,98,4.283,4.283,4.281,4.28,0,0,78.71,41,Motors_Started,
0.0697282546929597,36.9622652770386,5915.6761161389,0,0,0.044684712716,1500,2017-11-03 05:39:33,16,17.103,5915.6761161389,0,0,0.044684712716,261.1, 0.7, 0.8,0,0,571,519,483,1586,265.6,0,98,4.283,4.283,4.281,4.28,0,0,78.71,10,Assisted_Takeoff,
0.0697282547388615,36.9622652829187,5915.6761161389,0,0,0.046488518548,1600,2017-11-03 05:39:33,16,17.103,5915.6761161389,0,0,0.046488518548,261, 0.6, 0.7,0,0,595,564,533,1521,265.5,0,98,4.283,4.283,4.281,4.28,0,0,78.71,10,Assisted_Takeoff,
0.0697282784545021,36.9622652864329,5915.6761161389,0,0,0.052634844204,1700,2017-11-03 05:39:33,16,17.077,5915.6761161389,0,0,0.052634844204,261, 0.6, 0.6,0,0,1023,997,945,1228,264.8,0,98,4.282,4.282,4.281,4.28,0,0,78.71,10,Assisted_Takeoff,
0.0697283099807707,36.9622652858077,5915.6761161389,0,0,0.060480316896,1900,2017-11-03 05:39:34,16,17.077,5915.6761161389,0,0,0.060480316896,261, 0.6, 0.6,0,0,1024,1024,1024,1143,264.1,0,98,4.282,4.282,4.281,4.28,0,0,78.71,10,Assisted_Takeoff,
0.0697283191201073,36.9622652843985,5915.6761161389,0,0,0.062680120116,2000,2017-11-03 05:39:34,16,17.077,5915.6761161389,0,0,0.062680120116,261, 0.6, 0.6,0,0,1024,1024,1024,1024,263.5,0,98,4.282,4.282,4.281,4.28,0,0,78.71,10,Assisted_Takeoff,
0.0697283254972976,36.9622652807265,5915.6761161389,0,0,0.063679135896,2100,2017-11-03 05:39:34,16,17.077,5915.6761161389,0,0,0.063679135896,261, 0.6, 0.6,0,0,1024,1024,1024,1024,262.8,0,98,4.282,4.282,4.281,4.28,0,0,78.71,10,Assisted_Takeoff,
0.069728327923272,36.9622652780321,5915.6761161389,0,0,0.06380577632,2200,2017-11-03 05:39:34,16,17.077,5915.6761161389,0,0,0.06380577632,261, 0.6, 0.6,0,0,1024,1024,1024,1024,262.4,0,98,4.282,4.282,4.281,4.28,0,0,78.71,10,Assisted_Takeoff,
0.0697283293276014,36.9622652734974,5915.6761161389,0,0,0.063271327484,2300,2017-11-03 05:39:34,16,17.077,5915.6761161389,0,0,0.06380577632,261, 0.6, 0.5,0,0,1024,1024,1024,1024,262.1,0,98,4.282,4.282,4.281,4.28,0,0,78.71,10,Assisted_Takeoff,
0.0697283263370658,36.9622652704067,5915.6761161389,0,0,0.061734582028,2400,2017-11-03 05:39:34,16,17.077,5915.6761161389,0,0,0.06380577632,261, 0.6, 0.6,0,0,1024,1024,1024,1024,262,0,98,4.282,4.282,4.281,4.28,0,0,78.71,10,Assisted_Takeoff,
0.0697283252375608,36.9622652660762,5915.6761161389,0,0,0.060525592488,2500,2017-11-03 05:39:34,16,17.077,5915.6761161389,0,0,0.06380577632,261, 0.6, 0.6,0,0,1024,1024,1024,1024,261.9,0,98,4.282,4.282,4.281,4.28,0,0,78.71,10,Assisted_Takeoff,
0.0697283205633158,36.9622652640954,5915.6761161389,0,0,0.058703085868,2600,2017-11-03 05:39:34,16,17.077,5915.6761161389,0,0,0.06380577632,261, 0.6, 0.6,0,0,1024,1024,1024,1024,261.8,0,98,4.282,4.282,4.281,4.28,0,0,78.71,10,Assisted_Takeoff,
0.0697283174837247,36.9622652610392,5915.6761161389,0,0,0.057151904716,2700,2017-11-03 05:39:34,16,17.077,5915.6761161389,0,0,0.06380577632,261, 0.6, 0.6,0,0,1024,1024,1024,1024,261.7,0,98,4.282,4.282,4.281,4.28,0,0,78.71,10,Assisted_Takeoff,
0.0697283125550354,36.9622652599421,5915.6761161389,0,0,0.055431104136,2800,2017-11-03 05:39:35,17,17.05,5915.6761161389,0,0,0.06380577632,261, 0.6, 0.5,0,0,1024,1024,1024,1024,261.7,0,98,4.272,4.268,4.273,4.266,0,0,78.71,10,Assisted_Takeoff,
0.0697283085405138,36.9622652580269,5915.6761161389,0,0,0.053825789124,2900,2017-11-03 05:39:35,17,17.05,5915.6761161389,0,0,0.06380577632,261, 0.6, 0.5,0,0,1024,1024,1024,1024,261.6,0,98,4.272,4.268,4.273,4.266,0,0,78.71,10,Assisted_Takeoff,
0.0697283017300557,36.9622652596801,5915.6761161389,0,0,0.052138453112,3000,2017-11-03 05:39:35,17,17.05,5915.6761161389,0,0,0.06380577632,261, 0.6, 0.5,0,0,1024,1024,1024,1024,261.6,0,98,4.272,4.268,4.273,4.266,0,0,78.71,10,Assisted_Takeoff,
0.0697282979212269,36.9622652570976,5915.6761161389,0,0,0.050460631536,3100,2017-11-03 05:39:35,17,17.05,5915.6761161389,0,0,0.06380577632,261, 0.6, 0.5,0,0,1024,1024,1024,1024,261.6,0,98,4.272,4.268,4.273,4.266,0,0,78.71,10,Assisted_Takeoff,
0.0697282939804942,36.9622652577616,5915.6761161389,0,0,0.049454397908,3200,2017-11-03 05:39:35,17,17.05,5915.6761161389,0,0,0.06380577632,261, 0.6, 0.5,0,0,1024,1024,1024,1024,261.5,0,98,4.272,4.268,4.273,4.266,0,0,78.71,10,Assisted_Takeoff,
0.0697282913026199,36.9622652549019,5915.6761161389,0,0,0.048044949044,3300,2017-11-03 05:39:35,17,17.05,5915.6761161389,0,0,0.06380577632,261, 0.6, 0.5,0,0,1024,1024,1024,1024,261.5,0,98,4.272,4.268,4.273,4.266,0,0,78.71,10,Assisted_Takeoff,
0.0697282886009295,36.962265255268,5915.6761161389,0,0,0.047344817788,3400,2017-11-03 05:39:35,17,17.05,5915.6761161389,0,0,0.06380577632,261, 0.6, 0.5,0,0,1024,1024,1024,1024,261.5,0,98,4.272,4.268,4.273,4.266,0,0,78.71,10,Assisted_Takeoff,
0.06972828683763,36.9622652523213,5915.6761161389,0,0,0.046178479168,3500,2017-11-03 05:39:35,17,17.05,5915.6761161389,0,0,0.06380577632,261, 0.6, 0.5,0,0,1024,1024,1024,1024,261.5,0,98,4.272,4.268,4.273,4.266,0,0,78.71,10,Assisted_Takeoff,
0.0697282853312175,36.9622652524612,5915.6761161389,0,0,0.04577427968,3600,2017-11-03 05:39:35,17,17.05,5915.6761161389,0,0,0.06380577632,261, 0.6, 0.5,0,0,1024,1024,1024,1024,261.5,0,98,4.272,4.268,4.273,4.266,0,0,78.71,10,Assisted_Takeoff,
0.0697282843266711,36.962265249356,5915.6761161389,0,0,0.044794620856,3700,2017-11-03 05:39:36,17,17.05,5915.6761161389,0,0,0.06380577632,261, 0.6, 0.5,0,0,1024,1024,1024,1024,261.4,0,98,4.272,4.268,4.273,4.266,0,0,78.71,10,Assisted_Takeoff,
0.0697282839468366,36.9622652740544,5915.6761161389,0,0,0.050634516056,3800,2017-11-03 05:39:36,17,17.077,5915.6761161389,0,0,0.06380577632,261, 0.6, 0.5,0,0,1024,1024,1024,1024,261.4,0,98,4.276,4.275,4.274,4.273,0,0,78.71,10,Assisted_Takeoff,
0.069728283893505,36.9622653010529,5915.6761161389,0,0,0.058036747264,3900,2017-11-03 05:39:36,17,17.077,5915.6761161389,0,0,0.06380577632,261, 0.6, 0.5,0,0,1024,1024,1024,1024,261.4,0,98,4.276,4.275,4.274,4.273,0,0,78.71,10,Assisted_Takeoff,
0.0697282842459614,36.9622653328312,5915.6761161389,0,0,0.067635172768,4000,2017-11-03 05:39:36,17,17.077,5915.6761161389,0,0,0.067635172768,261, 0.6, 0.5,0,0,1024,1024,1024,1024,261.4,0,98,4.276,4.275,4.274,4.273,0,0,78.71,10,Assisted_Takeoff,
0.0697282842928809,36.962265348283,5915.6761161389,0,0,0.072491144052,4100,2017-11-03 05:39:36,17,17.077,5915.6761161389,0,0,0.072491144052,261, 0.6, 0.5,0,0,1024,1024,1024,1024,261.4,0,98,4.276,4.275,4.274,4.273,0,0,78.71,10,Assisted_Takeoff,
0.0697282848876701,36.9622653638681,5915.6761161389,0,0,0.077588913244,4200,2017-11-03 05:39:36,17,17.077,5915.6761161389,0,0,0.077588913244,261, 0.5, 0.5,0,0,1024,1024,1024,1024,261.4,0,98,4.276,4.275,4.274,4.273,0,0,78.71,10,Assisted_Takeoff,
0.0697282847610586,36.9622653705322,5915.6761161389,0,0,0.079730317512,4300,2017-11-03 05:39:36,17,17.077,5915.6761161389,0,0,0.079730317512,261, 0.6, 0.5,0,0,1024,1024,1024,1024,261.4,0,98,4.276,4.275,4.274,4.273,0,0,78.71,10,Assisted_Takeoff,
0.0697282855429152,36.9622653770201,5915.6761161389,0,0,0.081976052492,4400,2017-11-03 05:39:36,17,17.077,5915.6761161389,0,0,0.081976052492,261, 0.5, 0.5,0,0,1024,1024,1024,1024,261.4,0,98,4.276,4.275,4.274,4.273,0,0,78.71,10,Assisted_Takeoff,
0.0697282865610998,36.9622653782368,5915.6761161389,0,0,0.082538388468,4500,2017-11-03 05:39:36,17,17.077,5915.6761161389,0,0,0.082538388468,261, 0.6, 0.5,0,0,1024,1024,1024,1024,261.4,0,98,4.276,4.275,4.274,4.273,0,0,78.71,10,Assisted_Takeoff,
0.0697282876842173,36.9622653782127,5915.6761161389,0,0,0.082712929156,4600,2017-11-03 05:39:36,17,17.077,5915.6761161389,0,0,0.082712929156,261, 0.6, 0.5,0,0,1024,1024,1024,1024,261.4,0,98,4.276,4.275,4.274,4.273,0,0,78.71,10,Assisted_Takeoff,
0.0697282888351201,36.9622653750486,5915.6761161389,0,0,0.081873034116,4700,2017-11-03 05:39:37,17,17.077,5915.6761161389,0,0,0.082712929156,261, 0.6, 0.5,0,0,1024,1024,1024,1024,261.4,0,98,4.276,4.275,4.274,4.273,0,0,78.71,10,Assisted_Takeoff,
0.0697282894100626,36.962265372191,5915.6761161389,0,0,0.081044293932,4800,2017-11-03 05:39:37,17,17.077,5915.6761161389,0,0,0.082712929156,261, 0.5, 0.5,0,0,1024,1024,1024,1024,261.4,0,98,4.276,4.275,4.274,4.273,0,0,78.71,10,Assisted_Takeoff,
0.0697282898365114,36.9622653658045,5915.6761161389,0,0,0.079062010404,4900,2017-11-03 05:39:37,17,17.077,5915.6761161389,0,0,0.082712929156,261, 0.6, 0.5,0,0,1024,1024,1024,1024,261.4,0,98,4.276,4.275,4.274,4.273,0,0,78.71,10,Assisted_Takeoff,
0.0697282890780636,36.9622653612393,5915.6761161389,0,0,0.0774688345,5000,2017-11-03 05:39:37,17,17.077,5915.6761161389,0,0,0.082712929156,261, 0.6, 0.5,0,0,1024,1024,1108,1024,261.4,0,98,4.276,4.275,4.274,4.273,0,0,78.71,10,Assisted_Takeoff,
0.0697282881740736,36.9622653539292,5915.6761161389,0,0,0.07498195778,5100,2017-11-03 05:39:37,17,17.077,5915.6761161389,0,0,0.082712929156,261, 0.5, 0.5,0,0,1024,1024,1125,1024,261.4,0,98,4.276,4.275,4.274,4.273,0,0,78.71,10,Assisted_Takeoff,
0.0697282870628641,36.9622653501814,5915.6761161389,0,0,0.07359416246,5200,2017-11-03 05:39:37,17,17.077,5915.6761161389,0,0,0.082712929156,261, 0.6, 0.5,0,0,1024,1024,1024,1024,261.4,0,98,4.276,4.275,4.274,4.273,0,0,78.71,10,Assisted_Takeoff,
0.0697282866450665,36.9622653434028,5915.6761161389,0,0,0.071384188636,5300,2017-11-03 05:39:37,17,17.077,5915.6761161389,0,0,0.082712929156,261, 0.5, 0.6,0,0,1024,1024,1024,1024,261.4,0,98,4.276,4.275,4.274,4.273,0,0,78.71,10,Assisted_Takeoff,
0.0697282858956769,36.9622653422926,5915.6761161389,0,0,0.070896327728,5400,2017-11-03 05:39:37,17,17.077,5915.6761161389,0,0,0.082712929156,261, 0.5, 0.5,0,0,1024,1024,1024,1024,261.4,0,98,4.276,4.275,4.274,4.273,0,0,78.71,10,Assisted_Takeoff,
0.0697282829573533,36.9622653361508,5915.6761161389,0,0,0.068422902452,5500,2017-11-03 05:39:37,17,17.077,5915.6761161389,0,0,0.082712929156,261, 0.5, 0.6,0,0,1024,1024,1024,1024,261.4,0,98,4.276,4.275,4.274,4.273,0,0,78.71,10,Assisted_Takeoff,
0.0697282809755369,36.9622653356414,5915.6761161389,0,0,0.067893046792,5600,2017-11-03 05:39:37,17,17.077,5915.6761161389,0,0,0.082712929156,261, 0.6, 0.5,0,0,1024,1024,1024,1024,261.4,0,98,4.276,4.275,4.274,4.273,0,0,78.71,10,Assisted_Takeoff,
0.0697282781596519,36.9622653306039,5915.6761161389,0,0,0.065788059848,5700,2017-11-03 05:39:37,17,17.077,5915.6761161389,0,0,0.082712929156,261, 0.6, 0.5,0,0,1024,1024,1024,1024,261.4,0,98,4.276,4.275,4.274,4.273,0,0,78.71,10,Assisted_Takeoff,
0.0697282765794506,36.9622653312786,5915.6761161389,0,0,0.065708991604,5800,2017-11-03 05:39:38,17,17.077,5915.6761161389,0,0,0.082712929156,261, 0.6, 0.5,0,0,1024,1024,1024,1024,261.3,0,98,4.276,4.276,4.275,4.273,0,0,78.71,10,Assisted_Takeoff,
0.0697282745397227,36.9622653261888,5915.6761161389,0,0,0.063729988916,5900,2017-11-03 05:39:38,17,17.077,5915.6761161389,0,0,0.082712929156,261, 0.5, 0.5,0,0,1024,1024,1024,1024,261.3,0,98,4.276,4.276,4.275,4.273,0,0,78.71,10,Assisted_Takeoff,
0.0697282738608651,36.9622653274093,5915.6761161389,0,0,0.063990487612,6000,2017-11-03 05:39:38,17,17.077,5915.6761161389,0,0,0.082712929156,261, 0.5, 0.5,0,0,1024,1024,1024,1024,261.3,0,98,4.276,4.276,4.275,4.273,0,0,78.71,10,Assisted_Takeoff,
0.0697282723204589,36.9622653230057,5915.6761161389,0,0,0.062318571548,6100,2017-11-03 05:39:38,17,17.077,5915.6761161389,0,0,0.082712929156,261, 0.6, 0.5,0,0,1024,1024,1024,1024,261.4,0,98,4.276,4.276,4.275,4.273,0,0,78.71,10,Assisted_Takeoff,
0.0697282724721077,36.9622653242768,5915.6761161389,0,0,0.062747377336,6200,2017-11-03 05:39:38,17,17.077,5915.6761161389,0,0,0.082712929156,261, 0.5, 0.5,0,0,1024,1024,1024,1024,261.4,0,98,4.276,4.276,4.275,4.273,0,0,78.71,10,Assisted_Takeoff,
0.0697282714028307,36.9622653199519,5915.6761161389,0,0,0.061188322168,6300,2017-11-03 05:39:38,17,17.077,5915.6761161389,0,0,0.082712929156,261, 0.6, 0.5,0,0,1024,1024,1024,1024,261.3,0,98,4.276,4.276,4.275,4.273,0,0,78.71,10,Assisted_Takeoff,
0.0697282714834386,36.9622653221675,5915.6761161389,0,0,0.061900920616,6400,2017-11-03 05:39:38,17,17.077,5915.6761161389,0,0,0.082712929156,261, 0.5, 0.5,0,0,1024,1024,1024,1024,261.3,0,98,4.276,4.276,4.275,4.273,0,0,78.71,10,Assisted_Takeoff,
0.0697282693605583,36.96226531875,5915.6761161389,0,0,0.060433728968,6500,2017-11-03 05:39:38,17,17.077,5915.6761161389,0,0,0.082712929156,261, 0.5, 0.5,0,0,1024,1024,1024,1024,261.3,0,98,4.276,4.276,4.275,4.273,0,0,78.71,10,Assisted_Takeoff,
0.0697282680183134,36.9622653211215,5915.6761161389,0,0,0.060942587252,6600,2017-11-03 05:39:38,17,17.077,5915.6761161389,0,0,0.082712929156,261, 0.5, 0.5,0,0,1024,1024,1024,1024,261.3,0,98,4.276,4.276,4.275,4.273,0,0,78.71,10,Assisted_Takeoff,
0.0697282651953039,36.9622653192317,5915.6761161389,0,0,0.059839896928,6700,2017-11-03 05:39:38,17,17.077,5915.6761161389,0,0,0.082712929156,261, 0.5, 0.5,0,0,1024,1024,1024,1024,261.3,0,98,4.276,4.276,4.275,4.273,0,0,78.71,10,Assisted_Takeoff,
0.0697282641555424,36.962265323416,5915.6761161389,0,0,0.061005251296,6800,2017-11-03 05:39:39,18,17.05,5915.6761161389,0,0,0.082712929156,261, 0.5, 0.5,0,0,1024,1024,1024,1024,261.3,0,98,4.273,4.274,4.273,4.274,0,0,78.71,10,Assisted_Takeoff,
0.0697282615904378,36.9622653212353,5915.6761161389,0,0,0.0598671279,6900,2017-11-03 05:39:39,18,17.05,5915.6761161389,0,0,0.082712929156,261, 0.5, 0.5,0,0,1024,1024,1024,1024,261.3,0,98,4.273,4.274,4.273,4.274,0,0,78.71,10,Assisted_Takeoff,
0.0697282617275324,36.9622653255047,5915.6761161389,0,0,0.061277561016,7000,2017-11-03 05:39:39,18,17.05,5915.6761161389,0,0,0.082712929156,261, 0.5, 0.5,0,0,1024,1024,1024,1024,261.3,0,98,4.273,4.274,4.273,4.274,0,0,78.71,10,Assisted_Takeoff,
0.069728259831413,36.9622653217679,5915.6761161389,0,0,0.059748689576,7100,2017-11-03 05:39:39,18,17.05,5915.6761161389,0,0,0.082712929156,261, 0.5, 0.5,0,0,1024,1024,1024,1024,261.3,0,98,4.273,4.274,4.273,4.274,0,0,78.71,10,Assisted_Takeoff,
0.0697282613267317,36.962265324572,5915.6761161389,0,0,0.060907810348,7200,2017-11-03 05:39:39,18,17.05,5915.6761161389,0,0,0.082712929156,261, 0.6, 0.5,0,1,1024,1024,1024,1024,261.3,0,98,4.273,4.274,4.273,4.274,0,0,78.71,10,Assisted_Takeoff,
0.0697282607716358,36.962265320814,5915.6761161389,0,0,0.059593505844,7300,2017-11-03 05:39:39,18,17.05,5915.6761161389,0,0,0.082712929156,261, 0.5, 0.5,0,1,1024,1024,1024,1024,261.3,0,98,4.273,4.274,4.273,4.274,0,0,78.71,10,Assisted_Takeoff,
0.069728263192216,36.9622653231875,5915.6761161389,0,0,0.060768374648,7400,2017-11-03 05:39:39,18,17.05,5915.6761161389,0,0,0.082712929156,261, 0.5, 0.5,0,1,1024,1024,1024,1024,261.3,0,98,4.273,4.274,4.273,4.274,0,0,78.71,10,Assisted_Takeoff,
0.0697282632083987,36.9622653191504,5915.6761161389,0,0,0.05946850584,7500,2017-11-03 05:39:39,18,17.05,5915.6761161389,0,0,0.082712929156,261, 0.5, 0.5,0,1,1024,1024,1024,1024,261.3,0,98,4.273,4.274,4.273,4.274,0,0,78.71,10,Assisted_Takeoff,
0.0697282652883288,36.9622653214887,5915.6761161389,0,0,0.060579398264,7600,2017-11-03 05:39:39,18,17.05,5915.6761161389,0,0,0.082712929156,261, 0.5, 0.5,0,1,1024,1024,1024,1024,261.3,0,98,4.273,4.274,4.273,4.274,0,0,78.71,10,Assisted_Takeoff,
0.0697282646459076,36.9622653171064,5915.6761161389,0,0,0.059063978268,7700,2017-11-03 05:39:39,18,17.05,5915.6761161389,0,0,0.082712929156,261, 0.5, 0.5,0,1,1024,1024,1024,1024,261.3,0,98,4.273,4.274,4.273,4.274,0,0,78.71,10,Assisted_Takeoff,
0.0697282382562602,36.9622652927835,5915.6761161389,0,0,0.04682086764,7800,2017-11-03 05:39:39,18,17.077,5915.6761161389,0,0,0.082712929156,261, 0.5, 0.5,0,1,1024,1024,1024,1024,261.3,0,98,4.276,4.275,4.274,4.273,0,0,78.71,10,Assisted_Takeoff,
0.0697282058733282,36.9622652590776,5915.6761161389,0,0,0.0313381243624,7900,2017-11-03 05:39:40,18,17.077,5915.6761161389,0,0,0.082712929156,261, 0.5, 0.5,0,1,1024,1024,1024,1024,261.3,0,98,4.276,4.275,4.274,4.273,0,0,78.71,10,Assisted_Takeoff,
0.069728176407143,36.962265232904,5915.6761161389,0,0,0.0212711949064,8000,2017-11-03 05:39:40,18,17.077,5915.6761161389,0,0,0.082712929156,261, 0.5, 0.5,0,1,1024,1024,1024,1024,261.3,0,98,4.276,4.275,4.274,4.273,0,0,78.71,10,Assisted_Takeoff,
0.0697281543062064,36.962265211287,5915.6761161389,0,0,0.0175261488548,8100,2017-11-03 05:39:40,18,17.077,5915.6761161389,0,0,0.082712929156,261, 0.5, 0.5,0,1,1024,1024,1024,1024,261.3,0,98,4.276,4.275,4.274,4.273,0,0,78.71,10,Assisted_Takeoff,
0.0697281381819646,36.9622652004384,5915.6761161389,0,0,0.0197793969584,8200,2017-11-03 05:39:40,18,17.077,5915.6761161389,0,0,0.082712929156,261, 0.5, 0.5,0,1,1024,1024,1024,1024,261.3,0,98,4.276,4.275,4.274,4.273,0,0,78.71,10,Assisted_Takeoff,
0.0697281241954627,36.9622651870338,5915.6761161389,0,0,0.0230462933884,8300,2017-11-03 05:39:40,18,17.077,5915.6761161389,0,0,0.082712929156,261, 0.5, 0.5,0,1,1024,1024,1024,1024,261.3,0,98,4.276,4.275,4.274,4.273,0,0,78.71,10,Assisted_Takeoff,
0.0697281184299567,36.9622651854349,5915.6761161389,0,0,0.0250255257352,8400,2017-11-03 05:39:40,18,17.077,5915.6761161389,0,0,0.082712929156,261, 0.5, 0.5,0,1,1024,1024,1024,1024,261.3,0,98,4.276,4.275,4.274,4.273,0,0,78.71,10,Assisted_Takeoff,
0.0697281113991498,36.9622651779326,5915.6761161389,0,0,0.0273390100612,8500,2017-11-03 05:39:40,18,17.077,5915.6761161389,0,0,0.082712929156,261, 0.5, 0.5,0,1,1024,1024,1024,1024,261.3,0,98,4.276,4.275,4.274,4.273,0,0,78.71,10,Assisted_Takeoff,
0.0697281095094423,36.9622651762566,5915.6761161389,0,0,0.0280149615264,8700,2017-11-03 05:39:40,18,17.077,5915.6761161389,0,0,0.082712929156,261, 0.5, 0.5,0,1,1024,1024,1024,1024,261.3,0,98,4.276,4.275,4.274,4.273,0,0,78.71,10,Assisted_Takeoff,
0.0697281158419521,36.962265184523,5915.6761161389,0,0,0.0259154535852,8800,2017-11-03 05:39:40,18,17.077,5915.6761161389,0,0,0.082712929156,261, 0.5, 0.5,0,1,1024,1024,1024,1024,261.3,0,98,4.276,4.275,4.274,4.273,0,0,78.71,10,Assisted_Takeoff,
0.0697281146912529,36.9622651808544,5915.6761161389,0,0,0.0261972449328,8900,2017-11-03 05:39:41,18,17.077,5915.6761161389,0,0,0.082712929156,261.1, 0.5, 0.5,0,1,1024,1024,1024,1024,261.3,0,98,4.276,4.275,4.274,4.273,0,0,78.71,10,Assisted_Takeoff,
0.0697281195349577,36.9622651865499,5915.6761161389,0,0,0.0246902238872,9000,2017-11-03 05:39:41,18,17.077,5915.6761161389,0,0,0.082712929156,261, 0.5, 0.5,0,1,1024,1024,1024,1024,261.3,0,98,4.276,4.275,4.274,4.273,0,0,78.71,10,Assisted_Takeoff,
0.0697281195468657,36.9622651853607,5915.6761161389,0,0,0.024618439108,9100,2017-11-03 05:39:41,18,17.077,5915.6761161389,0,0,0.082712929156,261, 0.5, 0.5,0,1,1024,1024,1024,1024,261.3,0,98,4.276,4.275,4.274,4.273,0,0,78.71,10,Assisted_Takeoff,
0.0697281253692655,36.9622651936245,5915.6761161389,0,0,0.0231953419496,9200,2017-11-03 05:39:41,18,17.077,5915.6761161389,0,0,0.082712929156,261, 0.5, 0.5,0,1,1024,1024,1024,1024,261.3,0,98,4.276,4.275,4.274,4.273,0,0,78.71,10,Assisted_Takeoff,
0.0697281243764235,36.9622651917202,5915.6761161389,0,0,0.023356464002,9300,2017-11-03 05:39:41,18,17.077,5915.6761161389,0,0,0.082712929156,261.1, 0.5, 0.5,0,1,1024,1024,1024,1024,261.3,0,98,4.276,4.275,4.274,4.273,0,0,78.71,10,Assisted_Takeoff,
0.0697281280538572,36.9622651963253,5915.6761161389,0,0,0.0225717526908,9400,2017-11-03 05:39:41,18,17.077,5915.6761161389,0,0,0.082712929156,261, 0.5, 0.5,0,1,1024,1024,1024,1024,261.3,0,98,4.276,4.275,4.274,4.273,0,0,78.71,10,Assisted_Takeoff,
0.0697281273833454,36.9622651948629,5915.6761161389,0,0,0.0226295282832,9500,2017-11-03 05:39:41,18,17.077,5915.6761161389,0,0,0.082712929156,261.1, 0.5, 0.5,0,1,1024,1024,1024,1024,261.3,0,98,4.276,4.275,4.274,4.273,0,0,78.71,10,Assisted_Takeoff,
0.0697281302972423,36.9622652010861,5915.6761161389,0,0,0.0224689311652,9600,2017-11-03 05:39:41,18,17.077,5915.6761161389,0,0,0.082712929156,261.1, 0.5, 0.5,0,1,1024,1024,1024,1024,261.3,0,98,4.276,4.275,4.274,4.273,0,0,78.71,10,Assisted_Takeoff,
0.0697281279454639,36.9622651985199,5915.6761161389,0,0,0.0228911752732,9700,2017-11-03 05:39:41,18,17.077,5915.6761161389,0,0,0.082712929156,261, 0.5, 0.5,0,1,1024,1024,1024,1024,261.3,0,98,4.276,4.275,4.274,4.273,0,0,78.71,10,Assisted_Takeoff,
0.0697281062853267,36.9622652051754,5915.6761161389,0,0,0.0311398303928,9800,2017-11-03 05:39:42,18,17.05,5915.6761161389,0,0,0.082712929156,261.1, 0.5, 0.5,0,1,1024,1024,1024,1024,261.3,0,98,4.275,4.275,4.274,4.273,0,0,78.71,10,Assisted_Takeoff,
0.0697280732285242,36.9622652014142,5915.6761161389,0,0,0.04232447642,9900,2017-11-03 05:39:42,18,17.05,5915.6761161389,0,0,0.082712929156,261, 0.5, 0.5,0,1,1024,1024,1024,1024,261.3,0,98,4.275,4.275,4.274,4.273,0,0,78.71,10,Assisted_Takeoff,
0.0697280456146432,36.9622652050983,5915.6761161389,0,0,0.052453085668,10000,2017-11-03 05:39:42,18,17.05,5915.6761161389,0,0,0.082712929156,261.1, 0.5, 0.5,0,1,1024,1024,1024,1024,261.3,0,98,4.275,4.275,4.274,4.273,0,0,78.71,10,Assisted_Takeoff,
0.0697280238853989,36.9622652020595,5915.6761161389,0,0,0.060043637092,10100,2017-11-03 05:39:42,18,17.05,5915.6761161389,0,0,0.082712929156,261.1, 0.5, 0.5,0,1,1024,1024,1024,1024,261.3,0,98,4.275,4.275,4.274,4.273,0,0,78.71,10,Assisted_Takeoff,
0.0697280107611581,36.9622652053788,5915.6761161389,0,0,0.064966209428,10200,2017-11-03 05:39:42,18,17.05,5915.6761161389,0,0,0.082712929156,261.1, 0.5, 0.5,0,1,1024,1024,1024,1024,261.3,0,98,4.275,4.275,4.274,4.273,0,0,78.71,10,Assisted_Takeoff,
0.0697279991524897,36.9622652023802,5915.6761161389,0,0,0.068980645252,10300,2017-11-03 05:39:42,18,17.05,5915.6761161389,0,0,0.082712929156,261.1, 0.5, 0.5,0,1,1024,1024,1024,1024,261.3,0,98,4.275,4.275,4.274,4.273,0,0,78.71,10,Assisted_Takeoff,
0.0697279974321404,36.962265206982,5915.6761161389,0,0,0.069858598036,10400,2017-11-03 05:39:42,18,17.05,5915.6761161389,0,0,0.082712929156,261.1, 0.5, 0.5,0,1,1024,1024,1024,1024,261.3,0,98,4.275,4.275,4.274,4.273,0,0,78.71,10,Assisted_Takeoff,
0.0697279914915258,36.9622652028424,5915.6761161389,0,0,0.07177165584,10500,2017-11-03 05:39:42,18,17.05,5915.6761161389,0,0,0.082712929156,261.1, 0.5, 0.5,0,1,1024,1024,1024,1024,261.3,0,98,4.275,4.275,4.274,4.273,0,0,78.71,10,Assisted_Takeoff,
0.0697279911654299,36.9622652020448,5915.6761161389,0,0,0.071849411748,10600,2017-11-03 05:39:42,18,17.05,5915.6761161389,0,0,0.082712929156,261.1, 0.5, 0.5,0,1,1024,1024,1024,1024,261.3,0,98,4.275,4.275,4.274,4.273,0,0,78.71,10,Assisted_Takeoff,
0.0697279918823524,36.9622651996925,5915.6761161389,0,0,0.071479004912,10700,2017-11-03 05:39:42,18,17.05,5915.6761161389,0,0,0.082712929156,261.1, 0.5, 0.5,0,1,1024,1024,1024,1024,261.3,0,98,4.275,4.275,4.274,4.273,0,0,78.71,10,Assisted_Takeoff,
0.069728002921676,36.9622652015914,5915.6761161389,0,0,0.067578414236,10900,2017-11-03 05:39:43,18,17.05,5915.6761161389,0,0,0.082712929156,261.1, 0.5, 0.5,0,1,1024,1024,1024,1024,261.3,0,98,4.275,4.275,4.274,4.273,0,0,78.71,10,Assisted_Takeoff,
0.0697280111810931,36.9622652046741,5915.6761161389,0,0,0.064772311784,11000,2017-11-03 05:39:43,18,17.05,5915.6761161389,0,0,0.082712929156,261.1, 0.5, 0.5,0,1,1024,1024,1024,1024,261.3,0,98,4.275,4.275,4.274,4.273,0,0,78.71,10,Assisted_Takeoff,
0.0697280115128377,36.9622651997953,5915.6761161389,0,0,0.06438320416,11100,2017-11-03 05:39:43,18,17.05,5915.6761161389,0,0,0.082712929156,261.1, 0.5, 0.5,0,1,1024,1024,1024,1024,261.3,0,98,4.275,4.275,4.274,4.273,0,0,78.71,10,Assisted_Takeoff,
0.0697280178795957,36.9622651788131,5915.6761161389,0,0,0.06145669488,11200,2017-11-03 05:39:43,18,17.05,5915.6761161389,0,0,0.082712929156,261.1, 0.5, 0.5,0,1,1024,1024,1024,1024,261.3,0,98,4.275,4.275,4.274,4.273,0,0,78.71,10,Assisted_Takeoff,
0.0697280181581105,36.9622651446565,5915.6761161389,0,0,0.062362862888,11300,2017-11-03 05:39:43,18,17.05,5915.6761161389,0,0,0.082712929156,261.1, 0.5, 0.5,0,1,1024,1024,1024,1024,261.3,0,98,4.275,4.275,4.274,4.273,0,0,78.71,10,Assisted_Takeoff,
0.0697280246323967,36.9622651178626,5915.6761161389,0,0,0.062610894392,11400,2017-11-03 05:39:43,18,17.05,5915.6761161389,0,0,0.082712929156,261.1, 0.5, 0.5,0,1,1024,1024,1024,1024,261.3,0,98,4.275,4.275,4.274,4.273,0,0,78.71,10,Assisted_Takeoff,
0.0697280253449936,36.9622650944497,5915.6761161389,0,0,0.065737534912,11500,2017-11-03 05:39:43,18,17.05,5915.6761161389,0,0,0.082712929156,261.1, 0.5, 0.5,0,1,1024,1024,1024,1024,261.3,0,98,4.275,4.275,4.274,4.273,0,0,78.71,10,Assisted_Takeoff,
0.069728031595267,36.9622650816103,5915.6761161389,0,0,0.06601214122,11600,2017-11-03 05:39:43,18,17.05,5915.6761161389,0,0,0.082712929156,261.1, 0.5, 0.5,0,1,1024,1024,1024,1024,261.3,0,98,4.275,4.275,4.274,4.273,0,0,78.71,10,Assisted_Takeoff,
0.0697280320859375,36.962265066242,5915.6761161389,0,0,0.068940619004,11700,2017-11-03 05:39:44,18,17.05,5915.6761161389,0,0,0.082712929156,261.1, 0.5, 0.5,0,1,1024,1024,1024,1024,261.3,0,98,4.275,4.275,4.274,4.273,0,0,78.71,10,Assisted_Takeoff,
0.0697280365758121,36.9622650637711,5915.6761161389,0,0,0.068145671472,11800,2017-11-03 05:39:44,18,17.05,5915.6761161389,0,0,0.082712929156,261.1, 0.5, 0.4,0,1,1024,1024,1024,1024,261.3,0,98,4.275,4.275,4.274,4.272,0,0,78.71,10,Assisted_Takeoff,
0.0697280358514599,36.9622650548506,5915.6761161389,0,0,0.07034613086,11900,2017-11-03 05:39:44,18,17.05,5915.6761161389,0,0,0.082712929156,261.1, 0.5, 0.5,0,1,1024,1024,1024,1024,261.3,0,98,4.275,4.275,4.274,4.272,0,0,78.71,10,Assisted_Takeoff,
0.0697280394090502,36.9622650353327,5915.6761161389,0,0,0.07406168216,12000,2017-11-03 05:39:44,18,17.05,5915.6761161389,0,0,0.082712929156,261.1, 0.5, 0.4,0,1,1024,1024,1024,1024,261.3,0,98,4.275,4.275,4.274,4.272,0,0,78.71,10,Assisted_Takeoff,
0.0697280385947264,36.9622650011312,5915.6761161389,0,0,0.0833579423,12100,2017-11-03 05:39:44,18,17.05,5915.6761161389,0,0,0.0833579423,261.1, 0.5, 0.5,0,1,1024,1024,1024,1024,261.3,0,98,4.275,4.275,4.274,4.272,0,0,78.71,10,Assisted_Takeoff,
0.0697280417802682,36.962264978541,5915.6761161389,0,0,0.089111879492,12200,2017-11-03 05:39:44,18,17.05,5915.6761161389,0,0,0.089111879492,261.1, 0.5, 0.4,0,1,1024,1024,1024,1024,261.3,0,98,4.275,4.275,4.274,4.272,0,0,78.71,10,Assisted_Takeoff,
0.0697280399740185,36.9622649570453,5915.6761161389,0,0,0.095912732728,12300,2017-11-03 05:39:44,18,17.05,5915.6761161389,0,0,0.095912732728,261.1, 0.5, 0.5,0,1,1024,1024,1024,1024,261.3,0,98,4.275,4.275,4.274,4.272,0,0,78.71,10,Assisted_Takeoff,
0.0697280420695206,36.9622649506743,5915.6761161389,0,0,0.097437339076,12400,2017-11-03 05:39:44,18,17.05,5915.6761161389,0,0,0.097437339076,261.1, 0.5, 0.4,0,1,1024,1024,1024,1024,261.3,0,98,4.275,4.275,4.274,4.272,0,0,78.71,10,Assisted_Takeoff,
0.0697280396212568,36.9622649375617,5915.6761161389,0,0,0.101962601688,12500,2017-11-03 05:39:44,18,17.05,5915.6761161389,0,0,0.101962601688,261.1, 0.5, 0.4,0,1,1024,1024,1024,1024,261.3,0,98,4.275,4.275,4.274,4.272,0,0,78.71,10,Assisted_Takeoff,
0.0697280407235607,36.9622649378743,5915.6761161389,0,0,0.101654858896,12600,2017-11-03 05:39:44,18,17.05,5915.6761161389,0,0,0.101962601688,261.1, 0.5, 0.4,0,1,1024,1024,1024,1024,261.3,0,98,4.275,4.275,4.274,4.272,0,0,78.71,10,Assisted_Takeoff,
0.0697280390241776,36.9622649324588,5915.6761161389,0,0,0.103665029564,12700,2017-11-03 05:39:45,18,17.05,5915.6761161389,0,0,0.103665029564,261.1, 0.4, 0.4,0,1,1024,1024,1024,1024,261.3,0,98,4.275,4.275,4.274,4.272,0,0,78.71,10,Assisted_Takeoff,
0.0697280415110152,36.9622649423014,5915.6761161389,0,0,0.100129268296,12800,2017-11-03 05:39:45,18,17.05,5915.6761161389,0,0,0.103665029564,261.2, 0.5, 0.4,0,1,1024,1024,1024,1024,261.3,0,98,4.275,4.275,4.274,4.272,0,0,78.71,10,Assisted_Takeoff,
0.0697280391639185,36.9622649384211,5915.6761161389,0,0,0.101783795908,12900,2017-11-03 05:39:45,18,17.05,5915.6761161389,0,0,0.103665029564,261.1, 0.4, 0.4,0,1,1024,1024,1024,1024,261.3,0,98,4.275,4.275,4.274,4.272,0,0,78.71,10,Assisted_Takeoff,
0.0697280402028149,36.9622649237468,5915.6761161389,0,0,0.10617946534,13000,2017-11-03 05:39:45,18,17.05,5915.6761161389,0,0,0.10617946534,261.1, 0.4, 0.4,0,1,1024,1024,1024,1024,261.3,0,98,4.275,4.275,4.274,4.272,0,0,78.71,10,Assisted_Takeoff,
0.0697280376763349,36.9622648913264,5915.6761161389,0,0,0.116985239964,13100,2017-11-03 05:39:45,18,17.05,5915.6761161389,0,0,0.116985239964,261.2, 0.4, 0.4,0,1,1024,1024,1024,1024,261.3,0,98,4.275,4.275,4.274,4.272,0,0,78.71,10,Assisted_Takeoff,
0.06972803867508,36.9622648707984,5915.6761161389,0,0,0.123511486892,13200,2017-11-03 05:39:45,18,17.05,5915.6761161389,0,0,0.123511486892,261.2, 0.4, 0.4,0,1,1024,1024,1024,1024,261.3,0,98,4.275,4.275,4.274,4.272,0,0,78.71,10,Assisted_Takeoff,
0.0697280351486845,36.962264850395,5915.6761161389,0,0,0.130788390012,13300,2017-11-03 05:39:45,18,17.05,5915.6761161389,0,0,0.130788390012,261.1, 0.4, 0.4,0,1,1024,1024,1024,1024,261.3,0,98,4.275,4.275,4.274,4.272,0,0,78.71,10,Assisted_Takeoff,
0.0697280359463167,36.9622648454222,5915.6761161389,0,0,0.13231463678,13400,2017-11-03 05:39:45,18,17.05,5915.6761161389,0,0,0.13231463678,261.2, 0.4, 0.4,0,1,1024,1024,1024,1024,261.3,0,98,4.275,4.275,4.274,4.272,0,0,78.71,10,Assisted_Takeoff,
0.0697280319291998,36.9622648343931,5915.6761161389,0,0,0.13658465004,13500,2017-11-03 05:39:45,18,17.05,5915.6761161389,0,0,0.13658465004,261.2, 0.4, 0.4,0,1,1024,1024,1024,1024,261.3,0,98,4.275,4.275,4.274,4.272,0,0,78.71,10,Assisted_Takeoff,
0.0697280321798784,36.9622648383417,5915.6761161389,0,0,0.135235240548,13600,2017-11-03 05:39:45,18,17.05,5915.6761161389,0,0,0.13658465004,261.2, 0.4, 0.4,0,1,1024,1024,1024,1024,261.3,0,98,4.275,4.275,4.274,4.272,0,0,78.71,10,Assisted_Takeoff,
0.0697280293057765,36.9622648322903,5915.6761161389,0,0,0.137679466348,13700,2017-11-03 05:39:45,18,17.05,5915.6761161389,0,0,0.137679466348,261.2, 0.4, 0.4,0,1,1024,1024,1024,1024,261.3,0,98,4.275,4.275,4.274,4.272,0,0,78.71,10,Assisted_Takeoff,
0.0697280318326636,36.9622648414517,5915.6761161389,0,0,0.134257222144,13800,2017-11-03 05:39:46,18,17.077,5915.6761161389,0,0,0.137679466348,261.1, 0.4, 0.4,0,1,1024,1024,1024,1024,261.3,0,98,4.275,4.274,4.274,4.272,0,0,78.71,10,Assisted_Takeoff,
0.0697280296120258,36.9622648374857,5915.6761161389,0,0,0.135910765504,13900,2017-11-03 05:39:46,18,17.077,5915.6761161389,0,0,0.137679466348,261.2, 0.5, 0.4,0,1,1024,1024,1024,1024,261.3,0,98,4.275,4.274,4.274,4.272,0,0,78.71,10,Assisted_Takeoff,
0.0697280073491099,36.9622648224782,5915.6761161389,0,0,0.144383862888,14000,2017-11-03 05:39:46,18,17.077,5915.6761161389,0,0,0.144383862888,261.2, 0.4, 0.4,0,1,1024,1024,1046,1024,261.3,0,98,4.275,4.274,4.274,4.272,0,0,78.71,10,Assisted_Takeoff,
0.0697279750285168,36.962264790542,5915.6761161389,0,0,0.160194558932,14100,2017-11-03 05:39:46,18,17.077,5915.6761161389,0,0,0.160194558932,261.2, 0.4, 0.4,0,1,1024,1024,1200,1024,261.3,0,98,4.275,4.274,4.274,4.272,0,0,78.71,10,Assisted_Takeoff,
0.0697279478914645,36.9622647713266,5915.6761161389,0,0,0.171186685268,14200,2017-11-03 05:39:46,18,17.077,5915.6761161389,0,0,0.171186685268,261.2, 0.4, 0.5,0,1,1024,1024,1329,1024,261.3,0,98,4.275,4.274,4.274,4.272,0,0,78.71,10,Assisted_Takeoff,
0.0697279278820606,36.9622647509699,5915.6761161389,0,0,0.181310373256,14300,2017-11-03 05:39:46,18,17.077,5915.6761161389,0,0,0.181310373256,261.2, 0.5, 0.6,0,1,1024,1024,1446,1024,261.3,0,98,4.275,4.274,4.274,4.272,0,0,78.71,10,Assisted_Takeoff,
0.0697279192729861,36.9622647470819,5915.6761161389,0,0,0.184165688308,14400,2017-11-03 05:39:46,18,17.077,5915.6761161389,0,0,0.184165688308,261.2, 0.5, 0.8,0,1,1024,1024,1499,1023,261.3,0,98,4.275,4.274,4.274,4.272,0,0,78.71,10,Assisted_Takeoff,
0.0697279103701301,36.9622647343619,5915.6761161389,0,0,0.189822512636,14500,2017-11-03 05:39:46,18,17.077,5915.6761161389,0,0,0.189822512636,261.3, 0.9, 0.9,0,1,1024,1024,1533,1024,261.3,0,98,4.275,4.274,4.274,4.272,0,0,78.71,10,Assisted_Takeoff,
0.0697279194626998,36.9622647464941,5915.6761161389,0,0,0.18431102952,14600,2017-11-03 05:39:46,18,17.077,5915.6761161389,0,0,0.189822512636,261.7, 2.7, 2.1,0,1,1024,1024,1569,1024,261.3,0,98,4.275,4.274,4.274,4.272,0,0,78.71,10,Assisted_Takeoff,
0.0697279887464781,36.9622647852825,5915.6761161389,0,0.223694,0.15955709172,14700,2017-11-03 05:39:47,18,17.077,5915.6761161389,0,0.223694,0.189822512636,262.3, 5.2, 3.8,0,1,1024,1024,1594,1024,261.3,0,98,4.275,4.274,4.274,4.272,0,0,78.71,10,Assisted_Takeoff,Obstacle Avoided. Revise Flight Route
0.0697281814312998,36.9622649226144,5915.6761161389,0,0.80753534,0.092262470144,14800,2017-11-03 05:39:47,18,17.077,5915.6761161389,0,0.80753534,0.189822512636,262.4, 4.5, 3.3,0,1,1024,1024,1594,1024,261.3,0,98,4.275,4.274,4.274,4.272,0,0,78.71,6,GPS_Atti,
0.0697285135221232,36.9622651477532,5915.6761161389,0,0.99991218,0.119817261052,14900,2017-11-03 05:39:47,18,17.077,5915.6761161389,0,0.99991218,0.189822512636,262.3, 1.5, 1.2,0,1,1024,1024,1684,1024,261.3,0,98,4.275,4.274,4.274,4.272,0,0,78.71,6,GPS_Atti,
0.0697289963736812,36.9622654478989,5916.0042001389,0.328084,1.20571066,0.311826781632,15000,2017-11-03 05:39:47,18,17.077,5916.0042001389,0.328084,1.20571066,0.311826781632,262.3, -1.7, -0.1,0,1,1024,1024,1684,1024,261.3,0,98,4.275,4.274,4.274,4.272,0,0,78.71,6,GPS_Atti,
0.0697295476542879,36.9622657017528,5916.3322841389,0.656168,1.41374608,0.53251970208,15100,2017-11-03 05:39:47,18,17.077,5916.3322841389,0.656168,1.41374608,0.53251970208,262.3, -2.9, -2.1,0,1,1024,1024,1684,1024,261.4,0,98,4.275,4.274,4.274,4.272,0,0,78.71,6,GPS_Atti,
0.0697301588463671,36.9622658897222,5916.6603681389,0.984252,1.36005952,0.76541669116,15200,2017-11-03 05:39:47,18,17.077,5916.6603681389,0.984252,1.41374608,0.76541669116,262.3, -2, -4.7,0,1,1024,1024,1684,1024,261.4,0,98,4.275,4.274,4.274,4.272,0,0,78.71,6,GPS_Atti,
0.0697307516702086,36.9622660372916,5917.3165361389,1.64042,1.1408394,0.9873852022,15300,2017-11-03 05:39:47,18,17.077,5917.3165361389,1.64042,1.41374608,0.9873852022,262.4, -2, -5.6,0,1,1024,1024,1684,1024,261.4,0,98,4.275,4.274,4.274,4.272,0,0,78.71,6,GPS_Atti,
0.0697313643494642,36.9622661545681,5918.3007881389,2.624672,1.11847,1.21329400208,15400,2017-11-03 05:39:47,18,17.077,5918.3007881389,2.624672,1.41374608,1.21329400208,262.4, -2.1, -6.7,0,1,1024,1024,1684,1024,261.4,0,98,4.275,4.274,4.274,4.272,0,0,78.71,6,GPS_Atti,
0.0697319547235153,36.9622662348692,5918.9569561389,3.28084,1.11847,1.42820870712,15500,2017-11-03 05:39:47,18,17.077,5918.9569561389,3.28084,1.41374608,1.42820870712,262.2, -1.1, -7.9,0,1,1024,1024,1684,1024,261.4,0,98,4.275,4.274,4.274,4.272,0,0,78.71,6,GPS_Atti,
0.0697324717516345,36.9622663881701,5920.2692921389,4.593176,1.1408394,1.62494755856,15600,2017-11-03 05:39:47,18,17.077,5920.2692921389,4.593176,1.41374608,1.62494755856,262.3, -2.1, -7.2,0,1,1024,1024,1684,1024,261.4,0,98,4.275,4.274,4.274,4.272,0,0,78.71,6,GPS_Atti,
0.069732928333134,36.9622665496616,5921.2535441389,5.577428,1.1408394,1.80131567444,15700,2017-11-03 05:39:47,18,17.077,5921.2535441389,5.577428,1.41374608,1.80131567444,262.2, -1.8, -7.1,0,1,1024,1024,1684,1024,261.4,0,98,4.275,4.274,4.274,4.272,0,0,78.71,6,GPS_Atti,
0.0697333343970437,36.9622667786358,5922.8939641389,7.217848,0.92161928,1.96725399996,15800,2017-11-03 05:39:48,18,16.524,5922.8939641389,7.217848,1.41374608,1.96725399996,262.4, -2.9, -7.8,0,1,1024,1024,1684,1024,261.4,0,98,4.274,4.274,4.273,4.272,0,0,78.71,6,GPS_Atti,
0.069733691994389,36.9622670035424,5924.2063001389,8.530184,0.92161928,2.11658799424,15900,2017-11-03 05:39:48,18,16.524,5924.2063001389,8.530184,1.41374608,2.11658799424,262.5, -4.5, -8.1,0,1,1024,1024,1684,1024,261.4,0,98,4.274,4.274,4.273,4.272,0,0,78.71,6,GPS_Atti,
0.0697340097135834,36.962267188291,5925.8467201389,10.170604,0.671082,2.24801188296,16000,2017-11-03 05:39:48,18,16.524,5925.8467201389,10.170604,1.41374608,2.24801188296,262.6, -4.6, -7.6,0,1,1024,1024,1684,1024,261.4,0,98,4.274,4.274,4.273,4.272,0,0,78.71,6,GPS_Atti,
0.0697342999825045,36.962267267026,5927.4871401389,11.811024,0.671082,2.35750007544,16100,2017-11-03 05:39:48,18,16.524,5927.4871401389,11.811024,1.41374608,2.35750007544,262.3, -3.3, -7.7,0,1,1024,1024,1684,1024,261.4,0,98,4.274,4.274,4.273,4.272,0,0,78.71,6,GPS_Atti,
0.0697346006510761,36.9622672793578,5929.4556441389,13.779528,0.671082,2.46294955388,16200,2017-11-03 05:39:48,18,16.524,5929.4556441389,13.779528,1.41374608,2.46294955388,262.2, -1.7, -8.1,0,1,1024,1024,1684,1024,261.5,0,98,4.274,4.274,4.273,4.272,0,0,78.71,6,GPS_Atti,
0.0697348666077355,36.9622672784856,5931.0960641389,15.419948,0.447388,2.5552330214,16300,2017-11-03 05:39:48,18,16.524,5931.0960641389,15.419948,1.41374608,2.5552330214,262.2, -1.4, -7.1,0,1,1024,1024,1684,1024,261.5,0,98,4.274,4.274,4.273,4.272,0,0,78.71,6,GPS_Atti,
0.0697351836869515,36.9622672925121,5932.7364841389,17.060368,0.671082,2.66728354992,16400,2017-11-03 05:39:48,18,16.524,5932.7364841389,17.060368,1.41374608,2.66728354992,262.2, -0.9, -6.4,0,1,1024,1024,1684,1024,261.5,0,98,4.274,4.274,4.273,4.272,0,0,78.71,6,GPS_Atti,
0.0697355411841474,36.9622673235793,5934.7049881389,19.028872,0.894776,2.79554142804,16500,2017-11-03 05:39:48,18,16.524,5934.7049881389,19.028872,1.41374608,2.79554142804,262.2, -1.6, -5.7,0,1,1024,1024,1684,1024,261.5,0,98,4.274,4.274,4.273,4.272,0,0,78.71,6,GPS_Atti,
0.0697359552347607,36.9622673830009,5936.3454081389,20.669292,1.11847,2.94670613104,16600,2017-11-03 05:39:48,18,16.524,5936.3454081389,20.669292,1.41374608,2.94670613104,262.3, -2.2, -6.5,0,1,1024,1024,1684,1024,261.5,0,98,4.274,4.274,4.273,4.272,0,0,78.71,6,GPS_Atti,
0.069736403933777,36.9622674007329,5937.9858281389,22.309712,1.11847,3.1061844826,16700,2017-11-03 05:39:48,18,16.524,5937.9858281389,22.309712,1.41374608,3.1061844826,262.2, -1.5, -8.3,0,1,1024,1024,1684,1024,261.5,0,98,4.274,4.274,4.273,4.272,0,0,78.71,6,GPS_Atti,
0.0697369124536835,36.9622674156657,5939.9543321389,24.278216,1.11847,3.2869751708,16800,2017-11-03 05:39:48,18,16.156,5939.9543321389,24.278216,1.41374608,3.2869751708,262.1, -0.9, -9.4,0,1,1024,1024,1684,1024,261.5,0,98,4.084,4.08,4.07,4.065,0,0,78.71,6,GPS_Atti,Setting new Return-To-Home altitude to 30m (98 ft). Setting new Maximum Flight Altitude to 100m (328 ft)
0.0697374267561946,36.9622674067294,5941.5947521389,25.918636,1.11847,3.4682743892,16900,2017-11-03 05:39:49,18,16.156,5941.5947521389,25.918636,1.41374608,3.4682743892,262, -0.7, -10.2,0,1,1024,1024,1684,1024,261.5,0,98,4.084,4.08,4.07,4.065,0,0,78.71,6,GPS_Atti,Home Point Recorded. RTH Altitude:  30m.
0.0697379783614723,36.9622674651777,5943.2351721389,27.559056,1.11847,3.6689961804,17000,2017-11-03 05:39:49,18,16.156,5943.2351721389,27.559056,1.41374608,3.6689961804,262, -1.1, -10.8,0,1,1024,1024,1684,1024,261.5,0,98,4.084,4.08,4.07,4.065,0,0,78.71,6,GPS_Atti,
0.0697384996149966,36.9622675295713,5944.8755921389,29.199476,1.11847,3.859580176,17100,2017-11-03 05:39:49,18,16.156,5944.8755921389,29.199476,1.41374608,3.859580176,261.9, -0.5, -10.7,0,1,1024,1024,1684,1024,261.5,0,98,4.084,4.08,4.07,4.065,0,0,78.71,6,GPS_Atti,
0.0697389795109287,36.9622676761581,5946.5160121389,30.839896,1.1408394,4.0422245388,17200,2017-11-03 05:39:49,18,16.156,5946.5160121389,30.839896,1.41374608,4.0422245388,261.9, -1.3, -10.8,0,1,1024,1024,1684,1024,261.5,0,98,4.084,4.08,4.07,4.065,0,0,78.71,6,GPS_Atti,
0.0697394146897887,36.9622678432311,5948.1564321389,32.480316,1.1408394,4.2107284812,17300,2017-11-03 05:39:49,18,16.156,5948.1564321389,32.480316,1.41374608,4.2107284812,262.3, -3.4, -10.2,0,1,1024,1024,1684,1024,261.5,0,98,4.084,4.08,4.07,4.065,0,0,78.71,6,GPS_Atti,
0.0697398788003989,36.9622680198471,5949.7968521389,34.120736,1.11847,4.390420088,17400,2017-11-03 05:39:49,18,16.156,5949.7968521389,34.120736,1.41374608,4.390420088,262.4, -3.9, -9.2,0,1,1024,1024,1684,1024,261.5,0,98,4.084,4.08,4.07,4.065,0,0,78.71,6,GPS_Atti,
0.069740375721713,36.9622681146435,5951.4372721389,35.761156,1.342164,4.5747704876,17500,2017-11-03 05:39:49,18,16.156,5951.4372721389,35.761156,1.41374608,4.5747704876,262.3, -2.9, -9.7,0,1,1024,1024,1684,1021,261.5,0,98,4.084,4.08,4.07,4.065,0,0,78.71,6,GPS_Atti,
0.0697409340565356,36.9622681720115,5953.4057761389,37.72966,1.342164,4.7777888668,17600,2017-11-03 05:39:49,18,16.156,5953.4057761389,37.72966,1.41374608,4.7777888668,262.2, -2, -11.9,0,1,1024,1024,1684,1024,261.5,0,98,4.084,4.08,4.07,4.065,0,0,78.71,6,GPS_Atti,
0.0697414742000102,36.9622681825724,5955.0461961389,39.37008,1.342164,4.9706694504,17700,2017-11-03 05:39:49,18,16.156,5955.0461961389,39.37008,1.41374608,4.9706694504,262.1, -1.3, -12.6,0,1,1024,1024,1684,1024,261.5,0,98,4.084,4.08,4.07,4.065,0,0,78.71,6,GPS_Atti,
0.0697420079046173,36.9622682102714,5956.6866161389,41.0105,1.11847,5.1629266744,17800,2017-11-03 05:39:50,18,16.471,5956.6866161389,41.0105,1.41374608,5.1629266744,262.1, -1.3, -12.7,0,1,1024,1024,1684,1024,261.5,0,98,4.111,4.116,4.113,4.111,0,0,78.71,6,GPS_Atti,
0.0697425070894686,36.9622682332371,5958.3270361389,42.65092,1.11847,5.3427167064,17900,2017-11-03 05:39:50,18,16.471,5958.3270361389,42.65092,1.41374608,5.3427167064,262.1, -1.3, -12.7,0,1,1024,1024,1684,1019,261.5,0,98,4.111,4.116,4.113,4.111,0,0,78.71,6,GPS_Atti,
0.0697429666070525,36.962268290437,5959.9674561389,44.29134,0.894776,5.5110566068,18000,2017-11-03 05:39:50,18,16.471,5959.9674561389,44.29134,1.41374608,5.5110566068,262.1, -1.3, -11.4,0,1,1024,1024,1684,1018,261.5,0,98,4.111,4.116,4.113,4.111,0,0,78.71,6,GPS_Atti,
0.0697433925184377,36.9622683614522,5961.6078761389,45.93176,0.894776,5.6684385016,18100,2017-11-03 05:39:50,18,16.471,5961.6078761389,45.93176,1.41374608,5.6684385016,262.1, -1.6, -11,0,1,1024,1024,1684,1022,261.5,0,98,4.111,4.116,4.113,4.111,0,0,78.71,6,GPS_Atti,
0.0697438211216408,36.9622684490514,5963.2482961389,47.57218,0.92161928,5.8280513676,18200,2017-11-03 05:39:50,18,16.471,5963.2482961389,47.57218,1.41374608,5.8280513676,262.1, -2, -11.2,0,1,1024,1024,1684,1019,261.5,0,98,4.111,4.116,4.113,4.111,0,0,78.71,6,GPS_Atti,
0.0697442191866336,36.9622685349714,5964.8887161389,49.2126,0.92161928,5.9766406112,18300,2017-11-03 05:39:50,18,16.471,5964.8887161389,49.2126,1.41374608,5.9766406112,262.2, -2.6, -10.4,0,1,1024,1024,1684,1023,261.5,0,98,4.111,4.116,4.113,4.111,0,0,78.71,6,GPS_Atti,
0.0697445938150604,36.9622686537982,5966.5291361389,50.85302,0.92161928,6.1193243428,18400,2017-11-03 05:39:50,18,16.471,5966.5291361389,50.85302,1.41374608,6.1193243428,262.3, -3.1, -10.4,0,1,1024,1024,1684,1024,261.5,0,98,4.111,4.116,4.113,4.111,0,0,78.71,6,GPS_Atti,
0.0697449541131801,36.9622687534284,5968.1695561389,52.49344,0.894776,6.2554463944,18500,2017-11-03 05:39:50,18,16.471,5968.1695561389,52.49344,1.41374608,6.2554463944,262.3, -3.2, -10.1,0,1,1024,1024,1684,1024,261.5,0,98,4.111,4.116,4.113,4.111,0,0,78.71,6,GPS_Atti,
0.0697452747928857,36.9622688678468,5969.8099761389,54.13386,0.671082,6.378609128,18600,2017-11-03 05:39:50,18,16.471,5969.8099761389,54.13386,1.41374608,6.378609128,262.2, -2.6, -9.6,0,1,1024,1024,1684,1024,261.5,0,98,4.111,4.116,4.113,4.111,0,0,78.71,6,GPS_Atti,
0.069745596820943,36.9622689865659,5971.4503961389,55.77428,0.894776,6.50262488,18700,2017-11-03 05:39:50,18,16.471,5971.4503961389,55.77428,1.41374608,6.50262488,262.3, -3, -10,0,1,1024,1024,1684,1024,261.5,0,98,4.111,4.116,4.113,4.111,0,0,78.71,6,GPS_Atti,
0.0697459446761221,36.9622691133642,5973.0908161389,57.4147,0.671082,6.6365159604,18800,2017-11-03 05:39:51,18,16.419,5973.0908161389,57.4147,1.41374608,6.6365159604,262.4, -3.2, -10.5,0,1,1024,1024,1684,1024,261.5,0,98,4.101,4.104,4.097,4.09,0,0,78.71,6,GPS_Atti,
0.0697463106884517,36.9622691740888,5974.7312361389,59.05512,0.894776,6.7716865684,18900,2017-11-03 05:39:51,18,16.419,5974.7312361389,59.05512,1.41374608,6.7716865684,262.4, -2.8, -10.7,0,1,1024,1024,1684,1024,261.5,0,98,4.101,4.104,4.097,4.09,0,0,78.71,6,GPS_Atti,
0.0697466698531743,36.9622692408476,5976.3716561389,60.69554,0.894776,6.9049214808,19000,2017-11-03 05:39:51,18,16.419,5976.3716561389,60.69554,1.41374608,6.9049214808,262.3, -1.7, -9.9,0,1,1024,1024,1684,1024,261.5,0,98,4.101,4.104,4.097,4.09,0,0,78.71,6,GPS_Atti,
0.0697470274790174,36.9622692815623,5978.0120761389,62.33596,0.894776,7.0355317212,19100,2017-11-03 05:39:51,18,16.419,5978.0120761389,62.33596,1.41374608,7.0355317212,262, -0.8, -10.2,0,1,1024,1024,1684,1024,261.5,0,98,4.101,4.104,4.097,4.09,0,0,78.71,6,GPS_Atti,
0.0697473626193057,36.9622693614116,5979.6524961389,63.97638,0.894776,7.1612207016,19200,2017-11-03 05:39:51,18,16.419,5979.6524961389,63.97638,1.41374608,7.1612207016,261.7, 0.1, -10,0,1,1024,1024,1684,1024,261.5,0,98,4.101,4.104,4.097,4.09,0,0,78.71,6,GPS_Atti,
0.069747716284773,36.9622694986342,5981.2929161389,65.6168,0.92161928,7.2979989212,19300,2017-11-03 05:39:51,18,16.419,5981.2929161389,65.6168,1.41374608,7.2979989212,261.7, -1.2, -10.7,0,1,1024,1024,1684,1024,261.5,0,98,4.101,4.104,4.097,4.09,0,0,78.71,6,GPS_Atti,
0.0697480980457845,36.9622697392542,5982.9333361389,67.25722,0.99991218,7.4531826532,19400,2017-11-03 05:39:51,18,16.419,5982.9333361389,67.25722,1.41374608,7.4531826532,262, -3.6, -11.8,0,1,1024,1024,1684,1024,261.5,0,98,4.101,4.104,4.097,4.09,0,0,78.71,6,GPS_Atti,
0.06974846608227,36.9622699981892,5984.5737561389,68.89764,0.80753534,7.6054136292,19500,2017-11-03 05:39:51,18,16.419,5984.5737561389,68.89764,1.41374608,7.6054136292,262.2, -4.3, -12.4,0,1,1024,1024,1684,1024,261.5,0,98,4.101,4.104,4.097,4.09,0,0,78.71,6,GPS_Atti,
0.0697487605961375,36.9622703135655,5986.2141761389,70.53806,0.80753534,7.7370737384,19600,2017-11-03 05:39:51,18,16.419,5986.2141761389,70.53806,1.41374608,7.7370737384,262.4, -5, -10.5,0,1,1024,1024,1684,1024,261.5,0,98,4.101,4.104,4.097,4.09,0,0,78.71,6,GPS_Atti,
0.0697490095152016,36.962270612653,5988.1826801389,72.506564,0.63305402,7.8520671804,19700,2017-11-03 05:39:51,18,16.419,5988.1826801389,72.506564,1.41374608,7.8520671804,262.4, -5.7, -8.9,0,1,1024,1024,1684,1024,261.5,0,98,4.101,4.104,4.097,4.09,0,0,78.71,6,GPS_Atti,
0.0697492301091107,36.9622709174301,5989.8231001389,74.146984,0.80753534,7.95849763,19800,2017-11-03 05:39:52,18,16.208,5989.8231001389,74.146984,1.41374608,7.95849763,262.4, -6.1, -9,0,1,1024,1024,1684,1024,261.5,0,98,4.101,4.104,4.097,4.09,0,0,78.71,6,GPS_Atti,
0.0697494844199528,36.9622711671026,5991.4635201389,75.787404,0.70687304,8.0722443528,19900,2017-11-03 05:39:52,18,16.208,5991.4635201389,75.787404,1.41374608,8.0722443528,262.7, -6.7, -10.3,0,1,1024,1024,1684,1024,261.5,0,98,4.101,4.104,4.097,4.09,0,0,78.71,6,GPS_Atti,
0.0697497598761402,36.9622713636352,5993.1039401389,77.427824,0.671082,8.1885173224,20000,2017-11-03 05:39:52,18,16.208,5993.1039401389,77.427824,1.41374608,8.1885173224,262.8, -6.2, -11.4,0,1,1024,1024,1684,1024,261.5,0,98,4.101,4.104,4.097,4.09,0,0,78.71,6,GPS_Atti,
0.0697500664746906,36.9622714508424,5995.0724441389,79.396328,0.671082,8.3048231004,20100,2017-11-03 05:39:52,18,16.208,5995.0724441389,79.396328,1.41374608,8.3048231004,262.6, -4.9, -12.5,0,1,1024,1024,1684,1024,261.5,0,98,4.101,4.104,4.097,4.09,0,0,78.71,6,GPS_Atti,
0.0697503636054677,36.9622714981199,5996.7128641389,81.036748,0.671082,8.4137797968,20200,2017-11-03 05:39:52,18,16.208,5996.7128641389,81.036748,1.41374608,8.4137797968,262.4, -3.2, -13.4,0,1,1024,1024,1684,1038,261.5,0,98,4.101,4.104,4.097,4.09,0,0,78.71,6,GPS_Atti,
0.069750640444204,36.9622714985264,5998.3532841389,82.677168,0.671082,8.5110238944,20300,2017-11-03 05:39:52,18,16.208,5998.3532841389,82.677168,1.41374608,8.5110238944,262.3, -2.4, -13.8,0,1,1024,1024,1684,1036,261.5,0,98,4.101,4.104,4.097,4.09,0,0,78.71,6,GPS_Atti,
0.0697508283698981,36.9622714830414,5999.9937041389,84.317588,0.447388,8.5755252088,20400,2017-11-03 05:39:52,18,16.208,5999.9937041389,84.317588,1.41374608,8.5755252088,262.3, -1.6, -13.6,0,1,1024,1024,1684,1035,261.5,0,98,4.101,4.104,4.097,4.09,0,0,78.71,6,GPS_Atti,
0.0697509604823027,36.962271460871,6001.6341241389,85.958008,0.223694,8.6197837404,20500,2017-11-03 05:39:52,18,16.208,6001.6341241389,85.958008,1.41374608,8.6197837404,262.2, -1.3, -12.3,0,1,1024,1024,1684,1031,261.5,0,98,4.101,4.104,4.097,4.09,0,0,78.71,6,GPS_Atti,
0.0697510478434378,36.9622714476216,6003.2745441389,87.598428,0.223694,8.6492456836,20600,2017-11-03 05:39:52,18,16.208,6003.2745441389,87.598428,1.41374608,8.6492456836,262.1, -1.2, -11.4,0,1,1024,1024,1684,1034,261.5,0,98,4.101,4.104,4.097,4.09,0,0,78.71,6,GPS_Atti,
0.0697511514743569,36.9622714552906,6004.9149641389,89.238848,0.223694,8.6864504092,20700,2017-11-03 05:39:53,18,16.208,6004.9149641389,89.238848,1.41374608,8.6864504092,262.3, -2.4, -11.4,0,1,1024,1024,1684,1028,261.5,0,98,4.101,4.104,4.097,4.09,0,0,78.71,6,GPS_Atti,
0.0697512787698241,36.962271491913,6006.8834681389,91.207352,0.223694,8.7347771824,20800,2017-11-03 05:39:53,18,16.261,6006.8834681389,91.207352,1.41374608,8.7347771824,262.3, -2.6, -11.8,0,1,1024,1024,1684,1024,261.5,0,98,4.087,4.086,4.083,4.089,0,0,78.71,6,GPS_Atti,
0.0697514154011608,36.9622715087311,6008.5238881389,92.847772,0.223694,8.7844819084,20900,2017-11-03 05:39:53,18,16.261,6008.5238881389,92.847772,1.41374608,8.7844819084,262.4, -2.3, -11.8,0,1,1024,1024,1684,1024,261.5,0,98,4.087,4.086,4.083,4.089,0,0,78.71,6,GPS_Atti,
0.0697515111780945,36.9622715649538,6010.1643081389,94.488192,0.223694,8.8235895212,21000,2017-11-03 05:39:53,18,16.261,6010.1643081389,94.488192,1.41374608,8.8235895212,262.3, -2.2, -12,0,1,1024,1024,1684,1024,261.6,0,98,4.087,4.086,4.083,4.089,0,0,78.71,6,GPS_Atti,
0.0697515874804664,36.9622716081535,6011.8047281389,96.128612,0.223694,8.8546262676,21100,2017-11-03 05:39:53,18,16.261,6011.8047281389,96.128612,1.41374608,8.8546262676,262.3, -2.4, -12,0,1,1024,1024,1684,1024,261.5,0,98,4.087,4.086,4.083,4.089,0,0,78.71,6,GPS_Atti,
0.0697516089889547,36.9622716531542,6013.4451481389,97.769032,0.223694,8.8665357168,21200,2017-11-03 05:39:53,18,16.261,6013.4451481389,97.769032,1.41374608,8.8665357168,262.2, -2.3, -11.4,0,1,1024,1024,1684,1024,261.5,0,98,4.087,4.086,4.083,4.089,0,0,78.71,6,GPS_Atti,
0.0697516414698987,36.9622716648122,6015.0855681389,99.409452,0.223694,8.879101334,21300,2017-11-03 05:39:53,18,16.261,6015.0855681389,99.409452,1.41374608,8.879101334,262, -1.5, -11.7,0,1,1024,1024,1684,1024,261.5,0,98,4.087,4.086,4.083,4.089,0,0,78.71,6,GPS_Atti,
0.0697516713241625,36.9622717094537,6017.0540721389,101.377956,0.223694,8.8939635392,21400,2017-11-03 05:39:53,18,16.261,6017.0540721389,101.377956,1.41374608,8.8939635392,262.1, -2, -12.5,0,1,1024,1024,1684,1024,261.6,0,98,4.087,4.086,4.083,4.089,0,0,78.71,6,GPS_Atti,
0.0697517097945235,36.9622717616221,6018.6944921389,103.018376,0,8.9125987104,21500,2017-11-03 05:39:53,18,16.261,6018.6944921389,103.018376,1.41374608,8.9125987104,262.3, -2.8, -12.8,0,1,1024,1024,1684,1024,261.5,0,98,4.087,4.086,4.083,4.089,0,0,78.71,6,GPS_Atti,
0.0697517117519132,36.9622718401491,6020.3349121389,104.658796,0,8.9210304692,21600,2017-11-03 05:39:53,18,16.261,6020.3349121389,104.658796,1.41374608,8.9210304692,262.3, -3.2, -12.7,0,1,1024,1024,1684,1024,261.5,0,98,4.087,4.086,4.083,4.089,0,0,78.71,6,GPS_Atti,
0.0697517037415971,36.9622719000558,6022.3034161389,106.6273,0,8.924212884,21700,2017-11-03 05:39:54,18,16.261,6022.3034161389,106.6273,1.41374608,8.924212884,262.2, -3.2, -12.2,0,1,1024,1024,1684,1024,261.5,0,98,4.087,4.086,4.083,4.089,0,0,78.71,6,GPS_Atti,
0.069751654458368,36.9622719877852,6023.9438361389,108.26772,0,8.9157811252,21800,2017-11-03 05:39:54,18,16.103,6023.9438361389,108.26772,1.41374608,8.924212884,262.2, -3.2, -11.6,0,1,1024,1024,1684,1024,261.5,0,98,4.076,4.074,4.061,4.054,0,0,80.51,6,GPS_Atti,
0.0697516172923907,36.9622720486678,6025.5842561389,109.90814,0,8.9089897864,21900,2017-11-03 05:39:54,18,16.103,6025.5842561389,109.90814,1.41374608,8.924212884,262.2, -3, -11.5,0,1,1024,1024,1684,1024,261.6,0,98,4.076,4.074,4.061,4.054,0,0,80.51,6,GPS_Atti,
0.0697515550825731,36.9622720799855,6027.2246761389,111.54856,0,8.8904530404,22000,2017-11-03 05:39:54,18,16.103,6027.2246761389,111.54856,1.41374608,8.924212884,262.2, -3.2, -11.2,0,1,1024,1024,1684,1024,261.5,0,98,4.076,4.074,4.061,4.054,0,0,80.51,6,GPS_Atti,
0.0697515174036359,36.9622720690316,6029.1931801389,113.517064,0,8.876148578,22100,2017-11-03 05:39:54,18,16.103,6029.1931801389,113.517064,1.41374608,8.924212884,262.1, -2.5, -11.8,0,1,1024,1024,1684,1024,261.5,0,98,4.076,4.074,4.061,4.054,0,0,80.51,6,GPS_Atti,
0.0697515004124512,36.9622720527204,6030.8336001389,115.157484,0,8.8685042208,22200,2017-11-03 05:39:54,18,16.103,6030.8336001389,115.157484,1.41374608,8.924212884,261.9, -2, -13.3,0,1,1024,1024,1684,1024,261.5,0,98,4.076,4.074,4.061,4.054,0,0,80.51,6,GPS_Atti,
0.0697514948106039,36.962272065533,6032.4740201389,116.797904,0,8.8678808612,22300,2017-11-03 05:39:54,18,16.103,6032.4740201389,116.797904,1.41374608,8.924212884,261.8, -1.9, -12.8,0,1,1024,1024,1684,1024,261.5,0,98,4.076,4.074,4.061,4.054,0,0,80.51,6,GPS_Atti,
0.0697514153001973,36.962272176377,6034.1144401389,118.438324,0,8.8516407032,22400,2017-11-03 05:39:54,18,16.103,6034.1144401389,118.438324,1.41374608,8.924212884,261.9, -2.7, -11.8,0,1,1024,1024,1684,1024,261.5,0,98,4.076,4.074,4.061,4.054,0,0,80.51,6,GPS_Atti,
0.0697513609362229,36.9622723395364,6035.7548601389,120.078744,0.223694,8.8500330916,22500,2017-11-03 05:39:54,18,16.103,6035.7548601389,120.078744,1.41374608,8.924212884,262.2, -4.5, -12.1,0,1,1024,1024,1684,1024,261.5,0,98,4.076,4.074,4.061,4.054,0,0,80.51,6,GPS_Atti,
0.0697513307823254,36.9622725000111,6037.7233641389,122.047248,0.223694,8.8570212808,22600,2017-11-03 05:39:54,18,16.103,6037.7233641389,122.047248,1.41374608,8.924212884,262.4, -5.6, -12.6,0,1,1024,1024,1684,1024,261.5,0,98,4.076,4.074,4.061,4.054,0,0,80.51,6,GPS_Atti,
0.0697513053590577,36.962272633695,6039.3637841389,123.687668,0.223694,8.863025218,22700,2017-11-03 05:39:54,18,16.103,6039.3637841389,123.687668,1.41374608,8.924212884,262.7, -7.3, -12.7,0,1,1024,1024,1684,1024,261.5,0,98,4.076,4.074,4.061,4.054,0,0,80.51,6,GPS_Atti,
0.0697512159314272,36.9622727165361,6041.0042041389,125.328088,0,8.8413388656,22800,2017-11-03 05:39:54,18,16.287,6041.0042041389,125.328088,1.41374608,8.924212884,263, -8.1, -12.1,0,1,1024,1024,1684,1024,261.5,0,97,4.091,4.094,4.093,4.095,0,0,80.51,6,GPS_Atti,
0.0697511054024193,36.9622726881568,6042.6446241389,126.968508,0,8.7998034312,22900,2017-11-03 05:39:55,18,16.287,6042.6446241389,126.968508,1.41374608,8.924212884,262.6, -5.2, -10.8,0,1,1024,1024,1684,1024,261.5,0,97,4.091,4.094,4.093,4.095,0,0,80.51,6,GPS_Atti,
0.0697509818947128,36.9622726107775,6044.2850441389,128.608928,0.223694,8.748195818,23000,2017-11-03 05:39:55,18,16.287,6044.2850441389,128.608928,1.41374608,8.924212884,262.2, -2.6, -11.6,0,1,1024,1024,1684,1024,261.5,0,97,4.091,4.094,4.093,4.095,0,0,80.51,6,GPS_Atti,
0.0697508890652628,36.9622725457553,6045.9254641389,130.249348,0,8.708661696,23100,2017-11-03 05:39:55,18,16.287,6045.9254641389,130.249348,1.41374608,8.924212884,261.9, -1.5, -12.5,0,1,1024,1024,1684,1024,261.5,0,97,4.091,4.094,4.093,4.095,0,0,80.51,6,GPS_Atti,
0.0697507487275876,36.9622724894973,6047.8939681389,132.217852,0,8.6536092008,23200,2017-11-03 05:39:55,18,16.287,6047.8939681389,132.217852,1.41374608,8.924212884,261.9, -1.7, -11.7,0,1,1024,1024,1684,1024,261.5,0,97,4.091,4.094,4.093,4.095,0,0,80.51,6,GPS_Atti,
0.069750631153931,36.9622724469517,6049.5343881389,133.858272,0,8.6080383332,23300,2017-11-03 05:39:55,18,16.287,6049.5343881389,133.858272,1.41374608,8.924212884,262.1, -2.6, -11.2,0,1,1024,1024,1684,1024,261.5,0,97,4.091,4.094,4.093,4.095,0,0,80.51,6,GPS_Atti,
0.0697504992874215,36.9622724239162,6051.1748081389,135.498692,0,8.5596787516,23400,2017-11-03 05:39:55,18,16.287,6051.1748081389,135.498692,1.41374608,8.924212884,262.3, -3.2, -11.1,0,1,1024,1024,1684,1024,261.5,0,97,4.091,4.094,4.093,4.095,0,0,80.51,6,GPS_Atti,
0.0697503977311401,36.9622723973232,6052.8152281389,137.139112,0,8.5214241572,23500,2017-11-03 05:39:55,18,16.287,6052.8152281389,137.139112,1.41374608,8.924212884,262.3, -3.1, -11.1,0,1,1024,1024,1684,1024,261.5,0,97,4.091,4.094,4.093,4.095,0,0,80.51,6,GPS_Atti,
0.0697502717840244,36.962272373363,6054.4556481389,138.779532,0,8.4750330796,23600,2017-11-03 05:39:55,18,16.287,6054.4556481389,138.779532,1.41374608,8.924212884,262.4, -3.9, -11.7,0,1,1024,1024,1684,1024,261.5,0,97,4.091,4.094,4.093,4.095,0,0,80.51,6,GPS_Atti,
0.069750194042108,36.9622723186102,6056.4241521389,140.748036,0,8.4418637872,23700,2017-11-03 05:39:55,18,16.287,6056.4241521389,140.748036,1.41374608,8.924212884,262.3, -3, -12.1,0,1,1024,1024,1684,1024,261.5,0,97,4.091,4.094,4.093,4.095,0,0,80.51,6,GPS_Atti,
