latitude,longitude,altitude(feet),ascent(feet),speed(mph),distance(feet),time(millisecond),datetime(utc),satellites,voltage(v),max_altitude(feet),max_ascent(feet),max_speed(mph),max_distance(feet),compass_heading(degrees), pitch(degrees), roll(degrees),isPhoto,isVideo,rc_elevator,rc_aileron,rc_throttle,rc_rudder,gimbal_heading(degrees),gimbal_pitch(degrees),battery_percent,voltageCell1,voltageCell2,voltageCell3,voltageCell4,voltageCell5,voltageCell6,battery_temperature(f),flycStateRaw,flycState,message
0.312134026836451,36.8829007450628,5801.1050340606,0,0,0,100,2017-11-07 08:30:41,14,0,5801.1050340606,0,0,0,182, -1.1, 1.2,0,0,1024,1024,1024,1024,186.5,0,97,4.273,4.273,4.273,4.271,0,0,87.71,41,Motors_Started,
0.312134082026657,36.8829008425736,5801.1050340606,0,0,0.040879594484,200,2017-11-07 08:30:41,14,0,5801.1050340606,0,0,0.040879594484,182, -1.1, 1.1,0,0,1024,1024,1024,1024,186.5,0,97,4.273,4.273,4.273,4.271,0,0,87.71,41,Motors_Started,
0.312134116332069,36.8829009281988,5801.1050340606,0,0,0.074367784532,300,2017-11-07 08:30:41,14,0,5801.1050340606,0,0,0.074367784532,182, -1.1, 1.2,0,0,1024,1024,1024,1024,186.5,0,97,4.273,4.273,4.273,4.271,0,0,87.71,41,Motors_Started,
0.312134135046962,36.8829010003367,5801.1050340606,0,0,0.101157483552,400,2017-11-07 08:30:41,14,17.077,5801.1050340606,0,0,0.101157483552,182, -1.1, 1.2,0,0,1024,1024,1024,1024,186.5,0,97,4.273,4.273,4.273,4.271,0,0,87.71,41,Motors_Started,Setting new Return-To-Home altitude to 30m (98 ft). Setting new Maximum Flight Altitude to 100m (328 ft)
0.312134146196104,36.8829010732276,5801.1050340606,0,0,0.127402891216,500,2017-11-07 08:30:41,14,17.077,5801.1050340606,0,0,0.127402891216,182, -1.1, 1.2,0,0,1024,1024,1024,1024,186.5,0,97,4.273,4.273,4.273,4.271,0,0,87.71,41,Motors_Started,
0.312134172050706,36.8829011575493,5801.1050340606,0,0,0.159546921116,600,2017-11-07 08:30:41,14,17.077,5801.1050340606,0,0,0.159546921116,182, -1.1, 1.2,0,0,1024,1024,1024,1024,186.5,0,97,4.273,4.273,4.273,4.271,0,0,87.71,41,Motors_Started,
0.312134195360253,36.8829012457634,5801.1050340606,0,0,0.192747381496,700,2017-11-07 08:30:41,14,17.077,5801.1050340606,0,0,0.192747381496,182, -1.1, 1.2,0,0,1024,1024,1024,1024,186.5,0,97,4.273,4.273,4.273,4.271,0,0,87.71,41,Motors_Started,
0.312134229402264,36.8829013380843,5801.1050340606,0,0,0.228634849836,800,2017-11-07 08:30:41,14,17.077,5801.1050340606,0,0,0.228634849836,182, -1, 1.2,0,0,1024,1024,1024,1024,186.5,0,97,4.273,4.273,4.273,4.271,0,0,87.71,41,Motors_Started,
0.312134264256054,36.8829014193471,5801.1050340606,0,0,0.260813328556,900,2017-11-07 08:30:41,14,17.077,5801.1050340606,0,0,0.260813328556,182, -1, 1.3,0,0,398,394,364,1684,186.5,0,97,4.273,4.273,4.273,4.271,0,0,87.71,41,Motors_Started,
0.312134304875758,36.8829014870741,5801.1050340606,0,0,0.289100402952,1000,2017-11-07 08:30:42,14,17.077,5801.1050340606,0,0,0.289100402952,182, -1, 1.3,0,0,745,663,624,1443,186.5,0,97,4.273,4.273,4.273,4.271,0,0,87.71,41,Motors_Started,
0.31213433218741,36.8829015577123,5801.1050340606,0,0,0.316730325096,1100,2017-11-07 08:30:42,14,17.077,5801.1050340606,0,0,0.316730325096,182, -1, 1.2,0,0,1024,939,838,1247,186.5,0,97,4.273,4.273,4.273,4.271,0,0,87.71,41,Motors_Started,
0.312134343010049,36.8829016453225,5801.1050340606,0,0,0.34812337072,1200,2017-11-07 08:30:42,14,17.077,5801.1050340606,0,0,0.34812337072,182, -1.2, 1.1,0,0,1024,987,975,1081,185.7,0,97,4.273,4.273,4.273,4.271,0,0,87.71,41,Motors_Started,
0.312134360574853,36.88290171686,5801.1050340606,0,0,0.37488190176,1300,2017-11-07 08:30:42,14,17.077,5801.1050340606,0,0,0.37488190176,182, -0.9, 1.3,0,0,1024,1024,1024,1024,184.8,0,97,4.273,4.273,4.273,4.271,0,0,87.71,41,Motors_Started,
0.312134389584768,36.8829017816697,5801.1050340606,0,0,0.4006889892,1400,2017-11-07 08:30:42,14,17.05,5801.1050340606,0,0,0.4006889892,181.9, -1, 1.2,0,0,1024,1024,1024,1024,183.9,0,97,4.272,4.273,4.273,4.271,0,0,87.71,41,Motors_Started,
0.312134423381699,36.8829018328694,5801.1050340606,0,0,0.42242783504,1500,2017-11-07 08:30:42,14,17.05,5801.1050340606,0,0,0.42242783504,182, -0.8, 1.4,0,0,1024,1024,1024,1024,183.4,0,97,4.272,4.273,4.273,4.271,0,0,87.71,10,Assisted_Takeoff,
0.312134461294725,36.8829018868599,5801.1050340606,0,0,0.44571523736,1600,2017-11-07 08:30:42,14,17.05,5801.1050340606,0,0,0.44571523736,181.9, -1.3, 1,0,0,1024,1024,1024,1024,183.1,0,97,4.272,4.273,4.273,4.271,0,0,87.71,10,Assisted_Takeoff,
0.312134501563906,36.8829019465355,5801.1050340606,0,0,0.47132875524,1700,2017-11-07 08:30:42,14,17.05,5801.1050340606,0,0,0.47132875524,181.9, -1.1, 1.2,0,0,1024,1024,1024,1024,182.9,0,97,4.272,4.273,4.273,4.271,0,0,87.71,10,Assisted_Takeoff,
0.312134554664004,36.8829020159604,5801.1050340606,0,0,0.50208006856,1800,2017-11-07 08:30:42,14,17.05,5801.1050340606,0,0,0.50208006856,181.9, -1.2, 1.1,0,0,1024,1024,1024,1024,182.8,0,97,4.272,4.273,4.273,4.271,0,0,87.71,10,Assisted_Takeoff,
0.312134582570445,36.8829020886747,5801.1050340606,0,0,0.53048558128,1900,2017-11-07 08:30:42,14,17.05,5801.1050340606,0,0,0.53048558128,181.9, -1.2, 1.1,0,0,1024,1024,1024,1024,182.7,0,97,4.272,4.273,4.273,4.271,0,0,87.71,10,Assisted_Takeoff,
0.312134612077443,36.8829021413002,5801.1050340606,0,0,0.55234909904,2000,2017-11-07 08:30:43,14,17.05,5801.1050340606,0,0,0.55234909904,181.9, -1, 1.3,0,0,1024,1024,1024,1024,182.6,0,97,4.272,4.273,4.273,4.271,0,0,87.71,10,Assisted_Takeoff,
0.312134632967734,36.8829021933291,5801.1050340606,0,0,0.5728018556,2100,2017-11-07 08:30:43,14,17.05,5801.1050340606,0,0,0.5728018556,181.9, -1.2, 1.1,0,0,1024,1024,1024,1024,182.6,0,97,4.272,4.273,4.273,4.271,0,0,87.71,10,Assisted_Takeoff,
0.312134669489051,36.8829022405976,5801.1050340606,0,0,0.5938812526,2200,2017-11-07 08:30:43,14,17.05,5801.1050340606,0,0,0.5938812526,181.9, -1, 1.3,0,0,1024,1024,1024,1024,182.5,0,97,4.272,4.273,4.273,4.271,0,0,87.71,10,Assisted_Takeoff,
0.312134695815087,36.8829022962976,5801.1050340606,0,0,0.61634516408,2300,2017-11-07 08:30:43,14,17.05,5801.1050340606,0,0,0.61634516408,181.9, -1.2, 1.1,0,0,1024,1024,1024,1024,182.5,0,97,4.272,4.273,4.273,4.271,0,0,87.71,10,Assisted_Takeoff,
0.312134706664595,36.8829023741302,5801.1050340606,0,0,0.64403545368,2400,2017-11-07 08:30:43,14,17.077,5801.1050340606,0,0,0.64403545368,181.9, -1.1, 1.1,0,0,1024,1024,1024,1024,182.4,0,97,4.258,4.255,4.249,4.242,0,0,87.71,10,Assisted_Takeoff,
0.31213471155298,36.882902442655,5801.1050340606,0,0,0.66784122872,2500,2017-11-07 08:30:43,14,17.077,5801.1050340606,0,0,0.66784122872,181.9, -1, 1.2,0,0,1024,1024,1024,1024,182.4,0,97,4.258,4.255,4.249,4.242,0,0,87.71,10,Assisted_Takeoff,
0.312134708210803,36.8829025079499,5801.1050340606,0,0,0.689550547,2600,2017-11-07 08:30:43,14,17.077,5801.1050340606,0,0,0.689550547,181.9, -1.1, 1.1,0,0,1024,1024,1024,1024,182.4,0,97,4.258,4.255,4.249,4.242,0,0,87.71,10,Assisted_Takeoff,
0.31213471263956,36.8829025645009,5801.1050340606,0,0,0.70940290984,2700,2017-11-07 08:30:43,14,17.077,5801.1050340606,0,0,0.70940290984,181.9, -1, 1.2,0,0,1024,1024,1024,1024,182.4,0,97,4.258,4.255,4.249,4.242,0,0,87.71,10,Assisted_Takeoff,
0.312134735260275,36.8829026181087,5801.1050340606,0,0,0.73061682128,2800,2017-11-07 08:30:43,14,17.077,5801.1050340606,0,0,0.73061682128,181.9, -1.1, 1.2,0,0,1024,1024,1024,1024,182.4,0,97,4.258,4.255,4.249,4.242,0,0,87.71,10,Assisted_Takeoff,
0.312134766157354,36.8829026499869,5801.1050340606,0,0,0.74550855404,2900,2017-11-07 08:30:43,14,17.077,5801.1050340606,0,0,0.74550855404,181.9, -1, 1.2,0,0,1024,1024,1024,1024,182.4,0,97,4.258,4.255,4.249,4.242,0,0,87.71,10,Assisted_Takeoff,
0.31213484047221,36.8829026765876,5801.1050340606,0,0,0.76467850216,3100,2017-11-07 08:30:44,14,17.077,5801.1050340606,0,0,0.76467850216,181.9, -1, 1.2,0,0,1024,1024,1024,1024,182.3,0,97,4.258,4.255,4.249,4.242,0,0,87.71,10,Assisted_Takeoff,
0.312134860641914,36.882902701055,5801.1050340606,0,0,0.77576774136,3200,2017-11-07 08:30:44,14,17.077,5801.1050340606,0,0,0.77576774136,181.9, -1.1, 1.2,0,0,1024,1024,1024,1024,182.3,0,97,4.258,4.255,4.249,4.242,0,0,87.71,10,Assisted_Takeoff,
0.312134871561648,36.8829027225714,5801.1050340606,0,0,0.78455383088,3300,2017-11-07 08:30:44,14,17.077,5801.1050340606,0,0,0.78455383088,181.9, -1, 1.2,0,0,1024,1024,1024,1024,182.3,0,97,4.258,4.255,4.249,4.242,0,0,87.71,10,Assisted_Takeoff,
0.312134878001534,36.882902757738,5801.1050340606,0,0,0.79728020924,3400,2017-11-07 08:30:44,14,17.077,5801.1050340606,0,0,0.79728020924,181.9, -1.1, 1.2,0,0,1024,1024,1024,1024,182.3,0,97,4.258,4.255,4.249,4.242,0,0,87.71,10,Assisted_Takeoff,
0.312134875688533,36.8829027778458,5801.1050340606,0,0,0.80371721732,3500,2017-11-07 08:30:44,14,17.077,5801.1050340606,0,0,0.80371721732,181.9, -1, 1.2,0,0,1024,1024,1024,1024,182.3,0,97,4.258,4.255,4.249,4.242,0,0,87.71,10,Assisted_Takeoff,
0.312134873433138,36.8829027887297,5801.1050340606,0,0,0.80706695496,3600,2017-11-07 08:30:44,14,17.077,5801.1050340606,0,0,0.80706695496,181.9, -1.1, 1.2,0,0,1024,1024,1024,1024,182.3,0,97,4.258,4.255,4.249,4.242,0,0,87.71,10,Assisted_Takeoff,
0.312134877891207,36.8829027976729,5801.1050340606,0,0,0.81070212568,3700,2017-11-07 08:30:44,14,17.077,5801.1050340606,0,0,0.81070212568,181.9, -1, 1.2,0,0,1024,1024,1024,1024,182.3,0,97,4.258,4.255,4.249,4.242,0,0,87.71,10,Assisted_Takeoff,
0.312134901791676,36.8829028250713,5801.1050340606,0,0,0.82328742792,3800,2017-11-07 08:30:44,14,17.077,5801.1050340606,0,0,0.82328742792,181.9, -1.1, 1.2,0,0,1024,1024,1024,1024,182.3,0,97,4.258,4.255,4.249,4.242,0,0,87.71,10,Assisted_Takeoff,
0.312134923076864,36.8829028419553,5801.1050340606,0,0,0.83199149644,3900,2017-11-07 08:30:44,14,17.077,5801.1050340606,0,0,0.83199149644,181.9, -1, 1.2,0,0,1024,1024,1024,1024,182.3,0,97,4.258,4.255,4.249,4.242,0,0,87.71,10,Assisted_Takeoff,
0.312134934162089,36.8829028512197,5801.1050340606,0,0,0.83669294016,4000,2017-11-07 08:30:45,14,17.077,5801.1050340606,0,0,0.83669294016,181.9, -1.1, 1.2,0,0,1024,1024,1024,1024,182.3,0,97,4.258,4.255,4.249,4.242,0,0,87.71,10,Assisted_Takeoff,
0.312134939959146,36.8829028615501,5801.1050340606,0,0,0.84099084056,4100,2017-11-07 08:30:45,14,17.077,5801.1050340606,0,0,0.84099084056,181.9, -1, 1.2,0,0,1024,1024,1024,1024,182.3,0,97,4.258,4.255,4.249,4.242,0,0,87.71,10,Assisted_Takeoff,
0.312134942648521,36.8829028906645,5801.1050340606,0,0,0.85113847868,4200,2017-11-07 08:30:45,14,17.077,5801.1050340606,0,0,0.85113847868,181.9, -1.1, 1.2,0,0,1024,1024,1024,1024,182.3,0,97,4.258,4.255,4.249,4.242,0,0,87.71,10,Assisted_Takeoff,
0.312134939314486,36.8829029101528,5801.1050340606,0,0,0.85720803268,4300,2017-11-07 08:30:45,14,17.077,5801.1050340606,0,0,0.85720803268,181.9, -1.1, 1.2,0,0,1024,1024,1024,1024,182.3,0,97,4.258,4.255,4.249,4.242,0,0,87.71,10,Assisted_Takeoff,
0.312134936341761,36.8829029262095,5801.1050340606,0,0,0.86219162864,4400,2017-11-07 08:30:45,14,17.05,5801.1050340606,0,0,0.86219162864,181.9, -1.1, 1.2,0,0,1024,1024,1024,1024,182.3,0,97,4.268,4.268,4.267,4.265,0,0,87.71,10,Assisted_Takeoff,
0.312134929976988,36.8829029246074,5801.1050340606,0,0,0.8607611824,4500,2017-11-07 08:30:45,14,17.05,5801.1050340606,0,0,0.86219162864,181.9, -1.1, 1.2,0,0,1024,1024,1024,1024,182.3,0,97,4.268,4.268,4.267,4.265,0,0,87.71,10,Assisted_Takeoff,
0.31213492386157,36.8829029268005,5801.1050340606,0,0,0.86064963384,4600,2017-11-07 08:30:45,14,17.05,5801.1050340606,0,0,0.86219162864,181.9, -1.1, 1.2,0,0,1024,1024,1024,1024,182.3,0,97,4.268,4.268,4.267,4.265,0,0,87.71,10,Assisted_Takeoff,
0.312134913931319,36.882902934531,5801.1050340606,0,0,0.8618930722,4700,2017-11-07 08:30:45,14,17.05,5801.1050340606,0,0,0.86219162864,181.9, -1.1, 1.2,0,0,1024,1024,1024,1024,182.3,0,97,4.268,4.268,4.267,4.265,0,0,87.71,10,Assisted_Takeoff,
0.312134905793984,36.8829029610276,5801.1050340606,0,0,0.86976052652,4800,2017-11-07 08:30:45,14,17.05,5801.1050340606,0,0,0.86976052652,181.9, -1.1, 1.1,0,0,1024,1024,1024,1024,182.2,0,97,4.268,4.268,4.267,4.265,0,0,87.71,10,Assisted_Takeoff,
0.312134896004593,36.8829029810284,5801.1050340606,0,0,0.875246091,4900,2017-11-07 08:30:45,14,17.05,5801.1050340606,0,0,0.875246091,181.9, -1.1, 1.1,0,0,1024,1024,1024,1024,182.2,0,97,4.268,4.268,4.267,4.265,0,0,87.71,10,Assisted_Takeoff,
0.312134888574206,36.8829029943918,5801.1050340606,0,0,0.87881892576,5000,2017-11-07 08:30:46,14,17.05,5801.1050340606,0,0,0.87881892576,181.9, -1.1, 1.1,0,0,1024,1024,1024,1024,182.2,0,97,4.268,4.268,4.267,4.265,0,0,87.71,10,Assisted_Takeoff,
0.312134880712689,36.8829029993944,5801.1050340606,0,0,0.87950462132,5100,2017-11-07 08:30:46,14,17.05,5801.1050340606,0,0,0.87950462132,181.9, -1.1, 1.2,0,0,1024,1024,1024,1024,182.2,0,97,4.268,4.268,4.267,4.265,0,0,87.71,10,Assisted_Takeoff,
0.312134875535459,36.8829030036554,5801.1050340606,0,0,0.88029202292,5200,2017-11-07 08:30:46,14,17.05,5801.1050340606,0,0,0.88029202292,181.9, -1.1, 1.2,0,0,1024,1024,1024,1024,182.2,0,97,4.268,4.268,4.267,4.265,0,0,87.71,10,Assisted_Takeoff,
0.312134885451665,36.8829030159535,5801.1050340606,0,0,0.88576774488,5300,2017-11-07 08:30:46,14,17.05,5801.1050340606,0,0,0.88576774488,181.9, -1.1, 1.1,0,0,1024,1024,1024,1024,182.2,0,97,4.268,4.268,4.267,4.265,0,0,87.71,10,Assisted_Takeoff,
0.312134912366791,36.8829030453581,5801.1050340606,0,0,0.89929136736,5400,2017-11-07 08:30:46,14,17.024,5801.1050340606,0,0,0.89929136736,181.9, -1.1, 1.1,0,0,1024,1024,1024,1024,182.2,0,97,4.267,4.268,4.268,4.265,0,0,87.71,10,Assisted_Takeoff,
0.312134944881729,36.8829030702435,5801.1050340606,0,0,0.9120571158,5500,2017-11-07 08:30:46,14,17.024,5801.1050340606,0,0,0.9120571158,181.9, -1.1, 1.1,0,0,1024,1024,1132,1024,182.2,0,97,4.267,4.268,4.268,4.265,0,0,87.71,10,Assisted_Takeoff,
0.312134961711494,36.8829030862745,5801.1050340606,0,0,0.91976052812,5600,2017-11-07 08:30:46,14,17.024,5801.1050340606,0,0,0.91976052812,181.8, -1.1, 1.2,0,0,1024,1024,1495,1024,182.2,0,97,4.267,4.268,4.268,4.265,0,0,87.71,10,Assisted_Takeoff,
0.312134979632317,36.8829030946128,5801.1050340606,0,0,0.92502299548,5700,2017-11-07 08:30:46,14,17.024,5801.1050340606,0,0,0.92502299548,181.9, -1, 1.2,0,0,1024,1024,1617,1024,182.2,0,97,4.267,4.268,4.268,4.265,0,0,87.71,10,Assisted_Takeoff,
0.312134991120378,36.8829030978843,5801.1050340606,0,0,0.92771000344,5800,2017-11-07 08:30:46,14,17.024,5801.1050340606,0,0,0.92771000344,181.9, -1, 1.3,0,0,1024,1024,1684,1024,182.2,0,97,4.267,4.268,4.268,4.265,0,0,87.71,10,Assisted_Takeoff,
0.312135001158718,36.8829030938597,5801.1050340606,0,0,0.92774937352,5900,2017-11-07 08:30:46,14,17.024,5801.1050340606,0,0,0.92774937352,181.9, -0.9, 1.3,0,0,1024,1024,1684,1044,182.2,0,97,4.267,4.268,4.268,4.265,0,0,87.71,10,Assisted_Takeoff,
0.312135004231592,36.882903091923,5801.1050340606,0,0,0.92752955724,6000,2017-11-07 08:30:47,14,17.024,5801.1050340606,0,0,0.92774937352,182.1, -0.6, 1.4,0,0,1024,1024,1684,1024,182.2,0,97,4.267,4.268,4.268,4.265,0,0,87.71,10,Assisted_Takeoff,
0.312134987567928,36.8829030811796,5801.1050340606,0,0,0.92158139432,6100,2017-11-07 08:30:47,14,17.024,5801.1050340606,0,0,0.92774937352,182.4, 0.2, 1.7,0,0,1024,1024,1684,1024,182.2,0,97,4.267,4.268,4.268,4.265,0,0,87.71,10,Assisted_Takeoff,Obstacle Avoided. Revise Flight Route
0.312134948531886,36.882903061857,5801.1050340606,0,0,0.90970475352,6200,2017-11-07 08:30:47,14,17.024,5801.1050340606,0,0,0.92774937352,182.5, 0.6, 1.7,0,0,1024,1024,1684,1024,182.2,0,97,4.267,4.268,4.268,4.265,0,0,87.71,6,GPS_Atti,
0.312134907525834,36.8829029880236,5801.1050340606,0,0.223694,0.87915357144,6300,2017-11-07 08:30:47,14,17.024,5801.1050340606,0,0.223694,0.92774937352,182.5, 0.4, 0.8,0,0,1024,1024,1684,1037,182.2,0,97,4.267,4.268,4.268,4.265,0,0,87.71,6,GPS_Atti,
0.312134857861753,36.8829028692974,5801.1050340606,0,0.223694,0.83221131272,6400,2017-11-07 08:30:47,14,17.024,5801.1050340606,0,0.223694,0.92774937352,182.5, 0.8, 0.3,0,0,1024,1024,1684,1024,182.2,0,97,4.267,4.268,4.267,4.265,0,0,87.71,6,GPS_Atti,
0.31213479331125,36.8829027298777,5801.4331180606,0.328084,0.223694,0.77626970988,6500,2017-11-07 08:30:47,14,17.024,5801.4331180606,0.328084,0.223694,0.92774937352,182.5, 0.9, -0.2,0,0,1024,1024,1684,1024,182.2,0,97,4.267,4.268,4.267,4.265,0,0,87.71,6,GPS_Atti,Home Point Recorded. RTH Altitude:  30m.
0.312134709866523,36.8829025954552,5802.0892860606,0.984252,0.223694,0.71962928812,6600,2017-11-07 08:30:47,14,17.024,5802.0892860606,0.984252,0.223694,0.92774937352,182.4, 1.1, -1,0,0,1024,1024,1684,1024,182.2,0,97,4.267,4.268,4.267,4.265,0,0,87.71,6,GPS_Atti,
0.312134597312749,36.8829024688781,5802.7454540606,1.64042,0.31540854,0.66247049364,6700,2017-11-07 08:30:47,14,17.024,5802.7454540606,1.64042,0.31540854,0.92774937352,182.4, 1.4, -1.4,0,0,1024,1024,1684,1024,182.2,0,97,4.267,4.268,4.267,4.265,0,0,87.71,6,GPS_Atti,
0.312134466900847,36.8829023696567,5803.4016220606,2.296588,0.223694,0.61408466532,6800,2017-11-07 08:30:47,14,17.024,5803.4016220606,2.296588,0.31540854,0.92774937352,182.4, 1.9, -1.5,0,0,1024,1024,1684,1024,182.2,0,97,4.267,4.268,4.267,4.265,0,0,87.71,6,GPS_Atti,
0.312134353917367,36.8829022852293,5804.0577900606,2.952756,0,0.57445211812,6900,2017-11-07 08:30:47,14,17.024,5804.0577900606,2.952756,0.31540854,0.92774937352,182.6, 2.3, -1.6,0,0,1024,1024,1684,1024,182.2,0,97,4.267,4.268,4.267,4.265,0,0,87.71,6,GPS_Atti,
0.312134277361975,36.8829022226719,5805.3701260606,4.265092,0,0.54679135608,7000,2017-11-07 08:30:48,14,17.024,5805.3701260606,4.265092,0.31540854,0.92774937352,182.8, 1.6, -0.6,0,0,1024,1024,1684,1024,182.2,0,97,4.267,4.268,4.267,4.265,0,0,87.71,6,GPS_Atti,
0.312134113348353,36.882902163993,5807.9947980606,6.889764,0.223694,0.51864831056,7200,2017-11-07 08:30:48,14,17.024,5807.9947980606,6.889764,0.31540854,0.92774937352,182.6, 2.3, -1.4,0,0,1024,1024,1684,1024,182.2,0,97,4.267,4.268,4.267,4.265,0,0,87.71,6,GPS_Atti,
0.312134020855176,36.8829021596298,5809.3071340606,8.2021,0.223694,0.51610237872,7300,2017-11-07 08:30:48,14,17.024,5809.3071340606,8.2021,0.31540854,0.92774937352,182.6, 2.4, -1.6,0,0,1024,1024,1684,1024,182.3,0,97,4.267,4.268,4.267,4.265,0,0,87.71,6,GPS_Atti,
0.312133904506517,36.8829021438739,5810.9475540606,9.84252,0.223694,0.51229660432,7400,2017-11-07 08:30:48,14,16.55,5810.9475540606,9.84252,0.31540854,0.92774937352,182.6, 2.5, -1.6,0,0,1024,1024,1684,1024,182.3,0,97,4.267,4.268,4.267,4.265,0,0,87.71,6,GPS_Atti,
0.312133778978726,36.8829021307332,5812.5879740606,11.48294,0.31540854,0.51357613192,7500,2017-11-07 08:30:48,14,16.55,5812.5879740606,11.48294,0.31540854,0.92774937352,182.5, 2.8, -1.9,0,0,1024,1024,1684,1024,182.3,0,97,4.267,4.268,4.267,4.265,0,0,87.71,6,GPS_Atti,
0.312133649055255,36.8829021071087,5814.5564780606,13.451444,0.31540854,0.51569555456,7600,2017-11-07 08:30:48,14,16.55,5814.5564780606,13.451444,0.31540854,0.92774937352,182.4, 3.5, -2.2,0,0,1024,1024,1684,1024,182.3,0,97,4.267,4.268,4.267,4.265,0,0,87.71,6,GPS_Atti,
0.312133503703906,36.8829020991387,5816.1968980606,15.091864,0,0.52961287784,7700,2017-11-07 08:30:48,14,16.55,5816.1968980606,15.091864,0.31540854,0.92774937352,182.4, 4.2, -2.5,0,0,1024,1024,1684,1032,182.3,0,97,4.267,4.268,4.267,4.265,0,0,87.71,6,GPS_Atti,
0.312133367301569,36.8829021104016,5817.8373180606,16.732284,0,0.55321195996,7800,2017-11-07 08:30:48,14,16.55,5817.8373180606,16.732284,0.31540854,0.92774937352,182.3, 4.1, -2.9,0,0,1024,1024,1684,1032,182.3,0,97,4.267,4.268,4.267,4.265,0,0,87.71,6,GPS_Atti,
0.312133256161895,36.8829021444103,5819.4777380606,18.372704,0,0.58285106852,7900,2017-11-07 08:30:48,14,16.55,5819.4777380606,18.372704,0.31540854,0.92774937352,182.4, 2.9, -2.6,0,0,1024,1024,1684,1027,182.3,0,97,4.267,4.268,4.267,4.265,0,0,87.71,6,GPS_Atti,
0.312133144398221,36.8829021932379,5821.1181580606,20.013124,0.223694,0.61872377308,8000,2017-11-07 08:30:49,14,16.55,5821.1181580606,20.013124,0.31540854,0.92774937352,182.5, 2.8, -1.6,0,0,1024,1024,1684,1035,182.3,0,97,4.267,4.268,4.267,4.265,0,0,87.71,6,GPS_Atti,
0.312132989383787,36.8829022228515,5822.7585780606,21.653544,0.31540854,0.65876314444,8100,2017-11-07 08:30:49,14,16.55,5822.7585780606,21.653544,0.31540854,0.92774937352,182.4, 4.1, -2,0,0,1024,1024,1684,1032,182.3,0,97,4.267,4.268,4.267,4.265,0,0,87.71,6,GPS_Atti,
0.312132813145589,36.8829022185951,5824.3989980606,23.293964,0.31540854,0.69649608528,8200,2017-11-07 08:30:49,14,16.55,5824.3989980606,23.293964,0.31540854,0.92774937352,182.3, 4.9, -2.9,0,0,1024,1024,1684,1032,182.3,0,97,4.267,4.268,4.267,4.265,0,0,87.71,6,GPS_Atti,
0.312132656056415,36.8829022076041,5826.0394180606,24.934384,0.223694,0.73133860608,8300,2017-11-07 08:30:49,14,16.55,5826.0394180606,24.934384,0.31540854,0.92774937352,182.3, 5.1, -3.8,0,0,1024,1024,1684,1040,182.3,0,97,4.267,4.268,4.267,4.265,0,0,87.71,6,GPS_Atti,
0.312132535848471,36.8829022031746,5827.6798380606,26.574804,0,0.76087272776,8400,2017-11-07 08:30:49,14,16.366,5827.6798380606,26.574804,0.31540854,0.92774937352,182.4, 4.3, -3.8,0,0,1024,1024,1684,1057,182.3,0,97,4.12,4.122,4.115,4.103,0,0,87.71,6,GPS_Atti,
0.312132448698194,36.8829022239561,5829.3202580606,28.215224,0,0.78908467092,8500,2017-11-07 08:30:49,14,16.366,5829.3202580606,28.215224,0.31540854,0.92774937352,182.5, 3, -3.2,0,0,1024,1024,1684,1057,182.3,0,97,4.12,4.122,4.115,4.103,0,0,87.71,6,GPS_Atti,
0.31213236344812,36.8829022538738,5830.9606780606,29.855644,0,0.81935370076,8600,2017-11-07 08:30:49,14,16.366,5830.9606780606,29.855644,0.31540854,0.92774937352,182.6, 3.6, -3.2,0,0,1024,1024,1684,1056,182.3,0,97,4.12,4.122,4.115,4.103,0,0,87.71,6,GPS_Atti,
0.312132260104647,36.8829022693888,5832.6010980606,31.496064,0.223694,0.8513451716,8700,2017-11-07 08:30:49,14,16.366,5832.6010980606,31.496064,0.31540854,0.92774937352,182.8, 4.5, -3.4,0,0,1024,1024,1684,1053,182.3,0,97,4.12,4.122,4.115,4.103,0,0,87.71,6,GPS_Atti,
0.312132162683668,36.8829022752928,5834.2415180606,33.136484,0.223694,0.87993113052,8800,2017-11-07 08:30:49,14,16.366,5834.2415180606,33.136484,0.31540854,0.92774937352,183, 4.5, -3.6,0,0,1024,1024,1684,1059,182.3,0,97,4.12,4.122,4.115,4.103,0,0,87.71,6,GPS_Atti,
0.312132113966747,36.8829022694728,5835.8819380606,34.776904,0,0.89241472672,8900,2017-11-07 08:30:49,14,16.366,5835.8819380606,34.776904,0.31540854,0.92774937352,183.2, 3.8, -4.5,0,0,1024,1024,1684,1060,182.3,0,97,4.12,4.122,4.115,4.103,0,0,87.71,6,GPS_Atti,
0.312132108252066,36.8829022875573,5837.5223580606,36.417324,0,0.89816603924,9000,2017-11-07 08:30:50,14,16.366,5837.5223580606,36.417324,0.31540854,0.92774937352,183.6, 3.6, -4.2,0,0,1024,1024,1684,1055,182.4,0,97,4.12,4.122,4.115,4.103,0,0,87.71,6,GPS_Atti,
0.312132127381875,36.8829023432768,5839.1627780606,38.057744,0,0.90568900536,9100,2017-11-07 08:30:50,14,16.366,5839.1627780606,38.057744,0.31540854,0.92774937352,183.9, 3.3, -3.9,0,0,1024,1024,1684,1057,182.5,0,97,4.12,4.122,4.115,4.103,0,0,87.71,6,GPS_Atti,
0.312132162152843,36.8829024388188,5840.8031980606,39.698164,0.223694,0.91908467508,9200,2017-11-07 08:30:50,14,16.366,5840.8031980606,39.698164,0.31540854,0.92774937352,184.3, 2.4, -3.5,0,0,1024,1024,1684,1058,182.5,0,97,4.12,4.122,4.115,4.103,0,0,87.71,6,GPS_Atti,
0.312132214670539,36.8829025459197,5842.4436180606,41.338584,0,0.93211289072,9300,2017-11-07 08:30:50,14,16.366,5842.4436180606,41.338584,0.31540854,0.93211289072,184.6, 1.4, -3.5,0,0,1024,1024,1684,1057,182.6,0,97,4.12,4.122,4.115,4.103,0,0,87.71,6,GPS_Atti,
0.312132239731931,36.8829026548766,5844.0840380606,42.979004,0,0.95427496492,9400,2017-11-07 08:30:50,14,16.392,5844.0840380606,42.979004,0.31540854,0.95427496492,184.9, 0.7, -3.4,0,0,1024,1024,1684,1058,182.8,0,97,4.135,4.139,4.134,4.128,0,0,87.71,6,GPS_Atti,
0.312132214709091,36.88290277943,5845.7244580606,44.619424,0,0.99399281396,9500,2017-11-07 08:30:50,14,16.392,5845.7244580606,44.619424,0.31540854,0.99399281396,185.1, 1.2, -2.5,0,0,1024,1024,1684,1060,182.9,0,97,4.135,4.139,4.134,4.128,0,0,87.71,6,GPS_Atti,
0.312132136754486,36.8829028999249,5847.3648780606,46.259844,0,1.04577103084,9600,2017-11-07 08:30:50,14,16.392,5847.3648780606,46.259844,0.31540854,1.04577103084,185.2, 1.9, -2,0,0,1024,1024,1684,1061,183.1,0,97,4.135,4.139,4.134,4.128,0,0,87.71,6,GPS_Atti,
0.312132020310887,36.8829029879656,5849.0052980606,47.900264,0,1.09798559944,9700,2017-11-07 08:30:50,14,16.392,5849.0052980606,47.900264,0.31540854,1.09798559944,185.4, 3.1, -3.2,0,0,1024,1024,1684,1059,183.2,0,97,4.135,4.139,4.134,4.128,0,0,87.71,6,GPS_Atti,
0.312131888821769,36.8829030595973,5850.6457180606,49.540684,0,1.14959649348,9800,2017-11-07 08:30:50,14,16.392,5850.6457180606,49.540684,0.31540854,1.14959649348,185.6, 4, -3.7,0,0,1024,1024,1684,1061,183.4,0,97,4.135,4.139,4.134,4.128,0,0,87.71,6,GPS_Atti,
0.312131772514711,36.8829031398106,5852.2861380606,51.181104,0,1.19993770244,9900,2017-11-07 08:30:50,14,16.392,5852.2861380606,51.181104,0.31540854,1.19993770244,185.8, 4.7, -3.6,0,0,1024,1024,1684,1061,183.4,0,97,4.135,4.139,4.134,4.128,0,0,87.71,6,GPS_Atti,
0.312131708331016,36.8829032187868,5853.9265580606,52.821524,0,1.2369751052,10000,2017-11-07 08:30:51,14,16.392,5853.9265580606,52.821524,0.31540854,1.2369751052,186, 4.6, -4,0,0,1024,1024,1684,1059,183.6,0,97,4.135,4.139,4.134,4.128,0,0,87.71,6,GPS_Atti,
0.31213167932222,36.8829033123434,5855.5669780606,54.461944,0,1.26921263904,10100,2017-11-07 08:30:51,14,16.392,5855.5669780606,54.461944,0.31540854,1.26921263904,186.4, 3.8, -3.9,0,0,1024,1024,1684,1059,183.8,0,97,4.135,4.139,4.134,4.128,0,0,87.71,6,GPS_Atti,
0.312131664614979,36.8829034192918,5857.2073980606,56.102364,0,1.3018209078,10200,2017-11-07 08:30:51,14,16.392,5857.2073980606,56.102364,0.31540854,1.3018209078,186.8, 3.1, -3.3,0,0,1024,1024,1684,1057,184.1,0,97,4.135,4.139,4.134,4.128,0,0,87.71,6,GPS_Atti,
0.312131664539205,36.8829035200367,5858.8478180606,57.742784,0,1.3296096226,10300,2017-11-07 08:30:51,14,16.392,5858.8478180606,57.742784,0.31540854,1.3296096226,187, 3.2, -3.1,0,0,1024,1024,1684,1057,184.3,0,97,4.135,4.139,4.134,4.128,0,0,87.71,6,GPS_Atti,
0.312131679081363,36.8829035992294,5860.4882380606,59.383204,0,1.34836290404,10400,2017-11-07 08:30:51,14,16.392,5860.4882380606,59.383204,0.31540854,1.34836290404,187.3, 3.1, -3.3,0,0,1024,1024,1684,1056,184.5,0,97,4.127,4.132,4.125,4.118,0,0,87.71,6,GPS_Atti,
0.312131701593329,36.8829036637444,5862.1286580606,61.023624,0,1.36148954488,10500,2017-11-07 08:30:51,14,16.392,5862.1286580606,61.023624,0.31540854,1.36148954488,187.5, 2.7, -3.5,0,0,1024,1024,1684,1055,184.7,0,97,4.127,4.132,4.125,4.118,0,0,87.71,6,GPS_Atti,
0.312131690425104,36.8829037185003,5863.7690780606,62.664044,0,1.37968508352,10600,2017-11-07 08:30:51,14,16.392,5863.7690780606,62.664044,0.31540854,1.37968508352,187.6, 3.2, -3.5,0,0,1024,1024,1684,1054,184.7,0,97,4.127,4.132,4.125,4.118,0,0,87.71,6,GPS_Atti,
0.312131669953425,36.8829037696628,5865.7375820606,64.632548,0,1.39898954608,10700,2017-11-07 08:30:51,14,16.392,5865.7375820606,64.632548,0.31540854,1.39898954608,187.7, 4.1, -3.6,0,0,1024,1024,1684,1048,185.1,0,97,4.127,4.132,4.125,4.118,0,0,87.71,6,GPS_Atti,
0.312131650267624,36.8829038197494,5867.3780020606,66.272968,0,1.41782812936,10800,2017-11-07 08:30:51,14,16.392,5867.3780020606,66.272968,0.31540854,1.41782812936,187.8, 4.1, -3.2,0,0,1024,1024,1684,1034,185.3,0,97,4.127,4.132,4.125,4.118,0,0,87.71,6,GPS_Atti,
0.312131640334624,36.8829038708664,5869.0184220606,67.913388,0,1.4348261614,10900,2017-11-07 08:30:51,14,16.392,5869.0184220606,67.913388,0.31540854,1.4348261614,187.9, 3.9, -2.9,0,0,1024,1024,1684,1024,185.5,0,97,4.127,4.132,4.125,4.118,0,0,87.71,6,GPS_Atti,
0.312131626776861,36.882903915538,5870.6588420606,69.553808,0,1.45079400968,11000,2017-11-07 08:30:52,14,16.392,5870.6588420606,69.553808,0.31540854,1.45079400968,187.9, 4, -2.8,0,0,1024,1024,1684,1031,185.7,0,97,4.127,4.132,4.125,4.118,0,0,87.71,6,GPS_Atti,
0.312131613014881,36.8829039680194,5872.2992620606,71.194228,0,1.4691109394,11100,2017-11-07 08:30:52,14,16.392,5872.2992620606,71.194228,0.31540854,1.4691109394,188, 4, -2.9,0,0,1024,1024,1684,1037,185.8,0,97,4.127,4.132,4.125,4.118,0,0,87.71,6,GPS_Atti,
0.312131604303214,36.8829040244038,5873.9396820606,72.834648,0,1.48751317096,11200,2017-11-07 08:30:52,14,16.392,5873.9396820606,72.834648,0.31540854,1.48751317096,188, 3.7, -3,0,0,1024,1024,1684,1041,185.9,0,97,4.127,4.132,4.125,4.118,0,0,87.71,6,GPS_Atti,
0.312131600070329,36.8829040679372,5875.5801020606,74.475068,0,1.50122708216,11300,2017-11-07 08:30:52,14,16.392,5875.5801020606,74.475068,0.31540854,1.50122708216,187.9, 3.6, -2.9,0,0,1024,1024,1684,1033,185.9,0,97,4.127,4.132,4.125,4.118,0,0,87.71,6,GPS_Atti,
0.312131603637333,36.8829040817222,5877.2205220606,76.115488,0,1.5045276072,11400,2017-11-07 08:30:52,14,16.419,5877.2205220606,76.115488,0.31540854,1.5045276072,188, 3.7, -2.7,0,0,1024,1024,1684,1034,186,0,97,4.127,4.132,4.125,4.118,0,0,87.71,6,GPS_Atti,
0.312131606989943,36.8829040908126,5879.1890260606,78.083992,0,1.5064961112,11500,2017-11-07 08:30:52,14,16.419,5879.1890260606,78.083992,0.31540854,1.5064961112,187.9, 3.7, -2.8,0,0,1024,1024,1684,1032,186.2,0,97,4.127,4.132,4.125,4.118,0,0,87.71,6,GPS_Atti,
0.312131607890422,36.8829041058919,5880.8294460606,79.724412,0,1.51076448404,11600,2017-11-07 08:30:52,14,16.419,5880.8294460606,79.724412,0.31540854,1.51076448404,187.9, 3.6, -3,0,0,1024,1024,1684,1041,186.2,0,97,4.127,4.132,4.125,4.118,0,0,87.71,6,GPS_Atti,
0.312131601347487,36.882904134193,5882.4698660606,81.364832,0,1.52054466808,11700,2017-11-07 08:30:52,14,16.419,5882.4698660606,81.364832,0.31540854,1.52054466808,187.9, 3.7, -3.1,0,0,1024,1024,1684,1041,186.3,0,97,4.127,4.132,4.125,4.118,0,0,87.71,6,GPS_Atti,
0.312131589154614,36.8829041746956,5884.1102860606,83.005252,0,1.53515752944,11800,2017-11-07 08:30:52,14,16.419,5884.1102860606,83.005252,0.31540854,1.53515752944,187.9, 3.9, -2.6,0,0,1024,1024,1684,1041,186.4,0,97,4.127,4.132,4.125,4.118,0,0,87.71,6,GPS_Atti,
0.312131572428866,36.8829042176178,5886.0787900606,84.973756,0,1.55146330424,11900,2017-11-07 08:30:52,14,16.419,5886.0787900606,84.973756,0.31540854,1.55146330424,187.9, 4.2, -2,0,0,1024,1024,1684,1043,186.5,0,97,4.127,4.132,4.125,4.118,0,0,87.71,6,GPS_Atti,
0.312131560214773,36.8829042362825,5887.7192100606,86.614176,0,1.5595965066,12000,2017-11-07 08:30:53,14,16.419,5887.7192100606,86.614176,0.31540854,1.5595965066,187.8, 4.5, -1.8,0,0,1024,1024,1684,1044,186.5,0,97,4.127,4.132,4.125,4.118,0,0,87.71,6,GPS_Atti,
0.312131564596814,36.8829042478797,5889.3596300606,88.254596,0,1.56213587676,12100,2017-11-07 08:30:53,14,16.419,5889.3596300606,88.254596,0.31540854,1.56213587676,187.8, 4.3, -2.1,0,0,1024,1024,1684,1046,186.6,0,97,4.127,4.132,4.125,4.118,0,0,87.71,6,GPS_Atti,
0.31213158298047,36.8829042563566,5891.0000500606,89.895016,0,1.56082354076,12200,2017-11-07 08:30:53,14,16.419,5891.0000500606,89.895016,0.31540854,1.56213587676,187.9, 4.1, -2.6,0,0,1024,1024,1684,1052,186.6,0,97,4.127,4.132,4.125,4.118,0,0,87.71,6,GPS_Atti,
0.312131619033966,36.882904265652,5892.9685540606,91.86352,0,1.55614506292,12300,2017-11-07 08:30:53,14,16.419,5892.9685540606,91.86352,0.31540854,1.56213587676,187.9, 3.9, -2.9,0,0,1024,1024,1684,1059,186.7,0,97,4.127,4.132,4.125,4.118,0,0,87.71,6,GPS_Atti,
0.312131664476866,36.882904277731,5894.6089740606,93.50394,0,1.5505085798,12400,2017-11-07 08:30:53,14,16.419,5894.6089740606,93.50394,0.31540854,1.56213587676,187.9, 4.1, -2.5,0,0,1024,1024,1684,1057,186.7,0,97,4.117,4.121,4.116,4.108,0,0,87.71,6,GPS_Atti,
0.312131716695875,36.8829042959198,5896.2493940606,95.14436,0,1.54555779224,12500,2017-11-07 08:30:53,14,16.419,5896.2493940606,95.14436,0.31540854,1.56213587676,188.2, 3.9, -2.2,0,0,1024,1024,1684,1059,186.8,0,97,4.117,4.121,4.116,4.108,0,0,87.71,6,GPS_Atti,
0.312131758853542,36.8829043084746,5897.8898140606,96.78478,0,1.54108600732,12600,2017-11-07 08:30:53,14,16.419,5897.8898140606,96.78478,0.31540854,1.56213587676,188.4, 3.4, -2.2,0,0,1024,1024,1684,1058,186.9,0,97,4.117,4.121,4.116,4.108,0,0,87.71,6,GPS_Atti,
0.312131815269712,36.8829043189354,5899.8583180606,98.753284,0,1.53337603332,12700,2017-11-07 08:30:53,14,16.419,5899.8583180606,98.753284,0.31540854,1.56213587676,188.5, 3.4, -2,0,0,1024,1024,1684,1058,187,0,97,4.117,4.121,4.116,4.108,0,0,87.71,6,GPS_Atti,
0.312131874630567,36.8829043200301,5901.4987380606,100.393704,0,1.52243115108,12800,2017-11-07 08:30:53,14,16.419,5901.4987380606,100.393704,0.31540854,1.56213587676,188.7, 3.8, -1.9,0,0,1024,1024,1684,1060,187,0,97,4.117,4.121,4.116,4.108,0,0,87.71,6,GPS_Atti,
0.312131925122381,36.8829043246598,5903.1391580606,102.034124,0,1.5144685524,12900,2017-11-07 08:30:53,14,16.419,5903.1391580606,102.034124,0.31540854,1.56213587676,188.8, 3.8, -1.9,0,0,1024,1024,1684,1061,187.1,0,97,4.117,4.121,4.116,4.108,0,0,87.71,6,GPS_Atti,
0.312131941794365,36.8829043340382,5904.7795780606,103.674544,0,1.51435700384,13000,2017-11-07 08:30:54,14,16.419,5904.7795780606,103.674544,0.31540854,1.56213587676,189, 3.9, -2,0,0,1024,1024,1684,1060,187.2,0,97,4.117,4.121,4.116,4.108,0,0,87.71,6,GPS_Atti,
0.312131958421262,36.8829043248044,5906.4199980606,105.314964,0,1.5083989984,13100,2017-11-07 08:30:54,14,16.419,5906.4199980606,105.314964,0.31540854,1.56213587676,189.2, 4, -2.1,0,0,1024,1024,1684,1059,187.3,0,97,4.117,4.121,4.116,4.108,0,0,87.71,6,GPS_Atti,
0.312131978109608,36.8829042903602,5908.0604180606,106.955384,0,1.49392393232,13200,2017-11-07 08:30:54,14,16.419,5908.0604180606,106.955384,0.31540854,1.56213587676,189.4, 4.2, -2.1,0,0,1024,1024,1684,1057,187.4,0,97,4.117,4.121,4.116,4.108,0,0,87.71,6,GPS_Atti,
0.312132015886073,36.8829042538027,5910.0289220606,108.923888,0,1.4754921732,13300,2017-11-07 08:30:54,14,16.419,5910.0289220606,108.923888,0.31540854,1.56213587676,189.6, 4.3, -2.3,0,0,1024,1024,1684,1057,187.6,0,97,4.117,4.121,4.116,4.108,0,0,87.71,6,GPS_Atti,
0.312132060990232,36.882904232727,5911.6693420606,110.564308,0,1.46067261892,13400,2017-11-07 08:30:54,14,16.34,5911.6693420606,110.564308,0.31540854,1.56213587676,189.8, 4.1, -2.5,0,0,1024,1024,1684,1056,187.7,0,97,4.112,4.116,4.112,4.103,0,0,87.71,6,GPS_Atti,
0.312132120857482,36.8829042305564,5913.3097620606,112.204728,0,1.4493766868,13500,2017-11-07 08:30:54,14,16.34,5913.3097620606,112.204728,0.31540854,1.56213587676,189.9, 3.9, -2.3,0,0,1024,1024,1684,1054,187.8,0,97,4.112,4.116,4.112,4.103,0,0,87.71,6,GPS_Atti,
0.312132177173356,36.8829042446047,5914.9501820606,113.845148,0,1.44416343204,13600,2017-11-07 08:30:54,14,16.34,5914.9501820606,113.845148,0.31540854,1.56213587676,190.1, 3.9, -2,0,0,1024,1024,1684,1055,187.9,0,97,4.112,4.116,4.112,4.103,0,0,87.71,6,GPS_Atti,
0.312132242241497,36.8829042646928,5916.5906020606,115.485568,0,1.43975398308,13700,2017-11-07 08:30:54,14,16.34,5916.5906020606,115.485568,0.31540854,1.56213587676,190.2, 3.9, -1.8,0,0,1024,1024,1684,1055,188.1,0,97,4.112,4.116,4.112,4.103,0,0,87.71,6,GPS_Atti,
0.312132297498046,36.882904279892,5918.2310220606,117.125988,0,1.43573167324,13800,2017-11-07 08:30:54,14,16.34,5918.2310220606,117.125988,0.31540854,1.56213587676,190.3, 3.7, -1.8,0,0,1024,1024,1684,1039,188.2,0,97,4.112,4.116,4.112,4.103,0,0,87.71,6,GPS_Atti,
0.312132358950981,36.8829042798802,5920.1995260606,119.094492,0,1.42601382516,13900,2017-11-07 08:30:54,14,16.34,5920.1995260606,119.094492,0.31540854,1.56213587676,190.4, 3.5, -1.7,0,0,1024,1024,1684,1024,188.3,0,97,4.112,4.116,4.112,4.103,0,0,87.71,6,GPS_Atti,
0.312132404197984,36.8829042574427,5921.8399460606,120.734912,0,1.4116142184,14000,2017-11-07 08:30:55,14,16.34,5921.8399460606,120.734912,0.31540854,1.56213587676,190.4, 3.7, -1.3,0,0,1024,1024,1684,1024,188.4,0,97,4.112,4.116,4.112,4.103,0,0,87.71,6,GPS_Atti,
0.312132474000626,36.8829042167822,5923.4803660606,122.375332,0,1.38756894204,14100,2017-11-07 08:30:55,14,16.34,5923.4803660606,122.375332,0.31540854,1.56213587676,190.4, 3.9, -1.7,0,0,1024,1024,1684,1024,188.5,0,97,4.112,4.116,4.112,4.103,0,0,87.71,6,GPS_Atti,
0.312132557347468,36.882904176787,5925.4488700606,124.343836,0,1.3620079176,14200,2017-11-07 08:30:55,14,16.34,5925.4488700606,124.343836,0.31540854,1.56213587676,190.4, 3.6, -2.3,0,0,1024,1024,1684,1024,188.5,0,97,4.112,4.116,4.112,4.103,0,0,87.71,6,GPS_Atti,
0.312132647761783,36.8829041439685,5927.0892900606,125.984256,0,1.33826119768,14300,2017-11-07 08:30:55,14,16.34,5927.0892900606,125.984256,0.31540854,1.56213587676,190.4, 3.2, -2.5,0,0,1024,1024,1684,1024,188.6,0,97,4.112,4.116,4.112,4.103,0,0,87.71,6,GPS_Atti,
0.312132698394178,36.8829041360044,5928.7297100606,127.624676,0,1.32871723412,14400,2017-11-07 08:30:55,14,16.314,5928.7297100606,127.624676,0.31540854,1.56213587676,190.4, 3.3, -2,0,0,1024,1024,1684,970,188.7,0,97,4.105,4.111,4.107,4.097,0,0,87.71,6,GPS_Atti,
0.312132751834367,36.8829041253381,5930.3701300606,129.265096,0,1.31809059336,14500,2017-11-07 08:30:55,14,16.314,5930.3701300606,129.265096,0.31540854,1.56213587676,190.3, 3.8, -1.9,0,0,1024,1024,1684,970,188.7,0,97,4.105,4.111,4.107,4.097,0,0,87.71,6,GPS_Atti,
0.312132795134591,36.8829041076487,5932.0105500606,130.905516,0,1.30653547488,14600,2017-11-07 08:30:55,14,16.314,5932.0105500606,130.905516,0.31540854,1.56213587676,189.8, 4.4, -1.7,0,0,1024,1024,1684,937,188.6,0,97,4.105,4.111,4.107,4.097,0,0,87.71,6,GPS_Atti,
0.312132849107841,36.8829040879504,5933.9790540606,132.87402,0,1.29311355844,14700,2017-11-07 08:30:55,14,16.314,5933.9790540606,132.87402,0.31540854,1.56213587676,189.2, 4.6, -1.5,0,0,1024,1024,1684,945,188.5,0,97,4.105,4.111,4.107,4.097,0,0,87.71,6,GPS_Atti,
0.312132892535083,36.882904066736,5935.6194740606,134.51444,0,1.28060699636,14800,2017-11-07 08:30:55,14,16.314,5935.6194740606,134.51444,0.31540854,1.56213587676,188.6, 4.2, -2,0,0,1024,1024,1684,959,188,0,97,4.105,4.111,4.107,4.097,0,0,87.71,6,GPS_Atti,
0.312132975726486,36.8829040230607,5937.2598940606,136.15486,0,1.2559383604,14900,2017-11-07 08:30:55,14,16.314,5937.2598940606,136.15486,0.31540854,1.56213587676,187.7, 3.5, -2.1,0,0,1024,1024,1684,961,187.7,0,97,4.105,4.111,4.107,4.097,0,0,87.71,6,GPS_Atti,
0.312133066469339,36.8829039564228,5938.9003140606,137.79528,0,1.2229167058,15000,2017-11-07 08:30:56,14,16.314,5938.9003140606,137.79528,0.31540854,1.56213587676,187, 3.2, -2.5,0,0,1024,1024,1684,975,187.5,0,97,4.105,4.111,4.107,4.097,0,0,87.71,6,GPS_Atti,
0.312133144954131,36.8829038694661,5940.8688180606,139.763784,0,1.18445869932,15100,2017-11-07 08:30:56,14,16.314,5940.8688180606,139.763784,0.31540854,1.56213587676,186.5, 3.1, -2.6,0,0,1024,1024,1684,978,187.3,0,97,4.105,4.111,4.107,4.097,0,0,87.71,6,GPS_Atti,
0.312133177452886,36.8829037738852,5942.5092380606,141.404204,0,1.14767720208,15200,2017-11-07 08:30:56,14,16.314,5942.5092380606,141.404204,0.31540854,1.56213587676,186, 3.2, -3.3,0,0,1024,1024,1684,1009,187.2,0,97,4.105,4.111,4.107,4.097,0,0,87.71,6,GPS_Atti,
0.312133186101247,36.8829036739787,5944.4777420606,143.372708,0,1.11175200408,15300,2017-11-07 08:30:56,14,16.314,5944.4777420606,143.372708,0.31540854,1.56213587676,185.6, 3.8, -4.1,0,0,1024,1024,1684,997,187.1,0,97,4.105,4.111,4.107,4.097,0,0,87.71,6,GPS_Atti,
0.312133153899072,36.8829036136589,5946.1181620606,145.013128,0,1.09397641296,15400,2017-11-07 08:30:56,14,16.314,5946.1181620606,145.013128,0.31540854,1.56213587676,185.5, 4.9, -3.5,0,0,1024,1024,1684,985,187.1,0,97,4.105,4.111,4.107,4.097,0,0,87.71,6,GPS_Atti,
0.312133125935229,36.8829035604258,5948.0866660606,146.981632,0,1.0784777248,15500,2017-11-07 08:30:56,14,16.314,5948.0866660606,146.981632,0.31540854,1.56213587676,185.4, 5.3, -3.1,0,0,1024,1024,1684,1009,187,0,97,4.105,4.111,4.107,4.097,0,0,87.71,6,GPS_Atti,
0.312133101387351,36.8829035007912,5949.7270860606,148.622052,0,1.06059386596,15600,2017-11-07 08:30:56,14,16.314,5949.7270860606,148.622052,0.31540854,1.56213587676,185.2, 5.3, -3,0,0,1024,1024,1684,997,187,0,97,4.105,4.111,4.107,4.097,0,0,87.71,6,GPS_Atti,
0.31213309901308,36.8829034289079,5951.6955900606,150.590556,0,1.03604662108,15700,2017-11-07 08:30:56,14,16.314,5951.6955900606,150.590556,0.31540854,1.56213587676,185.2, 5, -3.4,0,0,1024,1024,1684,1000,187,0,97,4.105,4.111,4.107,4.097,0,0,87.71,6,GPS_Atti,
0.31213309474157,36.8829033640667,5953.3360100606,152.230976,0,1.01424215844,15800,2017-11-07 08:30:56,14,16.314,5953.3360100606,152.230976,0.31540854,1.56213587676,185.2, 5, -3.8,0,0,1024,1024,1684,998,186.9,0,97,4.105,4.111,4.107,4.097,0,0,87.71,6,GPS_Atti,
0.3121330795833,36.882903306309,5954.9764300606,153.871396,0,0.99631892952,15900,2017-11-07 08:30:56,14,16.314,5954.9764300606,153.871396,0.31540854,1.56213587676,185.1, 5.2, -3.8,0,0,1024,1024,1684,975,186.9,0,97,4.105,4.111,4.107,4.097,0,0,87.71,6,GPS_Atti,
0.312133036467803,36.8829032688811,5956.6168500606,155.511816,0,0.98916013664,16000,2017-11-07 08:30:57,14,16.314,5956.6168500606,155.511816,0.31540854,1.56213587676,185, 5.3, -3.9,0,0,1024,1024,1684,980,186.8,0,97,4.105,4.111,4.107,4.097,0,0,87.71,6,GPS_Atti,
0.312133002833361,36.8829032541214,5958.2572700606,157.152236,0,0.98872050408,16100,2017-11-07 08:30:57,14,16.314,5958.2572700606,157.152236,0.31540854,1.56213587676,184.7, 5.5, -3.6,0,0,1024,1024,1684,983,186.7,0,97,4.105,4.111,4.107,4.097,0,0,87.71,6,GPS_Atti,
0.312132983498845,36.882903264599,5959.8976900606,158.792656,0,0.99493769588,16200,2017-11-07 08:30:57,14,16.314,5959.8976900606,158.792656,0.31540854,1.56213587676,184.4, 5.5, -2.9,0,0,1024,1024,1684,981,186.6,0,97,4.105,4.111,4.107,4.097,0,0,87.71,6,GPS_Atti,
0.31213299445064,36.882903282453,5961.5381100606,160.433076,0,0.99944557004,16300,2017-11-07 08:30:57,14,16.314,5961.5381100606,160.433076,0.31540854,1.56213587676,184.1, 5.3, -2.8,0,0,1024,1024,1684,975,186.4,0,97,4.105,4.111,4.107,4.097,0,0,87.71,6,GPS_Atti,
0.312133013057852,36.8829033046831,5963.1785300606,162.073496,0,1.00444228936,16400,2017-11-07 08:30:57,14,16.314,5963.1785300606,162.073496,0.31540854,1.56213587676,183.9, 4.9, -3,0,0,1024,1024,1684,980,186.3,0,96,4.105,4.109,4.107,4.099,0,0,87.71,6,GPS_Atti,
0.312133027363224,36.8829033135939,5964.8189500606,163.713916,0,1.0055610558,16500,2017-11-07 08:30:57,14,16.314,5964.8189500606,163.713916,0.31540854,1.56213587676,183.6, 4.8, -2.9,0,0,1024,1024,1684,980,186.1,0,96,4.105,4.109,4.107,4.099,0,0,87.71,6,GPS_Atti,
0.312133011486861,36.8829032992399,5966.4593700606,165.354336,0,1.00280843104,16600,2017-11-07 08:30:57,14,16.314,5966.4593700606,165.354336,0.31540854,1.56213587676,183.2, 4.8, -2.8,0,0,1024,1024,1684,986,185.9,0,96,4.105,4.109,4.107,4.099,0,0,87.71,6,GPS_Atti,
0.31213301438427,36.8829032696083,5968.0997900606,166.994756,0,0.99237535984,16700,2017-11-07 08:30:57,14,16.314,5968.0997900606,166.994756,0.31540854,1.56213587676,182.9, 5, -3,0,0,1024,1024,1684,986,185.8,0,96,4.105,4.109,4.107,4.099,0,0,87.71,6,GPS_Atti,
0.31213303237191,36.8829032489044,5969.7402100606,168.635176,0,0.98292982148,16800,2017-11-07 08:30:57,14,16.314,5969.7402100606,168.635176,0.31540854,1.56213587676,182.7, 5.2, -3.4,0,0,1024,1024,1684,975,185.6,0,96,4.105,4.109,4.107,4.099,0,0,87.71,6,GPS_Atti,
0.312133067133744,36.8829032230654,5971.3806300606,170.275596,0,0.9695210284,16900,2017-11-07 08:30:57,14,16.314,5971.3806300606,170.275596,0.31540854,1.56213587676,182.5, 5.1, -3.6,0,0,1024,1024,1684,996,185.4,0,96,4.105,4.109,4.107,4.099,0,0,87.71,6,GPS_Atti,
0.312133095578895,36.882903214616,5973.0210500606,171.916016,0,0.96293638252,17000,2017-11-07 08:30:58,14,16.314,5973.0210500606,171.916016,0.31540854,1.56213587676,182.2, 4.8, -3.6,0,0,1024,1024,1684,998,185.4,0,96,4.105,4.109,4.107,4.099,0,0,87.71,6,GPS_Atti,
0.312133127097429,36.8829031977226,5974.6614700606,173.556436,0,0.9531496368,17100,2017-11-07 08:30:58,14,16.314,5974.6614700606,173.556436,0.31540854,1.56213587676,182.1, 4, -3.6,0,0,1024,1024,1684,1009,185.2,0,96,4.105,4.109,4.107,4.099,0,0,87.71,6,GPS_Atti,
0.312133124846614,36.8829031848822,5976.6299740606,175.52494,0,0.94903874428,17200,2017-11-07 08:30:58,14,16.314,5976.6299740606,175.52494,0.31540854,1.56213587676,182, 3.6, -3.5,0,0,1024,1024,1684,1022,185.1,0,96,4.105,4.109,4.107,4.099,0,0,87.71,6,GPS_Atti,
0.312133085827264,36.8829031966975,5978.2703940606,177.16536,0,0.95809058184,17300,2017-11-07 08:30:58,14,16.314,5978.2703940606,177.16536,0.31540854,1.56213587676,182, 4.8, -3.2,0,0,1024,1024,1684,1024,185,0,96,4.105,4.109,4.107,4.099,0,0,87.71,6,GPS_Atti,
0.31213301903643,36.8829032442048,5979.9108140606,178.80578,0,0.98314635692,17400,2017-11-07 08:30:58,14,16.235,5979.9108140606,178.80578,0.31540854,1.56213587676,182, 6, -2.9,0,0,1024,1024,1684,1024,184.9,0,96,4.097,4.102,4.098,4.09,0,0,87.71,6,GPS_Atti,
0.312132965485558,36.8829032852138,5981.5512340606,180.4462,0,1.00440620012,17500,2017-11-07 08:30:58,14,16.235,5981.5512340606,180.4462,0.31540854,1.56213587676,182, 6.2, -2.8,0,0,1024,1024,1684,1024,184.8,0,96,4.097,4.102,4.098,4.09,0,0,87.71,6,GPS_Atti,
0.312132928507615,36.8829033144704,5983.1916540606,182.08662,0,1.01949150244,17600,2017-11-07 08:30:58,14,16.235,5983.1916540606,182.08662,0.31540854,1.56213587676,182, 5.7, -2.7,0,0,1024,1024,1684,1024,184.7,0,96,4.097,4.102,4.098,4.09,0,0,87.71,6,GPS_Atti,
0.312132925079587,36.88290332635,5984.8320740606,183.72704,0,1.0239665682,17700,2017-11-07 08:30:58,14,16.235,5984.8320740606,183.72704,0.31540854,1.56213587676,182, 5.3, -2.7,0,0,1024,1024,1684,1024,184.6,0,96,4.097,4.102,4.098,4.09,0,0,87.71,6,GPS_Atti,
0.312132945765203,36.8829033267747,5986.4724940606,185.36746,0,1.02117129252,17800,2017-11-07 08:30:58,14,16.235,5986.4724940606,185.36746,0.31540854,1.56213587676,182, 5.1, -2.8,0,0,1024,1024,1684,1024,184.5,0,96,4.097,4.102,4.098,4.09,0,0,87.71,6,GPS_Atti,
0.31213298264091,36.8829033221629,5988.1129140606,187.00788,0,1.01449150228,17900,2017-11-07 08:30:58,14,16.235,5988.1129140606,187.00788,0.31540854,1.56213587676,182, 4.9, -3,0,0,1024,1024,1684,1024,184.4,0,96,4.097,4.102,4.098,4.09,0,0,87.71,6,GPS_Atti,
0.312133010882963,36.8829033315225,5989.4252500606,188.320216,0,1.0138451768,18000,2017-11-07 08:30:59,14,16.235,5989.4252500606,188.320216,0.31540854,1.56213587676,182, 4.6, -3.2,0,0,1024,1024,1684,1024,184.3,0,96,4.097,4.102,4.098,4.09,0,0,87.71,6,GPS_Atti,
0.312133058356075,36.8829033387921,5991.0656700606,189.960636,0,1.01012470424,18100,2017-11-07 08:30:59,14,16.235,5991.0656700606,189.960636,0.31540854,1.56213587676,182, 4.7, -3.2,0,0,1024,1024,1684,1024,184.2,0,96,4.097,4.102,4.098,4.09,0,0,87.71,6,GPS_Atti,
0.312133106299553,36.8829033484323,5992.7060900606,191.601056,0,1.00745410048,18200,2017-11-07 08:30:59,14,16.235,5992.7060900606,191.601056,0.31540854,1.56213587676,182, 4.6, -3.3,0,0,1024,1024,1684,1024,184.2,0,96,4.097,4.102,4.098,4.09,0,0,87.71,6,GPS_Atti,
0.312133174555172,36.8829033595635,5994.3465100606,193.241476,0,1.00328743368,18300,2017-11-07 08:30:59,14,16.235,5994.3465100606,193.241476,0.31540854,1.56213587676,182, 4.6, -3.1,0,0,1024,1024,1684,1024,184.1,0,96,4.097,4.102,4.098,4.09,0,0,87.71,6,GPS_Atti,
0.312133233530391,36.8829033771616,5995.9869300606,194.881896,0,1.00297575388,18400,2017-11-07 08:30:59,14,16.287,5995.9869300606,194.881896,0.31540854,1.56213587676,182, 4.6, -3,0,0,1024,1024,1684,1024,184.1,0,96,4.093,4.097,4.091,4.082,0,0,87.71,6,GPS_Atti,
0.312133292175545,36.8829033879138,5997.6273500606,196.522316,0,1.00079071444,18500,2017-11-07 08:30:59,14,16.287,5997.6273500606,196.522316,0.31540854,1.56213587676,182, 4.4, -2.6,0,0,1024,1024,1684,1024,184.1,0,96,4.093,4.097,4.091,4.082,0,0,87.71,6,GPS_Atti,
0.3121333207068,36.8829033960129,5999.2677700606,198.162736,0,1.00090882468,18600,2017-11-07 08:30:59,14,16.287,5999.2677700606,198.162736,0.31540854,1.56213587676,182.1, 3.7, -2.9,0,0,1024,1024,1684,1024,184,0,96,4.093,4.097,4.091,4.082,0,0,87.71,6,GPS_Atti,
0.312133335556071,36.882903412372,6000.9081900606,199.803156,0,1.00530515028,18700,2017-11-07 08:30:59,14,16.287,6000.9081900606,199.803156,0.31540854,1.56213587676,182.1, 3.7, -2.6,0,0,1024,1024,1684,1024,184,0,96,4.093,4.097,4.091,4.082,0,0,87.71,6,GPS_Atti,
0.312133326205139,36.882903445888,6002.5486100606,201.443576,0,1.0179954394,18800,2017-11-07 08:30:59,14,16.287,6002.5486100606,201.443576,0.31540854,1.56213587676,182.1, 4.4, -2.7,0,0,1024,1024,1684,1024,183.9,0,96,4.093,4.097,4.091,4.082,0,0,87.71,6,GPS_Atti,
0.312133317836667,36.8829034716454,6004.1890300606,203.083996,0,1.02786092528,18900,2017-11-07 08:30:59,14,16.287,6004.1890300606,203.083996,0.31540854,1.56213587676,182.1, 4.5, -2.6,0,0,1024,1024,1684,1024,183.9,0,96,4.093,4.097,4.091,4.082,0,0,87.71,6,GPS_Atti,
0.312133303446209,36.8829034983802,6005.8294500606,204.724416,0,1.03862536132,19000,2017-11-07 08:31:00,14,16.287,6005.8294500606,204.724416,0.31540854,1.56213587676,182.2, 4.2, -2.5,0,0,1024,1024,1684,1024,183.8,0,96,4.093,4.097,4.091,4.082,0,0,87.71,6,GPS_Atti,
0.312133277347239,36.8829035374937,6007.4698700606,206.364836,0,1.05486223848,19100,2017-11-07 08:31:00,14,16.287,6007.4698700606,206.364836,0.31540854,1.56213587676,182.2, 4.8, -1.9,0,0,1024,1024,1684,1024,183.8,0,96,4.093,4.097,4.091,4.082,0,0,87.71,6,GPS_Atti,
0.312133225689433,36.8829035786168,6009.1102900606,208.005256,0,1.07433402388,19200,2017-11-07 08:31:00,14,16.287,6009.1102900606,208.005256,0.31540854,1.56213587676,182.1, 6.1, -2.1,0,0,1024,1024,1684,1024,183.8,0,96,4.093,4.097,4.091,4.082,0,0,87.71,6,GPS_Atti,
0.312133204789779,36.8829036109288,6010.7507100606,209.645676,0,1.08775922116,19300,2017-11-07 08:31:00,14,16.287,6010.7507100606,209.645676,0.31540854,1.56213587676,182, 6.5, -2.3,0,0,1024,1024,1684,1024,183.7,0,96,4.093,4.097,4.091,4.082,0,0,87.71,6,GPS_Atti,
0.312133209903297,36.882903637881,6012.3911300606,211.286096,0,1.09670607184,19400,2017-11-07 08:31:00,14,16.208,6012.3911300606,211.286096,0.31540854,1.56213587676,182, 6.4, -2.2,0,0,1024,1024,1684,1024,183.7,0,96,4.093,4.097,4.091,4.082,0,0,87.71,6,GPS_Atti,
0.312133264898497,36.88290364852,6014.0315500606,212.926516,0,1.0951772004,19500,2017-11-07 08:31:00,14,16.208,6014.0315500606,212.926516,0.31540854,1.56213587676,182, 5.8, -2.3,0,0,1024,1024,1684,1024,183.7,0,96,4.093,4.097,4.091,4.082,0,0,87.71,6,GPS_Atti,
0.312133333823814,36.8829036341409,6015.6719700606,214.566936,0,1.08396328928,19600,2017-11-07 08:31:00,14,16.208,6015.6719700606,214.566936,0.31540854,1.56213587676,182, 5.1, -2.9,0,0,1024,1024,1684,1024,183.6,0,96,4.093,4.097,4.091,4.082,0,0,87.71,6,GPS_Atti,
0.312133435846645,36.8829036141235,6017.3123900606,216.207356,0,1.06873691084,19700,2017-11-07 08:31:00,14,16.208,6017.3123900606,216.207356,0.31540854,1.56213587676,182, 4.3, -3.4,0,0,1024,1024,1684,1024,183.6,0,96,4.093,4.097,4.091,4.082,0,0,87.71,6,GPS_Atti,
0.312133516126084,36.8829036140999,6018.9528100606,217.847776,0,1.0632054146,19800,2017-11-07 08:31:00,14,16.208,6018.9528100606,217.847776,0.31540854,1.56213587676,182, 4.2, -3,0,0,1024,1024,1684,1024,183.6,0,96,4.093,4.097,4.091,4.082,0,0,87.71,6,GPS_Atti,
0.312133598917805,36.8829036237454,6020.5932300606,219.488196,0,1.0618110576,19900,2017-11-07 08:31:00,14,16.208,6020.5932300606,219.488196,0.31540854,1.56213587676,182, 4.4, -2.6,0,0,1024,1024,1684,1024,183.6,0,96,4.093,4.097,4.091,4.082,0,0,87.71,6,GPS_Atti,
0.312133648500261,36.8829036410971,6022.2336500606,221.128616,0,1.06558074276,20000,2017-11-07 08:31:01,14,16.208,6022.2336500606,221.128616,0.31540854,1.56213587676,182.1, 4.5, -2.3,0,0,1024,1024,1684,1024,183.5,0,96,4.093,4.097,4.091,4.082,0,0,87.71,6,GPS_Atti,
0.312133703410986,36.8829036607574,6023.8740700606,222.769036,0,1.07029859068,20100,2017-11-07 08:31:01,14,16.208,6023.8740700606,222.769036,0.31540854,1.56213587676,182, 4.8, -2.5,0,0,1024,1024,1684,1024,183.5,0,96,4.093,4.097,4.091,4.082,0,0,87.71,6,GPS_Atti,
0.312133748405402,36.8829036856214,6025.5144900606,224.409456,0,1.07764439144,20200,2017-11-07 08:31:01,14,16.208,6025.5144900606,224.409456,0.31540854,1.56213587676,182, 4.6, -2.6,0,0,1024,1024,1684,1024,183.5,0,96,4.093,4.097,4.091,4.082,0,0,87.71,6,GPS_Atti,
0.31213379170013,36.8829037047785,6027.1549100606,226.049876,0,1.08323822364,20300,2017-11-07 08:31:01,14,16.208,6027.1549100606,226.049876,0.31540854,1.56213587676,182.1, 4.4, -2.5,0,0,1024,1024,1684,1024,183.5,0,96,4.093,4.097,4.091,4.082,0,0,87.71,6,GPS_Atti,
0.312133808189856,36.882903704603,6028.7953300606,227.690296,0,1.08271328924,20400,2017-11-07 08:31:01,14,16.314,6028.7953300606,227.690296,0.31540854,1.56213587676,182, 4.3, -2.5,0,0,1024,1024,1684,1024,183.4,0,96,4.094,4.098,4.095,4.088,0,0,87.71,6,GPS_Atti,
0.312133828154579,36.8829036949516,6030.4357500606,229.330716,0,1.07868769856,20500,2017-11-07 08:31:01,14,16.314,6030.4357500606,229.330716,0.31540854,1.56213587676,182, 4.4, -2.8,0,0,1024,1024,1684,1024,183.4,0,96,4.094,4.098,4.095,4.088,0,0,87.71,6,GPS_Atti,
0.312133850146614,36.8829036790833,6032.0761700606,230.971136,0,1.07239832828,20600,2017-11-07 08:31:01,14,16.314,6032.0761700606,230.971136,0.31540854,1.56213587676,182.1, 4.4, -3.1,0,0,1024,1024,1684,1024,183.4,0,96,4.094,4.098,4.095,4.088,0,0,87.71,6,GPS_Atti,
0.312133885085694,36.8829036703381,6033.7165900606,232.611556,0,1.0685203754,20700,2017-11-07 08:31:01,14,16.314,6033.7165900606,232.611556,0.31540854,1.56213587676,182, 4.3, -3.3,0,0,1024,1024,1684,1024,183.4,0,96,4.094,4.098,4.095,4.088,0,0,87.71,6,GPS_Atti,
0.312133915714079,36.8829036775668,6035.3570100606,234.251976,0,1.07067588728,20800,2017-11-07 08:31:01,14,16.314,6035.3570100606,234.251976,0.31540854,1.56213587676,182, 4.1, -3,0,0,1024,1024,1684,1024,183.4,0,96,4.094,4.098,4.095,4.088,0,0,87.71,6,GPS_Atti,
0.312133954166934,36.8829036941213,6036.9974300606,235.892396,0,1.07627300032,20900,2017-11-07 08:31:01,14,16.314,6036.9974300606,235.892396,0.31540854,1.56213587676,182.1, 4.1, -2.7,0,0,1024,1024,1684,1024,183.3,0,96,4.094,4.098,4.095,4.088,0,0,87.71,6,GPS_Atti,
0.312133976846681,36.8829037120516,6038.6378500606,237.532816,0,1.08264111076,21000,2017-11-07 08:31:02,14,16.314,6038.6378500606,237.532816,0.31540854,1.56213587676,182, 4.2, -2.8,0,0,1024,1024,1684,1024,183.3,0,96,4.094,4.098,4.095,4.088,0,0,87.71,6,GPS_Atti,
0.312134008080237,36.8829037291468,6040.2782700606,239.173236,0,1.088746754,21100,2017-11-07 08:31:02,14,16.314,6040.2782700606,239.173236,0.31540854,1.56213587676,182, 4.5, -2.9,0,0,1024,1024,1684,1024,183.3,0,96,4.094,4.098,4.095,4.088,0,0,87.71,6,GPS_Atti,
0.312134027873363,36.8829037522138,6041.9186900606,240.813656,0,1.09714242356,21200,2017-11-07 08:31:02,14,16.314,6041.9186900606,240.813656,0.31540854,1.56213587676,182, 4.8, -2.9,0,0,1024,1024,1684,1024,183.3,0,96,4.094,4.098,4.095,4.088,0,0,87.71,6,GPS_Atti,
0.312134076186854,36.8829037834943,6043.5591100606,242.454076,0,1.10870082288,21300,2017-11-07 08:31:02,14,16.314,6043.5591100606,242.454076,0.31540854,1.56213587676,182, 4.9, -2.4,0,0,1024,1024,1684,1024,183.3,0,96,4.094,4.098,4.095,4.088,0,0,87.71,6,GPS_Atti,
0.312134128301947,36.8829038169279,6044.8714460606,243.766412,0,1.12136158444,21400,2017-11-07 08:31:02,14,16.261,6044.8714460606,243.766412,0.31540854,1.56213587676,182, 4.6, -2,0,0,1024,1024,1684,1024,183.3,0,96,4.093,4.097,4.092,4.084,0,0,87.71,6,GPS_Atti,
0.312134213127391,36.88290383042,6046.8399500606,245.734916,0,1.1277231332,21500,2017-11-07 08:31:02,14,16.261,6046.8399500606,245.734916,0.31540854,1.56213587676,182, 4.2, -1.9,0,0,1024,1024,1684,1024,183.2,0,96,4.093,4.097,4.092,4.084,0,0,87.71,6,GPS_Atti,
0.312134286385998,36.8829038305051,6048.4803700606,247.375336,0,1.12968179468,21600,2017-11-07 08:31:02,14,16.261,6048.4803700606,247.375336,0.31540854,1.56213587676,182.1, 4.1, -2,0,0,1024,1024,1148,1024,183.2,0,96,4.093,4.097,4.092,4.084,0,0,87.71,6,GPS_Atti,
0.312134372515215,36.882903822715,6050.1207900606,249.015756,0,1.12992457684,21700,2017-11-07 08:31:02,14,16.261,6050.1207900606,249.015756,0.31540854,1.56213587676,182, 4, -2.3,0,0,1024,1024,1048,1024,183.2,0,96,4.093,4.097,4.092,4.084,0,0,87.71,6,GPS_Atti,
0.312134432217025,36.8829038255815,6051.7612100606,250.656176,0,1.13359911764,21800,2017-11-07 08:31:02,14,16.261,6051.7612100606,250.656176,0.31540854,1.56213587676,181.9, 4.1, -3.1,0,0,1024,1024,1024,1024,183.2,0,96,4.093,4.097,4.092,4.084,0,0,87.71,6,GPS_Atti,
0.312134487410488,36.8829038167127,6053.0735460606,251.968512,0,1.133202136,21900,2017-11-07 08:31:02,14,16.261,6053.0735460606,251.968512,0.31540854,1.56213587676,181.9, 4.7, -4.1,0,0,1024,1024,1024,1024,183.2,0,96,4.093,4.097,4.092,4.084,0,0,87.71,6,GPS_Atti,
0.312134542591942,36.8829038137552,6055.3701340606,254.2651,0,1.13529859276,22100,2017-11-07 08:31:03,14,16.261,6055.3701340606,254.2651,0.31540854,1.56213587676,181.9, 4.8, -3.2,0,0,1024,1024,1024,1024,183.1,0,96,4.093,4.097,4.092,4.084,0,0,87.71,6,GPS_Atti,
0.312134551260149,36.8829038104733,6056.0263020606,254.921268,0,1.1346457056,22200,2017-11-07 08:31:03,14,16.261,6056.0263020606,254.921268,0.31540854,1.56213587676,181.9, 4.9, -3,0,0,1024,1024,1024,1024,183.1,0,96,4.093,4.097,4.092,4.084,0,0,87.71,6,GPS_Atti,
0.312134551716317,36.8829037927271,6056.3543860606,255.249352,0,1.12829399936,22300,2017-11-07 08:31:03,14,16.261,6056.3543860606,255.249352,0.31540854,1.56213587676,181.9, 5, -3,0,0,1024,1024,1024,1024,183.1,0,96,4.093,4.097,4.092,4.084,0,0,87.71,6,GPS_Atti,
0.312134527797324,36.8829037726717,6056.6824700606,255.577436,0,1.11962602008,22400,2017-11-07 08:31:03,14,16.682,6056.6824700606,255.577436,0.31540854,1.56213587676,181.9, 4.9, -2.6,0,0,1024,1024,1024,1024,183.1,0,96,4.093,4.097,4.092,4.084,0,0,87.71,6,GPS_Atti,
0.312134511994293,36.8829037322542,6056.6824700606,255.577436,0.223694,1.10414045528,22500,2017-11-07 08:31:03,14,16.682,6056.6824700606,255.577436,0.31540854,1.56213587676,182, 4.6, -2.3,0,0,1024,1024,1024,1024,183.1,0,96,4.093,4.097,4.092,4.084,0,0,87.71,6,GPS_Atti,
0.312134484954184,36.8829036727405,6056.6824700606,255.577436,0.223694,1.08114504772,22600,2017-11-07 08:31:03,14,16.682,6056.6824700606,255.577436,0.31540854,1.56213587676,182, 4.9, -2.7,0,0,1024,1024,1024,1024,183.1,0,96,4.093,4.097,4.092,4.084,0,0,87.71,6,GPS_Atti,
0.312134469610985,36.8829035960016,6057.0105540606,255.90552,0.31540854,1.05261814392,22700,2017-11-07 08:31:03,14,16.682,6057.0105540606,255.90552,0.31540854,1.56213587676,182, 5.3, -3.2,0,0,1024,1024,1024,1024,183.1,0,96,4.093,4.097,4.092,4.084,0,0,87.71,6,GPS_Atti,
0.312134460155221,36.8829035290093,6057.0105540606,255.90552,0.31540854,1.0279363846,22800,2017-11-07 08:31:03,14,16.682,6057.0105540606,255.90552,0.31540854,1.56213587676,182, 5.6, -3.5,0,0,1024,1024,1024,1024,183.1,0,96,4.093,4.097,4.092,4.084,0,0,87.71,6,GPS_Atti,
0.312134462685212,36.8829034653492,6057.0105540606,255.90552,0.31540854,1.00513782744,22900,2017-11-07 08:31:03,14,16.682,6057.0105540606,255.90552,0.31540854,1.56213587676,182, 5.8, -3.9,0,0,1024,1024,1024,1024,183,0,96,4.093,4.097,4.092,4.084,0,0,87.71,6,GPS_Atti,
0.312134460466661,36.8829034280974,6057.0105540606,255.90552,0.223694,0.99159123908,23000,2017-11-07 08:31:04,14,16.682,6057.0105540606,255.90552,0.31540854,1.56213587676,182, 5.9, -4.4,0,0,1024,1024,1024,1024,183,0,96,4.093,4.097,4.092,4.084,0,0,87.71,6,GPS_Atti,
0.312134499939329,36.8829033948411,6057.0105540606,255.90552,0,0.98204399468,23100,2017-11-07 08:31:04,14,16.682,6057.0105540606,255.90552,0.31540854,1.56213587676,181.9, 6, -4.4,0,0,1024,1024,1024,1024,183,0,96,4.093,4.097,4.092,4.084,0,0,87.71,6,GPS_Atti,
0.312134571441862,36.8829033805476,6057.3386380606,256.233604,0,0.9818569868,23200,2017-11-07 08:31:04,14,16.682,6057.3386380606,256.233604,0.31540854,1.56213587676,181.9, 5.9, -4.3,0,0,1024,1024,1024,1024,183,0,96,4.093,4.097,4.092,4.084,0,0,87.71,6,GPS_Atti,
0.312134680372553,36.8829033859054,6057.3386380606,256.233604,0,0.99256236772,23300,2017-11-07 08:31:04,14,16.682,6057.3386380606,256.233604,0.31540854,1.56213587676,182, 5.8, -4.3,0,0,1024,1024,1024,1024,183,0,96,4.093,4.097,4.092,4.084,0,0,87.71,6,GPS_Atti,
0.312134791249233,36.8829034344691,6057.3386380606,256.233604,0,1.0200787728,23400,2017-11-07 08:31:04,14,16.682,6057.3386380606,256.233604,0.31540854,1.56213587676,182, 5.5, -4.3,0,0,1024,1024,1024,1024,183,0,96,4.093,4.097,4.092,4.084,0,0,87.71,6,GPS_Atti,
