latitude,longitude,altitude(feet),ascent(feet),speed(mph),distance(feet),time(millisecond),datetime(utc),satellites,gpslevel,voltage(v),max_altitude(feet),max_ascent(feet),max_speed(mph),max_distance(feet), xSpeed(mph), ySpeed(mph), zSpeed(mph), compass_heading(degrees), pitch(degrees), roll(degrees),isPhoto,isVideo,rc_elevator,rc_aileron,rc_throttle,rc_rudder,gimbal_heading(degrees),gimbal_pitch(degrees),battery_percent,voltageCell1,voltageCell2,voltageCell3,voltageCell4,voltageCell5,voltageCell6,current(A),battery_temperature(f),flycStateRaw,flycState,message
0.350525242907766,36.8971299332301,5793.8937543022,0,0,0,10100,2018-04-17 05:34:13,16,0,0,5793.8937543022,0,0,0,0,0,0,283.9, 0.1, 0.1,0,0,364,364,364,1684,0,0,99,4.283,4.285,4.286,4.284,0,0,0,87.71,41,Motors_Started,
0.350525236609759,36.8971299780003,5793.8937543022,0,0,0.016494915226,10200,2018-04-17 05:34:14,16,0,0,5793.8937543022,0,0,0.016494915226,0,0,0,283.9, 0.1, 0.1,0,0,364,364,364,1684,288.5,0,99,4.283,4.285,4.286,4.284,0,0,0,87.71,41,Motors_Started,
0.350525227257808,36.8971299969499,5793.8937543022,0,0,0.02393864906,10300,2018-04-17 05:34:14,16,0,17.098,5793.8937543022,0,0,0.02393864906,0,0,0,283.9, 0.1, 0.1,0,0,364,364,364,1684,288.5,0,99,4.283,4.285,4.286,4.284,0,0,1.488,87.71,41,Motors_Started,Setting new Return-To-Home altitude to 30m (98 ft). Setting new Maximum Flight Altitude to 150m (492 ft)
0.350525221725373,36.8971300125988,5793.8937543022,0,0,0.0299706702504,10400,2018-04-17 05:34:14,16,0,17.098,5793.8937543022,0,0,0.0299706702504,0,0,0,283.9, 0.1, 0.1,0,0,364,364,364,1684,288.4,0,99,4.283,4.285,4.286,4.284,0,0,1.488,87.71,41,Motors_Started,
0.350525214420988,36.8971300112338,5793.8937543022,0,0,0.0302975403396,10500,2018-04-17 05:34:14,16,0,17.098,5793.8937543022,0,0,0.0302975403396,0,0,0,283.9, 0.1, 0.1,0,0,364,364,364,1684,288.4,0,99,4.283,4.285,4.286,4.284,0,0,1.488,87.71,41,Motors_Started,
0.350525210863856,36.8971300118451,5793.8937543022,0,0,0.0309733277628,10600,2018-04-17 05:34:14,16,0,17.098,5793.8937543022,0,0,0.0309733277628,0,0,0,283.9, 0.1, 0.1,0,0,364,364,364,1684,288.5,0,99,4.283,4.285,4.286,4.284,0,0,1.488,87.71,41,Motors_Started,
0.350525205421799,36.8971300283687,5793.8937543022,0,0,0.03730807206,10700,2018-04-17 05:34:14,16,0,17.098,5793.8937543022,0,0,0.03730807206,0,0,0,283.9, 0.1, 0.1,0,0,364,364,364,1684,288.4,0,99,4.283,4.285,4.286,4.284,0,0,1.488,87.71,41,Motors_Started,
0.350525202939236,36.8971300527451,5793.8937543022,0,0,0.045978019844,10800,2018-04-17 05:34:14,16,0,17.098,5793.8937543022,0,0,0.045978019844,0,0,0,283.9, 0.1, 0.1,0,0,364,364,364,1684,288.4,0,99,4.283,4.285,4.286,4.284,0,0,1.488,87.71,41,Motors_Started,
0.350525230168856,36.8971300647315,5793.8937543022,0,0,0.048201773196,10900,2018-04-17 05:34:14,16,0,17.098,5793.8937543022,0,0,0.048201773196,0,0,0,283.9, 0.1, 0.1,0,0,364,364,364,1684,288.5,0,99,4.283,4.285,4.286,4.284,0,0,1.488,87.71,41,Motors_Started,
0.350525257915506,36.8971300750414,5793.8937543022,0,0,0.052027888804,11000,2018-04-17 05:34:14,16,0,17.098,5793.8937543022,0,0,0.052027888804,0,0,0,283.9, 0.1, 0.1,0,0,364,364,364,1684,288.5,0,99,4.283,4.285,4.286,4.284,0,0,1.488,87.71,41,Motors_Started,
0.350525283007385,36.8971300735929,5793.8937543022,0,0,0.053259188056,11100,2018-04-17 05:34:14,16,0,17.098,5793.8937543022,0,0,0.053259188056,0,0,0,283.9, 0.2, 0.1,0,0,364,364,364,1684,288.5,0,99,4.283,4.285,4.286,4.284,0,0,1.488,87.71,41,Motors_Started,
0.350525299890482,36.8971300740768,5793.8937543022,0,0,0.05543307264,11200,2018-04-17 05:34:15,16,0,17.098,5793.8937543022,0,0,0.05543307264,0,0,0,283.9, 0.1, 0.1,0,0,364,364,388,1684,288.5,0,99,4.283,4.285,4.286,4.284,0,0,1.488,87.71,41,Motors_Started,
0.350525311555637,36.8971300950658,5793.8937543022,0,0,0.06413714116,11300,2018-04-17 05:34:15,16,0,17.125,5793.8937543022,0,0,0.06413714116,0,0,0,283.9, 0.1, 0.1,0,0,802,710,870,1303,288.4,0,99,4.283,4.285,4.286,4.284,0,0,1.49,87.71,41,Motors_Started,
0.350525320903923,36.8971301198298,5793.8937543022,0,0,0.07378773202,11400,2018-04-17 05:34:15,16,0,17.125,5793.8937543022,0,0,0.07378773202,0,0,0,283.9, 0.1, 0.1,0,0,1024,1024,1024,1024,288.3,0,99,4.283,4.285,4.286,4.284,0,0,1.49,87.71,41,Motors_Started,
0.35052532456609,36.8971301358866,5793.8937543022,0,0,0.07971456948,11500,2018-04-17 05:34:15,16,0,17.125,5793.8937543022,0,0,0.07971456948,0,0,0,283.9, 0.1, 0.1,0,0,1024,1024,1024,1024,285.6,0,99,4.283,4.285,4.286,4.284,0,0,1.49,87.71,41,Motors_Started,
0.350525354242039,36.8971301474502,5793.8937543022,0,0,0.088082023816,11700,2018-04-17 05:34:15,16,0,17.125,5793.8937543022,0,0,0.088082023816,0,0,0,283.9, 0.1, 0.1,0,0,1024,1024,1024,1024,285.2,0,99,4.283,4.285,4.286,4.284,0,0,1.49,87.71,10,Assisted_Takeoff,
0.350525382213618,36.8971301489865,5793.8937543022,0,0,0.093699806148,11800,2018-04-17 05:34:15,16,0,17.125,5793.8937543022,0,0,0.093699806148,0,0,0,283.9, 0.1, 0.1,0,0,1024,1024,1024,1024,284.9,0,99,4.283,4.285,4.286,4.284,0,0,1.49,87.71,10,Assisted_Takeoff,
0.350525403778491,36.8971301434547,5793.8937543022,0,0,0.0965797275,11900,2018-04-17 05:34:15,16,0,17.125,5793.8937543022,0,0,0.0965797275,0,0,0,283.9, 0.1, 0.1,0,0,1024,1024,1024,1024,284.8,0,99,4.283,4.285,4.286,4.284,0,0,1.49,87.71,10,Assisted_Takeoff,
0.350525418416982,36.8971301400737,5793.8937543022,0,0,0.098971787944,12000,2018-04-17 05:34:15,16,0,17.125,5793.8937543022,0,0,0.098971787944,0,0,0,283.9, 0.1, 0.1,0,0,1024,1024,1024,1024,284.7,0,99,4.283,4.285,4.286,4.284,0,0,1.49,87.71,10,Assisted_Takeoff,
0.350525425401989,36.8971301619546,5793.8937543022,0,0,0.106756237012,12100,2018-04-17 05:34:15,16,0,17.125,5793.8937543022,0,0,0.106756237012,0,0,0,283.9, 0.1, 0.1,0,0,1024,1024,1024,1024,284.6,0,99,4.283,4.285,4.286,4.284,0,0,1.49,87.71,10,Assisted_Takeoff,
0.350525430831832,36.8971301869573,5793.8937543022,0,0,0.11519685408,12200,2018-04-17 05:34:15,16,0,17.125,5793.8937543022,0,0,0.11519685408,0,0,0,283.9, 0.1, 0.1,0,0,1024,1024,1024,1024,284.5,0,99,4.283,4.285,4.286,4.284,0,0,1.49,87.71,10,Assisted_Takeoff,
0.350525429133772,36.8971302070471,5793.8937543022,0,0,0.120815948748,12300,2018-04-17 05:34:16,16,0,16.912,5793.8937543022,0,0,0.120815948748,0,0,0,283.9, 0.1, 0.1,0,0,1024,1024,1024,1024,284.5,0,99,4.273,4.269,4.265,4.259,0,0,3.244,87.71,10,Assisted_Takeoff,
0.350525429116469,36.8971302198761,5793.8937543022,0,0,0.124710633912,12400,2018-04-17 05:34:16,16,0,16.912,5793.8937543022,0,0,0.124710633912,0,0,0,283.9, 0.1, 0.1,0,0,1024,1024,1024,1024,284.4,0,99,4.273,4.269,4.265,4.259,0,0,3.244,87.71,10,Assisted_Takeoff,
0.350525423679705,36.8971302561929,5793.8937543022,0,0,0.135033468888,12500,2018-04-17 05:34:16,16,0,16.912,5793.8937543022,0,0,0.135033468888,0,0,0,283.9, 0.1, 0.1,0,0,1024,1024,1024,1024,284.4,0,99,4.273,4.269,4.265,4.259,0,0,3.244,87.71,10,Assisted_Takeoff,
0.350525420786368,36.897130289952,5793.8937543022,0,0,0.145431107016,12600,2018-04-17 05:34:16,16,0,16.912,5793.8937543022,0,0,0.145431107016,0,0,0,283.9, 0.1, 0.1,0,0,1024,1024,1024,1024,284.4,0,99,4.273,4.269,4.265,4.259,0,0,3.244,87.71,10,Assisted_Takeoff,
0.350525443481992,36.8971303161463,5793.8937543022,0,0,0.1577099788,12700,2018-04-17 05:34:16,16,0,16.912,5793.8937543022,0,0,0.1577099788,0,0,0,283.9, 0.1, 0.1,0,0,1024,1024,1024,1024,284.4,0,99,4.273,4.269,4.265,4.259,0,0,3.244,87.71,10,Assisted_Takeoff,
0.350525490245814,36.8971303422849,5793.8937543022,0,0,0.174402564636,12900,2018-04-17 05:34:16,16,0,16.912,5793.8937543022,0,0,0.174402564636,0,0,0,283.9, 0.1, 0.1,0,0,1024,1024,1024,1024,284.3,0,99,4.273,4.269,4.265,4.259,0,0,3.244,87.71,10,Assisted_Takeoff,
0.350525503960977,36.8971303481497,5793.8937543022,0,0,0.178850727508,13000,2018-04-17 05:34:16,16,0,16.912,5793.8937543022,0,0,0.178850727508,0,0,0,283.9, 0.1, 0.1,0,0,1024,1024,1024,1024,284.3,0,99,4.273,4.269,4.265,4.259,0,0,3.244,87.71,10,Assisted_Takeoff,
0.350525516691541,36.8971303436392,5793.8937543022,0,0,0.179995740668,13200,2018-04-17 05:34:17,16,0,17.072,5793.8937543022,0,0,0.179995740668,0,0,0,283.9, 0.1, 0.1,0,0,1024,1024,1024,1024,284.3,0,99,4.273,4.269,4.265,4.259,0,0,3.244,87.71,10,Assisted_Takeoff,
0.350525515835794,36.8971303297225,5793.8937543022,0,0,0.175617459688,13400,2018-04-17 05:34:17,16,0,17.072,5793.8937543022,0,0,0.179995740668,0,0,0,283.9, 0.1, 0,0,0,1024,1024,1024,1024,284.3,0,99,4.273,4.269,4.265,4.259,0,0,3.244,87.71,10,Assisted_Takeoff,
0.35052556695774,36.8971303733943,5793.8937543022,0,0,0.199417985384,13600,2018-04-17 05:34:17,16,0,17.072,5793.8937543022,0,0,0.199417985384,0,0,0,283.9, 0.1, 0,0,0,1024,1024,1024,1024,284.3,0,99,4.273,4.269,4.265,4.259,0,0,3.244,87.71,10,Assisted_Takeoff,
0.350525588528516,36.8971303634281,5793.8937543022,0,0,0.201334980196,13700,2018-04-17 05:34:17,16,0,17.072,5793.8937543022,0,0,0.201334980196,0,0,0,283.9, 0.1, 0,0,0,1024,1024,1024,1024,284.3,0,99,4.273,4.269,4.265,4.259,0,0,3.244,87.71,10,Assisted_Takeoff,
0.350525602319808,36.8971303453736,5793.8937543022,0,0,0.199513785912,13800,2018-04-17 05:34:17,16,0,17.072,5793.8937543022,0,0,0.201334980196,0,0,0,283.9, 0.1, 0,0,0,1024,1024,1024,1024,284.3,0,99,4.273,4.269,4.265,4.259,0,0,3.244,87.71,10,Assisted_Takeoff,
0.350525609887595,36.8971303242743,5793.8937543022,0,0,0.195657158492,13900,2018-04-17 05:34:17,16,0,17.072,5793.8937543022,0,0,0.201334980196,0,0,0,283.9, 0.1, 0,0,0,1024,1024,1024,1024,284.3,0,99,4.273,4.269,4.265,4.259,0,0,3.244,87.71,10,Assisted_Takeoff,
0.350525614966712,36.8971303090247,5793.8937543022,0,0,0.192937342132,14000,2018-04-17 05:34:17,16,0,17.072,5793.8937543022,0,0,0.201334980196,0,0,0,283.9, 0.1, 0,0,0,1024,1024,1029,1024,284.2,0,99,4.273,4.269,4.265,4.259,0,0,3.244,87.71,10,Assisted_Takeoff,
0.350525614447849,36.8971302943479,5793.8937543022,0,0,0.189034126784,14100,2018-04-17 05:34:17,16,0,17.072,5793.8937543022,0,0,0.201334980196,0,0,0,283.9, 0.1, 0,0,0,1024,1024,1112,1024,284.2,0,99,4.273,4.269,4.265,4.259,0,0,3.244,87.71,10,Assisted_Takeoff,
0.350525613655611,36.8971302826891,5793.8937543022,0,0,0.185883864216,14200,2018-04-17 05:34:17,16,0,17.072,5793.8937543022,0,0,0.201334980196,0,0,0,284, 0.2, 0,0,0,1024,1024,1235,1024,284.2,0,99,4.273,4.269,4.265,4.259,0,0,3.244,87.71,10,Assisted_Takeoff,
0.350525608421588,36.8971302742249,5793.8937543022,0,0,0.18237861476,14300,2018-04-17 05:34:18,16,0,17.098,5793.8937543022,0,0,0.201334980196,0,0,0,284, 0.2, 0,0,0,1024,1024,1444,1024,284.2,0,99,4.279,4.281,4.281,4.28,0,0,1.886,87.71,10,Assisted_Takeoff,
0.350525604380197,36.8971302666858,5793.8937543022,0,0,0.179426843012,14400,2018-04-17 05:34:18,16,0,17.098,5793.8937543022,0,0,0.201334980196,0,0,0,283.9, 0.1, 0.1,0,0,1024,1024,1603,1024,284.2,0,99,4.279,4.281,4.281,4.28,0,0,1.886,87.71,10,Assisted_Takeoff,
0.350525597290156,36.8971302639793,5793.8937543022,0,0,0.176858929544,14500,2018-04-17 05:34:18,16,0,17.098,5793.8937543022,0,0,0.201334980196,0,0,0,284, 0.2, 0.1,0,0,1024,1024,1684,1024,284.2,0,99,4.279,4.281,4.281,4.28,0,0,1.886,87.71,10,Assisted_Takeoff,
0.35052558970812,36.897130259668,5793.8937543022,0,0,0.173765097424,14600,2018-04-17 05:34:18,16,0,17.098,5793.8937543022,0,0,0.201334980196,0,0,0,284.1, 0.4, 0.1,0,0,1024,1024,1684,1024,284.2,0,99,4.279,4.281,4.281,4.28,0,0,1.886,87.71,10,Assisted_Takeoff,
0.350525580196786,36.8971302572024,5793.8937543022,0,0,0.170630254804,14700,2018-04-17 05:34:18,16,0,17.098,5793.8937543022,0,0,0.201334980196,0,0,0,284, 2, 1.1,0,0,1024,1024,1684,1024,284.2,0,99,4.279,4.281,4.281,4.28,0,0,1.886,87.71,10,Assisted_Takeoff,
0.350525582818784,36.8971302684073,5793.8937543022,0,0,0.174167000324,14800,2018-04-17 05:34:18,16,0,17.098,5793.8937543022,0,0,0.201334980196,0,0,-0.447388,284, 2.8, 1.7,0,0,1024,1024,1684,1024,284.2,0,99,4.279,4.281,4.281,4.28,0,0,1.886,87.71,6,P-GPS,Obstacle Avoided. Revise Flight Route
0.350525611469425,36.8971303387188,5793.8937543022,0,0,0.199920281988,14900,2018-04-17 05:34:18,16,0,17.098,5793.8937543022,0,0,0.201334980196,0,0,-1.11847,283.9, 1.2, 0.9,0,0,1024,1024,1684,1024,284.2,0,99,4.279,4.281,4.281,4.28,0,0,1.886,87.71,6,P-GPS,
0.350525661895618,36.897130429241,5793.8937543022,0,0,0.236890427528,15000,2018-04-17 05:34:18,16,0,17.098,5793.8937543022,0,0,0.236890427528,0,0,-1.789552,283.9, 0.2, 0.1,0,0,1024,1024,1684,1024,284.2,0,99,4.279,4.281,4.281,4.28,0,0,1.886,87.71,6,P-GPS,
0.350525741699755,36.8971305456609,5794.2218383022,0.328084,0,0.288173565652,15100,2018-04-17 05:34:18,16,0,17.098,5794.2218383022,0.328084,0,0.288173565652,0,0,-2.684328,283.9, 0.2, -0.4,0,0,1024,1024,1684,1024,284.2,0,99,4.279,4.281,4.281,4.28,0,0,1.886,87.71,6,P-GPS,
0.350525816658661,36.8971306352271,5794.8780063022,0.984252,0,0.33078085048,15200,2018-04-17 05:34:19,16,0,17.098,5794.8780063022,0.984252,0,0.33078085048,0,0,-3.579104,283.9, 0.5, -0.4,0,0,1024,1024,1684,1024,284.2,0,99,4.279,4.281,4.281,4.28,0,0,1.886,87.71,6,P-GPS,
0.350525881916518,36.8971306964942,5795.5341743022,1.64042,0,0.36318242632,15300,2018-04-17 05:34:19,16,0,17.072,5795.5341743022,1.64042,0,0.36318242632,0,0,-4.47388,283.8, 0.5, -0.5,0,0,1024,1024,1684,1024,284.2,0,99,4.279,4.281,4.281,4.266,0,0,1.888,87.71,6,P-GPS,Home Point Recorded. RTH Altitude:  30m.
0.350525927797521,36.8971307353418,5796.1903423022,2.296588,0,0.38481300444,15400,2018-04-17 05:34:19,16,0,17.072,5796.1903423022,2.296588,0,0.38481300444,0,0,-5.59235,283.8, 0.4, -0.4,0,0,1024,1024,1684,1024,284.2,0,99,4.279,4.281,4.281,4.266,0,0,1.888,87.71,6,P-GPS,
0.350526018589584,36.8971307348472,5797.1745943022,3.28084,0,0.40697507864,15500,2018-04-17 05:34:19,16,0,17.072,5797.1745943022,3.28084,0,0.40697507864,0,0,-6.934514,283.9, 0.4, 0,0,0,1024,1024,1684,1024,284.2,0,99,4.279,4.281,4.281,4.266,0,0,1.888,87.71,6,P-GPS,
0.350526109275187,36.8971307254185,5798.1588463022,4.265092,0,0.42831038116,15600,2018-04-17 05:34:19,16,0,17.072,5798.1588463022,4.265092,0,0.42831038116,0,0,-8.052984,283.9, 0.7, -0.1,0,0,1024,1024,1684,1024,284.2,0,99,4.279,4.281,4.281,4.266,0,0,1.888,87.71,6,P-GPS,
0.350526207628726,36.8971307017957,5799.4711823022,5.577428,0,0.4500164186,15700,2018-04-17 05:34:19,16,0,17.072,5799.4711823022,5.577428,0,0.4500164186,0,0,-9.171454,283.8, 0.4, -0.4,0,0,1024,1024,1684,1024,284.2,0,99,4.279,4.281,4.281,4.266,0,0,1.888,87.71,6,P-GPS,
0.350526283423635,36.8971306868684,5801.1116023022,7.217848,0,0.46874673416,15800,2018-04-17 05:34:19,16,0,17.072,5801.1116023022,7.217848,0,0.46874673416,0,0,-10.06623,283.8, 0.3, -0.3,0,0,1024,1024,1684,1024,284.2,0,99,4.279,4.281,4.281,4.266,0,0,1.888,87.71,6,P-GPS,
0.350526358804307,36.8971306664286,5802.4239383022,8.530184,0,0.48714896572,15900,2018-04-17 05:34:19,16,0,17.072,5802.4239383022,8.530184,0,0.48714896572,0,0,-10.737312,283.9, 0, -0.8,0,0,1024,1024,1684,1024,284.2,0,99,4.279,4.281,4.281,4.266,0,0,1.888,87.71,6,P-GPS,
0.350526419898233,36.89713065177,5804.0643583022,10.170604,0,0.50312009484,16000,2018-04-17 05:34:19,16,0,17.072,5804.0643583022,10.170604,0,0.50312009484,0,0,-11.1847,283.9, -0.4, -1.5,0,0,1024,1024,1684,1024,284.2,0,99,4.279,4.281,4.281,4.266,0,0,1.888,87.71,6,P-GPS,
0.350526495859854,36.8971306157005,5805.7047783022,11.811024,0,0.52055119776,16100,2018-04-17 05:34:20,16,0,17.072,5805.7047783022,11.811024,0,0.52055119776,0,0,-11.408394,284, -0.7, -1.7,0,0,1024,1024,1684,1024,284.2,0,99,4.279,4.281,4.281,4.266,0,0,1.888,87.71,6,P-GPS,
0.350526575897062,36.8971304483501,5809.3137023022,15.419948,0,0.5213910928,16300,2018-04-17 05:34:20,16,0,16.461,5809.3137023022,15.419948,0,0.5213910928,0,0,-11.632088,284, 0, -1,0,0,1024,1024,1684,1024,284.2,0,99,4.153,4.151,4.147,4.137,0,0,21.032,87.71,6,P-GPS,
0.350526590540437,36.8971303299698,5810.9541223022,17.060368,0,0.51254594816,16400,2018-04-17 05:34:20,16,0,16.461,5810.9541223022,17.060368,0,0.5213910928,0,0,-11.408394,283.9, 0.4, -0.8,0,0,1024,1024,1684,1024,284.2,0,99,4.153,4.151,4.147,4.137,0,0,21.032,87.71,6,P-GPS,
0.350526622333771,36.8971302168323,5812.5945423022,18.700788,0,0.51380907156,16500,2018-04-17 05:34:20,16,0,16.461,5812.5945423022,18.700788,0,0.5213910928,0,0,-11.408394,284, 0.4, -1,0,0,1024,1024,1684,1025,284.2,0,99,4.153,4.151,4.147,4.137,0,0,21.032,87.71,6,P-GPS,
0.350526645777868,36.8971301167626,5814.2349623022,20.341208,0,0.51619752308,16600,2018-04-17 05:34:20,16,0,16.461,5814.2349623022,20.341208,0,0.5213910928,0,0,-11.1847,284, 0.3, -1.2,0,0,1024,1024,1684,1024,284.2,0,99,4.153,4.151,4.147,4.137,0,0,21.032,87.71,6,P-GPS,
0.350526657283639,36.8971300132551,5815.8753823022,21.981628,0,0.51686025276,16700,2018-04-17 05:34:20,16,0,16.461,5815.8753823022,21.981628,0,0.5213910928,0,0,-11.1847,284, 0.1, -1.2,0,0,1024,1024,1684,1027,284.2,0,99,4.153,4.151,4.147,4.137,0,0,21.032,87.71,6,P-GPS,
0.350526642069494,36.89712980228,5819.1562223022,25.262468,0,0.512713271,16900,2018-04-17 05:34:20,16,0,16.461,5819.1562223022,25.262468,0,0.5213910928,0,0,-10.961006,284, -0.1, -1.1,0,0,1024,1024,1684,1029,284.2,0,99,4.153,4.151,4.147,4.137,0,0,21.032,87.71,6,P-GPS,
0.350526626134355,36.8971296971024,5820.7966423022,26.902888,0,0.51196852032,17000,2018-04-17 05:34:20,16,0,16.461,5820.7966423022,26.902888,0,0.5213910928,0,0,-10.961006,284, -0.2, -1.2,0,0,1024,1024,1684,1030,284.2,0,99,4.153,4.151,4.147,4.137,0,0,21.032,87.71,6,P-GPS,
0.350526612325761,36.8971295865836,5822.4370623022,28.543308,0,0.51539043644,17100,2018-04-17 05:34:20,16,0,16.461,5822.4370623022,28.543308,0,0.5213910928,0,0,-10.961006,284, -0.3, -1.3,0,0,1024,1024,1684,1032,284.2,0,99,4.153,4.151,4.147,4.137,0,0,21.032,87.71,6,P-GPS,
0.350526591443613,36.8971294704741,5824.0774823022,30.183728,0,0.52017390116,17200,2018-04-17 05:34:21,16,0,16.461,5824.0774823022,30.183728,0,0.5213910928,0,0,-10.961006,284, -0.2, -1.4,0,0,1024,1024,1684,1024,284.2,0,99,4.153,4.151,4.147,4.137,0,0,21.032,87.71,6,P-GPS,
0.350526573853772,36.8971293442036,5825.7179023022,31.824148,0,0.53102363904,17300,2018-04-17 05:34:21,16,0,16.541,5825.7179023022,31.824148,0,0.53102363904,0,0,-10.961006,284, 0, -1.2,0,0,1024,1024,1684,1024,284.2,0,99,4.153,4.151,4.147,4.137,0,0,21.032,87.71,6,P-GPS,
0.350526545384703,36.8971292154728,5827.3583223022,33.464568,0,0.5425853192,17400,2018-04-17 05:34:21,16,0,16.541,5827.3583223022,33.464568,0,0.5425853192,0,0,-10.961006,284, 0, -0.9,0,0,1024,1024,1684,1024,284.2,0,99,4.153,4.151,4.147,4.137,0,0,21.032,87.71,6,P-GPS,
0.350526503828644,36.8971290706339,5828.9987423022,35.104988,0,0.55739175012,17500,2018-04-17 05:34:21,16,0,16.541,5828.9987423022,35.104988,0,0.55739175012,0,0,-10.961006,284, 0, -0.7,0,0,1024,1024,1684,1024,284.2,0,99,4.153,4.151,4.147,4.137,0,0,21.032,87.71,6,P-GPS,
0.350526461251551,36.8971289305537,5830.6391623022,36.745408,0,0.57568571396,17600,2018-04-17 05:34:21,16,0,16.541,5830.6391623022,36.745408,0,0.57568571396,0,0,-10.961006,284, -0.1, -1,0,0,1024,1024,1684,1035,284.2,0,99,4.153,4.151,4.147,4.137,0,0,21.032,87.71,6,P-GPS,
0.35052644569299,36.8971287777506,5832.2795823022,38.385828,0,0.60852036068,17700,2018-04-17 05:34:21,16,0,16.541,5832.2795823022,38.385828,0,0.60852036068,0,0,-10.961006,284, -0.2, -1.2,0,0,1024,1024,1684,1041,284.2,0,99,4.153,4.151,4.147,4.137,0,0,21.032,87.71,6,P-GPS,
0.350526434102336,36.897128626563,5833.9200023022,40.026248,0,0.64509844584,17800,2018-04-17 05:34:21,16,0,16.541,5833.9200023022,40.026248,0,0.64509844584,0,0,-10.961006,284, -0.1, -1.2,0,0,1024,1024,1684,1071,284.2,0,99,4.153,4.151,4.147,4.137,0,0,21.032,87.71,6,P-GPS,
0.350526442116113,36.8971283596503,5836.8727583022,42.979004,0,0.72182745092,18000,2018-04-17 05:34:21,16,0,16.541,5836.8727583022,42.979004,0,0.72182745092,0,0,-10.961006,284.3, 0, -1.3,0,0,1024,1024,1684,1081,284.5,0,99,4.153,4.151,4.147,4.137,0,0,21.032,87.71,6,P-GPS,
0.350526385845027,36.8971281298091,5840.1535983022,46.259844,0,0.77897640288,18200,2018-04-17 05:34:22,16,0,16.567,5840.1535983022,46.259844,0,0.77897640288,0,0,-10.961006,285, 0, -1.1,0,0,1024,1024,1684,1090,284.8,0,99,4.162,4.161,4.16,4.156,0,0,17.034,87.71,6,P-GPS,
0.350526344903502,36.8971278735167,5843.4344383022,49.540684,0,0.85227036848,18400,2018-04-17 05:34:22,16,0,16.567,5843.4344383022,49.540684,0,0.85227036848,0,0,-10.961006,285.7, 0.1, -0.7,0,0,1024,1024,1684,1108,284.9,0,99,4.162,4.161,4.16,4.156,0,0,17.034,87.71,6,P-GPS,
0.350526330512128,36.8971277595409,5845.0748583022,51.181104,0,0.88678808612,18500,2018-04-17 05:34:22,16,0,16.567,5845.0748583022,51.181104,0,0.88678808612,0,0,-10.961006,286.1, 0.4, -1,0,0,1024,1024,1684,1097,285.3,0,99,4.162,4.161,4.16,4.156,0,0,17.034,87.71,6,P-GPS,
0.350526316780681,36.8971276526257,5846.7152783022,52.821524,0,0.91969163048,18600,2018-04-17 05:34:22,16,0,16.567,5846.7152783022,52.821524,0,0.91969163048,0,0,-10.961006,286.9, 0.5, -1.3,0,0,1024,1024,1684,1065,285.7,0,99,4.162,4.161,4.16,4.156,0,0,17.034,87.71,6,P-GPS,
0.350526313447664,36.8971275409924,5848.3556983022,54.461944,0,0.956200818,18700,2018-04-17 05:34:22,16,0,16.567,5848.3556983022,54.461944,0,0.956200818,0,0,-10.961006,287.6, 0.5, -1.2,0,0,1024,1024,1684,1078,285.9,-2.3,99,4.162,4.161,4.16,4.156,0,0,17.034,87.71,6,P-GPS,
0.350526308484981,36.8971274273689,5849.9961183022,56.102364,0,0.99347444124,18800,2018-04-17 05:34:22,16,0,16.567,5849.9961183022,56.102364,0,0.99347444124,0,0,-10.961006,288.1, 0.7, -1.2,0,0,1024,1024,1684,1088,285.9,-2.3,99,4.162,4.161,4.16,4.156,0,0,17.034,87.71,6,P-GPS,
0.350526312526779,36.8971273300944,5851.6365383022,57.742784,0,1.0267880906,18900,2018-04-17 05:34:22,16,0,16.567,5851.6365383022,57.742784,0,1.0267880906,0,0,-11.1847,288.5, 0.8, -1.1,0,0,1024,1024,1684,1092,286.5,-10.9,99,4.162,4.161,4.16,4.156,0,0,17.034,87.71,6,P-GPS,
0.350526318090561,36.8971272418408,5853.2769583022,59.383204,0,1.05739176612,19000,2018-04-17 05:34:22,16,0,16.567,5853.2769583022,59.383204,0,1.05739176612,0,0,-11.1847,288.9, 1, -1.2,0,0,1024,1024,1684,1088,286.9,-15.2,99,4.162,4.161,4.16,4.156,0,0,17.034,87.71,6,P-GPS,
0.350526338429012,36.8971271382145,5854.9173783022,61.023624,0,1.0952756256,19100,2018-04-17 05:34:22,16,0,16.567,5854.9173783022,61.023624,0,1.0952756256,0,0,-11.1847,289.5, 1.2, -1.5,0,0,1024,1024,1684,1024,286.9,-15.2,99,4.162,4.161,4.16,4.156,0,0,17.034,87.71,6,P-GPS,
0.350526349136235,36.8971270407227,5856.5577983022,62.664044,0,1.1298556792,19200,2018-04-17 05:34:23,16,0,16.567,5856.5577983022,62.664044,0,1.1298556792,0,0,-11.1847,290.2, 1.1, -1.8,0,0,1024,1024,1684,1024,287.4,-19.5,99,4.162,4.161,4.16,4.156,0,0,17.034,87.71,6,P-GPS,
0.350526343879211,36.897126950209,5858.5263023022,64.632548,0,1.16009518148,19300,2018-04-17 05:34:23,16,0,16.567,5858.5263023022,64.632548,0,1.16009518148,0,0,-11.1847,290.5, 0.9, -1.3,0,0,1024,1024,1684,1024,287.6,-22.8,99,4.158,4.156,4.155,4.151,0,0,17.074,87.71,6,P-GPS,
0.35052632342514,36.8971268740992,5860.1667223022,66.272968,0,1.1836778594,19400,2018-04-17 05:34:23,16,0,16.567,5860.1667223022,66.272968,0,1.1836778594,0,0,-11.1847,290.5, 0.8, -0.9,0,0,1024,1024,1684,1024,287.8,-22.8,99,4.158,4.156,4.155,4.151,0,0,17.074,87.71,6,P-GPS,
0.350526308874789,36.8971268233904,5861.8071423022,67.913388,0,1.19940620636,19500,2018-04-17 05:34:23,16,0,16.567,5861.8071423022,67.913388,0,1.19940620636,0,0,-10.961006,290.5, 0.7, -0.7,0,0,1024,1024,1684,1024,288,-22.8,99,4.158,4.156,4.155,4.151,0,0,17.074,87.71,6,P-GPS,
0.35052630499095,36.8971267841626,5863.4475623022,69.553808,0,1.2125000388,19600,2018-04-17 05:34:23,16,0,16.567,5863.4475623022,69.553808,0,1.2125000388,0,0,-11.1847,290.5, 0.7, -1,0,0,1024,1024,1684,1024,288.1,-22.8,99,4.158,4.156,4.155,4.151,0,0,17.074,87.71,6,P-GPS,
0.350526322571632,36.897126757614,5865.0879823022,71.194228,0,1.22373363496,19700,2018-04-17 05:34:23,16,0,16.567,5865.0879823022,71.194228,0,1.22373363496,0,0,-11.1847,290.4, 0.8, -1.4,0,0,1024,1024,1684,1024,288.2,-22.8,99,4.158,4.156,4.155,4.151,0,0,17.074,87.71,6,P-GPS,
0.350526336364552,36.8971267275045,5866.7284023022,72.834648,0,1.23575463272,19800,2018-04-17 05:34:23,16,0,16.567,5866.7284023022,72.834648,0,1.23575463272,0,0,-11.1847,290.4, 0.9, -1.5,0,0,1024,1024,1684,1024,288.3,-22.8,99,4.158,4.156,4.155,4.151,0,0,17.074,87.71,6,P-GPS,
0.350526348600884,36.897126695165,5868.3688223022,74.475068,0,1.24836290084,19900,2018-04-17 05:34:23,16,0,16.567,5868.3688223022,74.475068,0,1.24836290084,0,0,-10.961006,290.4, 1, -1.5,0,0,1024,1024,1684,1024,288.3,-22.8,99,4.158,4.156,4.155,4.151,0,0,17.074,87.71,6,P-GPS,
0.350526345690041,36.8971266609851,5870.0092423022,76.115488,0,1.25982943664,20000,2018-04-17 05:34:23,16,0,16.567,5870.0092423022,76.115488,0,1.25982943664,0,0,-10.961006,290.5, 1, -1.2,0,0,1024,1024,1684,1024,288.6,-22.8,99,4.158,4.156,4.155,4.151,0,0,17.074,87.71,6,P-GPS,
0.350526336374934,36.8971266676089,5873.2900823022,79.396328,0,1.25645673312,20200,2018-04-17 05:34:23,16,0,16.567,5873.2900823022,79.396328,0,1.25982943664,0,0,-11.1847,290.4, 0.9, -1.1,0,0,1024,1024,1684,1024,288.7,-22.8,99,4.158,4.156,4.155,4.151,0,0,17.074,87.71,6,P-GPS,
0.350526308611999,36.8971266805342,5875.2585863022,81.364832,0,1.24879597172,20300,2018-04-17 05:34:24,16,0,16.567,5875.2585863022,81.364832,0,1.25982943664,0,0,-10.961006,290.5, 0.6, -1.3,0,0,1024,1024,1684,1024,288.7,-22.8,99,4.158,4.156,4.155,4.151,0,0,16.746,87.71,6,P-GPS,
0.350526270894183,36.8971266840211,5876.8990063022,83.005252,0,1.24336618152,20400,2018-04-17 05:34:24,16,0,16.567,5876.8990063022,83.005252,0,1.25982943664,0,0,-11.1847,290.4, 0.5, -1.2,0,0,1024,1024,1684,1004,288.9,-22.8,99,4.158,4.156,4.155,4.151,0,0,16.746,87.71,6,P-GPS,
0.350526236625818,36.8971266902241,5878.5394263022,84.645672,0,1.23749019708,20500,2018-04-17 05:34:24,16,0,16.567,5878.5394263022,84.645672,0,1.25982943664,0,0,-11.1847,290.4, 0.5, -0.9,0,0,1024,1024,1684,934,288.7,-22.8,99,4.158,4.156,4.155,4.151,0,0,16.746,87.71,6,P-GPS,
0.350526214398982,36.8971266979464,5880.1798463022,86.286092,0,1.23243770348,20600,2018-04-17 05:34:24,16,0,16.567,5880.1798463022,86.286092,0,1.25982943664,0,0,-11.1847,290.1, 0.6, -1,0,0,1024,1024,1684,931,288.4,-22.8,99,4.158,4.156,4.155,4.151,0,0,16.746,87.71,6,P-GPS,
0.350526211636124,36.8971267391943,5881.8202663022,87.926512,0,1.21773954028,20700,2018-04-17 05:34:24,16,0,16.567,5881.8202663022,87.926512,0,1.25982943664,0,0,-11.1847,289.3, 0.4, -1.3,0,0,1024,1024,1684,892,288.4,-22.8,99,4.158,4.156,4.155,4.151,0,0,16.746,87.71,6,P-GPS,
0.350526208337914,36.8971267806125,5883.4606863022,89.566932,0,1.20293310936,20800,2018-04-17 05:34:24,16,0,16.567,5883.4606863022,89.566932,0,1.25982943664,0,0,-11.1847,288.2, 0.3, -1.3,0,0,1024,1024,1684,930,287.8,-22.8,99,4.158,4.156,4.155,4.151,0,0,16.746,87.71,6,P-GPS,
0.350526215873131,36.897126843296,5885.4291903022,91.535436,0,1.18190948664,20900,2018-04-17 05:34:24,16,0,16.567,5885.4291903022,91.535436,0,1.25982943664,0,0,-11.1847,286.8, 0.3, -1.3,0,0,1024,1024,1684,944,287.2,-22.8,99,4.158,4.156,4.155,4.151,0,0,16.746,87.71,6,P-GPS,
0.350526222047784,36.8971268974414,5887.0696103022,93.175856,0,1.16377300312,21000,2018-04-17 05:34:24,16,0,16.567,5887.0696103022,93.175856,0,1.25982943664,0,0,-10.961006,285.7, 0.3, -1.4,0,0,1024,1024,1684,958,287.2,-22.8,99,4.158,4.156,4.155,4.151,0,0,16.746,87.71,6,P-GPS,
0.35052623299337,36.8971269647231,5888.7100303022,94.816276,0,1.14169294992,21100,2018-04-17 05:34:24,16,0,16.567,5888.7100303022,94.816276,0,1.25982943664,0,0,-10.961006,285, 0.2, -1.5,0,0,1024,1024,1684,949,286.5,-22.8,99,4.158,4.156,4.155,4.151,0,0,16.746,87.71,6,P-GPS,
0.350526235987264,36.8971270198278,5890.3504503022,96.456696,0,1.12298888108,21200,2018-04-17 05:34:25,16,0,16.567,5890.3504503022,96.456696,0,1.25982943664,0,0,-10.961006,284.3, 0.2, -1.6,0,0,1024,1024,1684,1019,286.2,-22.8,99,4.158,4.156,4.155,4.151,0,0,16.746,87.71,6,P-GPS,
0.350526239128736,36.8971270878001,5891.9908703022,98.097116,0,1.09992457588,21300,2018-04-17 05:34:25,16,0,16.541,5891.9908703022,98.097116,0,1.25982943664,0,0,-10.961006,283.7, 0, -1.6,0,0,1024,1024,1684,1019,286,-22.8,99,4.153,4.15,4.151,4.149,0,0,16.746,87.71,6,P-GPS,
0.350526228956254,36.8971271348806,5893.6312903022,99.737536,0,1.08248691128,21400,2018-04-17 05:34:25,16,0,16.541,5893.6312903022,99.737536,0,1.25982943664,0,0,-10.961006,283.5, -0.1, -1.6,0,0,1024,1024,1684,986,285.9,-22.8,99,4.153,4.15,4.151,4.149,0,0,16.746,87.71,6,P-GPS,
0.350526216397287,36.8971271843968,5895.2717103022,101.377956,0,1.0639271994,21500,2018-04-17 05:34:25,16,0,16.541,5895.2717103022,101.377956,0,1.25982943664,0,0,-10.961006,283.5, -0.1, -1.2,0,0,1024,1024,1684,987,285.8,-22.8,99,4.153,4.15,4.151,4.149,0,0,16.746,87.71,6,P-GPS,
0.350526198191283,36.8971272192598,5897.2402143022,103.34646,0,1.0497211622,21600,2018-04-17 05:34:25,16,0,16.541,5897.2402143022,103.34646,0,1.25982943664,0,0,-11.1847,283.4, 0, -1,0,0,1024,1024,1684,1022,285.7,-22.8,99,4.153,4.15,4.151,4.149,0,0,16.746,87.71,6,P-GPS,
0.35052619619705,36.8971272680415,5898.8806343022,104.98688,0,1.03270672596,21700,2018-04-17 05:34:25,16,0,16.541,5898.8806343022,104.98688,0,1.25982943664,0,0,-11.1847,283.2, 0.1, -1.1,0,0,1024,1024,1684,1022,285.6,-22.8,99,4.153,4.15,4.151,4.149,0,0,16.746,87.71,6,P-GPS,
0.350526196628994,36.897127314605,5900.5210543022,106.6273,0,1.0167815286,21800,2018-04-17 05:34:25,16,0,16.541,5900.5210543022,106.6273,0,1.25982943664,0,0,-11.1847,283.2, 0, -1.3,0,0,1024,1024,1684,1020,285.5,-22.8,99,4.153,4.15,4.151,4.149,0,0,16.746,87.71,6,P-GPS,
0.350526211395928,36.897127379465,5902.1614743022,108.26772,0,0.99647640984,21900,2018-04-17 05:34:25,16,0,16.541,5902.1614743022,108.26772,0,1.25982943664,0,0,-11.408394,283.2, -0.3, -1.6,0,0,1024,1024,1684,1020,285.4,-22.8,99,4.153,4.15,4.151,4.149,0,0,16.746,87.71,6,P-GPS,
0.350526216450415,36.8971274310763,5904.1299783022,110.236224,0,0.9795603988,22000,2018-04-17 05:34:25,16,0,16.541,5904.1299783022,110.236224,0,1.25982943664,0,0,-11.1847,283.2, -0.4, -1.6,0,0,1024,1024,1684,1021,285.3,-22.8,99,4.153,4.15,4.151,4.149,0,0,16.746,87.71,6,P-GPS,
0.35052621922569,36.8971274878116,5905.7703983022,111.876644,0,0.96067260292,22100,2018-04-17 05:34:25,16,0,16.541,5905.7703983022,111.876644,0,1.25982943664,0,0,-11.1847,283.2, -0.2, -1.5,0,0,1024,1024,1684,1022,285.3,-22.8,99,4.153,4.15,4.151,4.149,0,0,16.746,87.71,6,P-GPS,
0.350526209107557,36.8971275278862,5907.4108183022,113.517064,0,0.94572837672,22200,2018-04-17 05:34:25,16,0,16.541,5907.4108183022,113.517064,0,1.25982943664,0,0,-11.1847,283.2, -0.2, -1.4,0,0,1024,1024,1684,1022,285.2,-22.8,99,4.153,4.15,4.151,4.149,0,0,16.746,87.71,6,P-GPS,
0.350526198131234,36.8971275788873,5909.0512383022,115.157484,0,0.92697509528,22300,2018-04-17 05:34:26,16,0,16.541,5909.0512383022,115.157484,0,1.25982943664,0,0,-11.1847,283.2, -0.4, -1.1,0,0,1024,1024,1684,1022,285.2,-22.8,99,4.153,4.15,4.151,4.149,0,0,16.746,87.71,6,P-GPS,
0.350526188295636,36.8971276138744,5911.0197423022,117.125988,0,0.91379924184,22400,2018-04-17 05:34:26,16,0,16.541,5911.0197423022,117.125988,0,1.25982943664,0,0,-11.1847,283.2, -0.3, -1.3,0,0,1024,1024,1684,1022,285.1,-22.8,99,4.153,4.15,4.151,4.149,0,0,16.746,87.71,6,P-GPS,
0.350526190352564,36.8971276566951,5912.6601623022,118.766408,0,0.8996391364,22500,2018-04-17 05:34:26,16,0,16.541,5912.6601623022,118.766408,0,1.25982943664,0,0,-11.1847,283.2, -0.2, -1.1,0,0,1024,1024,1684,1022,285,-22.8,99,4.153,4.15,4.151,4.149,0,0,16.746,87.71,6,P-GPS,
0.350526193966692,36.8971276906951,5914.3005823022,120.406828,0,0.8887139392,22600,2018-04-17 05:34:26,16,0,16.541,5914.3005823022,120.406828,0,1.25982943664,0,0,-11.1847,283.2, 0, -1.2,0,0,1024,1024,1684,1023,285,-22.8,99,4.153,4.15,4.151,4.149,0,0,16.746,87.71,6,P-GPS,
0.35052624275752,36.8971277488842,5915.9410023022,122.047248,0,0.87646656348,22700,2018-04-17 05:34:26,16,0,16.541,5915.9410023022,122.047248,0,1.25982943664,0,0,-11.1847,283.2, -0.2, -1.7,0,0,1024,1024,1684,1023,284.9,-22.8,99,4.153,4.15,4.151,4.149,0,0,16.746,87.71,6,P-GPS,
0.350526287487213,36.8971278023241,5917.5814223022,123.687668,0,0.86583336104,22800,2018-04-17 05:34:26,16,0,16.541,5917.5814223022,123.687668,0,1.25982943664,0,0,-11.1847,283.2, -0.6, -1.9,0,0,1024,1024,1684,1023,284.8,-22.8,99,4.153,4.15,4.151,4.149,0,0,16.746,87.71,6,P-GPS,
0.350526353102107,36.8971278522332,5921.1903463022,127.296592,0,0.86052824276,23000,2018-04-17 05:34:26,16,0,16.541,5921.1903463022,127.296592,0,1.25982943664,0,0,-10.961006,283.2, -0.6, -1.8,0,0,1024,1024,1684,1023,284.8,-22.8,99,4.153,4.15,4.151,4.149,0,0,16.746,87.71,6,P-GPS,
0.35052639891675,36.8971278697193,5922.8307663022,128.937012,0,0.86294950268,23100,2018-04-17 05:34:26,16,0,16.541,5922.8307663022,128.937012,0,1.25982943664,0,0,-10.961006,283.2, -0.7, -1.8,0,0,1024,1024,1684,1023,284.8,-22.8,99,4.153,4.15,4.151,4.149,0,0,16.746,87.71,6,P-GPS,
0.350526438773731,36.8971278764887,5924.4711863022,130.577432,0,0.86801511964,23200,2018-04-17 05:34:27,16,0,16.541,5924.4711863022,130.577432,0,1.25982943664,0,0,-10.961006,283.2, -0.5, -1.8,0,0,1024,1024,1684,1022,284.7,-22.8,99,4.153,4.15,4.151,4.149,0,0,16.746,87.71,6,P-GPS,
0.350526472385426,36.8971278960967,5926.1116063022,132.217852,0,0.868110264,23300,2018-04-17 05:34:27,16,0,16.541,5926.1116063022,132.217852,0,1.25982943664,0,0,-10.961006,283.2, -0.3, -1.8,0,0,1024,1024,1684,1022,284.7,-22.8,98,4.148,4.146,4.144,4.14,0,0,16.53,87.71,6,P-GPS,
0.350526491956066,36.8971279124789,5927.7520263022,133.858272,0,0.8667323112,23400,2018-04-17 05:34:27,16,0,16.541,5927.7520263022,133.858272,0,1.25982943664,0,0,-10.961006,283.2, -0.2, -1.7,0,0,1024,1024,1684,1022,284.6,-22.8,98,4.148,4.146,4.144,4.14,0,0,16.53,87.71,6,P-GPS,
0.350526503886454,36.8971279384977,5929.3924463022,135.498692,0,0.86098756036,23500,2018-04-17 05:34:27,16,0,16.541,5929.3924463022,135.498692,0,1.25982943664,0,0,-10.961006,283.1, -0.5, -1.8,0,0,1024,1024,1684,1024,284.6,-22.8,98,4.148,4.146,4.144,4.14,0,0,16.53,87.71,6,P-GPS,
0.350526506998207,36.8971279526938,5931.0328663022,137.139112,0,0.85722443688,23600,2018-04-17 05:34:27,16,0,16.541,5931.0328663022,137.139112,0,1.25982943664,0,0,-11.1847,283.1, -0.5, -2,0,0,1024,1024,1684,1024,284.6,-22.8,98,4.148,4.146,4.144,4.14,0,0,16.53,87.71,6,P-GPS,
0.350526523962726,36.8971279689594,5932.6732863022,138.779532,0,0.8555938594,23700,2018-04-17 05:34:27,16,0,16.541,5932.6732863022,138.779532,0,1.25982943664,0,0,-10.961006,283.1, -0.7, -1.9,0,0,1024,1024,1684,1023,284.5,-22.8,98,4.148,4.146,4.144,4.14,0,0,16.53,87.71,6,P-GPS,
0.350526537101623,36.8971279737075,5934.3137063022,140.419952,0,0.85677824264,23800,2018-04-17 05:34:27,16,0,16.541,5934.3137063022,140.419952,0,1.25982943664,0,0,-10.961006,283.1, -0.7, -2,0,0,1024,1024,1684,1024,284.5,-22.8,98,4.148,4.146,4.144,4.14,0,0,16.53,87.71,6,P-GPS,
0.350526543000254,36.8971279730116,5935.9541263022,142.060372,0,0.85817588048,23900,2018-04-17 05:34:27,16,0,16.541,5935.9541263022,142.060372,0,1.25982943664,0,0,-10.961006,283.2, -0.7, -1.8,0,0,1024,1024,1684,1024,284.5,-22.8,98,4.148,4.146,4.144,4.14,0,0,16.53,87.71,6,P-GPS,
0.350526530561792,36.8971279637616,5937.5945463022,143.700792,0,0.8584974028,24000,2018-04-17 05:34:27,16,0,16.541,5937.5945463022,143.700792,0,1.25982943664,0,0,-11.1847,283.2, -0.8, -1.5,0,0,1024,1024,1684,1024,284.5,-22.8,98,4.148,4.146,4.144,4.14,0,0,16.53,87.71,6,P-GPS,
0.350526545009347,36.8971279800829,5939.2349663022,145.341212,0,0.85643375444,24100,2018-04-17 05:34:27,16,0,16.541,5939.2349663022,145.341212,0,1.25982943664,0,0,-10.961006,283.2, -0.8, -1.5,0,0,1024,1024,1684,1024,284.4,-22.8,98,4.148,4.146,4.144,4.14,0,0,16.53,87.71,6,P-GPS,
0.35052658231252,36.8971280050042,5942.8438903022,148.950136,0,0.85657483056,24300,2018-04-17 05:34:28,16,0,16.514,5942.8438903022,148.950136,0,1.25982943664,0,0,-10.961006,283.2, -0.8, -1.9,0,0,1024,1024,1684,1024,284.4,-22.8,98,4.148,4.146,4.144,4.14,0,0,16.53,87.71,6,P-GPS,
0.350526575922099,36.8971279967553,5944.1562263022,150.262472,0,0.85772312456,24400,2018-04-17 05:34:28,16,0,16.514,5944.1562263022,150.262472,0,1.25982943664,0,0,-10.737312,283.2, -0.8, -1.8,0,0,1024,1024,1684,1024,284.4,-22.8,98,4.148,4.146,4.144,4.14,0,0,16.53,87.71,6,P-GPS,
0.350526564714333,36.8971279883372,5945.7966463022,151.902892,0,0.85794950252,24500,2018-04-17 05:34:28,16,0,16.514,5945.7966463022,151.902892,0,1.25982943664,0,0,-11.1847,283.2, -0.7, -1.5,0,0,1024,1024,1684,1024,284.3,-22.8,98,4.148,4.146,4.144,4.14,0,0,16.53,87.71,6,P-GPS,
0.350526536331776,36.8971279651855,5947.4370663022,153.543312,0,0.8592191876,24600,2018-04-17 05:34:28,16,0,16.514,5947.4370663022,153.543312,0,1.25982943664,0,0,-10.961006,283.2, -0.7, -1.2,0,0,1024,1024,1684,1024,284.3,-22.8,98,4.148,4.146,4.144,4.14,0,0,16.53,87.71,6,P-GPS,
0.350526522048897,36.8971279546112,5949.4055703022,155.511816,0,0.85960632672,24700,2018-04-17 05:34:28,16,0,16.514,5949.4055703022,155.511816,0,1.25982943664,0,0,-11.1847,283.2, -0.7, -1.3,0,0,1024,1024,1684,1024,284.3,-22.8,98,4.148,4.146,4.144,4.14,0,0,16.53,87.71,6,P-GPS,
0.350526499597336,36.897127933604,5951.0459903022,157.152236,0,0.8616634134,24800,2018-04-17 05:34:28,16,0,16.514,5951.0459903022,157.152236,0,1.25982943664,0,0,-11.1847,283.2, -0.8, -1.4,0,0,1024,1024,1684,1024,284.3,-22.8,98,4.148,4.146,4.144,4.14,0,0,16.53,87.71,6,P-GPS,
0.350526468432582,36.8971279006606,5952.6864103022,158.792656,0,0.86593834792,24900,2018-04-17 05:34:28,16,0,16.514,5952.6864103022,158.792656,0,1.25982943664,0,0,-10.961006,283.2, -0.8, -1.3,0,0,1024,1024,1684,1024,284.3,-22.8,98,4.148,4.146,4.144,4.14,0,0,16.53,87.71,6,P-GPS,
0.3505264178124,36.8971278496841,5954.3268303022,160.433076,0,0.87270015916,25000,2018-04-17 05:34:28,16,0,16.514,5954.3268303022,160.433076,0,1.25982943664,0,0,-10.961006,283.2, -0.7, -0.9,0,0,1024,1024,1684,1024,284.3,-22.8,98,4.148,4.146,4.144,4.14,0,0,16.53,87.71,6,P-GPS,
0.350526385852762,36.8971278099039,5955.9672503022,162.073496,0,0.87978349272,25100,2018-04-17 05:34:28,16,0,16.514,5955.9672503022,162.073496,0,1.25982943664,0,0,-10.961006,283.2, -0.3, -0.6,0,0,1024,1024,1684,1024,284.3,-22.8,98,4.148,4.146,4.144,4.14,0,0,16.53,87.71,6,P-GPS,
0.350526354926778,36.89712777363,5957.6076703022,163.713916,0,0.886236905,25200,2018-04-17 05:34:29,16,0,16.514,5957.6076703022,163.713916,0,1.25982943664,0,0,-11.1847,283.2, -0.5, -0.7,0,0,1024,1024,1684,1024,284.2,-22.8,98,4.148,4.146,4.144,4.14,0,0,16.53,87.71,6,P-GPS,
0.350526327393047,36.8971277384373,5959.2480903022,165.354336,0,0.8931758816,25300,2018-04-17 05:34:29,16,0,16.488,5959.2480903022,165.354336,0,1.25982943664,0,0,-10.961006,283.2, -0.6, -0.9,0,0,1024,1024,1684,1024,284.2,-22.8,98,4.143,4.141,4.141,4.137,0,0,16.49,87.71,6,P-GPS,
0.35052628320868,36.8971276781456,5960.8885103022,166.994756,0,0.90607942532,25400,2018-04-17 05:34:29,16,0,16.488,5960.8885103022,166.994756,0,1.25982943664,0,0,-11.1847,283.2, -0.3, -0.7,0,0,1024,1024,1684,1024,284.2,-22.8,98,4.143,4.141,4.141,4.137,0,0,16.49,87.71,6,P-GPS,
0.350526238604988,36.8971276393707,5962.5289303022,168.635176,0,0.91234254888,25500,2018-04-17 05:34:29,16,0,16.488,5962.5289303022,168.635176,0,1.25982943664,0,0,-11.1847,283.3, 0, -0.4,0,0,1024,1024,1684,1024,284.2,-22.8,98,4.143,4.141,4.141,4.137,0,0,16.49,87.71,6,P-GPS,
0.350526191570844,36.8971276019983,5964.1693503022,170.275596,0,0.91826118424,25600,2018-04-17 05:34:29,16,0,16.488,5964.1693503022,170.275596,0,1.25982943664,0,0,-11.1847,283.2, 0, -0.1,0,0,1024,1024,1684,1024,284.2,-22.8,98,4.143,4.141,4.141,4.137,0,0,16.49,87.71,6,P-GPS,
0.350526156245212,36.8971275821569,5965.8097703022,171.916016,0,0.9202264074,25700,2018-04-17 05:34:29,16,0,16.488,5965.8097703022,171.916016,0,1.25982943664,0,0,-11.1847,283.2, -0.1, -0.1,0,0,1024,1024,1684,1024,284.2,-22.8,98,4.143,4.141,4.141,4.137,0,0,16.49,87.71,6,P-GPS,
0.350526131941499,36.8971275521063,5967.7782743022,173.88452,0,0.92731630264,25800,2018-04-17 05:34:29,16,0,16.488,5967.7782743022,173.88452,0,1.25982943664,0,0,-11.1847,283.2, 0, -0.6,0,0,1024,1024,1684,1024,284.1,-22.8,98,4.143,4.141,4.141,4.137,0,0,16.49,87.71,6,P-GPS,
0.350526111508802,36.897127533115,5969.4186943022,175.52494,0,0.93124674896,25900,2018-04-17 05:34:29,16,0,16.488,5969.4186943022,175.52494,0,1.25982943664,0,0,-11.1847,283.2, 0.2, -0.8,0,0,1024,1024,1684,1024,284.1,-22.8,98,4.143,4.141,4.141,4.137,0,0,16.49,87.71,6,P-GPS,
0.350526084070335,36.8971275122351,5971.0591143022,177.16536,0,0.93507877008,26000,2018-04-17 05:34:29,16,0,16.488,5971.0591143022,177.16536,0,1.25982943664,0,0,-10.961006,283.3, -0.1, -0.7,0,0,1024,1024,1684,1024,284.1,-22.8,98,4.143,4.141,4.141,4.137,0,0,16.49,87.71,6,P-GPS,
0.350526072485381,36.8971274682336,5974.3399543022,180.4462,0,0.948900949,26200,2018-04-17 05:34:29,16,0,16.488,5974.3399543022,180.4462,0,1.25982943664,0,0,-10.961006,283.2, -0.3, -0.8,0,0,1024,1024,1684,1024,284.1,-22.8,98,4.143,4.141,4.141,4.137,0,0,16.49,87.71,6,P-GPS,
0.350526064416441,36.8971274295668,5975.9803743022,182.08662,0,0.96136157932,26300,2018-04-17 05:34:30,16,0,16.461,5975.9803743022,182.08662,0,1.25982943664,0,0,-10.961006,283.2, -0.1, -0.9,0,0,1024,1024,1684,1024,284.1,-22.8,98,4.141,4.142,4.14,4.137,0,0,16.094,87.71,6,P-GPS,
0.350526063744707,36.8971273308449,5979.2612143022,185.36746,0,0.99557417884,26500,2018-04-17 05:34:30,16,0,16.461,5979.2612143022,185.36746,0,1.25982943664,0,0,-10.961006,283.2, 0.1, -1.1,0,0,1024,1024,1684,1024,284.1,-22.8,98,4.141,4.142,4.14,4.137,0,0,16.094,87.71,6,P-GPS,
0.350526078140967,36.8971272833746,5980.9016343022,187.00788,0,1.01367129228,26600,2018-04-17 05:34:30,16,0,16.461,5980.9016343022,187.00788,0,1.25982943664,0,0,-11.1847,283.2, 0, -0.9,0,0,1024,1024,1684,1024,284,-22.8,98,4.141,4.142,4.14,4.137,0,0,16.094,87.71,6,P-GPS,
0.350526073820501,36.8971272617625,5982.5420543022,188.6483,0,1.02072509828,26700,2018-04-17 05:34:30,16,0,16.461,5982.5420543022,188.6483,0,1.25982943664,0,0,-11.1847,283.2, 0, -0.8,0,0,1024,1024,1684,1024,284,-22.8,98,4.141,4.142,4.14,4.137,0,0,16.094,87.71,6,P-GPS,
0.350526058415421,36.8971272506968,5984.1824743022,190.28872,0,1.02292982276,26800,2018-04-17 05:34:30,16,0,16.461,5984.1824743022,190.28872,0,1.25982943664,0,0,-11.1847,283.2, -0.1, -0.9,0,0,1024,1024,1684,1024,284,-22.8,98,4.141,4.142,4.14,4.137,0,0,16.094,87.71,6,P-GPS,
0.350526050706978,36.8971272379759,5986.1509783022,192.257224,0,1.02656171264,26900,2018-04-17 05:34:30,16,0,16.461,5986.1509783022,192.257224,0,1.25982943664,0,0,-11.1847,283.2, -0.1, -1,0,0,1024,1024,1684,1024,284,-22.8,98,4.141,4.142,4.14,4.137,0,0,16.094,87.71,6,P-GPS,
0.350526044319406,36.8971272202072,5987.7913983022,193.897644,0,1.03210961308,27000,2018-04-17 05:34:30,16,0,16.461,5987.7913983022,193.897644,0,1.25982943664,0,0,-11.1847,283.2, -0.2, -1,0,0,1024,1024,1684,1024,284,-22.8,98,4.141,4.142,4.14,4.137,0,0,16.094,87.71,6,P-GPS,
0.350526042938282,36.8971271934915,5989.1037343022,195.20998,0,1.04131893096,27100,2018-04-17 05:34:31,16,0,16.461,5989.1037343022,195.20998,0,1.25982943664,0,0,-10.961006,283.2, -0.4, -1,0,0,1024,1024,1684,1024,284,-22.8,98,4.141,4.142,4.14,4.137,0,0,16.094,87.71,6,P-GPS,
0.350526048242124,36.8971271310832,5992.3845743022,198.49082,0,1.06372706816,27300,2018-04-17 05:34:31,16,0,16.461,5992.3845743022,198.49082,0,1.25982943664,0,0,-10.961006,283.2, -0.2, -1.4,0,0,1024,1024,1684,1024,284,-22.8,98,4.141,4.138,4.138,4.136,0,0,15.98,87.71,6,P-GPS,
0.350526041250807,36.8971271057936,5994.3530783022,200.459324,0,1.07190292144,27400,2018-04-17 05:34:31,16,0,16.461,5994.3530783022,200.459324,0,1.25982943664,0,0,-11.1847,283.2, 0, -1.5,0,0,1024,1024,1684,1024,284,-22.8,98,4.141,4.138,4.138,4.136,0,0,15.98,87.71,6,P-GPS,
0.350526023295787,36.8971270732892,5995.9934983022,202.099744,0,1.0815781186,27500,2018-04-17 05:34:31,16,0,16.461,5995.9934983022,202.099744,0,1.25982943664,0,0,-11.1847,283.3, -0.3, -1.4,0,0,1024,1024,1684,1024,283.9,-22.8,98,4.141,4.138,4.138,4.136,0,0,15.98,87.71,6,P-GPS,
0.350525967460106,36.8971269491449,6000.9147583022,207.021004,0,1.12035436656,27800,2018-04-17 05:34:31,16,0,16.461,6000.9147583022,207.021004,0,1.25982943664,0,0,-11.1847,283.2, -0.4, -0.4,0,0,1024,1024,1684,1024,283.9,-22.8,98,4.141,4.138,4.138,4.136,0,0,15.98,87.71,6,P-GPS,
0.350525980303033,36.8971269205203,6002.5551783022,208.661424,0,1.1316109286,27900,2018-04-17 05:34:31,16,0,16.461,6002.5551783022,208.661424,0,1.25982943664,0,0,-11.408394,283.3, -0.1, -0.9,0,0,1024,1024,1684,1024,283.9,-22.8,98,4.141,4.138,4.138,4.136,0,0,15.98,87.71,6,P-GPS,
0.35052599280012,36.8971268906453,6004.5236823022,210.629928,0,1.14328415732,28000,2018-04-17 05:34:31,16,0,16.461,6004.5236823022,210.629928,0,1.25982943664,0,0,-11.408394,283.3, 0, -1.2,0,0,1024,1024,1684,1024,283.9,-22.8,98,4.141,4.138,4.138,4.136,0,0,15.98,87.71,6,P-GPS,
0.350526010228135,36.8971268881508,6006.1641023022,212.270348,0,1.14570541724,28100,2018-04-17 05:34:31,16,0,16.461,6006.1641023022,212.270348,0,1.25982943664,0,0,-11.1847,283.3, 0, -1.5,0,0,1024,1024,1684,1024,283.9,-22.8,98,4.141,4.138,4.138,4.136,0,0,15.98,87.71,6,P-GPS,
0.350526025072419,36.8971268799393,6007.8045223022,213.910768,0,1.14994098168,28200,2018-04-17 05:34:31,16,0,16.461,6007.8045223022,213.910768,0,1.25982943664,0,0,-11.1847,283.2, 0, -1.6,0,0,1024,1024,1684,1024,283.9,-22.8,98,4.141,4.138,4.138,4.136,0,0,15.98,87.71,6,P-GPS,
0.350526049250945,36.8971268920703,6009.4449423022,215.551188,0,1.147883895,28300,2018-04-17 05:34:32,16,0,16.488,6009.4449423022,215.551188,0,1.25982943664,0,0,-10.961006,283.2, 0, -1.6,0,0,1024,1024,1684,1024,283.9,-22.8,98,4.141,4.138,4.138,4.136,0,0,15.98,87.71,6,P-GPS,
0.350526067449621,36.8971268874506,6011.0853623022,217.191608,0,1.1512303518,28400,2018-04-17 05:34:32,16,0,16.488,6011.0853623022,217.191608,0,1.25982943664,0,0,-10.961006,283.2, 0, -1.4,0,0,1024,1024,1684,1024,283.9,-22.8,98,4.141,4.138,4.138,4.136,0,0,15.98,87.71,6,P-GPS,
0.350526079680457,36.8971268697044,6012.7257823022,218.832028,0,1.15864833104,28500,2018-04-17 05:34:32,16,0,16.488,6012.7257823022,218.832028,0,1.25982943664,0,0,-10.961006,283.2, 0.1, -1.4,0,0,1024,1024,1684,1024,283.9,-22.8,98,4.141,4.138,4.138,4.136,0,0,15.98,87.71,6,P-GPS,
0.350526078476833,36.8971268230981,6014.3662023022,220.472448,0,1.17494754416,28600,2018-04-17 05:34:32,16,0,16.488,6014.3662023022,220.472448,0,1.25982943664,0,0,-10.961006,283.2, 0.3, -1.3,0,0,1024,1024,1684,1024,283.9,-22.8,98,4.141,4.138,4.138,4.136,0,0,15.98,87.71,6,P-GPS,
0.350526070968078,36.897126792099,6016.0066223022,222.112868,0,1.1851706416,28700,2018-04-17 05:34:32,16,0,16.488,6016.0066223022,222.112868,0,1.25982943664,0,0,-10.961006,283.2, 0.5, -1.1,0,0,1024,1024,1684,1024,283.9,-22.8,98,4.141,4.138,4.138,4.136,0,0,15.98,87.71,6,P-GPS,
0.350526063331897,36.8971267651499,6017.6470423022,223.753288,0,1.193979697,28800,2018-04-17 05:34:32,16,0,16.488,6017.6470423022,223.753288,0,1.25982943664,0,0,-11.1847,283.2, 0.6, -1.2,0,0,1024,1024,1684,1024,283.9,-22.8,98,4.141,4.138,4.138,4.136,0,0,15.98,87.71,6,P-GPS,
0.350526080862096,36.8971267469026,6019.2874623022,225.393708,0,1.20203744004,28900,2018-04-17 05:34:32,16,0,16.488,6019.2874623022,225.393708,0,1.25982943664,0,0,-11.1847,283.2, 0.6, -1.4,0,0,1024,1024,1684,1024,283.9,-22.8,98,4.141,4.138,4.138,4.136,0,0,15.98,87.71,6,P-GPS,
0.350526096627266,36.8971267194953,6020.9278823022,227.034128,0,1.21317589184,29000,2018-04-17 05:34:32,16,0,16.488,6020.9278823022,227.034128,0,1.25982943664,0,0,-11.1847,283.2, 0.3, -1.5,0,0,1024,1024,1684,1024,283.9,-22.8,98,4.141,4.138,4.138,4.136,0,0,15.98,87.71,6,P-GPS,
0.35052610515726,36.8971267080389,6022.5683023022,228.674548,0,1.21801513084,29100,2018-04-17 05:34:33,16,0,16.488,6022.5683023022,228.674548,0,1.25982943664,0,0,-11.1847,283.2, 0.3, -1.2,0,0,1024,1024,1684,1024,283.9,-22.8,98,4.141,4.138,4.138,4.136,0,0,15.98,87.71,6,P-GPS,
0.350526098526032,36.8971266994795,6025.8491423022,231.955388,0,1.22041014404,29300,2018-04-17 05:34:33,16,0,16.461,6025.8491423022,231.955388,0,1.25982943664,0,0,-11.1847,283.2, 0.5, -1,0,0,1024,1024,1684,1024,283.8,-22.8,98,4.141,4.139,4.138,4.135,0,0,15.612,87.71,6,P-GPS,
0.350526093740849,36.8971266866901,6029.4580663022,235.564312,0,1.22447838564,29500,2018-04-17 05:34:33,16,0,16.461,6029.4580663022,235.564312,0,1.25982943664,0,0,-11.1847,283.3, 0.5, -1.3,0,0,1024,1024,1684,1024,283.8,-22.8,98,4.141,4.139,4.138,4.135,0,0,15.612,87.71,6,P-GPS,
0.350526080552285,36.8971266653167,6030.7704023022,236.876648,0,1.23082024936,29600,2018-04-17 05:34:33,16,0,16.461,6030.7704023022,236.876648,0,1.25982943664,0,0,-10.961006,283.3, 0.3, -1.1,0,0,1024,1024,1684,1024,283.8,-22.8,98,4.141,4.139,4.138,4.135,0,0,15.612,87.71,6,P-GPS,
0.350526059643064,36.8971266405613,6034.3793263022,240.485572,0,1.2377132942,29800,2018-04-17 05:34:33,16,0,16.461,6034.3793263022,240.485572,0,1.25982943664,0,0,-10.961006,283.2, 0.5, -0.8,0,0,1024,1024,1684,1024,283.8,-22.8,98,4.141,4.139,4.138,4.135,0,0,15.612,87.71,6,P-GPS,
0.350526063181469,36.8971266463714,6035.6916623022,241.797908,0,1.23596788732,29900,2018-04-17 05:34:33,16,0,16.461,6035.6916623022,241.797908,0,1.25982943664,0,0,-10.961006,283.3, 0.4, -1,0,0,1024,1024,1684,1024,283.8,-22.8,98,4.141,4.139,4.138,4.135,0,0,15.612,87.71,6,P-GPS,
0.350526055620604,36.8971266430954,6037.6601663022,243.766412,0,1.23646329416,30000,2018-04-17 05:34:33,16,0,16.461,6037.6601663022,243.766412,0,1.25982943664,0,0,-11.1847,283.2, 0.2, -1,0,0,1024,1024,1684,1024,283.8,-22.8,98,4.141,4.139,4.138,4.135,0,0,15.612,87.71,6,P-GPS,
0.350526050455383,36.8971266460888,6039.3005863022,245.406832,0,1.23495082692,30100,2018-04-17 05:34:33,16,0,16.461,6039.3005863022,245.406832,0,1.25982943664,0,0,-10.961006,283.2, 0.3, -0.7,0,0,1024,1024,1684,1024,283.8,-22.8,98,4.141,4.139,4.138,4.135,0,0,15.612,87.71,6,P-GPS,
0.350526039651268,36.8971266342512,6040.9410063022,247.047252,0,1.23821526272,30200,2018-04-17 05:34:33,16,0,16.461,6040.9410063022,247.047252,0,1.25982943664,0,0,-10.961006,283.2, 0.6, -0.6,0,0,1024,1024,1684,1024,283.8,-22.8,98,4.141,4.139,4.138,4.135,0,0,15.612,87.71,6,P-GPS,
0.350526024845048,36.8971266363538,6042.5814263022,248.687672,0,1.23621066948,30300,2018-04-17 05:34:34,16,0,16.488,6042.5814263022,248.687672,0,1.25982943664,0,0,-11.1847,283.3, 0.7, -0.7,0,0,1024,1024,1684,1024,283.8,-22.8,98,4.136,4.133,4.132,4.129,0,0,15.962,87.71,6,P-GPS,
0.350525989396875,36.8971266283693,6044.2218463022,250.328092,0,1.23613192932,30400,2018-04-17 05:34:34,16,0,16.488,6044.2218463022,250.328092,0,1.25982943664,0,0,-10.961006,283.2, 0.6, -0.6,0,0,1024,1024,1684,1024,283.8,-22.8,98,4.136,4.133,4.132,4.129,0,0,15.962,87.71,6,P-GPS,
0.350525964616639,36.8971266147942,6045.8622663022,251.968512,0,1.239009226,30500,2018-04-17 05:34:34,16,0,16.488,6045.8622663022,251.968512,0,1.25982943664,0,0,-10.961006,283.2, 0.7, -0.4,0,0,1024,1024,1684,1024,283.8,-22.8,98,4.136,4.133,4.132,4.129,0,0,15.962,87.71,6,P-GPS,
0.350525945348483,36.8971265899188,6047.5026863022,253.608932,0,1.24641408188,30600,2018-04-17 05:34:34,16,0,16.488,6047.5026863022,253.608932,0,1.25982943664,0,0,-10.961006,283.2, 0.8, -0.4,0,0,1024,1024,1684,1024,283.8,-22.8,98,4.136,4.133,4.132,4.129,0,0,15.962,87.71,6,P-GPS,
0.350525944457317,36.8971265860144,6049.1431063022,255.249352,0,1.24774282208,30700,2018-04-17 05:34:34,16,0,16.488,6049.1431063022,255.249352,0,1.25982943664,0,0,-10.961006,283.2, 0.6, -0.5,0,0,1024,1024,1684,1024,283.8,-22.8,98,4.136,4.133,4.132,4.129,0,0,15.962,87.71,6,P-GPS,
0.35052594090161,36.8971265898996,6050.7835263022,256.889772,0,1.24608927872,30800,2018-04-17 05:34:34,16,0,16.488,6050.7835263022,256.889772,0,1.25982943664,0,0,-10.961006,283.2, 0.3, -0.6,0,0,1024,1024,1684,1024,283.8,-22.8,98,4.136,4.133,4.132,4.129,0,0,15.962,87.71,6,P-GPS,
0.350525932603059,36.8971266046138,6052.0958623022,258.202108,0,1.24021657512,30900,2018-04-17 05:34:34,16,0,16.488,6052.0958623022,258.202108,0,1.25982943664,0,0,-10.961006,283.2, 0.2, -0.5,0,0,1024,1024,1684,1024,283.8,-22.8,98,4.136,4.133,4.132,4.129,0,0,15.962,87.71,6,P-GPS,
0.35052590775565,36.8971266095407,6054.0643663022,260.170612,0,1.2366470212,31000,2018-04-17 05:34:34,16,0,16.488,6054.0643663022,260.170612,0,1.25982943664,0,0,-11.1847,283.2, 0.3, -0.2,0,0,1024,1024,1684,1024,283.8,-22.8,98,4.136,4.133,4.132,4.129,0,0,15.962,87.71,6,P-GPS,
0.350525901337341,36.897126620691,6055.7047863022,261.811032,0,1.23219820216,31100,2018-04-17 05:34:35,16,0,16.488,6055.7047863022,261.811032,0,1.25982943664,0,0,-11.1847,283.2, 0.3, -0.3,0,0,1024,1024,1684,1024,283.7,-22.8,98,4.136,4.133,4.132,4.129,0,0,15.962,87.71,6,P-GPS,
0.350525923151366,36.8971266553152,6058.9856263022,265.091872,0,1.22140423856,31300,2018-04-17 05:34:35,16,0,16.408,6058.9856263022,265.091872,0,1.25982943664,0,0,-10.961006,283.2, 0.7, -0.7,0,0,1024,1024,1684,1024,283.7,-22.8,98,4.133,4.13,4.129,4.126,0,0,16.18,87.71,6,P-GPS,
0.350525935940555,36.8971266985266,6060.6260463022,266.732292,0,1.20694229584,31400,2018-04-17 05:34:35,16,0,16.408,6060.6260463022,266.732292,0,1.25982943664,0,0,-11.1847,283.2, 0.4, -1,0,0,1024,1024,1684,1048,283.7,-22.8,98,4.133,4.13,4.129,4.126,0,0,16.18,87.71,6,P-GPS,
0.350525923951747,36.8971267532631,6062.2664663022,268.372712,0,1.18649610096,31500,2018-04-17 05:34:35,16,0,16.408,6062.2664663022,268.372712,0,1.25982943664,0,0,-11.1847,283.2, 0.1, -1.1,0,0,1024,1024,1684,1072,283.7,-22.8,98,4.133,4.13,4.129,4.126,0,0,16.18,87.71,6,P-GPS,
0.35052589090614,36.8971267876303,6063.9068863022,270.013132,0,1.17174872516,31600,2018-04-17 05:34:35,16,0,16.408,6063.9068863022,270.013132,0,1.25982943664,0,0,-11.1847,283.2, 0, -0.8,0,0,1024,1024,1684,1089,283.7,-22.8,98,4.133,4.13,4.129,4.126,0,0,16.18,87.71,6,P-GPS,
0.350525859145375,36.8971268338919,6065.5473063022,271.653552,0,1.15290686104,31700,2018-04-17 05:34:35,16,0,16.408,6065.5473063022,271.653552,0,1.25982943664,0,0,-11.1847,283.3, -0.1, -0.9,0,0,1024,1024,1684,1085,283.9,-22.8,98,4.133,4.13,4.129,4.126,0,0,16.18,87.71,6,P-GPS,
0.350525837977639,36.8971268650238,6067.5158103022,273.622056,0,1.1402723462,31800,2018-04-17 05:34:35,16,0,16.408,6067.5158103022,273.622056,0,1.25982943664,0,0,-11.1847,283.6, 0, -0.8,0,0,1024,1024,1684,1079,283.9,-22.8,98,4.133,4.13,4.129,4.126,0,0,16.18,87.71,6,P-GPS,
0.35052582609814,36.8971269039742,6069.1562303022,275.262476,0,1.12549872368,31900,2018-04-17 05:34:35,16,0,16.408,6069.1562303022,275.262476,0,1.25982943664,0,0,-10.961006,284.2, 0, -0.8,0,0,1024,1024,1684,1079,284.2,-22.8,98,4.133,4.13,4.129,4.126,0,0,16.18,87.71,6,P-GPS,
0.35052582119978,36.8971269310925,6070.7966503022,276.902896,0,1.11544294908,32000,2018-04-17 05:34:35,16,0,16.408,6070.7966503022,276.902896,0,1.25982943664,0,0,-10.961006,284.7, 0, -1,0,0,1024,1024,1684,1072,284.3,-22.8,98,4.133,4.13,4.129,4.126,0,0,16.18,87.71,6,P-GPS,
0.350525826673388,36.8971269747214,6072.4370703022,278.543316,0,1.10020344728,32100,2018-04-17 05:34:35,16,0,16.408,6072.4370703022,278.543316,0,1.25982943664,0,0,-11.1847,285.1, 0, -0.9,0,0,1024,1024,1684,1048,284.5,-22.8,98,4.133,4.13,4.129,4.126,0,0,16.18,87.71,6,P-GPS,
0.350525835117073,36.8971269978067,6074.0774903022,280.183736,0,1.09254596672,32200,2018-04-17 05:34:35,16,0,16.408,6074.0774903022,280.183736,0,1.25982943664,0,0,-11.1847,285.6, 0.4, -0.8,0,0,1024,1024,1684,1048,284.6,-22.8,98,4.133,4.13,4.129,4.126,0,0,16.18,87.71,6,P-GPS,
0.350525857701149,36.8971270381725,6075.7179103022,281.824156,0,1.07979662248,32300,2018-04-17 05:34:36,16,0,16.381,6075.7179103022,281.824156,0,1.25982943664,0,0,-11.1847,285.9, 0.6, -1.3,0,0,1024,1024,1684,1056,284.7,-22.8,98,4.133,4.13,4.129,4.126,0,0,16.18,87.71,6,P-GPS,
0.350525909291883,36.8971271231555,6078.9987503022,285.104996,0,1.05366801272,32500,2018-04-17 05:34:36,16,0,16.381,6078.9987503022,285.104996,0,1.25982943664,0,0,-11.1847,286.1, 0.6, -1.2,0,0,1024,1024,1684,1059,284.7,-22.8,98,4.133,4.13,4.129,4.126,0,0,16.18,87.71,6,P-GPS,
0.350525940641059,36.8971271592121,6080.6391703022,286.745416,0,1.04360567644,32600,2018-04-17 05:34:36,16,0,16.381,6080.6391703022,286.745416,0,1.25982943664,0,0,-10.961006,286.2, 0.8, -1.4,0,0,1024,1024,1684,1059,284.8,-22.8,98,4.133,4.13,4.129,4.126,0,0,16.18,87.71,6,P-GPS,
0.350525971908608,36.8971271995308,6082.2795903022,288.385836,0,1.03222444248,32700,2018-04-17 05:34:36,16,0,16.381,6082.2795903022,288.385836,0,1.25982943664,0,0,-10.961006,286.4, 0.9, -1.6,0,0,1024,1024,1684,1059,285,-22.8,98,4.133,4.13,4.129,4.126,0,0,16.18,87.71,6,P-GPS,
0.350525992741292,36.8971272716965,6085.5604303022,291.666676,0,1.0088418958,32900,2018-04-17 05:34:36,16,0,16.381,6085.5604303022,291.666676,0,1.25982943664,0,0,-10.961006,286.7, 0.7, -1.6,0,0,1024,1024,1684,1059,285.1,-22.8,98,4.133,4.13,4.129,4.126,0,0,16.18,87.71,6,P-GPS,
0.350525998875437,36.8971273176337,6087.2008503022,293.307096,0,0.9933399268,33000,2018-04-17 05:34:37,16,0,16.381,6087.2008503022,293.307096,0,1.25982943664,0,0,-11.1847,286.9, 0.7, -1.5,0,0,1024,1024,1684,1045,285.3,-22.8,98,4.133,4.13,4.129,4.126,0,0,16.18,87.71,6,P-GPS,
0.35052596070756,36.897127518376,6092.4501943022,298.55644,0,0.91914044936,33300,2018-04-17 05:34:37,16,0,16.435,6092.4501943022,298.55644,0,1.25982943664,0,0,-10.961006,287.4, 0.1, -0.9,0,0,1024,1024,1684,1039,285.4,-22.8,98,4.129,4.126,4.126,4.123,0,0,16.158,87.71,6,P-GPS,
0.350525937954737,36.8971275767964,6094.0906143022,300.19686,0,0.89634845388,33400,2018-04-17 05:34:37,16,0,16.435,6094.0906143022,300.19686,0,1.25982943664,0,0,-10.961006,287.5, -0.1, -0.6,0,0,1024,1024,1684,1039,285.4,-22.8,98,4.129,4.126,4.126,4.123,0,0,16.158,87.71,6,P-GPS,
0.350525942890957,36.8971276488283,6095.7310343022,301.83728,0,0.87169950296,33500,2018-04-17 05:34:37,16,0,16.435,6095.7310343022,301.83728,0,1.25982943664,0,0,-10.961006,287.5, -0.2, -0.9,0,0,1024,1024,1684,1039,285.5,-22.8,98,4.129,4.126,4.126,4.123,0,0,16.158,87.71,6,P-GPS,
0.350525951628577,36.8971276937281,6097.3714543022,303.4777,0,0.8570046206,33600,2018-04-17 05:34:37,16,0,16.435,6097.3714543022,303.4777,0,1.25982943664,0,0,-10.961006,287.5, 0, -1.2,0,0,1024,1024,1684,1040,285.6,-22.8,98,4.129,4.126,4.126,4.123,0,0,16.158,87.71,6,P-GPS,
0.350525953694462,36.8971277443267,6099.0118743022,305.11812,0,0.83965553868,33700,2018-04-17 05:34:37,16,0,16.435,6099.0118743022,305.11812,0,1.25982943664,0,0,-11.1847,287.4, 0.3, -1.2,0,0,1024,1024,1684,1036,285.7,-22.8,98,4.129,4.126,4.126,4.123,0,0,16.158,87.71,6,P-GPS,
0.35052594090507,36.8971277809561,6100.6522943022,306.75854,0,0.82550527576,33800,2018-04-17 05:34:37,16,0,16.435,6100.6522943022,306.75854,0,1.25982943664,0,0,-11.1847,287.4, 0.3, -1.4,0,0,1024,1024,1684,1034,285.8,-22.8,98,4.129,4.126,4.126,4.123,0,0,16.158,87.71,6,P-GPS,
0.350525955849504,36.8971278331006,6102.2927143022,308.39896,0,0.80916669256,33900,2018-04-17 05:34:37,16,0,16.435,6102.2927143022,308.39896,0,1.25982943664,0,0,-11.1847,287.4, 0.3, -1.5,0,0,1024,1024,1684,1033,285.8,-22.8,98,4.129,4.126,4.126,4.123,0,0,16.158,87.71,6,P-GPS,
0.350525976901417,36.8971279325462,6105.5735543022,311.6798,0,0.7775098674,34100,2018-04-17 05:34:37,16,0,16.435,6105.5735543022,311.6798,0,1.25982943664,0,0,-11.1847,287.4, 0, -1.3,0,0,1024,1024,1684,1034,286,-22.8,98,4.129,4.126,4.126,4.123,0,0,16.158,87.71,6,P-GPS,
0.350525979110198,36.8971280166812,6109.1824783022,315.288724,0,0.74905514208,34300,2018-04-17 05:34:38,16,0,16.461,6109.1824783022,315.288724,0,1.25982943664,0,0,-10.961006,287.4, 0.1, -1.6,0,0,1024,1024,1684,1034,286.1,-22.8,98,4.128,4.125,4.123,4.12,0,0,16.066,87.71,6,P-GPS,
0.350526004945666,36.8971280409581,6110.8228983022,316.929144,0,0.74426183484,34400,2018-04-17 05:34:38,16,0,16.461,6110.8228983022,316.929144,0,1.25982943664,0,0,-10.961006,287.4, 0.3, -1.9,0,0,1024,1024,1684,1034,286.1,-22.8,98,4.128,4.125,4.123,4.12,0,0,16.066,87.71,6,P-GPS,
0.350526023119304,36.8971280582911,6112.4633183022,318.569564,0,0.74092193972,34500,2018-04-17 05:34:38,16,0,16.461,6112.4633183022,318.569564,0,1.25982943664,0,0,-10.961006,287.4, 0.5, -1.8,0,0,1024,1024,1684,1034,286.1,-22.8,98,4.128,4.125,4.123,4.12,0,0,16.066,87.71,6,P-GPS,
0.350526009545613,36.8971280567772,6114.1037383022,320.209984,0,0.73954398692,34600,2018-04-17 05:34:38,16,0,16.461,6114.1037383022,320.209984,0,1.25982943664,0,0,-10.961006,287.4, 0.4, -1.3,0,0,1024,1024,1684,1040,286.2,-22.8,98,4.128,4.125,4.123,4.12,0,0,16.066,87.71,6,P-GPS,
