latitude,longitude,altitude(feet),ascent(feet),speed(mph),distance(feet),time(millisecond),datetime(utc),satellites,gpslevel,voltage(v),max_altitude(feet),max_ascent(feet),max_speed(mph),max_distance(feet), xSpeed(mph), ySpeed(mph), zSpeed(mph), compass_heading(degrees), pitch(degrees), roll(degrees),isPhoto,isVideo,rc_elevator,rc_aileron,rc_throttle,rc_rudder,gimbal_heading(degrees),gimbal_pitch(degrees),battery_percent,voltageCell1,voltageCell2,voltageCell3,voltageCell4,voltageCell5,voltageCell6,current(A),battery_temperature(f),flycStateRaw,flycState,message
0.352821033222062,36.8834155343048,5802.4002289839,0,0,0,0,2018-04-04 08:02:05,11,0,0,5802.4002289839,0,0,0,0,0,0,8.6, -0.5, 1.9,0,0,364,364,364,1684,13.2,0,99,4.289,4.291,4.287,4.29,0,0,0,82.31,41,Motors_Started,
0.352821027929415,36.8834155386959,5802.4002289839,0,0,0.00250905847924,100,2018-04-04 08:02:05,11,0,0,5802.4002289839,0,0,0.00250905847924,0,0,0,8.6, -0.5, 1.9,0,0,364,364,364,1684,13.2,0,99,4.289,4.291,4.287,4.29,0,0,0,82.31,41,Motors_Started,
0.352820999582683,36.8834155170752,5802.4002289839,0,0,0.0137894689452,200,2018-04-04 08:02:06,11,0,0,5802.4002289839,0,0,0.0137894689452,0,0,0,8.6, -0.5, 1.9,0,0,364,364,364,1684,13.2,0,99,4.289,4.291,4.287,4.29,0,0,0,82.31,41,Motors_Started,
0.352820970515569,36.8834154925473,5802.4002289839,0,0,0.0274868119032,300,2018-04-04 08:02:06,11,0,0,5802.4002289839,0,0,0.0274868119032,0,0,0,8.6, -0.5, 1.9,0,0,364,364,364,1684,13.1,0,99,4.289,4.291,4.287,4.29,0,0,0,82.31,41,Motors_Started,
0.352820949661104,36.8834154428743,5802.4002289839,0,0,0.045190946328,400,2018-04-04 08:02:06,11,0,0,5802.4002289839,0,0,0.045190946328,0,0,0,8.6, -0.5, 1.9,0,0,364,364,364,1684,13.2,0,99,4.289,4.291,4.287,4.29,0,0,0,82.31,41,Motors_Started,
0.352820935005515,36.883415398786,5802.4002289839,0,0,0.06106299408,500,2018-04-04 08:02:06,11,0,0,5802.4002289839,0,0,0.06106299408,0,0,0,8.6, -0.5, 1.9,0,0,364,364,364,1684,13.2,0,99,4.289,4.291,4.287,4.29,0,0,0,82.31,41,Motors_Started,
0.352820929272782,36.8834153640205,5802.4002289839,0,0,0.072788388156,600,2018-04-04 08:02:06,11,0,17.129,5802.4002289839,0,0,0.072788388156,0,0,0,8.6, -0.4, 2,0,0,393,364,364,1684,13.1,0,99,4.289,4.291,4.287,4.29,0,0,1.494,82.31,41,Motors_Started,Setting new Return-To-Home altitude to 30m (98 ft). Setting new Maximum Flight Altitude to 150m (492 ft)
0.352820923536791,36.8834153382973,5802.4002289839,0,0,0.081947837268,700,2018-04-04 08:02:06,11,0,17.129,5802.4002289839,0,0,0.081947837268,0,0,0,8.6, -0.4, 1.9,0,0,479,364,364,1684,13.1,0,99,4.289,4.291,4.287,4.29,0,0,1.494,82.31,41,Motors_Started,
0.352820925459984,36.8834153245578,5802.4002289839,0,0,0.086033795404,800,2018-04-04 08:02:06,11,0,17.129,5802.4002289839,0,0,0.086033795404,0,0,0,8.6, -0.4, 2,0,0,746,538,543,1620,13.1,0,99,4.289,4.291,4.287,4.29,0,0,1.494,82.31,41,Motors_Started,
0.352820924858681,36.8834153124429,5802.4002289839,0,0,0.090084320468,900,2018-04-04 08:02:06,11,0,17.129,5802.4002289839,0,0,0.090084320468,0,0,0,8.6, -0.4, 2,0,0,975,726,1024,1039,13.1,0,99,4.289,4.291,4.287,4.29,0,0,1.494,82.31,41,Motors_Started,
0.352820929482647,36.8834153126201,5802.4002289839,0,0,0.08929790312,1000,2018-04-04 08:02:06,11,0,17.129,5802.4002289839,0,0,0.090084320468,0,0,0,8.6, -0.3, 2,0,0,1024,1024,1024,1024,12.3,0,99,4.289,4.291,4.287,4.29,0,0,1.494,82.31,41,Motors_Started,
0.352820930391116,36.8834153124922,5802.4002289839,0,0,0.089200462172,1100,2018-04-04 08:02:06,11,0,17.129,5802.4002289839,0,0,0.090084320468,0,0,0,8.6, -0.5, 2,0,0,1024,1024,1024,1024,10.7,0,99,4.289,4.291,4.287,4.29,0,0,1.494,82.31,41,Motors_Started,
0.352820912612171,36.8834153199548,5802.4002289839,0,0,0.08973425484,1200,2018-04-04 08:02:07,11,0,17.129,5802.4002289839,0,0,0.090084320468,0,0,0,8.6, -0.4, 2,0,0,1024,1024,1024,1024,10.1,0,99,4.289,4.291,4.287,4.29,0,0,1.494,82.31,41,Motors_Started,
0.352820886786678,36.8834153278932,5802.4002289839,0,0,0.092334648624,1300,2018-04-04 08:02:07,11,0,17.129,5802.4002289839,0,0,0.092334648624,0,0,0,8.6, -0.5, 2,0,0,1024,1024,1024,1024,9.8,0,99,4.289,4.291,4.287,4.29,0,0,1.494,82.31,41,Motors_Started,
0.352820866951416,36.8834153089474,5802.4002289839,0,0,0.102177496708,1400,2018-04-04 08:02:07,11,0,17.129,5802.4002289839,0,0,0.102177496708,0,0,0,8.6, -0.4, 2,0,0,1024,1024,1024,1024,9.6,0,99,4.289,4.291,4.287,4.29,0,0,1.494,82.31,41,Motors_Started,
0.352820851794673,36.8834152884557,5802.4002289839,0,0,0.11147638152,1500,2018-04-04 08:02:07,11,0,17.129,5802.4002289839,0,0,0.11147638152,0,0,0,8.6, -0.3, 2,0,0,1024,1024,1024,1024,9.4,0,99,4.289,4.291,4.287,4.29,0,0,1.494,82.31,10,Assisted_Takeoff,
0.352820879269984,36.8834153017787,5802.4002289839,0,0,0.101745081996,1600,2018-04-04 08:02:07,11,0,17.049,5802.4002289839,0,0,0.11147638152,0,0,0,8.6, -0.5, 2,0,0,1024,1024,1024,1024,9.3,0,99,4.265,4.264,4.257,4.268,0,0,3.106,82.31,10,Assisted_Takeoff,
0.352820903311924,36.8834153225162,5802.4002289839,0,0,0.090648296864,1700,2018-04-04 08:02:07,11,0,17.049,5802.4002289839,0,0,0.11147638152,0,0,0,8.5, -0.5, 2,0,0,1024,1024,1024,1024,9.2,0,99,4.265,4.264,4.257,4.268,0,0,3.106,82.31,10,Assisted_Takeoff,
0.352820934085037,36.8834153154245,5802.4002289839,0,0,0.087666341388,1800,2018-04-04 08:02:07,11,0,17.049,5802.4002289839,0,0,0.11147638152,0,0,0,8.5, -0.5, 2,0,0,1024,1024,1024,1024,9.2,0,99,4.265,4.264,4.257,4.268,0,0,3.106,82.31,10,Assisted_Takeoff,
0.352820953910529,36.8834153026801,5802.4002289839,0,0,0.089323493672,1900,2018-04-04 08:02:07,11,0,17.049,5802.4002289839,0,0,0.11147638152,0,0,0,8.5, -0.5, 2,0,0,1024,1024,1024,1024,9.1,0,99,4.265,4.264,4.257,4.268,0,0,3.106,82.31,10,Assisted_Takeoff,
0.352820942603428,36.8834153236237,5802.4002289839,0,0,0.08367454336,2000,2018-04-04 08:02:07,11,0,17.049,5802.4002289839,0,0,0.11147638152,0,0,0,8.5, -0.5, 2,0,0,1024,1024,1024,1024,9.1,0,99,4.265,4.264,4.257,4.268,0,0,3.106,82.31,10,Assisted_Takeoff,
0.352820927839547,36.8834153480526,5802.4002289839,0,0,0.078076117984,2100,2018-04-04 08:02:08,11,0,17.049,5802.4002289839,0,0,0.11147638152,0,0,0,8.5, -0.5, 2,0,0,1024,1024,1024,1024,9,0,99,4.265,4.264,4.257,4.268,0,0,3.106,82.31,10,Assisted_Takeoff,
0.352820903193658,36.883415391946,5802.4002289839,0,0,0.070343834272,2300,2018-04-04 08:02:08,11,0,17.049,5802.4002289839,0,0,0.11147638152,0,0,0,8.5, -0.5, 2,0,0,1024,1024,1024,1024,9,0,99,4.265,4.264,4.257,4.268,0,0,3.106,82.31,10,Assisted_Takeoff,
0.352820894591199,36.8834154081425,5802.4002289839,0,0,0.068388453632,2400,2018-04-04 08:02:08,11,0,17.049,5802.4002289839,0,0,0.11147638152,0,0,0,8.5, -0.5, 2,0,0,1024,1024,1024,1024,9,0,99,4.265,4.264,4.257,4.268,0,0,3.106,82.31,10,Assisted_Takeoff,
0.352820890391646,36.8834154215126,5802.4002289839,0,0,0.066400592676,2500,2018-04-04 08:02:08,11,0,17.049,5802.4002289839,0,0,0.11147638152,0,0,0,8.5, -0.5, 2,0,0,1024,1024,1024,1024,9,0,99,4.265,4.264,4.257,4.268,0,0,3.106,82.31,10,Assisted_Takeoff,
0.352820917759886,36.8834154613367,5802.4002289839,0,0,0.049833334928,2600,2018-04-04 08:02:08,11,0,16.942,5802.4002289839,0,0,0.11147638152,0,0,0,8.5, -0.5, 2,0,0,1024,1024,1024,1024,9,0,99,4.265,4.264,4.257,4.268,0,0,3.106,82.31,10,Assisted_Takeoff,
0.352820945949473,36.883415501104,5802.4002289839,0,0,0.034067586392,2700,2018-04-04 08:02:08,11,0,16.942,5802.4002289839,0,0,0.11147638152,0,0,0,8.5, -0.5, 2,0,0,1024,1024,1024,1024,9,0,99,4.265,4.264,4.257,4.268,0,0,3.106,82.31,10,Assisted_Takeoff,
0.352820973337051,36.8834155329371,5802.4002289839,0,0,0.0218546923004,2800,2018-04-04 08:02:08,11,0,16.942,5802.4002289839,0,0,0.11147638152,0,0,0,8.5, -0.5, 2,0,0,1024,1024,1024,1024,8.9,0,99,4.265,4.264,4.257,4.268,0,0,3.106,82.31,10,Assisted_Takeoff,
0.35282099375896,36.8834155589949,5802.4002289839,0,0,0.0169837931944,2900,2018-04-04 08:02:08,11,0,16.942,5802.4002289839,0,0,0.11147638152,0,0,0,8.5, -0.5, 2,0,0,1024,1024,1024,1024,8.9,0,99,4.265,4.264,4.257,4.268,0,0,3.106,82.31,10,Assisted_Takeoff,
0.3528210095968,36.8834155730802,5802.4002289839,0,0,0.0165660438372,3000,2018-04-04 08:02:08,11,0,16.942,5802.4002289839,0,0,0.11147638152,0,0,0,8.5, -0.5, 2,0,0,1024,1024,1024,1024,8.9,0,99,4.265,4.264,4.257,4.268,0,0,3.106,82.31,10,Assisted_Takeoff,
0.352821023721312,36.8834155883855,5802.4002289839,0,0,0.0200331043156,3100,2018-04-04 08:02:08,11,0,16.942,5802.4002289839,0,0,0.11147638152,0,0,0,8.5, -0.5, 2,0,0,1024,1024,1024,1024,8.9,0,99,4.265,4.264,4.257,4.268,0,0,3.106,82.31,10,Assisted_Takeoff,
0.352821032483969,36.8834155939317,5802.4002289839,0,0,0.0217561030584,3200,2018-04-04 08:02:09,12,0,16.942,5802.4002289839,0,0,0.11147638152,0,0,0,8.5, -0.5, 2,0,0,1024,1024,1024,1024,8.9,0,99,4.265,4.264,4.257,4.268,0,0,3.106,82.31,10,Assisted_Takeoff,
0.352821040446246,36.8834155994127,5802.4002289839,0,0,0.0238998695312,3300,2018-04-04 08:02:09,12,0,16.942,5802.4002289839,0,0,0.11147638152,0,0,0,8.5, -0.5, 2,0,1,1024,1024,1024,1024,8.9,0,99,4.265,4.264,4.257,4.268,0,0,3.106,82.31,10,Assisted_Takeoff,
0.352821041785438,36.883415592882,5802.4002289839,0,0,0.0215986227384,3400,2018-04-04 08:02:09,12,0,16.942,5802.4002289839,0,0,0.11147638152,0,0,0,8.5, -0.5, 2,0,1,1024,1024,1024,1024,8.9,0,99,4.265,4.264,4.257,4.268,0,0,3.106,82.31,10,Assisted_Takeoff,
0.352821047851188,36.8834155966227,5802.4002289839,0,0,0.0233542986476,3500,2018-04-04 08:02:09,12,0,16.942,5802.4002289839,0,0,0.11147638152,0,0,0,8.5, -0.5, 2.1,0,1,1024,1024,1024,1024,8.9,0,99,4.265,4.264,4.257,4.268,0,0,3.106,82.31,10,Assisted_Takeoff,
0.352821047025364,36.883415562658,5802.4002289839,0,0,0.0115052169036,3600,2018-04-04 08:02:09,12,0,17.102,5802.4002289839,0,0,0.11147638152,0,0,0,8.5, -0.5, 2,0,1,1024,1024,1024,1024,8.9,0,99,4.28,4.282,4.281,4.284,0,0,1.952,82.31,10,Assisted_Takeoff,
0.3528210504797,36.8834155348905,5802.4002289839,0,0,0.0063000658184,3700,2018-04-04 08:02:09,12,0,17.102,5802.4002289839,0,0,0.11147638152,0,0,0,8.5, -0.5, 2.1,0,1,1024,1024,1024,1024,8.9,0,99,4.28,4.282,4.281,4.284,0,0,1.952,82.31,10,Assisted_Takeoff,
0.35282104707727,36.8834154991823,5802.4002289839,0,0,0.0137752300996,3800,2018-04-04 08:02:09,12,0,17.102,5802.4002289839,0,0,0.11147638152,0,0,0,8.5, -0.5, 2.1,0,1,1024,1024,1024,1024,8.9,0,99,4.28,4.282,4.281,4.284,0,0,1.952,82.31,10,Assisted_Takeoff,
0.352821048522718,36.8834154814612,5802.4002289839,0,0,0.020071522952,3900,2018-04-04 08:02:09,12,0,17.102,5802.4002289839,0,0,0.11147638152,0,0,0,8.5, -0.5, 2.1,0,1,1024,1024,1024,1024,8.9,0,99,4.28,4.282,4.281,4.284,0,0,1.952,82.31,10,Assisted_Takeoff,
0.35282104252923,36.8834154582571,5802.4002289839,0,0,0.0279524615244,4000,2018-04-04 08:02:09,12,0,17.102,5802.4002289839,0,0,0.11147638152,0,0,0,8.5, -0.5, 2,0,1,1024,1024,1024,1024,8.9,0,99,4.28,4.282,4.281,4.284,0,0,1.952,82.31,10,Assisted_Takeoff,
0.35282104267294,36.8834154495082,5802.4002289839,0,0,0.0311289708124,4100,2018-04-04 08:02:09,12,0,17.102,5802.4002289839,0,0,0.11147638152,0,0,0,8.5, -0.5, 2.1,0,1,1024,1024,1024,1024,8.9,0,99,4.28,4.282,4.281,4.284,0,0,1.952,82.31,10,Assisted_Takeoff,
0.352821036827029,36.8834154387626,5802.4002289839,0,0,0.034882547048,4200,2018-04-04 08:02:09,12,0,17.102,5802.4002289839,0,0,0.11147638152,0,0,0,8.5, -0.5, 2.1,0,1,1024,1024,1024,1024,8.9,0,99,4.28,4.282,4.281,4.284,0,0,1.952,82.31,10,Assisted_Takeoff,
0.352821035424532,36.8834154351981,5802.4002289839,0,0,0.036167323992,4300,2018-04-04 08:02:10,12,0,17.102,5802.4002289839,0,0,0.11147638152,0,0,0,8.5, -0.6, 2.1,0,1,1024,1024,1024,1024,8.9,0,99,4.28,4.282,4.281,4.284,0,0,1.952,82.31,10,Assisted_Takeoff,
0.352821029997539,36.8834154301631,5802.4002289839,0,0,0.03801345266,4400,2018-04-04 08:02:10,13,0,17.102,5802.4002289839,0,0,0.11147638152,0,0,0,8.5, -0.5, 2.1,0,1,1024,1024,1024,1024,8.9,0,99,4.28,4.282,4.281,4.284,0,0,1.952,82.31,10,Assisted_Takeoff,
0.352821029978812,36.8834154313669,5802.4002289839,0,0,0.037574804352,4500,2018-04-04 08:02:10,13,0,17.102,5802.4002289839,0,0,0.11147638152,0,0,0,8.5, -0.5, 2.1,0,1,1024,1024,1024,1024,8.9,0,99,4.28,4.282,4.281,4.284,0,0,1.952,82.31,10,Assisted_Takeoff,
0.352821026137719,36.8834154012714,5802.4002289839,0,0,0.048604988432,4600,2018-04-04 08:02:10,13,0,17.102,5802.4002289839,0,0,0.11147638152,0,0,0,8.5, -0.5, 2.1,0,1,1024,1024,1024,1024,8.9,0,99,4.283,4.285,4.281,4.284,0,0,1.918,82.31,10,Assisted_Takeoff,
0.352821027268877,36.8834153762334,5802.4002289839,0,0,0.057711944104,4700,2018-04-04 08:02:10,13,0,17.102,5802.4002289839,0,0,0.11147638152,0,0,0,8.5, -0.5, 2.1,0,1,1024,1024,1024,1024,8.9,0,99,4.283,4.285,4.281,4.284,0,0,1.918,82.31,10,Assisted_Takeoff,
0.352821024668456,36.8834153511932,5802.4002289839,0,0,0.0668799234,4800,2018-04-04 08:02:10,13,0,17.102,5802.4002289839,0,0,0.11147638152,0,0,0,8.5, -0.5, 2.1,0,1,1024,1024,1024,1024,8.9,0,99,4.283,4.285,4.281,4.284,0,0,1.918,82.31,10,Assisted_Takeoff,
0.352821025552294,36.8834153388792,5802.4002289839,0,0,0.071354332992,4900,2018-04-04 08:02:10,13,0,17.102,5802.4002289839,0,0,0.11147638152,0,0,0,8.5, -0.5, 2.1,0,1,1024,1024,1024,1024,8.9,0,99,4.283,4.285,4.281,4.284,0,0,1.918,82.31,10,Assisted_Takeoff,
0.352821022481863,36.8834152988147,5802.4002289839,0,0,0.086006236348,5000,2018-04-04 08:02:10,13,0,17.102,5802.4002289839,0,0,0.11147638152,0,0,0,8.5, -0.5, 2.1,0,1,1024,1024,1024,1024,8.9,0,99,4.283,4.285,4.281,4.284,0,0,1.918,82.31,10,Assisted_Takeoff,
0.352821023159499,36.8834152667038,5802.4002289839,0,0,0.097701118612,5100,2018-04-04 08:02:10,13,0,17.102,5802.4002289839,0,0,0.11147638152,0,0,0,8.5, -0.5, 2.1,0,1,1024,1024,1024,1024,8.8,0,99,4.283,4.285,4.281,4.284,0,0,1.918,82.31,10,Assisted_Takeoff,
0.352821020592053,36.8834152361704,5802.4002289839,0,0,0.10886975414,5200,2018-04-04 08:02:11,13,0,17.102,5802.4002289839,0,0,0.11147638152,0,0,0,8.5, -0.5, 2.1,0,1,1024,1024,1024,1024,8.8,0,99,4.283,4.285,4.281,4.284,0,0,1.918,82.31,10,Assisted_Takeoff,
0.352821049595659,36.8834152084548,5802.4002289839,0,0,0.11903379646,5400,2018-04-04 08:02:11,13,0,17.102,5802.4002289839,0,0,0.11903379646,0,0,0,8.5, -0.6, 2.1,0,1,1024,1024,1024,1024,8.8,0,99,4.283,4.285,4.281,4.284,0,0,1.918,82.31,10,Assisted_Takeoff,
0.352821081880782,36.8834152047751,5802.4002289839,0,0,0.121530187616,5500,2018-04-04 08:02:11,13,0,17.102,5802.4002289839,0,0,0.121530187616,0,0,0,8.5, -0.6, 2,0,1,1024,1024,1029,1024,8.8,0,99,4.283,4.285,4.281,4.284,0,0,1.918,82.31,10,Assisted_Takeoff,
0.352821109517716,36.8834151740003,5802.4002289839,0,0,0.134369426872,5600,2018-04-04 08:02:11,13,0,17.102,5802.4002289839,0,0,0.134369426872,0,0,0,8.5, -0.5, 2,0,1,1024,1024,1024,1023,8.8,0,99,4.283,4.285,4.281,4.284,0,0,1.918,82.31,10,Assisted_Takeoff,
0.352821131905768,36.8834151475651,5802.4002289839,0,0,0.145620411484,5700,2018-04-04 08:02:11,13,0,17.102,5802.4002289839,0,0,0.145620411484,0,0,0,8.5, -0.6, 2,0,1,1024,1024,1025,1023,8.8,0,99,4.283,4.285,4.281,4.284,0,0,1.918,82.31,10,Assisted_Takeoff,
0.352821145581033,36.883415123088,5802.4002289839,0,0,0.155529204452,5800,2018-04-04 08:02:11,13,0,17.102,5802.4002289839,0,0,0.155529204452,0,0,0,8.5, -0.5, 2,0,1,1024,1024,1075,1024,8.8,0,99,4.283,4.285,4.281,4.284,0,0,1.918,82.31,10,Assisted_Takeoff,
0.352821159613335,36.8834151100846,5802.4002289839,0,0,0.161497052412,5900,2018-04-04 08:02:11,13,0,17.102,5802.4002289839,0,0,0.161497052412,0,0,0,8.5, -0.5, 2,0,1,1024,1024,1130,1024,8.8,0,99,4.283,4.285,4.281,4.284,0,0,1.918,82.31,10,Assisted_Takeoff,
0.35282116352038,36.883415100499,5802.4002289839,0,0,0.165256238884,6000,2018-04-04 08:02:11,13,0,17.102,5802.4002289839,0,0,0.165256238884,0,0,0,8.5, -0.5, 2,0,1,1024,1024,1149,1024,8.8,0,99,4.283,4.285,4.281,4.284,0,0,1.918,82.31,10,Assisted_Takeoff,
0.35282116991874,36.8834150963804,5802.4002289839,0,0,0.167376645776,6100,2018-04-04 08:02:11,13,0,17.102,5802.4002289839,0,0,0.167376645776,0,0,0,8.5, -0.5, 2,0,1,1024,1024,1151,1023,8.8,0,99,4.283,4.285,4.281,4.284,0,0,1.918,82.31,10,Assisted_Takeoff,
0.352821166114694,36.8834150665584,5802.4002289839,0,0,0.177407814076,6200,2018-04-04 08:02:12,13,0,17.102,5802.4002289839,0,0,0.177407814076,0,0,0,8.5, -0.5, 2,0,1,1024,1024,1140,1024,8.8,0,99,4.283,4.285,4.281,4.284,0,0,1.918,82.31,10,Assisted_Takeoff,
0.352821167583754,36.8834150381233,5802.4002289839,0,0,0.187548234348,6300,2018-04-04 08:02:12,13,0,17.102,5802.4002289839,0,0,0.187548234348,0,0,0,8.5, -0.5, 2,0,1,1024,1024,1163,1024,8.8,0,99,4.283,4.285,4.281,4.284,0,0,1.918,82.31,10,Assisted_Takeoff,
0.352821160596101,36.883415013088,5802.4002289839,0,0,0.195758208364,6400,2018-04-04 08:02:12,13,0,17.102,5802.4002289839,0,0,0.195758208364,0,0,0,8.3, -0.4, 2.1,0,1,1024,1024,1197,1024,8.8,0,99,4.283,4.285,4.281,4.284,0,0,1.918,82.31,10,Assisted_Takeoff,
0.35282116088515,36.883415000214,5802.4002289839,0,0,0.200348431608,6500,2018-04-04 08:02:12,13,0,17.102,5802.4002289839,0,0,0.200348431608,0,0,0,8.5, -0.4, 2.1,0,1,1024,1024,1204,1024,8.8,0,99,4.283,4.285,4.281,4.284,0,0,1.918,82.31,10,Assisted_Takeoff,
0.352821153462906,36.8834149616543,5802.4002289839,0,0,0.213483274548,6600,2018-04-04 08:02:12,13,0,17.102,5802.4002289839,0,0,0.213483274548,0,0,0,8.6, -0.4, 2.2,0,1,1024,1024,1194,1024,8.8,0,99,4.282,4.284,4.281,4.284,0,0,1.94,82.31,10,Assisted_Takeoff,
0.352821154268782,36.8834149322825,5802.4002289839,0,0,0.224039377248,6700,2018-04-04 08:02:12,13,0,17.102,5802.4002289839,0,0,0.224039377248,0,0,0,8.7, -0.2, 2.3,0,1,1024,1024,1191,1024,8.8,0,99,4.282,4.284,4.281,4.284,0,0,1.94,82.31,10,Assisted_Takeoff,
0.352821152616319,36.8834149210691,5802.4002289839,0,0,0.227935702832,6800,2018-04-04 08:02:12,13,0,17.102,5802.4002289839,0,0,0.227935702832,0,0,0,8.7, 0.5, 1.6,0,1,1024,1024,1182,1024,8.8,0,99,4.282,4.284,4.281,4.284,0,0,1.94,82.31,10,Assisted_Takeoff,
0.352821158666802,36.8834149413794,5802.4002289839,0,0,0.221113196052,6900,2018-04-04 08:02:12,13,0,17.102,5802.4002289839,0,0,0.227935702832,0,0,-0.223694,8.6, 2, 0.6,0,1,1024,1024,1187,1024,8.8,0,99,4.282,4.284,4.281,4.284,0,0,1.94,82.31,10,Assisted_Takeoff,
0.352821132591953,36.8834149677503,5802.4002289839,0,0,0.209858602516,7000,2018-04-04 08:02:12,13,0,17.102,5802.4002289839,0,0,0.227935702832,0,0,-0.447388,8.5, 2.2, -0.8,0,1,1024,1024,1189,1024,8.8,0,99,4.282,4.284,4.281,4.284,0,0,1.94,82.31,6,P-GPS,
0.352821075837423,36.8834149676738,5802.4002289839,0,0,0.207314967264,7100,2018-04-04 08:02:12,13,0,17.102,5802.4002289839,0,0,0.227935702832,0,0,-0.671082,8.5, 0.8, -1.3,0,1,1024,1024,1225,1024,8.8,0,99,4.282,4.284,4.281,4.284,0,0,1.94,82.31,6,P-GPS,
0.352821013504454,36.8834149110595,5802.4002289839,0,0,0.22750000728,7200,2018-04-04 08:02:13,13,0,17.102,5802.4002289839,0,0,0.227935702832,0,0,-0.671082,8.6, 0.3, -0.6,0,1,1024,1024,1234,1024,8.8,0,99,4.282,4.284,4.281,4.284,0,0,1.94,82.31,6,P-GPS,Obstacle Avoided. Revise Flight Route
0.352820968282158,36.883414827204,5802.4002289839,0,0,0.259066281256,7300,2018-04-04 08:02:13,13,0,17.102,5802.4002289839,0,0,0.259066281256,0,0,-0.894776,8.6, 0.3, -0.2,0,1,1024,1024,1240,1024,8.8,0,99,4.282,4.284,4.281,4.284,0,0,1.94,82.31,6,P-GPS,
0.352820927886976,36.8834147024248,5802.7283129839,0.328084,0,0.305928815564,7400,2018-04-04 08:02:13,13,0,17.102,5802.7283129839,0.328084,0,0.305928815564,0,0,-1.11847,8.7, 0.1, 0.3,0,1,1024,1024,1243,1024,8.8,0,99,4.282,4.284,4.281,4.284,0,0,1.94,82.31,6,P-GPS,
0.352820896782271,36.8834145662952,5802.7283129839,0.328084,0,0.35666339724,7500,2018-04-04 08:02:13,13,0,17.102,5802.7283129839,0.328084,0,0.35666339724,0,-0.223694,-1.342164,8.7, -0.2, 0.9,0,1,1024,1024,1257,1024,8.8,0,99,4.282,4.284,4.281,4.284,0,0,1.94,82.31,6,P-GPS,
0.352820867891028,36.8834144088522,5803.0563969839,0.656168,0.223694,0.41501969832,7600,2018-04-04 08:02:13,13,0,16.648,5803.0563969839,0.656168,0.223694,0.41501969832,0,-0.223694,-1.565858,8.8, -0.3, 1.5,0,1,1024,1024,1250,1024,8.8,0,99,4.225,4.226,4.217,4.215,0,0,5.398,82.31,6,P-GPS,
0.352820845677423,36.8834142650673,5803.3844809839,0.984252,0.223694,0.46810040868,7700,2018-04-04 08:02:13,13,0,16.648,5803.3844809839,0.984252,0.223694,0.46810040868,0,-0.223694,-1.789552,8.7, 0, 1.8,0,1,1024,1024,1266,1024,8.8,0,99,4.225,4.226,4.217,4.215,0,0,5.398,82.31,6,P-GPS,
0.352820829238078,36.8834141611043,5803.7125649839,1.312336,0.223694,0.50649936004,7800,2018-04-04 08:02:13,13,0,16.648,5803.7125649839,1.312336,0.223694,0.50649936004,0,0,-1.789552,8.7, 0, 1.9,0,1,1024,1024,1269,1024,8.8,0,99,4.225,4.226,4.217,4.215,0,0,5.398,82.31,6,P-GPS,Home Point Recorded. RTH Altitude:  30m.
0.352820799804359,36.8834140749662,5804.0406489839,1.64042,0,0.53919621148,7900,2018-04-04 08:02:13,13,0,16.648,5804.0406489839,1.64042,0.223694,0.53919621148,0,0,-2.013246,8.6, -0.4, 2.3,0,1,1024,1024,1269,1024,8.8,0,99,4.225,4.226,4.217,4.215,0,0,5.398,82.31,6,P-GPS,Obstacle Avoided. Revise Flight Route
0.352820741748703,36.8834140388186,5804.3687329839,1.968504,0,0.55588256372,8000,2018-04-04 08:02:13,13,0,16.648,5804.3687329839,1.968504,0.223694,0.55588256372,0,0,-2.23694,8.5, -0.8, 2.4,0,1,1024,1024,1259,1024,8.8,0,99,4.225,4.226,4.217,4.215,0,0,5.398,82.31,6,P-GPS,
0.352820681952239,36.8834140198738,5804.6968169839,2.296588,0,0.56719818088,8100,2018-04-04 08:02:13,13,0,16.648,5804.6968169839,2.296588,0.223694,0.56719818088,0,0,-2.23694,8.5, -1, 1.6,0,1,1024,1024,1261,1024,8.8,0,99,4.225,4.226,4.217,4.215,0,0,5.398,82.31,6,P-GPS,
0.352820614075843,36.8834140070936,5805.0249009839,2.624672,0,0.57779529408,8200,2018-04-04 08:02:14,13,0,16.648,5805.0249009839,2.624672,0.223694,0.57779529408,0,0,-2.460634,8.6, -1.3, 1.5,0,1,1024,1024,1257,1024,8.8,0,99,4.225,4.226,4.217,4.215,0,0,5.398,82.31,6,P-GPS,
0.352820551907348,36.8834139715915,5805.3529849839,2.952756,0,0.59657482224,8300,2018-04-04 08:02:14,13,0,16.648,5805.3529849839,2.952756,0.223694,0.59657482224,0,0,-2.460634,8.6, -1.6, 2.4,0,1,1024,1024,1292,1024,8.8,0,99,4.225,4.226,4.217,4.215,0,0,5.398,82.31,6,P-GPS,
0.352820490047238,36.8834138983632,5805.6810689839,3.28084,0,0.62890093876,8400,2018-04-04 08:02:14,13,0,16.648,5805.6810689839,3.28084,0.223694,0.62890093876,0,0,-2.23694,8.5, -1.7, 2.1,0,1,1024,1024,1299,1024,8.8,0,99,4.225,4.226,4.217,4.215,0,0,5.398,82.31,6,P-GPS,
0.35282043852612,36.883413834425,5806.0091529839,3.608924,0,0.65704726512,8500,2018-04-04 08:02:14,13,0,16.648,5806.0091529839,3.608924,0.223694,0.65704726512,0,0,-2.23694,8.5, -1.6, 1.6,0,1,1024,1024,1265,1024,8.8,0,99,4.225,4.226,4.217,4.215,0,0,5.398,82.31,6,P-GPS,
0.352820364779591,36.8834137495093,5806.3372369839,3.937008,0,0.6953412296,8600,2018-04-04 08:02:14,13,0,16.594,5806.3372369839,3.937008,0.223694,0.6953412296,0,0,-2.460634,8.5, -1.2, 1.4,0,1,1024,1024,1237,1024,8.8,0,99,4.172,4.178,4.171,4.173,0,0,13.826,82.31,6,P-GPS,
0.352820214167656,36.8834136091334,5807.3214889839,4.92126,0,0.76331039188,8800,2018-04-04 08:02:14,13,0,16.594,5807.3214889839,4.92126,0.223694,0.76331039188,0,0,-2.460634,8.5, -2.4, 0.9,0,1,1024,1024,1242,1024,8.8,0,99,4.172,4.178,4.171,4.173,0,0,13.826,82.31,6,P-GPS,
0.352820166816168,36.8834135462688,5807.6495729839,5.249344,0,0.79121065524,8900,2018-04-04 08:02:14,13,0,16.594,5807.6495729839,5.249344,0.223694,0.79121065524,0,0,-2.460634,8.5, -2.3, 0.9,0,1,1024,1024,1237,1024,8.8,0,99,4.172,4.178,4.171,4.173,0,0,13.826,82.31,6,P-GPS,
0.352820109952125,36.8834134370195,5807.9776569839,5.577428,0,0.83604333384,9000,2018-04-04 08:02:14,12,0,16.594,5807.9776569839,5.577428,0.223694,0.83604333384,0,0,-2.23694,8.5, -2.1, 1.1,0,1,1024,1024,1237,1024,8.8,0,99,4.172,4.178,4.171,4.173,0,0,13.826,82.31,6,P-GPS,
0.352820071288997,36.8834133302446,5808.3057409839,5.905512,0,0.87738519868,9100,2018-04-04 08:02:14,12,0,16.594,5808.3057409839,5.905512,0.223694,0.87738519868,0,0,-2.23694,8.5, -1.9, 1.5,0,1,1024,1024,1235,1024,8.8,0,99,4.172,4.178,4.171,4.173,0,0,13.826,82.31,6,P-GPS,
0.35281999947024,36.8834131567246,5808.6338249839,6.233596,0,0.94588913788,9200,2018-04-04 08:02:15,12,0,16.594,5808.6338249839,6.233596,0.223694,0.94588913788,0,0,-2.013246,8.6, -1.9, 2.1,0,1,1024,1024,1228,1024,8.8,0,99,4.172,4.178,4.171,4.173,0,0,13.826,82.31,6,P-GPS,
0.35281994469488,36.8834130107169,5808.9619089839,6.56168,0,1.00271656752,9300,2018-04-04 08:02:15,12,0,16.594,5808.9619089839,6.56168,0.223694,1.00271656752,0,0,-2.013246,8.6, -2.2, 2.3,0,1,1024,1024,1243,1024,8.8,0,99,4.172,4.178,4.171,4.173,0,0,13.826,82.31,6,P-GPS,
0.352819906198057,36.883412894089,5809.2899929839,6.889764,0,1.04735567656,9400,2018-04-04 08:02:15,12,0,16.594,5809.2899929839,6.889764,0.223694,1.04735567656,0,0,-2.013246,8.5, -2.4, 2.2,0,1,1024,1024,1221,1024,8.8,0,99,4.172,4.178,4.171,4.173,0,0,13.826,82.31,6,P-GPS,
0.352819899809468,36.8834128176583,5809.6180769839,7.217848,0,1.07395344644,9500,2018-04-04 08:02:15,12,0,16.594,5809.6180769839,7.217848,0.223694,1.07395344644,0,0,-2.013246,8.5, -2.2, 1.8,0,1,1024,1024,1212,1024,8.8,0,99,4.172,4.178,4.171,4.173,0,0,13.826,82.31,6,P-GPS,
0.352819855080488,36.8834127625006,5809.9461609839,7.545932,0,1.098835337,9600,2018-04-04 08:02:15,12,0,16.675,5809.9461609839,7.545932,0.223694,1.098835337,0,0,-1.789552,8.5, -2.2, 1.7,0,1,1024,1024,1199,1024,8.8,0,99,4.172,4.178,4.171,4.173,0,0,13.826,82.31,6,P-GPS,
0.352819826043906,36.8834127206815,5810.2742449839,7.874016,0,1.1170275948,9700,2018-04-04 08:02:15,12,0,16.675,5810.2742449839,7.874016,0.223694,1.1170275948,0,0,-1.789552,8.5, -2, 1.6,0,1,1024,1024,1205,1024,8.8,0,99,4.172,4.178,4.171,4.173,0,0,13.826,82.31,6,P-GPS,
0.352819775187804,36.8834126244362,5810.2742449839,7.874016,0,1.15661749108,9800,2018-04-04 08:02:15,12,0,16.675,5810.2742449839,7.874016,0.223694,1.15661749108,0,0,-1.565858,8.5, -1.9, 1.7,0,1,1024,1024,1216,1024,8.8,0,99,4.172,4.178,4.171,4.173,0,0,13.826,82.31,6,P-GPS,
0.352819748311353,36.8834125254817,5810.6023289839,8.2021,0,1.19365817468,9900,2018-04-04 08:02:15,12,0,16.675,5810.6023289839,8.2021,0.223694,1.19365817468,0,0,-1.565858,8.5, -1.9, 1.7,0,1,1024,1024,1221,1024,8.8,-0.1,99,4.172,4.178,4.171,4.173,0,0,13.826,82.31,6,P-GPS,
0.35281974899418,36.883412483077,5810.9304129839,8.530184,0,1.20780515676,10000,2018-04-04 08:02:15,12,0,16.675,5810.9304129839,8.530184,0.223694,1.20780515676,0,0,-1.565858,8.5, -1.7, 2,0,1,1024,1024,1200,1024,8.8,-0.4,99,4.172,4.178,4.171,4.173,0,0,13.826,82.31,6,P-GPS,
0.352819774755859,36.8834124666232,5811.2584969839,8.858268,0,1.20974085236,10100,2018-04-04 08:02:15,12,0,16.675,5811.2584969839,8.858268,0.223694,1.20974085236,0,0,-1.565858,8.5, -1.6, 2.1,0,1,1024,1024,1197,1024,8.8,-1,99,4.172,4.178,4.171,4.173,0,0,13.826,82.31,6,P-GPS,
0.352819789179089,36.8834124328609,5811.5865809839,9.186352,0,1.2191765482,10200,2018-04-04 08:02:16,13,0,16.675,5811.5865809839,9.186352,0.223694,1.2191765482,0,0,-1.565858,8.5, -1.8, 2,0,1,1024,1024,1220,1024,8.8,-2.6,99,4.172,4.178,4.171,4.173,0,0,13.826,82.31,6,P-GPS,
0.352819815342994,36.883412353152,5811.9146649839,9.514436,0,1.24276906864,10400,2018-04-04 08:02:16,13,0,16.675,5811.9146649839,9.514436,0.223694,1.24276906864,0,0,-1.565858,8.5, -1.8, 1.8,0,1,1024,1024,1215,1024,8.8,-3.5,99,4.172,4.178,4.171,4.173,0,0,13.826,82.31,6,P-GPS,
0.352819833458924,36.8834123183448,5812.2427489839,9.84252,0,1.2523130322,10500,2018-04-04 08:02:16,13,0,16.675,5812.2427489839,9.84252,0.223694,1.2523130322,0,0,-1.565858,8.5, -1.5, 1.7,0,1,1024,1024,1211,1024,8.8,-3.5,99,4.172,4.178,4.171,4.173,0,0,13.826,82.31,6,P-GPS,
0.352819811443786,36.8834122733294,5812.5708329839,10.170604,0,1.27050857084,10600,2018-04-04 08:02:16,13,0,16.541,5812.5708329839,10.170604,0.223694,1.27050857084,0,0,-1.565858,8.5, -1.5, 1.7,0,1,1024,1024,1216,1024,8.8,-4.4,99,4.16,4.175,4.176,4.177,0,0,12.502,82.31,6,P-GPS,
0.352819797310215,36.8834122307807,5812.5708329839,10.170604,0,1.28685371572,10700,2018-04-04 08:02:16,13,0,16.541,5812.5708329839,10.170604,0.223694,1.28685371572,0,0,-1.565858,8.5, -1.6, 1.8,0,1,1024,1024,1216,1024,8.8,-5.4,99,4.16,4.175,4.176,4.177,0,0,12.502,82.31,6,P-GPS,
0.352819771693366,36.8834121767755,5812.8989169839,10.498688,0,1.30858599988,10800,2018-04-04 08:02:16,13,0,16.541,5812.8989169839,10.498688,0.223694,1.30858599988,0,0,-1.565858,8.6, -1.5, 1.9,0,1,1024,1024,1216,1024,8.8,-6.3,99,4.16,4.175,4.176,4.177,0,0,12.502,82.31,6,P-GPS,
0.35281976571657,36.8834121308375,5813.2270009839,10.826772,0,1.32504597416,10900,2018-04-04 08:02:16,13,0,16.541,5813.2270009839,10.826772,0.223694,1.32504597416,0,0,-1.565858,8.6, -1.4, 2,0,1,1024,1024,1216,1024,8.8,-7.2,99,4.16,4.175,4.176,4.177,0,0,12.502,82.31,6,P-GPS,
0.352819713435783,36.8834121375191,5813.5550849839,11.154856,0,1.32955056748,11000,2018-04-04 08:02:16,13,0,16.541,5813.5550849839,11.154856,0.223694,1.32955056748,0,0,-1.565858,8.5, -1.4, 1.9,0,1,1024,1024,1214,1024,8.8,-8.2,99,4.16,4.175,4.176,4.177,0,0,12.502,82.31,6,P-GPS,
0.352819672916839,36.883412160353,5813.8831689839,11.48294,0,1.3272474178,11100,2018-04-04 08:02:16,13,0,16.541,5813.8831689839,11.48294,0.223694,1.32955056748,0,0,-1.789552,8.5, -1.5, 1.5,0,1,1024,1024,1214,1024,8.8,-9,99,4.16,4.175,4.176,4.177,0,0,12.502,82.31,6,P-GPS,
0.352819621471036,36.883412167294,5813.8831689839,11.48294,0,1.33204400588,11200,2018-04-04 08:02:17,13,0,16.541,5813.8831689839,11.48294,0.223694,1.33204400588,0,0,-1.789552,8.5, -1.6, 1.6,0,1,1024,1024,1241,1024,8.8,-9.4,99,4.16,4.175,4.176,4.177,0,0,12.502,82.31,6,P-GPS,
0.352819564673149,36.8834121083301,5814.5393369839,12.139108,0,1.35993770756,11400,2018-04-04 08:02:17,13,0,16.541,5814.5393369839,12.139108,0.223694,1.35993770756,0,0,-1.789552,8.5, -1.5, 1.6,0,1,1024,1024,1244,1024,8.8,-9.4,99,4.16,4.175,4.176,4.177,0,0,12.502,82.31,6,P-GPS,
0.35281955081224,36.8834120549268,5814.8674209839,12.467192,0,1.37984256384,11500,2018-04-04 08:02:17,13,0,16.541,5814.8674209839,12.467192,0.223694,1.37984256384,0,0,-1.789552,8.5, -1.3, 1.3,0,1,1024,1024,1250,1024,8.8,-9.5,99,4.16,4.175,4.176,4.177,0,0,12.502,82.31,6,P-GPS,
0.352819532414487,36.8834120328717,5815.1955049839,12.795276,0,1.3898786534,11600,2018-04-04 08:02:17,13,0,16.568,5815.1955049839,12.795276,0.223694,1.3898786534,0,0,-2.013246,8.5, -1.7, 1.2,0,1,1024,1024,1250,1024,8.8,-9.5,99,4.16,4.164,4.158,4.165,0,0,12.992,82.31,6,P-GPS,
0.35281952523651,36.8834120229596,5815.5235889839,13.12336,0,1.39423560892,11700,2018-04-04 08:02:17,13,0,16.568,5815.5235889839,13.12336,0.223694,1.39423560892,0,0,-2.013246,8.5, -1.7, 1.5,0,1,1024,1024,1244,1024,8.8,-9.5,99,4.16,4.164,4.158,4.165,0,0,12.992,82.31,6,P-GPS,
0.352819519697968,36.8834119902438,5815.8516729839,13.451444,0,1.406003982,11800,2018-04-04 08:02:17,13,0,16.568,5815.8516729839,13.451444,0.223694,1.406003982,0,0,-2.013246,8.6, -1.8, 1.7,0,1,1024,1024,1246,1024,8.8,-9.5,99,4.16,4.164,4.158,4.165,0,0,12.992,82.31,6,P-GPS,
0.352819521854028,36.8834119591001,5816.1797569839,13.779528,0,1.41615490096,11900,2018-04-04 08:02:17,13,0,16.568,5816.1797569839,13.779528,0.223694,1.41615490096,0,0,-2.013246,8.6, -1.9, 1.8,0,1,1024,1024,1242,1024,8.8,-9.4,99,4.16,4.164,4.158,4.165,0,0,12.992,82.31,6,P-GPS,
0.352819525099517,36.8834119769879,5816.5078409839,14.107612,0,1.40968180364,12000,2018-04-04 08:02:17,13,0,16.568,5816.5078409839,14.107612,0.223694,1.41615490096,0,0,-2.23694,8.6, -1.7, 1.6,0,1,1024,1024,1245,1024,8.8,-9.5,99,4.16,4.164,4.158,4.165,0,0,12.992,82.31,6,P-GPS,
0.352819532390264,36.8834120082392,5816.8359249839,14.435696,0,1.3981463702,12100,2018-04-04 08:02:17,13,0,16.568,5816.8359249839,14.435696,0.223694,1.41615490096,0,0,-2.23694,8.5, -1.8, 1.2,0,1,1024,1024,1246,1024,8.8,-9.5,99,4.16,4.164,4.158,4.165,0,0,12.992,82.31,6,P-GPS,
0.352819510028777,36.8834120172308,5817.1640089839,14.76378,0,1.39835306312,12200,2018-04-04 08:02:17,13,0,16.568,5817.1640089839,14.76378,0.223694,1.41615490096,0,0,-2.23694,8.5, -1.6, 1,0,1,1024,1024,1244,1024,8.8,-9.4,99,4.16,4.164,4.158,4.165,0,0,12.992,82.31,6,P-GPS,
0.352819490711665,36.8834120075684,5817.4920929839,15.091864,0,1.4043963704,12300,2018-04-04 08:02:18,13,0,16.568,5817.4920929839,15.091864,0.223694,1.41615490096,0,0,-2.23694,8.6, -1.6, 1.1,0,1,1024,1024,1244,1024,8.8,-9.4,99,4.16,4.164,4.158,4.165,0,0,12.992,82.31,6,P-GPS,
0.352819463906459,36.8834120192933,5817.8201769839,15.419948,0,1.40443902132,12400,2018-04-04 08:02:18,13,0,16.568,5817.8201769839,15.419948,0.223694,1.41615490096,0,0,-2.23694,8.5, -1.8, 1.3,0,1,1024,1024,1245,1024,8.8,-9.5,99,4.16,4.164,4.158,4.165,0,0,12.992,82.31,6,P-GPS,
0.352819450360858,36.8834120332909,5818.1482609839,15.748032,0,1.4018045068,12500,2018-04-04 08:02:18,13,0,16.568,5818.1482609839,15.748032,0.223694,1.41615490096,0,0,-2.23694,8.5, -1.8, 1.3,0,1,1024,1024,1246,1024,8.8,-9.4,99,4.16,4.164,4.158,4.165,0,0,12.992,82.31,6,P-GPS,
0.352819406704819,36.8834120197044,5818.4763449839,16.076116,0,1.41293967776,12600,2018-04-04 08:02:18,13,0,16.541,5818.4763449839,16.076116,0.223694,1.41615490096,0,0,-2.23694,8.5, -1.7, 1.4,0,1,1024,1024,1245,1024,8.8,-9.5,99,4.15,4.158,4.155,4.162,0,0,13.188,82.31,6,P-GPS,
0.35281936939676,36.8834119978595,5818.8044289839,16.4042,0,1.42591539996,12700,2018-04-04 08:02:18,13,0,16.541,5818.8044289839,16.4042,0.223694,1.42591539996,0,0,-2.23694,8.5, -1.8, 1.2,0,1,1024,1024,1245,1023,8.8,-9.5,99,4.15,4.158,4.155,4.162,0,0,13.188,82.31,6,P-GPS,
0.352819330921514,36.8834120085927,5819.1325129839,16.732284,0,1.42842196172,12800,2018-04-04 08:02:18,13,0,16.541,5819.1325129839,16.732284,0.223694,1.42842196172,0,0,-2.23694,8.5, -1.9, 1.2,0,1,1024,1024,1246,1024,8.8,-9.5,99,4.15,4.158,4.155,4.162,0,0,13.188,82.31,6,P-GPS,
0.352819311214186,36.8834120210301,5819.4605969839,17.060368,0,1.42748692232,12900,2018-04-04 08:02:18,13,0,16.541,5819.4605969839,17.060368,0.223694,1.42842196172,0,0,-2.013246,8.5, -2.1, 1.2,0,1,1024,1024,1244,1023,8.8,-9.5,99,4.15,4.158,4.155,4.162,0,0,13.188,82.31,6,P-GPS,
0.352819269268828,36.8834119754816,5819.7886809839,17.388452,0,1.44915687052,13000,2018-04-04 08:02:18,13,0,16.541,5819.7886809839,17.388452,0.223694,1.44915687052,0,0,-2.013246,8.5, -2, 1.4,0,1,1024,1024,1245,1023,8.8,-9.5,99,4.15,4.158,4.155,4.162,0,0,13.188,82.31,6,P-GPS,
0.352819239231262,36.883411922278,5820.1167649839,17.716536,0,1.47141736992,13100,2018-04-04 08:02:18,13,0,16.541,5820.1167649839,17.716536,0.223694,1.47141736992,0,0,-2.013246,8.5, -2, 1.4,0,1,1024,1024,1246,1024,8.8,-9.6,99,4.15,4.158,4.155,4.162,0,0,13.188,82.31,6,P-GPS,
0.352819192580515,36.883411879483,5820.4448489839,18.04462,0,1.4929954546,13200,2018-04-04 08:02:19,13,0,16.541,5820.4448489839,18.04462,0.223694,1.4929954546,0,0,-2.013246,8.5, -2.1, 1.4,0,1,1024,1024,1249,1024,8.8,-9.6,99,4.15,4.158,4.155,4.162,0,0,13.188,82.31,6,P-GPS,
0.352819162543865,36.8834118503034,5820.7729329839,18.372704,0,1.50744099312,13300,2018-04-04 08:02:19,13,0,16.541,5820.7729329839,18.372704,0.223694,1.50744099312,0,0,-2.013246,8.5, -2, 1.4,0,1,1024,1024,1249,1023,8.8,-9.7,99,4.15,4.158,4.155,4.162,0,0,13.188,82.31,6,P-GPS,
0.352819138401165,36.8834118372962,5821.1010169839,18.700788,0,1.51567262068,13400,2018-04-04 08:02:19,13,0,16.541,5821.1010169839,18.700788,0.223694,1.51567262068,0,0,-2.013246,8.5, -1.9, 1.2,0,1,1024,1024,1254,1024,8.8,-9.9,99,4.15,4.158,4.155,4.162,0,0,13.188,82.31,6,P-GPS,
0.352819129291853,36.8834118287809,5821.4291009839,19.028872,0,1.51995411688,13500,2018-04-04 08:02:19,13,0,16.541,5821.4291009839,19.028872,0.223694,1.51995411688,0,0,-2.23694,8.5, -1.9, 1,0,1,1024,1024,1257,1024,8.8,-10.1,99,4.15,4.158,4.155,4.162,0,0,13.188,82.31,6,P-GPS,
0.352819118547786,36.8834118512444,5821.7571849839,19.356956,0,1.51447183324,13600,2018-04-04 08:02:19,13,0,16.541,5821.7571849839,19.356956,0.223694,1.51995411688,0,0,-2.23694,8.5, -2.1, 1.3,0,1,1024,1024,1255,1024,8.8,-10.1,99,4.15,4.158,4.155,4.162,0,0,13.188,82.31,6,P-GPS,
0.352819116825554,36.8834118697098,5822.0852689839,19.68504,0,1.50878941836,13700,2018-04-04 08:02:19,13,0,16.541,5822.0852689839,19.68504,0.223694,1.51995411688,0,0,-2.23694,8.5, -2.1, 1.3,0,1,1024,1024,1252,1024,8.8,-10.4,99,4.15,4.158,4.155,4.162,0,0,13.188,82.31,6,P-GPS,
0.352819057517726,36.8834118678194,5822.4133529839,20.013124,0,1.51954401188,13800,2018-04-04 08:02:19,13,0,16.541,5822.4133529839,20.013124,0.223694,1.51995411688,0,0,-2.23694,8.5, -2.3, 1.3,0,1,1024,1024,1253,1024,8.8,-10.7,99,4.15,4.158,4.155,4.162,0,0,13.188,82.31,6,P-GPS,
0.352818898969517,36.8834117042351,5823.3976049839,20.997376,0,1.59968509056,14100,2018-04-04 08:02:19,13,0,16.541,5823.3976049839,20.997376,0.223694,1.59968509056,0,0,-2.23694,8.5, -2.4, 1.5,0,1,1024,1024,1253,1024,8.8,-11.9,99,4.15,4.158,4.155,4.162,0,0,13.188,82.31,6,P-GPS,
0.352818863126244,36.8834116480061,5823.7256889839,21.32546,0,1.62397314908,14200,2018-04-04 08:02:19,13,0,16.541,5823.7256889839,21.32546,0.223694,1.62397314908,0,0,-2.23694,8.5, -2.7, 1.1,0,1,1024,1024,1252,1024,8.8,-12.3,99,4.15,4.158,4.155,4.162,0,0,13.188,82.31,6,P-GPS,
0.352818840918339,36.8834116065908,5824.0537729839,21.653544,0,1.64111553808,14300,2018-04-04 08:02:20,13,0,16.541,5824.0537729839,21.653544,0.223694,1.64111553808,0,0,-2.23694,8.5, -2.9, 1.1,0,1,1024,1024,1255,1024,8.8,-12.6,99,4.15,4.158,4.155,4.162,0,0,13.188,82.31,6,P-GPS,
0.352818781742516,36.8834115223343,5824.3818569839,21.981628,0,1.67848430568,14400,2018-04-04 08:02:20,13,0,16.541,5824.3818569839,21.981628,0.223694,1.67848430568,0,0,-2.23694,8.5, -2.9, 0.9,0,1,1024,1024,1255,1024,8.8,-13,99,4.15,4.158,4.155,4.162,0,0,13.188,82.31,6,P-GPS,
0.352818736549429,36.8834114418046,5824.7099409839,22.309712,0,1.71217525164,14500,2018-04-04 08:02:20,13,0,16.541,5824.7099409839,22.309712,0.223694,1.71217525164,0,0,-2.23694,8.5, -2.6, 0.8,0,1,1024,1024,1256,1024,8.8,-13.4,99,4.15,4.158,4.155,4.162,0,0,13.188,82.31,6,P-GPS,
0.352818709599292,36.8834113449266,5825.0380249839,22.637796,0,1.74783142076,14600,2018-04-04 08:02:20,13,0,16.594,5825.0380249839,22.637796,0.223694,1.74783142076,0,0,-2.23694,8.5, -2.6, 1.3,0,1,1024,1024,1257,1024,8.8,-13.8,99,4.15,4.158,4.155,4.162,0,0,13.188,82.31,6,P-GPS,
0.352818697346192,36.883411259991,5825.3661089839,22.96588,0,1.77713588364,14700,2018-04-04 08:02:20,13,0,16.594,5825.3661089839,22.96588,0.223694,1.77713588364,0,0,-2.23694,8.5, -2.8, 1.5,0,1,1024,1024,1267,1023,8.8,-14.2,99,4.15,4.158,4.155,4.162,0,0,13.188,82.31,6,P-GPS,
0.352818663415729,36.8834112085195,5826.0222769839,23.622048,0,1.79955058252,14800,2018-04-04 08:02:20,13,0,16.594,5826.0222769839,23.622048,0.223694,1.79955058252,0,0,-2.23694,8.5, -2.9, 1.5,0,1,1024,1024,1261,1024,8.8,-14.6,99,4.15,4.158,4.155,4.162,0,0,13.188,82.31,6,P-GPS,
0.352818639070695,36.8834111716281,5826.3503609839,23.950132,0,1.81562341768,14900,2018-04-04 08:02:20,13,0,16.594,5826.3503609839,23.950132,0.223694,1.81562341768,0,0,-2.23694,8.5, -3.1, 1.4,0,1,1024,1024,1260,1024,8.8,-15,99,4.15,4.158,4.155,4.162,0,0,13.188,82.31,6,P-GPS,
0.352818622532167,36.8834111411633,5826.6784449839,24.278216,0,1.82827105588,15000,2018-04-04 08:02:20,13,0,16.594,5826.6784449839,24.278216,0.223694,1.82827105588,0,0,-2.460634,8.5, -3.3, 1.4,0,1,1024,1024,1264,1024,8.8,-15.4,99,4.15,4.158,4.155,4.162,0,0,13.188,82.31,6,P-GPS,
0.352818628775443,36.8834111051973,5827.0065289839,24.6063,0,1.8386975654,15100,2018-04-04 08:02:20,13,0,16.594,5827.0065289839,24.6063,0.223694,1.8386975654,0,0,-2.460634,8.4, -3.1, 1.1,0,1,1024,1024,1275,1024,8.8,-15.7,99,4.15,4.158,4.155,4.162,0,0,13.188,82.31,6,P-GPS,
0.352818590686494,36.8834110388173,5827.3346129839,24.934384,0,1.86661095212,15200,2018-04-04 08:02:21,12,0,16.594,5827.3346129839,24.934384,0.223694,1.86661095212,0,0,-2.460634,8.5, -3.1, 1.1,0,1,1024,1024,1275,1024,8.8,-15.8,99,4.15,4.158,4.155,4.162,0,0,13.188,82.31,6,P-GPS,
0.352818561250741,36.8834109535552,5827.6626969839,25.262468,0,1.89907814476,15300,2018-04-04 08:02:21,12,0,16.594,5827.6626969839,25.262468,0.223694,1.89907814476,0,0,-2.460634,8.5, -3, 1.6,0,1,1024,1024,1271,1024,8.8,-15.8,99,4.15,4.158,4.155,4.162,0,0,13.188,82.31,6,P-GPS,
0.35281853191277,36.8834108626207,5827.9907809839,25.590552,0,1.93336948444,15400,2018-04-04 08:02:21,12,0,16.594,5827.9907809839,25.590552,0.223694,1.93336948444,0,0,-2.460634,8.5, -3.2, 1.9,0,1,1024,1024,1269,1024,8.8,-15.8,99,4.15,4.158,4.155,4.162,0,0,13.188,82.31,6,P-GPS,
0.352818535848159,36.8834107805402,5828.6469489839,26.24672,0,1.959153606,15500,2018-04-04 08:02:21,12,0,16.594,5828.6469489839,26.24672,0.223694,1.959153606,0,0,-2.460634,8.5, -3.3, 2,0,1,1024,1024,1269,1024,8.8,-15.8,99,4.15,4.158,4.155,4.162,0,0,13.188,82.31,6,P-GPS,
0.35281851510308,36.8834107092754,5828.9750329839,26.574804,0,1.98569888244,15600,2018-04-04 08:02:21,12,0,16.514,5828.9750329839,26.574804,0.223694,1.98569888244,0,0,-2.460634,8.5, -3.4, 2.4,0,1,1024,1024,1272,1024,8.8,-15.8,99,4.149,4.156,4.15,4.154,0,0,13.062,82.31,6,P-GPS,
0.352818522638807,36.883410650298,5829.3031169839,26.902888,0,2.00354009036,15700,2018-04-04 08:02:21,12,0,16.514,5829.3031169839,26.902888,0.223694,2.00354009036,0,0,-2.460634,8.6, -2.9, 2.4,0,1,1024,1024,1277,1024,8.8,-15.8,99,4.149,4.156,4.15,4.154,0,0,13.062,82.31,6,P-GPS,
0.352818518835627,36.8834105867784,5829.6312009839,27.230972,0,2.02480649524,15800,2018-04-04 08:02:21,12,0,16.514,5829.6312009839,27.230972,0.223694,2.02480649524,0,0,-2.460634,8.6, -2.5, 2.2,0,1,1024,1024,1280,1024,8.8,-15.8,99,4.149,4.156,4.15,4.154,0,0,13.062,82.31,6,P-GPS,
0.352818527483911,36.883410522155,5829.9592849839,27.559056,0,2.0444390418,15900,2018-04-04 08:02:21,12,0,16.514,5829.9592849839,27.559056,0.223694,2.0444390418,0,0,-2.460634,8.6, -2.5, 2.3,0,1,1024,1024,1291,1024,8.8,-15.8,99,4.149,4.156,4.15,4.154,0,0,13.062,82.31,6,P-GPS,
0.352818502907549,36.8834104949083,5830.6154529839,28.215224,0,2.05734586636,16000,2018-04-04 08:02:21,12,0,16.514,5830.6154529839,28.215224,0.223694,2.05734586636,0,0,-2.684328,8.5, -2.8, 2.4,0,1,1024,1024,1292,1024,8.8,-15.8,99,4.149,4.156,4.15,4.154,0,0,13.062,82.31,6,P-GPS,
0.352818492648886,36.8834104804949,5830.9435369839,28.543308,0,2.06372381932,16100,2018-04-04 08:02:21,12,0,16.514,5830.9435369839,28.543308,0.223694,2.06372381932,0,0,-2.684328,8.5, -2.8, 2,0,1,1024,1024,1295,1024,8.8,-15.8,99,4.149,4.156,4.15,4.154,0,0,13.062,82.31,6,P-GPS,
0.352818411233429,36.8834104732535,5831.2716209839,28.871392,0,2.07958011904,16200,2018-04-04 08:02:22,12,0,16.514,5831.2716209839,28.871392,0.223694,2.07958011904,0,0,-2.684328,8.5, -3.1, 1.8,0,1,1024,1024,1299,1024,8.8,-15.8,99,4.149,4.156,4.15,4.154,0,0,13.062,82.31,6,P-GPS,
0.352818343365058,36.8834104524205,5831.9277889839,29.52756,0,2.0978019044,16300,2018-04-04 08:02:22,12,0,16.514,5831.9277889839,29.52756,0.223694,2.0978019044,0,0,-2.908022,8.5, -3.1, 2,0,1,1024,1024,1290,1024,8.8,-15.8,99,4.149,4.156,4.15,4.154,0,0,13.062,82.31,6,P-GPS,
0.352818270543294,36.8834104245289,5832.2558729839,29.855644,0,2.1193078106,16400,2018-04-04 08:02:22,13,0,16.514,5832.2558729839,29.855644,0.223694,2.1193078106,0,0,-2.908022,8.5, -3.2, 1.9,0,1,1024,1024,1289,1024,8.8,-15.8,99,4.149,4.156,4.15,4.154,0,0,13.062,82.31,6,P-GPS,
0.352818244742364,36.8834103887429,5832.5839569839,30.183728,0,2.13527237804,16500,2018-04-04 08:02:22,13,0,16.514,5832.5839569839,30.183728,0.223694,2.13527237804,0,0,-2.908022,8.5, -3.4, 2,0,1,1024,1024,1296,1023,8.8,-15.8,99,4.149,4.156,4.15,4.154,0,0,13.062,82.31,6,P-GPS,
0.352818226290128,36.8834103106298,5833.2401249839,30.839896,0,2.16354665716,16600,2018-04-04 08:02:22,13,0,16.514,5833.2401249839,30.839896,0.223694,2.16354665716,0,0,-2.908022,8.6, -3.3, 2.4,0,1,1024,1024,1305,1024,8.8,-15.8,99,4.148,4.155,4.15,4.146,0,0,13.098,82.31,6,P-GPS,
0.352818238922655,36.8834102339559,5833.5682089839,31.16798,0,2.18607618544,16700,2018-04-04 08:02:22,13,0,16.514,5833.5682089839,31.16798,0.223694,2.18607618544,0,0,-2.684328,8.6, -2.7, 2.7,0,1,1024,1024,1319,1024,8.8,-15.8,99,4.148,4.155,4.15,4.146,0,0,13.098,82.31,6,P-GPS,
0.352818213301996,36.8834101385102,5833.8962929839,31.496064,0,2.22125335192,16800,2018-04-04 08:02:22,13,0,16.514,5833.8962929839,31.496064,0.223694,2.22125335192,0,0,-2.908022,8.5, -2.5, 2.1,0,1,1024,1024,1325,1024,8.8,-15.8,99,4.148,4.155,4.15,4.146,0,0,13.098,82.31,6,P-GPS,
0.352818192231718,36.8834100642482,5834.5524609839,32.152232,0,2.2488353738,16900,2018-04-04 08:02:22,13,0,16.514,5834.5524609839,32.152232,0.223694,2.2488353738,0,0,-3.131716,8.6, -2.7, 1.2,0,1,1024,1024,1326,1024,8.8,-15.8,99,4.148,4.155,4.15,4.146,0,0,13.098,82.31,6,P-GPS,
0.352818129842492,36.8834099360593,5834.8805449839,32.480316,0,2.30083012612,17000,2018-04-04 08:02:22,13,0,16.514,5834.8805449839,32.480316,0.223694,2.30083012612,0,0,-3.131716,8.6, -3, 1.6,0,1,1024,1024,1327,1024,8.8,-15.8,99,4.148,4.155,4.15,4.146,0,0,13.098,82.31,6,P-GPS,
0.352818101502974,36.8834098127234,5835.5367129839,33.136484,0,2.34556437952,17100,2018-04-04 08:02:22,13,0,16.514,5835.5367129839,33.136484,0.223694,2.34556437952,0,0,-3.35541,8.5, -2.9, 2.2,0,1,1024,1024,1331,1024,8.8,-15.8,99,4.148,4.155,4.15,4.146,0,0,13.098,82.31,6,P-GPS,
0.35281810286532,36.8834097203441,5836.1928809839,33.792652,0,2.37538721512,17200,2018-04-04 08:02:23,13,0,16.514,5836.1928809839,33.792652,0.223694,2.37538721512,0,0,-3.35541,8.5, -3, 2.4,0,1,1024,1024,1334,1024,8.8,-15.8,99,4.148,4.155,4.15,4.146,0,0,13.098,82.31,6,P-GPS,
0.352818132449478,36.8834096479741,5836.5209649839,34.120736,0,2.39420283252,17300,2018-04-04 08:02:23,13,0,16.514,5836.5209649839,34.120736,0.223694,2.39420283252,0,0,-3.579104,8.5, -2.9, 2.6,0,1,1024,1024,1347,1024,8.8,-15.8,99,4.148,4.155,4.15,4.146,0,0,13.098,82.31,6,P-GPS,
0.352818125094814,36.8834095932839,5837.1771329839,34.776904,0,2.41329732132,17400,2018-04-04 08:02:23,12,0,16.514,5837.1771329839,34.776904,0.223694,2.41329732132,0,0,-3.579104,8.5, -2.8, 2.2,0,1,1024,1024,1348,1024,8.8,-15.8,99,4.148,4.155,4.15,4.146,0,0,13.098,82.31,6,P-GPS,
0.352818124897416,36.8834095376174,5837.8333009839,35.433072,0,2.43158472348,17500,2018-04-04 08:02:23,12,0,16.514,5837.8333009839,35.433072,0.223694,2.43158472348,0,0,-3.802798,8.5, -2.5, 2.4,0,1,1024,1024,1357,1024,8.8,-15.8,99,4.148,4.155,4.15,4.146,0,0,13.098,82.31,6,P-GPS,
0.35281812970041,36.8834094903329,5838.4894689839,36.08924,0,2.446358346,17600,2018-04-04 08:02:23,13,0,16.541,5838.4894689839,36.08924,0.223694,2.446358346,0,0,-3.802798,8.6, -2.4, 2.6,0,1,1024,1024,1357,1024,8.8,-15.8,98,4.148,4.155,4.15,4.146,0,0,13.302,82.31,6,P-GPS,
0.352818140834667,36.8834094459952,5839.1456369839,36.745408,0,2.4592028346,17700,2018-04-04 08:02:23,13,0,16.541,5839.1456369839,36.745408,0.223694,2.4592028346,0,0,-4.026492,8.5, -2.8, 2.3,0,1,1024,1024,1358,1024,8.8,-15.8,98,4.148,4.155,4.15,4.146,0,0,13.302,82.31,6,P-GPS,
0.352818101643567,36.8834093870687,5839.8018049839,37.401576,0,2.4847605782,17800,2018-04-04 08:02:23,13,0,16.541,5839.8018049839,37.401576,0.223694,2.4847605782,0,0,-4.026492,8.5, -3.1, 2,0,1,1024,1024,1357,1024,8.8,-15.8,98,4.148,4.155,4.15,4.146,0,0,13.302,82.31,6,P-GPS,
0.352818066265825,36.8834093122354,5840.4579729839,38.057744,0,2.5149607104,17900,2018-04-04 08:02:23,13,0,16.541,5840.4579729839,38.057744,0.223694,2.5149607104,0,0,-4.026492,8.5, -3.4, 2.3,0,1,1024,1024,1356,1024,8.8,-15.8,98,4.148,4.155,4.15,4.146,0,0,13.302,82.31,6,P-GPS,
0.352818003261606,36.8834092374878,5841.1141409839,38.713912,0,2.54948827056,18000,2018-04-04 08:02:23,13,0,16.541,5841.1141409839,38.713912,0.223694,2.54948827056,0,0,-4.026492,8.5, -3.3, 2.6,0,1,1024,1024,1349,1024,8.8,-15.8,98,4.148,4.155,4.15,4.146,0,0,13.302,82.31,6,P-GPS,
0.352817966842525,36.8834091691207,5841.4422249839,39.041996,0,2.57772646044,18100,2018-04-04 08:02:23,13,0,16.541,5841.4422249839,39.041996,0.223694,2.57772646044,0,0,-3.802798,8.5, -3.4, 2.8,0,1,1024,1024,1331,1024,8.8,-15.8,98,4.148,4.155,4.15,4.146,0,0,13.302,82.31,6,P-GPS,
0.352817929141222,36.883409114786,5842.0983929839,39.698164,0,2.6015584822,18200,2018-04-04 08:02:24,13,0,16.541,5842.0983929839,39.698164,0.223694,2.6015584822,0,0,-4.250186,8.5, -3.3, 2.7,0,1,1024,1024,1338,1024,8.8,-15.8,98,4.148,4.155,4.15,4.146,0,0,13.302,82.31,6,P-GPS,
0.352817918952226,36.8834090643328,5842.7545609839,40.354332,0,2.61975074,18300,2018-04-04 08:02:24,13,0,16.541,5842.7545609839,40.354332,0.223694,2.61975074,0,0,-3.802798,8.5, -3.7, 2.7,0,1,1024,1024,1352,1024,8.8,-15.8,98,4.148,4.155,4.15,4.146,0,0,13.302,82.31,6,P-GPS,
0.352817910694336,36.8834090246519,5843.4107289839,41.0105,0,2.634104415,18400,2018-04-04 08:02:24,13,0,16.541,5843.4107289839,41.0105,0.223694,2.634104415,0,0,-3.579104,8.5, -3.3, 2.7,0,1,1024,1024,1361,1024,8.8,-15.8,98,4.148,4.155,4.15,4.146,0,0,13.302,82.31,6,P-GPS,
0.352817926225391,36.8834089878565,5844.0668969839,41.666668,0,2.643782893,18500,2018-04-04 08:02:24,13,0,16.541,5844.0668969839,41.666668,0.223694,2.643782893,0,0,-3.802798,8.5, -2.9, 2.6,0,1,1024,1024,1363,1024,8.8,-15.8,98,4.148,4.155,4.15,4.146,0,0,13.302,82.31,6,P-GPS,
0.352817900145606,36.8834089558803,5844.7230649839,42.322836,0,2.65840231604,18600,2018-04-04 08:02:24,13,0,16.514,5844.7230649839,42.322836,0.223694,2.65840231604,0,0,-4.026492,8.5, -3, 2.6,0,1,1024,1024,1359,1024,8.8,-15.8,98,4.144,4.15,4.145,4.148,0,0,13.302,82.31,6,P-GPS,
0.352817880017962,36.8834089201949,5845.3792329839,42.979004,0,2.67331373384,18700,2018-04-04 08:02:24,13,0,16.514,5845.3792329839,42.979004,0.223694,2.67331373384,0,0,-4.026492,8.5, -3.3, 2.7,0,1,1024,1024,1357,1024,8.8,-15.8,98,4.144,4.15,4.145,4.148,0,0,13.302,82.31,6,P-GPS,
0.352817848160254,36.8834089142085,5846.0354009839,43.635172,0,2.68030520388,18800,2018-04-04 08:02:24,13,0,16.514,5846.0354009839,43.635172,0.223694,2.68030520388,0,0,-4.026492,8.5, -3.4, 2.8,0,1,1024,1024,1365,1024,8.8,-15.8,98,4.144,4.15,4.145,4.148,0,0,13.302,82.31,6,P-GPS,
0.352817840691345,36.8834089106637,5846.6915689839,44.29134,0,2.68265428532,18900,2018-04-04 08:02:24,13,0,16.514,5846.6915689839,44.29134,0.223694,2.68265428532,0,0,-4.026492,8.5, -3.6, 2.7,0,1,1024,1024,1357,1024,8.8,-15.8,98,4.144,4.15,4.145,4.148,0,0,13.302,82.31,6,P-GPS,
0.352817804329157,36.8834089050095,5847.3477369839,44.947508,0,2.69029536168,19000,2018-04-04 08:02:24,13,0,16.514,5847.3477369839,44.947508,0.223694,2.69029536168,0,0,-4.026492,8.5, -3.5, 2.6,0,1,1024,1024,1359,1024,8.8,-15.8,98,4.144,4.15,4.145,4.148,0,0,13.302,82.31,6,P-GPS,
0.352817790133858,36.8834088924574,5848.0039049839,45.603676,0,2.69667987632,19100,2018-04-04 08:02:24,13,0,16.514,5848.0039049839,45.603676,0.223694,2.69667987632,0,0,-4.250186,8.5, -3.2, 2.6,0,1,1024,1024,1366,1024,8.8,-15.8,98,4.144,4.15,4.145,4.148,0,0,13.302,82.31,6,P-GPS,
0.352817765973653,36.8834088697101,5848.6600729839,46.259844,0,2.70800861684,19200,2018-04-04 08:02:25,14,0,16.514,5848.6600729839,46.259844,0.223694,2.70800861684,0,0,-4.250186,8.5, -3.4, 2.2,0,1,1024,1024,1384,1024,8.8,-15.8,98,4.144,4.15,4.145,4.148,0,0,13.302,82.31,6,P-GPS,
0.352817765659465,36.8834088346374,5849.3162409839,46.916012,0,2.7195538928,19300,2018-04-04 08:02:25,14,0,16.514,5849.3162409839,46.916012,0.223694,2.7195538928,0,0,-4.250186,8.5, -3.1, 2.6,0,1,1024,1024,1380,1024,8.8,-15.8,98,4.144,4.15,4.145,4.148,0,0,13.302,82.31,6,P-GPS,
0.352817727914881,36.8834088002062,5849.9724089839,47.57218,0,2.73688985136,19400,2018-04-04 08:02:25,14,0,16.514,5849.9724089839,47.57218,0.223694,2.73688985136,0,0,-4.250186,8.5, -2.8, 2.6,0,1,1024,1024,1368,1024,8.8,-15.8,98,4.144,4.15,4.145,4.148,0,0,13.302,82.31,6,P-GPS,
0.352817699117884,36.8834087670114,5850.6285769839,48.228348,0,2.7523951012,19500,2018-04-04 08:02:25,14,0,16.514,5850.6285769839,48.228348,0.223694,2.7523951012,0,0,-4.47388,8.6, -2.7, 2.5,0,1,1024,1024,1354,1024,8.8,-15.8,98,4.144,4.15,4.145,4.148,0,0,13.302,82.31,6,P-GPS,
0.352817613155735,36.8834087151556,5851.2847449839,48.884516,0,2.78329733316,19600,2018-04-04 08:02:25,14,0,16.434,5851.2847449839,48.884516,0.223694,2.78329733316,0,0,-4.47388,8.5, -3.5, 3.5,0,1,1024,1024,1351,1024,8.8,-15.9,98,4.126,4.134,4.133,4.141,0,0,13.834,82.31,6,P-GPS,
0.352817549389176,36.883408672821,5851.9409129839,49.540684,0,2.80756898748,19700,2018-04-04 08:02:25,14,0,16.434,5851.9409129839,49.540684,0.223694,2.80756898748,0,0,-4.250186,8.4, -3.8, 3.6,0,1,1024,1024,1351,1024,8.8,-16.1,98,4.126,4.134,4.133,4.141,0,0,13.834,82.31,6,P-GPS,
0.352817492862323,36.8834086516991,5852.5970809839,50.196852,0,2.82381570716,19800,2018-04-04 08:02:25,14,0,16.434,5852.5970809839,50.196852,0.223694,2.82381570716,0,0,-4.026492,8.3, -3.8, 2.6,0,1,1024,1024,1349,1024,8.8,-16.7,98,4.126,4.134,4.133,4.141,0,0,13.834,82.31,6,P-GPS,
0.352817478035544,36.8834086380502,5853.2532489839,50.85302,0,2.83072187536,19900,2018-04-04 08:02:25,14,0,16.434,5853.2532489839,50.85302,0.223694,2.83072187536,0,0,-4.026492,8.3, -3.5, 1.9,0,1,1024,1024,1346,1023,8.7,-17.4,98,4.126,4.134,4.133,4.141,0,0,13.834,82.31,6,P-GPS,
0.35281744082972,36.8834085365152,5853.9094169839,51.509188,0,2.86987213908,20000,2018-04-04 08:02:25,14,0,16.434,5853.9094169839,51.509188,0.223694,2.86987213908,0,0,-3.802798,8.4, -2.9, 2.1,0,1,1024,1024,1349,1023,8.7,-17.4,98,4.126,4.134,4.133,4.141,0,0,13.834,82.31,6,P-GPS,
0.35281742526149,36.8834084046462,5854.5655849839,52.165356,0,2.91531505392,20100,2018-04-04 08:02:25,14,0,16.434,5854.5655849839,52.165356,0.223694,2.91531505392,0,0,-3.802798,8.5, -2.5, 3.3,0,1,1024,1024,1358,1023,8.7,-18.1,98,4.126,4.134,4.133,4.141,0,0,13.834,82.31,6,P-GPS,
0.352817402661436,36.8834082835761,5855.2217529839,52.821524,0,2.95847778496,20200,2018-04-04 08:02:25,14,0,16.434,5855.2217529839,52.821524,0.223694,2.95847778496,0,0,-3.802798,8.5, -2.1, 3.9,0,1,1024,1024,1348,1023,8.7,-18.9,98,4.126,4.134,4.133,4.141,0,0,13.834,82.31,6,P-GPS,
0.352817402726675,36.8834082084825,5855.8779209839,53.477692,0,2.9829889406,20300,2018-04-04 08:02:26,14,0,16.434,5855.8779209839,53.477692,0.223694,2.9829889406,0,0,-4.026492,8.6, -2, 3.7,0,1,1024,1024,1360,1023,8.8,-19.7,98,4.126,4.134,4.133,4.141,0,0,13.834,82.31,6,P-GPS,
0.352817367669228,36.8834081846841,5856.5340889839,54.13386,0,2.99646006964,20400,2018-04-04 08:02:26,14,0,16.434,5856.5340889839,54.13386,0.223694,2.99646006964,0,0,-3.802798,8.6, -2.3, 3.7,0,1,1024,1024,1354,1023,8.8,-20.5,98,4.126,4.134,4.133,4.141,0,0,13.834,82.31,6,P-GPS,
0.35281733724511,36.8834081849273,5856.8621729839,54.461944,0,3.00135180208,20500,2018-04-04 08:02:26,14,0,16.434,5856.8621729839,54.461944,0.223694,3.00135180208,0,0,-3.802798,8.5, -2.5, 3.4,0,1,1024,1024,1362,1023,8.7,-21.3,98,4.126,4.134,4.133,4.141,0,0,13.834,82.31,6,P-GPS,
0.352817261896396,36.8834081712446,5857.5183409839,55.118112,0,3.01824484724,20600,2018-04-04 08:02:26,14,0,16.461,5857.5183409839,55.118112,0.223694,3.01824484724,0,0,-4.026492,8.4, -2.8, 3.2,0,1,1024,1024,1371,1023,8.7,-22.1,98,4.133,4.133,4.123,4.123,0,0,14.058,82.31,6,P-GPS,
0.352817208958429,36.8834081531981,5858.1745089839,55.77428,0,3.03294301044,20700,2018-04-04 08:02:26,14,0,16.461,5858.1745089839,55.77428,0.223694,3.03294301044,0,0,-4.026492,8.4, -2.9, 2.7,0,1,1024,1024,1373,1024,8.7,-22.9,98,4.133,4.133,4.123,4.123,0,0,14.058,82.31,6,P-GPS,
0.352817142572569,36.8834081242083,5858.8306769839,56.430448,0,3.05352043892,20800,2018-04-04 08:02:26,14,0,16.461,5858.8306769839,56.430448,0.223694,3.05352043892,0,0,-4.250186,8.4, -2.9, 2.5,0,1,1024,1024,1376,1023,8.7,-23.6,98,4.133,4.133,4.123,4.123,0,0,14.058,82.31,6,P-GPS,
0.352817113206737,36.883408092754,5859.4868449839,57.086616,0,3.06866479636,20900,2018-04-04 08:02:26,14,0,16.461,5859.4868449839,57.086616,0.223694,3.06866479636,0,0,-4.250186,8.4, -2.5, 2.4,0,1,1024,1024,1376,1023,8.7,-23.6,98,4.133,4.133,4.123,4.123,0,0,14.058,82.31,6,P-GPS,
0.352817098992456,36.8834080881301,5860.4710969839,58.070868,0,3.07257883848,21000,2018-04-04 08:02:26,14,0,16.461,5860.4710969839,58.070868,0.223694,3.07257883848,0,0,-4.47388,8.4, -2.3, 2.6,0,1,1024,1024,1363,1023,8.7,-25.1,98,4.133,4.133,4.123,4.123,0,0,14.058,82.31,6,P-GPS,
0.352817107266173,36.8834080845351,5861.1272649839,58.727036,0,3.07232949464,21100,2018-04-04 08:02:26,14,0,16.461,5861.1272649839,58.727036,0.223694,3.07257883848,0,0,-4.250186,8.4, -2.6, 3,0,1,1024,1024,1379,1023,8.7,-25.9,98,4.133,4.133,4.123,4.123,0,0,14.058,82.31,6,P-GPS,
0.352817066446374,36.8834080633411,5861.7834329839,59.383204,0,3.08612870768,21200,2018-04-04 08:02:27,13,0,16.461,5861.7834329839,59.383204,0.223694,3.08612870768,0,0,-4.250186,8.5, -2.5, 3,0,1,1024,1024,1382,1024,8.7,-26.6,98,4.133,4.133,4.123,4.123,0,0,14.058,82.31,6,P-GPS,
0.352817034637469,36.8834080415632,5862.4396009839,60.039372,0,3.09859589968,21300,2018-04-04 08:02:27,13,0,16.461,5862.4396009839,60.039372,0.223694,3.09859589968,0,0,-4.47388,8.5, -2.1, 2.8,0,1,1024,1024,1382,1024,8.7,-26.6,98,4.133,4.133,4.123,4.123,0,0,14.058,82.31,6,P-GPS,
0.352816965098127,36.8834080335419,5863.0957689839,60.69554,0,3.11319235684,21400,2018-04-04 08:02:27,13,0,16.461,5863.0957689839,60.69554,0.223694,3.11319235684,0,0,-4.47388,8.5, -2, 2.7,0,1,1024,1024,1384,1023,8.7,-26.6,98,4.133,4.133,4.123,4.123,0,0,14.058,82.31,6,P-GPS,
0.352816922261297,36.8834080274835,5863.7519369839,61.351708,0,3.12261164848,21500,2018-04-04 08:02:27,13,0,16.461,5863.7519369839,61.351708,0.223694,3.12261164848,0,0,-4.47388,8.5, -2.2, 2.7,0,1,1024,1024,1384,1023,8.8,-26.6,98,4.133,4.133,4.123,4.123,0,0,14.058,82.31,6,P-GPS,
0.352816841951935,36.8834080291693,5864.4081049839,62.007876,0,3.13625666204,21600,2018-04-04 08:02:27,13,0,16.568,5864.4081049839,62.007876,0.223694,3.13625666204,0,0,-4.47388,8.5, -2.3, 2.8,0,1,1024,1024,1378,1023,8.8,-26.6,98,4.133,4.133,4.123,4.123,0,0,14.058,82.31,6,P-GPS,
0.352816790713148,36.8834080314814,5865.0642729839,62.664044,0,3.14467857832,21700,2018-04-04 08:02:27,13,0,16.568,5865.0642729839,62.664044,0.223694,3.14467857832,0,0,-4.47388,8.4, -2.2, 2.8,0,1,1024,1024,1373,1023,8.7,-26.6,98,4.133,4.133,4.123,4.123,0,0,14.058,82.31,6,P-GPS,
0.352816743098972,36.8834080718956,5866.0485249839,63.648296,0,3.14047254144,21800,2018-04-04 08:02:27,13,0,16.568,5866.0485249839,63.648296,0.223694,3.14467857832,0,0,-4.47388,8.4, -2.3, 2.9,0,1,1024,1024,1374,1024,8.7,-26.6,98,4.133,4.133,4.123,4.123,0,0,14.058,82.31,6,P-GPS,
0.352816735401216,36.8834081207506,5866.7046929839,64.304464,0,3.12644038876,21900,2018-04-04 08:02:27,13,0,16.568,5866.7046929839,64.304464,0.223694,3.14467857832,0,0,-4.250186,8.5, -1.9, 2.7,0,1,1024,1024,1364,1023,8.7,-26.6,98,4.133,4.133,4.123,4.123,0,0,14.058,82.31,6,P-GPS,
0.352816703119654,36.8834082064164,5867.3608609839,64.960632,0,3.10541676604,22000,2018-04-04 08:02:27,13,0,16.568,5867.3608609839,64.960632,0.223694,3.14467857832,0,0,-4.250186,8.5, -1.6, 2.2,0,1,1024,1024,1364,1024,8.7,-26.6,98,4.133,4.133,4.123,4.123,0,0,14.058,82.31,6,P-GPS,
0.352816680811702,36.8834082791595,5868.0170289839,65.6168,0,3.086778314,22100,2018-04-04 08:02:27,13,0,16.568,5868.0170289839,65.6168,0.223694,3.14467857832,0,0,-4.250186,8.5, -1.8, 2,0,1,1024,1024,1360,1023,8.7,-26.6,98,4.133,4.133,4.123,4.123,0,0,14.058,82.31,6,P-GPS,
0.352816618658473,36.8834083602167,5868.3451129839,65.944884,0,3.0732776574,22200,2018-04-04 08:02:27,13,0,16.568,5868.3451129839,65.944884,0.223694,3.14467857832,0,0,-4.026492,8.5, -1.9, 1.8,0,1,1024,1024,1346,1024,8.7,-26.6,98,4.133,4.133,4.123,4.123,0,0,14.058,82.31,6,P-GPS,
0.352816584776151,36.8834084130199,5869.0012809839,66.601052,0,3.0634187332,22300,2018-04-04 08:02:28,13,0,16.568,5869.0012809839,66.601052,0.223694,3.14467857832,0,0,-4.026492,8.5, -1.8, 1.6,0,1,1024,1024,1354,1024,8.7,-26.6,98,4.133,4.133,4.123,4.123,0,0,14.058,82.31,6,P-GPS,
0.352816527872821,36.8834084543123,5869.6574489839,67.25722,0,3.06174878564,22400,2018-04-04 08:02:28,14,0,16.568,5869.6574489839,67.25722,0.223694,3.14467857832,0,0,-4.026492,8.5, -2.4, 2.1,0,1,1024,1024,1332,1024,8.7,-26.6,98,4.133,4.133,4.123,4.123,0,0,14.058,82.31,6,P-GPS,
0.352816506858362,36.8834084773288,5870.3136169839,67.913388,0.223694,3.05879931048,22500,2018-04-04 08:02:28,14,0,16.568,5870.3136169839,67.913388,0.223694,3.14467857832,0.223694,0,-4.026492,8.5, -2.4, 2.2,0,1,1024,1024,1324,1023,8.7,-26.6,98,4.133,4.133,4.123,4.123,0,0,14.058,82.31,6,P-GPS,
0.352816483915011,36.8834084928147,5870.9697849839,68.569556,0.223694,3.0585794942,22600,2018-04-04 08:02:28,14,0,16.434,5870.9697849839,68.569556,0.223694,3.14467857832,0.223694,0,-3.579104,8.5, -1.5, 2.4,0,1,1024,1024,1320,1024,8.7,-26.6,98,4.119,4.122,4.121,4.127,0,0,13.816,82.31,6,P-GPS,
