latitude,longitude,altitude(feet),ascent(feet),speed(mph),distance(feet),time(millisecond),datetime(utc),satellites,gpslevel,voltage(v),max_altitude(feet),max_ascent(feet),max_speed(mph),max_distance(feet), xSpeed(mph), ySpeed(mph), zSpeed(mph), compass_heading(degrees), pitch(degrees), roll(degrees),isPhoto,isVideo,rc_elevator,rc_aileron,rc_throttle,rc_rudder,gimbal_heading(degrees),gimbal_pitch(degrees),battery_percent,voltageCell1,voltageCell2,voltageCell3,voltageCell4,voltageCell5,voltageCell6,current(A),battery_temperature(f),flycStateRaw,flycState,message
0.355951684197922,36.8882828172022,5823.8690656289,0,0,0,0,2018-04-05 07:23:22,15,0,0,5823.8690656289,0,0,0,0,0,0,204.5, -2.2, 2,0,0,364,364,364,1684,209.1,0,99,4.289,4.292,4.291,4.292,0,0,0,84.11,41,Motors_Started,
0.355951648620491,36.8882828651543,5823.8690656289,0,0,0.0217844823244,100,2018-04-05 07:23:22,15,0,0,5823.8690656289,0,0,0.0217844823244,0,0,0,204.5, -2.2, 2,0,0,364,364,364,1684,209.1,0,99,4.289,4.292,4.291,4.292,0,0,0,84.11,41,Motors_Started,
0.355951604120816,36.8882829139425,5823.8690656289,0,0,0.045818242936,200,2018-04-05 07:23:22,15,0,0,5823.8690656289,0,0,0.045818242936,0,0,0,204.5, -2.2, 2,0,0,364,364,364,1684,209.1,0,99,4.289,4.292,4.291,4.292,0,0,0,84.11,41,Motors_Started,
0.355951560087691,36.8882829611633,5823.8690656289,0,0,0.069347771248,300,2018-04-05 07:23:22,15,0,0,5823.8690656289,0,0,0.069347771248,0,0,0,204.5, -2.2, 2,0,0,364,364,364,1684,209.1,0,99,4.289,4.292,4.291,4.292,0,0,0,84.11,41,Motors_Started,
0.355951537406723,36.8882829804223,5823.8690656289,0,0,0.080090553744,400,2018-04-05 07:23:22,15,0,0,5823.8690656289,0,0,0.080090553744,0,0,0,204.4, -2.2, 2,0,0,364,364,364,1684,209.1,0,99,4.289,4.292,4.291,4.292,0,0,0,84.11,41,Motors_Started,
0.355951518323802,36.8882829979447,5823.8690656289,0,0,0.089503939872,500,2018-04-05 07:23:22,15,0,0,5823.8690656289,0,0,0.089503939872,0,0,0,204.5, -2.2, 2,0,0,364,364,364,1684,209,0,99,4.289,4.292,4.291,4.292,0,0,0,84.11,41,Motors_Started,
0.355951490401687,36.8882830196618,5823.8690656289,0,0,0.10225229986,600,2018-04-05 07:23:22,15,0,17.16,5823.8690656289,0,0,0.10225229986,0,0,0,204.4, -2.2, 2,0,0,364,364,364,1684,209,0,99,4.289,4.292,4.291,4.292,0,0,1.508,84.11,41,Motors_Started,Setting new Return-To-Home altitude to 30m (98 ft). Setting new Maximum Flight Altitude to 150m (492 ft)
0.355951442792498,36.8882830539616,5823.8690656289,0,0,0.123365161428,800,2018-04-05 07:23:22,15,0,17.16,5823.8690656289,0,0,0.123365161428,0,0,0,204.4, -2.2, 2,0,0,364,364,364,1684,209,0,99,4.289,4.292,4.291,4.292,0,0,1.508,84.11,41,Motors_Started,
0.35595142845812,36.8882830607278,5823.8690656289,0,0,0.128841539556,900,2018-04-05 07:23:22,15,0,17.16,5823.8690656289,0,0,0.128841539556,0,0,0,204.4, -2.3, 2,0,0,364,364,364,1684,209,0,99,4.289,4.292,4.291,4.292,0,0,1.508,84.11,41,Motors_Started,
0.355951402867937,36.8882830771218,5823.8690656289,0,0,0.139743442792,1000,2018-04-05 07:23:22,15,0,17.16,5823.8690656289,0,0,0.139743442792,0,0,0,204.4, -2.3, 2.1,0,0,364,364,364,1684,209,0,99,4.289,4.292,4.291,4.292,0,0,1.508,84.11,41,Motors_Started,
0.355951371504919,36.8882831006943,5823.8690656289,0,0,0.153991474744,1100,2018-04-05 07:23:22,15,0,17.16,5823.8690656289,0,0,0.153991474744,0,0,0,204.4, -2.3, 2,0,0,364,364,364,1684,209,0,99,4.289,4.292,4.291,4.292,0,0,1.508,84.11,41,Motors_Started,
0.355951359696258,36.8882831399499,5823.8690656289,0,0,0.166981304556,1200,2018-04-05 07:23:23,15,0,17.16,5823.8690656289,0,0,0.166981304556,0,0,0,204.4, -2.3, 2,0,0,364,364,364,1684,209,0,99,4.289,4.292,4.291,4.292,0,0,1.508,84.11,41,Motors_Started,
0.355951346139461,36.8882831769165,5823.8690656289,0,0,0.180101383716,1300,2018-04-05 07:23:23,15,0,17.16,5823.8690656289,0,0,0.180101383716,0,0,0,204.4, -2.3, 2.1,0,0,364,364,364,1684,209,0,99,4.289,4.292,4.291,4.292,0,0,1.508,84.11,41,Motors_Started,
0.355951320931963,36.888283197412,5823.8690656289,0,0,0.1918553211,1400,2018-04-05 07:23:23,15,0,17.16,5823.8690656289,0,0,0.1918553211,0,0,0,204.4, -2.3, 2.1,0,0,707,627,567,1527,209,0,99,4.289,4.292,4.291,4.292,0,0,1.508,84.11,41,Motors_Started,
0.355951290142158,36.8882832134442,5823.8690656289,0,0,0.203885833296,1500,2018-04-05 07:23:23,15,0,17.16,5823.8690656289,0,0,0.203885833296,0,0,0,204.4, -2.4, 2.1,0,0,1024,1024,985,1024,209,0,99,4.289,4.292,4.291,4.292,0,0,1.508,84.11,41,Motors_Started,
0.355951245839525,36.888283245788,5823.8690656289,0,0,0.22367290742,1600,2018-04-05 07:23:23,15,0,17.081,5823.8690656289,0,0,0.22367290742,0,0,0,204.5, -2.2, 2,0,0,1024,1024,1024,1024,207.5,0,99,4.285,4.285,4.283,4.282,0,0,2.424,84.11,10,Assisted_Takeoff,
0.355951203407974,36.8882832790686,5823.8690656289,0,0,0.243240165264,1700,2018-04-05 07:23:23,15,0,17.081,5823.8690656289,0,0,0.243240165264,0,0,0,204.3, -2.3, 2,0,0,1024,1024,1024,1024,206.3,0,99,4.285,4.285,4.283,4.282,0,0,2.424,84.11,10,Assisted_Takeoff,
0.355951150158669,36.8882832975932,5823.8690656289,0,0,0.262073827284,1800,2018-04-05 07:23:23,15,0,17.081,5823.8690656289,0,0,0.262073827284,0,0,0,204.4, -2.3, 2,0,0,1024,1024,1024,1024,205.8,0,99,4.285,4.285,4.283,4.282,0,0,2.424,84.11,10,Assisted_Takeoff,
0.355951098430331,36.8882833123257,5823.8690656289,0,0,0.279833014204,1900,2018-04-05 07:23:23,15,0,17.081,5823.8690656289,0,0,0.279833014204,0,0,0,204.4, -2.3, 2,0,0,1024,1024,1024,1024,205.5,0,99,4.285,4.285,4.283,4.282,0,0,2.424,84.11,10,Assisted_Takeoff,
0.355951065641611,36.8882833417286,5823.8690656289,0,0,0.295894694508,2000,2018-04-05 07:23:23,15,0,17.081,5823.8690656289,0,0,0.295894694508,0,0,0,204.4, -2.3, 2,0,0,1024,1024,1024,1024,205.4,0,99,4.285,4.285,4.283,4.282,0,0,2.424,84.11,10,Assisted_Takeoff,
0.355951038456367,36.8882833732084,5823.8690656289,0,0,0.310896335408,2100,2018-04-05 07:23:23,15,0,17.081,5823.8690656289,0,0,0.310896335408,0,0,0,204.4, -2.3, 2,0,0,1024,1024,1024,1024,205.2,0,99,4.285,4.285,4.283,4.282,0,0,2.424,84.11,10,Assisted_Takeoff,
0.35595100123828,36.8882833885618,5823.8690656289,0,0,0.324874354228,2200,2018-04-05 07:23:24,15,0,17.081,5823.8690656289,0,0,0.324874354228,0,0,0,204.4, -2.3, 2,0,0,1024,1024,1024,1024,205.1,0,99,4.285,4.285,4.283,4.282,0,0,2.424,84.11,10,Assisted_Takeoff,
0.355950961826678,36.8882834005504,5823.8690656289,0,0,0.33875985336,2300,2018-04-05 07:23:24,15,0,17.081,5823.8690656289,0,0,0.33875985336,0,0,0,204.4, -2.3, 2,0,0,1024,1024,1038,1024,205.1,0,99,4.285,4.285,4.283,4.282,0,0,2.424,84.11,10,Assisted_Takeoff,
0.355950942113549,36.8882833985901,5823.8690656289,0,0,0.34394358056,2400,2018-04-05 07:23:24,15,0,17.081,5823.8690656289,0,0,0.34394358056,0,0,0,204.3, -2.4, 2,0,0,1024,1024,1280,1024,205,0,99,4.285,4.285,4.283,4.282,0,0,2.424,84.11,10,Assisted_Takeoff,
0.35595092187769,36.8882833977219,5823.8690656289,0,0,0.34959318704,2500,2018-04-05 07:23:24,15,0,17.081,5823.8690656289,0,0,0.34959318704,0,0,0,204.4, -2.4, 2,0,0,1024,1024,1652,1024,205,0,99,4.285,4.285,4.283,4.282,0,0,2.424,84.11,10,Assisted_Takeoff,
0.355950919161446,36.8882833844379,5823.8690656289,0,0,0.3474737644,2600,2018-04-05 07:23:24,15,0,17.133,5823.8690656289,0,0,0.34959318704,0,0,0,204.4, -2.5, 2,0,0,1024,1024,1684,1024,204.9,0,99,4.282,4.283,4.282,4.286,0,0,2.93,84.11,10,Assisted_Takeoff,
0.355950911277334,36.8882833740263,5823.8690656289,0,0,0.3475557854,2700,2018-04-05 07:23:24,15,0,17.133,5823.8690656289,0,0,0.34959318704,0,0,0,204.4, -2.5, 2.1,0,0,1024,1024,1684,1024,204.9,0,99,4.282,4.283,4.282,4.286,0,0,2.93,84.11,10,Assisted_Takeoff,
0.355950885767759,36.8882833883574,5823.8690656289,0,0,0.35816602196,2800,2018-04-05 07:23:24,15,0,17.133,5823.8690656289,0,0,0.35816602196,0,0,0,204.5, -2.7, 2.1,0,0,1024,1024,1684,1024,204.9,0,99,4.282,4.283,4.282,4.286,0,0,2.93,84.11,10,Assisted_Takeoff,
0.355950830673427,36.8882833874763,5823.8690656289,0,0,0.37451772852,2900,2018-04-05 07:23:24,15,0,17.133,5823.8690656289,0,0,0.37451772852,0,0,0,204.8, -2.1, 2.4,0,0,1024,1024,1684,1024,204.9,0,99,4.282,4.283,4.282,4.286,0,0,2.93,84.11,10,Assisted_Takeoff,
0.355950751678423,36.8882833174913,5823.8690656289,0,0.3131716,0.38609909372,3000,2018-04-05 07:23:24,15,0,17.133,5823.8690656289,0,0.3131716,0.38609909372,-0.223694,-0.223694,-0.223694,205, -1.4, 2.5,0,0,1024,1024,1684,1024,204.9,0,99,4.282,4.283,4.282,4.286,0,0,2.93,84.11,10,Assisted_Takeoff,
0.355950634469538,36.8882831634602,5823.8690656289,0,0.4921268,0.40329069532,3100,2018-04-05 07:23:24,15,0,17.133,5823.8690656289,0,0.4921268,0.40329069532,-0.223694,-0.447388,-0.447388,205, -0.1, 1,0,0,1024,1024,1684,1024,204.9,0,99,4.282,4.283,4.282,4.286,0,0,2.93,84.11,6,P-GPS,Obstacle Avoided. Revise Flight Route
0.355950466813901,36.8882829212332,5823.8690656289,0,0.6263432,0.44578085416,3200,2018-04-05 07:23:25,15,0,17.133,5823.8690656289,0,0.6263432,0.44578085416,-0.447388,-0.447388,-1.11847,205.1, 1.1, -0.8,0,0,1024,1024,1684,1024,204.9,0,99,4.282,4.283,4.282,4.286,0,0,2.93,84.11,6,P-GPS,
0.355950261010334,36.8882826971261,5824.1971496289,0.328084,0.6263432,0.52109253636,3300,2018-04-05 07:23:25,15,0,17.133,5824.1971496289,0.328084,0.6263432,0.52109253636,-0.447388,-0.447388,-1.789552,205.2, 1.4, -1.3,0,0,1024,1024,1684,1024,204.9,0,99,4.282,4.283,4.282,4.286,0,0,2.93,84.11,6,P-GPS,
0.355950030738582,36.8882824940402,5824.5252336289,0.656168,0.8052984,0.61467849736,3400,2018-04-05 07:23:25,15,0,17.133,5824.5252336289,0.656168,0.8052984,0.61467849736,-0.671082,-0.447388,-2.908022,205.2, 1.2, -1,0,0,1024,1024,1684,1024,204.9,0,99,4.282,4.283,4.282,4.286,0,0,2.93,84.11,6,P-GPS,
0.355949738762645,36.8882823080539,5824.8533176289,0.984252,1.006623,0.7336942492,3500,2018-04-05 07:23:25,15,0,17.133,5824.8533176289,0.984252,1.006623,0.7336942492,-0.894776,-0.447388,-3.802798,205.2, 1.9, 0,0,0,1024,1024,1684,1024,204.9,0,99,4.282,4.283,4.282,4.286,0,0,2.93,84.11,6,P-GPS,
0.355949360630621,36.8882820829758,5825.5094856289,1.64042,1.11847,0.88906826992,3600,2018-04-05 07:23:25,15,0,17.133,5825.5094856289,1.64042,1.11847,0.88906826992,-0.894776,-0.671082,-5.144962,205.1, 3.3, 0.9,0,0,1024,1024,1684,1024,204.9,0,99,4.282,4.283,4.282,4.286,0,0,2.93,84.11,6,P-GPS,
0.355948950026609,36.8882818075603,5826.4937376289,2.624672,1.11847,1.06339898416,3700,2018-04-05 07:23:25,15,0,17.133,5826.4937376289,2.624672,1.11847,1.06339898416,-0.894776,-0.671082,-6.263432,205.3, 5.1, 1.5,0,0,1024,1024,1684,1024,204.9,0,99,4.282,4.283,4.282,4.286,0,0,2.93,84.11,6,P-GPS,Home Point Recorded. RTH Altitude:  30m.
0.355948510222968,36.8882814893274,5827.4779896289,3.608924,1.2750558,1.25527891156,3800,2018-04-05 07:23:25,15,0,17.133,5827.4779896289,3.608924,1.2750558,1.25527891156,-0.894776,-0.894776,-7.605596,205.2, 6.3, -0.1,0,0,1024,1024,1684,1024,204.9,0,99,4.282,4.283,4.282,4.286,0,0,2.93,84.11,6,P-GPS,
0.355948113636602,36.8882811381265,5828.7903256289,4.92126,1.11847,1.4395669752,3900,2018-04-05 07:23:25,15,0,17.133,5828.7903256289,4.92126,1.2750558,1.4395669752,-0.671082,-0.894776,-8.724066,205.1, 5.5, -3.3,0,0,1024,1024,1684,1024,204.9,0,99,4.282,4.283,4.282,4.286,0,0,2.93,84.11,6,P-GPS,
0.355947655844355,36.8882808026462,5830.1026616289,6.233596,1.11847,1.64327761164,4000,2018-04-05 07:23:25,15,0,17.133,5830.1026616289,6.233596,1.2750558,1.64327761164,-0.894776,-0.671082,-9.842536,204.9, 7.2, -2.5,0,0,1024,1024,1684,1024,205,0,99,4.282,4.283,4.282,4.286,0,0,2.93,84.11,6,P-GPS,
0.355947218527348,36.8882804706138,5831.7430816289,7.874016,0.9395148,1.84053811664,4100,2018-04-05 07:23:25,15,0,17.133,5831.7430816289,7.874016,1.2750558,1.84053811664,-0.671082,-0.671082,-10.513618,204.8, 9.1, -2.8,0,0,1024,1024,1684,1024,205,0,99,4.282,4.283,4.282,4.286,0,0,2.93,84.11,6,P-GPS,
0.355946822737291,36.8882801755888,5833.3835016289,9.514436,0.8052984,2.01863195436,4200,2018-04-05 07:23:26,15,0,17.133,5833.3835016289,9.514436,1.2750558,2.01863195436,-0.447388,-0.671082,-10.961006,204.9, 7.5, -4.5,0,0,1024,1024,1684,1024,205,0,99,4.282,4.283,4.282,4.286,0,0,2.93,84.11,6,P-GPS,
0.355946434936381,36.8882799485927,5835.0239216289,11.154856,0.8052984,2.18250006984,4300,2018-04-05 07:23:26,15,0,17.133,5835.0239216289,11.154856,1.2750558,2.18250006984,-0.671082,-0.447388,-11.1847,205, 7.7, -3.3,0,0,1024,1024,1684,1024,205,0,99,4.282,4.283,4.282,4.286,0,0,2.93,84.11,6,P-GPS,
0.355946042710988,36.8882797599197,5836.6643416289,12.795276,0.6263432,2.34109915628,4400,2018-04-05 07:23:26,15,0,17.133,5836.6643416289,12.795276,1.2750558,2.34109915628,-0.447388,-0.447388,-11.408394,204.8, 8.3, -2.1,0,0,1024,1024,1684,1024,205,0,99,4.282,4.283,4.282,4.286,0,0,2.93,84.11,6,P-GPS,
0.355945673497138,36.888279569265,5838.3047616289,14.435696,0.6263432,2.49267724512,4500,2018-04-05 07:23:26,15,0,17.133,5838.3047616289,14.435696,1.2750558,2.49267724512,-0.447388,-0.447388,-11.632088,204.8, 8.6, -1.8,0,0,1024,1024,1684,1024,205,0,99,4.282,4.283,4.282,4.286,0,0,2.93,84.11,6,P-GPS,
0.355945300485756,36.8882793526516,5840.2732656289,16.4042,0.8052984,2.6499836806,4600,2018-04-05 07:23:26,15,0,16.713,5840.2732656289,16.4042,1.2750558,2.6499836806,-0.447388,-0.671082,-11.632088,204.8, 8.5, -1.7,0,0,1024,1024,1684,1024,205,0,99,4.282,4.283,4.282,4.286,0,0,2.93,84.11,6,P-GPS,
0.355944947437469,36.8882791202827,5841.9136856289,18.04462,0.8052984,2.80366478788,4700,2018-04-05 07:23:26,15,0,16.713,5841.9136856289,18.04462,1.2750558,2.80366478788,-0.447388,-0.671082,-11.408394,204.8, 8.3, -2.2,0,0,1024,1024,1684,1024,205,0,99,4.282,4.283,4.282,4.286,0,0,2.93,84.11,6,P-GPS,
0.35594463344904,36.8882788893125,5843.5541056289,19.68504,0.8052984,2.94469497612,4800,2018-04-05 07:23:26,15,0,16.713,5843.5541056289,19.68504,1.2750558,2.94469497612,-0.447388,-0.671082,-11.408394,204.8, 7.8, -2.6,0,0,1024,1024,1684,1039,205,0,99,4.282,4.283,4.282,4.286,0,0,2.93,84.11,6,P-GPS,
0.355944335712481,36.888278661665,5845.5226096289,21.653544,0.8052984,3.08007227704,4900,2018-04-05 07:23:26,15,0,16.713,5845.5226096289,21.653544,1.2750558,3.08007227704,-0.447388,-0.671082,-11.408394,204.8, 7.3, -2.8,0,0,1024,1024,1684,1025,205,0,99,4.282,4.283,4.282,4.286,0,0,2.93,84.11,6,P-GPS,
0.35594404037625,36.8882784362748,5847.1630296289,23.293964,0.8052984,3.21439970916,5000,2018-04-05 07:23:26,15,0,16.713,5847.1630296289,23.293964,1.2750558,3.21439970916,-0.447388,-0.671082,-11.408394,204.8, 7.3, -2.9,0,0,1024,1024,1684,1025,205,0,99,4.282,4.283,4.282,4.286,0,0,2.93,84.11,6,P-GPS,
0.355943728867941,36.8882782029911,5848.8034496289,24.934384,0.8052984,3.3553806848,5100,2018-04-05 07:23:26,15,0,16.713,5848.8034496289,24.934384,1.2750558,3.3553806848,-0.447388,-0.671082,-11.408394,204.8, 7.7, -3.3,0,0,1024,1024,1684,1024,205,0,99,4.282,4.283,4.282,4.286,0,0,2.93,84.11,6,P-GPS,
0.355943422407808,36.8882779635161,5850.4438696289,26.574804,0.8052984,3.4959974872,5200,2018-04-05 07:23:27,15,0,16.713,5850.4438696289,26.574804,1.2750558,3.4959974872,-0.447388,-0.671082,-11.1847,204.8, 8, -3.6,0,0,1024,1024,1684,1024,205,0,99,4.282,4.283,4.282,4.286,0,0,2.93,84.11,6,P-GPS,
0.355943108269562,36.8882777337991,5852.4123736289,28.543308,0.8052984,3.6372704576,5300,2018-04-05 07:23:27,15,0,16.713,5852.4123736289,28.543308,1.2750558,3.6372704576,-0.447388,-0.671082,-11.1847,204.8, 8, -3.4,0,0,1024,1024,1684,1024,205,0,99,4.282,4.283,4.282,4.286,0,0,2.93,84.11,6,P-GPS,
0.35594283426269,36.8882775074593,5854.0527936289,30.183728,0.8052984,3.7654528764,5400,2018-04-05 07:23:27,15,0,16.713,5854.0527936289,30.183728,1.2750558,3.7654528764,-0.447388,-0.671082,-11.1847,204.8, 8.2, -3.6,0,0,1024,1024,1684,1024,205,0,99,4.282,4.283,4.282,4.286,0,0,2.93,84.11,6,P-GPS,
0.35594256867813,36.8882772943049,5855.6932136289,31.824148,0.8052984,3.8885828016,5500,2018-04-05 07:23:27,15,0,16.713,5855.6932136289,31.824148,1.2750558,3.8885828016,-0.447388,-0.671082,-10.961006,204.8, 8.3, -4.4,0,0,1024,1024,1684,1024,205,0,99,4.282,4.283,4.282,4.286,0,0,2.93,84.11,6,P-GPS,
0.35594229794443,36.8882771346387,5857.3336336289,33.464568,0.6263432,4.0032481596,5600,2018-04-05 07:23:27,15,0,16.503,5857.3336336289,33.464568,1.2750558,4.0032481596,-0.447388,-0.447388,-10.737312,204.8, 8, -4.9,0,0,1024,1024,1684,1024,205,0,99,4.176,4.178,4.164,4.164,0,0,18.416,84.11,6,P-GPS,
0.355942007143415,36.8882770561923,5858.9740536289,35.104988,0.6263432,4.1089568244,5700,2018-04-05 07:23:27,15,0,16.503,5858.9740536289,35.104988,1.2750558,4.1089568244,-0.447388,-0.223694,-10.737312,204.9, 7.3, -3.1,0,0,1024,1024,1684,1024,205,0,99,4.176,4.178,4.164,4.164,0,0,18.416,84.11,6,P-GPS,
0.35594174611687,36.8882770466217,5860.6144736289,36.745408,0.4921268,4.1928150948,5800,2018-04-05 07:23:27,15,0,16.503,5860.6144736289,36.745408,1.2750558,4.1928150948,-0.447388,-0.223694,-10.737312,204.9, 6.9, -1,0,0,1024,1024,1684,1024,205,0,99,4.176,4.178,4.164,4.164,0,0,18.416,84.11,6,P-GPS,
0.355941499335953,36.8882770323587,5862.2548936289,38.385828,0.3131716,4.2734909504,5900,2018-04-05 07:23:27,15,0,16.503,5862.2548936289,38.385828,1.2750558,4.2734909504,-0.223694,-0.223694,-10.737312,204.9, 6.3, -0.8,0,1,1024,1024,1684,1024,205,0,99,4.176,4.178,4.164,4.164,0,0,18.416,84.11,6,P-GPS,
0.355941292909506,36.8882770447283,5863.8953136289,40.026248,0.4921268,4.336942396,6000,2018-04-05 07:23:27,15,0,16.503,5863.8953136289,40.026248,1.2750558,4.336942396,-0.223694,-0.447388,-10.737312,204.9, 5.7, -1.9,0,1,1024,1024,1684,1024,205,0,99,4.176,4.178,4.164,4.164,0,0,18.416,84.11,6,P-GPS,
0.355941061046765,36.8882770711411,5865.5357336289,41.666668,0.4921268,4.406496204,6100,2018-04-05 07:23:27,15,0,16.503,5865.5357336289,41.666668,1.2750558,4.406496204,-0.223694,-0.447388,-10.737312,204.9, 6.3, -1.6,0,1,1024,1024,1684,1024,205,0,99,4.176,4.178,4.164,4.164,0,0,18.416,84.11,6,P-GPS,
0.355940830877605,36.8882771068524,5867.1761536289,43.307088,0.3131716,4.4744424004,6200,2018-04-05 07:23:28,15,0,16.503,5867.1761536289,43.307088,1.2750558,4.4744424004,-0.223694,-0.223694,-10.513618,204.9, 7.3, -2,0,1,1024,1024,1684,1024,205,0,99,4.176,4.178,4.164,4.164,0,0,18.416,84.11,6,P-GPS,
0.355940588895712,36.8882771438699,5868.8165736289,44.947508,0.223694,4.546588072,6300,2018-04-05 07:23:28,15,0,16.503,5868.8165736289,44.947508,1.2750558,4.546588072,-0.223694,0,-10.513618,204.9, 6.6, -1.4,0,1,1024,1024,1684,1024,205,0,99,4.176,4.178,4.164,4.164,0,0,18.416,84.11,6,P-GPS,
0.35594010569241,36.8882773411067,5872.0974136289,48.228348,0.223694,4.6730316456,6500,2018-04-05 07:23:28,15,0,16.503,5872.0974136289,48.228348,1.2750558,4.6730316456,-0.447388,0,-10.961006,204.9, 6.2, 1.5,0,1,1024,1024,1684,1024,205,0,99,4.176,4.178,4.164,4.164,0,0,18.416,84.11,6,P-GPS,
0.355939837432317,36.8882773962836,5873.7378336289,49.868768,0.4921268,4.753280992,6600,2018-04-05 07:23:28,15,0,16.608,5873.7378336289,49.868768,1.2750558,4.753280992,-0.447388,-0.223694,-11.1847,204.9, 6, 0.7,0,1,1024,1024,1684,1024,205,0,99,4.163,4.166,4.159,4.161,0,0,18.966,84.11,6,P-GPS,
0.355939554306158,36.8882773540801,5875.7063376289,51.837272,0.4921268,4.8537075044,6700,2018-04-05 07:23:28,15,0,16.608,5875.7063376289,51.837272,1.2750558,4.8537075044,-0.447388,-0.223694,-11.1847,204.9, 7.9, -1.4,0,1,1024,1024,1684,1024,205,0,99,4.163,4.166,4.159,4.161,0,0,18.966,84.11,6,P-GPS,
0.355939287299967,36.8882773003351,5877.3467576289,53.477692,0.3131716,4.9506563264,6800,2018-04-05 07:23:28,15,0,16.608,5877.3467576289,53.477692,1.2750558,4.9506563264,-0.223694,-0.223694,-10.961006,204.8, 8.9, -2.7,0,1,1024,1024,1684,1024,205,0,99,4.163,4.166,4.159,4.161,0,0,18.966,84.11,6,P-GPS,
0.355939040654211,36.8882772525714,5878.9871776289,55.118112,0.3131716,5.0399935996,6900,2018-04-05 07:23:28,15,0,16.608,5878.9871776289,55.118112,1.2750558,5.0399935996,-0.223694,-0.223694,-10.961006,204.8, 9.1, -2.7,0,1,1024,1024,1684,1024,205,0,99,4.163,4.166,4.159,4.161,0,0,18.966,84.11,6,P-GPS,
0.355938850245139,36.888277254893,5880.9556816289,57.086616,0.223694,5.1033138116,7000,2018-04-05 07:23:28,15,0,16.608,5880.9556816289,57.086616,1.2750558,5.1033138116,-0.223694,0,-10.737312,204.8, 9.1, -1.8,0,1,1024,1024,1684,1024,205,0,99,4.163,4.166,4.159,4.161,0,0,18.966,84.11,6,P-GPS,
0.355938688846798,36.8882772636013,5882.5961016289,58.727036,0.223694,5.1561353356,7100,2018-04-05 07:23:28,15,0,16.608,5882.5961016289,58.727036,1.2750558,5.1561353356,-0.223694,0,-10.961006,204.9, 8.5, -1.5,0,1,1024,1024,1684,1024,205,0,99,4.163,4.166,4.159,4.161,0,0,18.966,84.11,6,P-GPS,
0.355938570649447,36.8882772774741,5884.2365216289,60.367456,0.223694,5.1938649956,7200,2018-04-05 07:23:29,15,0,16.608,5884.2365216289,60.367456,1.2750558,5.1938649956,-0.223694,0,-10.961006,204.9, 8.3, -1.7,0,1,1024,1024,1684,1024,205,0,99,4.163,4.166,4.159,4.161,0,0,18.966,84.11,6,P-GPS,
0.355938447786604,36.888277278208,5885.8769416289,62.007876,0.223694,5.235072346,7300,2018-04-05 07:23:29,15,0,16.608,5885.8769416289,62.007876,1.2750558,5.235072346,-0.223694,0,-10.961006,204.9, 8.2, -1.9,0,1,1024,1024,1684,1024,205,0,99,4.163,4.166,4.159,4.161,0,0,18.966,84.11,6,P-GPS,
0.355938329042097,36.8882773268843,5887.5173616289,63.648296,0.223694,5.2682744468,7400,2018-04-05 07:23:29,15,0,16.608,5887.5173616289,63.648296,1.2750558,5.2682744468,-0.223694,0,-10.961006,204.9, 8.2, -1.8,0,1,1024,1024,1684,1024,205,0,99,4.163,4.166,4.159,4.161,0,0,18.966,84.11,6,P-GPS,
0.355938207232857,36.8882773829129,5889.1577816289,65.288716,0,5.3017390148,7500,2018-04-05 07:23:29,15,0,16.608,5889.1577816289,65.288716,1.2750558,5.3017390148,0,0,-10.737312,204.9, 8.2, -1.6,0,1,1024,1024,1684,1024,205,0,99,4.163,4.166,4.159,4.161,0,0,18.966,84.11,6,P-GPS,
0.355938098509794,36.8882774268021,5890.7982016289,66.929136,0,5.3326117192,7600,2018-04-05 07:23:29,15,0,16.555,5890.7982016289,66.929136,1.2750558,5.3326117192,0,0,-10.961006,204.9, 8.1, -1.1,0,1,1024,1024,1684,1024,205,0,99,4.157,4.159,4.151,4.151,0,0,17.594,84.11,6,P-GPS,
0.355938000557259,36.8882774564651,5892.7667056289,68.89764,0,5.3619096204,7700,2018-04-05 07:23:29,15,0,16.555,5892.7667056289,68.89764,1.2750558,5.3619096204,0,0,-10.961006,204.9, 8.1, -0.7,0,1,1024,1024,1684,1023,205,0,99,4.157,4.159,4.151,4.151,0,0,17.594,84.11,6,P-GPS,
0.355937943840183,36.8882774964739,5894.4071256289,70.53806,0,5.3758859988,7800,2018-04-05 07:23:29,15,0,16.555,5894.4071256289,70.53806,1.2750558,5.3758859988,0,0,-11.1847,204.9, 7.8, -0.8,0,1,1024,1024,1684,1021,205,0,99,4.157,4.159,4.151,4.151,0,0,17.594,84.11,6,P-GPS,
0.355937903335895,36.8882775292492,5896.0475456289,72.17848,0,5.3853676264,7900,2018-04-05 07:23:29,15,0,16.555,5896.0475456289,72.17848,1.2750558,5.3853676264,0,0,-11.1847,204.9, 7.5, -0.8,0,1,1024,1024,1684,1022,205,0,99,4.157,4.159,4.151,4.151,0,0,17.594,84.11,6,P-GPS,
0.355937872652754,36.8882775606123,5898.0160496289,74.146984,0,5.391732456,8000,2018-04-05 07:23:29,15,0,16.555,5898.0160496289,74.146984,1.2750558,5.391732456,0,0,-11.1847,204.9, 7.3, -1.2,0,1,1024,1024,1684,1022,205,0,99,4.157,4.159,4.151,4.151,0,0,17.594,84.11,6,P-GPS,
0.355937837514189,36.888277578791,5899.6564696289,75.787404,0,5.4013781256,8100,2018-04-05 07:23:29,15,0,16.555,5899.6564696289,75.787404,1.2750558,5.4013781256,0,0,-11.1847,204.9, 7.6, -1.5,0,1,1024,1024,1684,1021,205,0,99,4.157,4.159,4.151,4.151,0,0,17.594,84.11,6,P-GPS,
0.355937840044791,36.888277621509,5901.2968896289,77.427824,0,5.395013296,8200,2018-04-05 07:23:30,15,0,16.555,5901.2968896289,77.427824,1.2750558,5.4013781256,0,0,-11.1847,204.9, 7.7, -1.2,0,1,1024,1024,1684,1021,205,0,99,4.157,4.159,4.151,4.151,0,0,17.594,84.11,6,P-GPS,
0.355937853025118,36.8882776597223,5902.9373096289,79.068244,0,5.3856957104,8300,2018-04-05 07:23:30,15,0,16.555,5902.9373096289,79.068244,1.2750558,5.4013781256,0,0,-11.408394,204.9, 7.4, -1,0,1,1024,1024,1684,1021,205,0,99,4.157,4.159,4.151,4.151,0,0,17.594,84.11,6,P-GPS,
0.355937897624942,36.8882776855489,5904.9058136289,81.036748,0,5.3671589644,8400,2018-04-05 07:23:30,15,0,16.555,5904.9058136289,81.036748,1.2750558,5.4013781256,0,0,-11.408394,204.9, 6.9, -1.1,0,1,1024,1024,1684,1020,205,0,99,4.157,4.159,4.151,4.151,0,0,17.594,84.11,6,P-GPS,
0.355937929605954,36.888277688735,5906.5462336289,82.677168,0,5.355807258,8500,2018-04-05 07:23:30,15,0,16.555,5906.5462336289,82.677168,1.2750558,5.4013781256,0,0,-11.408394,204.9, 7.2, -1.6,0,1,1024,1024,1684,1019,205,0,99,4.157,4.159,4.151,4.151,0,0,17.594,84.11,6,P-GPS,
0.355937964231559,36.8882777107657,5908.1866536289,84.317588,0,5.3411747116,8600,2018-04-05 07:23:30,15,0,16.608,5908.1866536289,84.317588,1.2750558,5.4013781256,0,0,-11.408394,204.9, 7.5, -1.8,0,1,1024,1024,1684,1021,205,0,99,4.157,4.159,4.151,4.151,0,0,17.594,84.11,6,P-GPS,
0.355937987213789,36.8882777401568,5909.8270736289,85.958008,0,5.3295933464,8700,2018-04-05 07:23:30,15,0,16.608,5909.8270736289,85.958008,1.2750558,5.4013781256,0,0,-11.1847,204.9, 7.5, -1.6,0,1,1024,1024,1684,1022,205,0,99,4.157,4.159,4.151,4.151,0,0,17.594,84.11,6,P-GPS,
0.35593804192625,36.8882777448707,5911.7955776289,87.926512,0,5.3102691988,8800,2018-04-05 07:23:30,15,0,16.608,5911.7955776289,87.926512,1.2750558,5.4013781256,0,0,-11.1847,204.9, 7.3, -1.4,0,1,1024,1024,1684,1023,205,0,99,4.157,4.159,4.151,4.151,0,0,17.594,84.11,6,P-GPS,
0.3559380953327,36.8882777388261,5913.4359976289,89.566932,0,5.2927823216,8900,2018-04-05 07:23:30,15,0,16.608,5913.4359976289,89.566932,1.2750558,5.4013781256,0,0,-11.1847,204.9, 7.1, -1.4,0,1,1024,1024,1684,1024,205,0,99,4.157,4.159,4.151,4.151,0,0,17.594,84.11,6,P-GPS,
0.355938171941219,36.8882777249329,5915.0764176289,91.207352,0,5.2684056804,9000,2018-04-05 07:23:30,15,0,16.608,5915.0764176289,91.207352,1.2750558,5.4013781256,0,0,-11.1847,204.9, 7, -1.5,0,1,1024,1024,1684,1023,205,0,99,4.157,4.159,4.151,4.151,0,0,17.594,84.11,6,P-GPS,
0.355938234519065,36.8882777119718,5916.7168376289,92.847772,0,5.2487206404,9100,2018-04-05 07:23:30,15,0,16.608,5916.7168376289,92.847772,1.2750558,5.4013781256,0,0,-11.1847,204.9, 6.9, -1.7,0,1,1024,1024,1684,1023,205,0,99,4.157,4.159,4.151,4.151,0,0,17.594,84.11,6,P-GPS,
0.355938331017399,36.8882776934376,5918.6853416289,94.816276,0,5.2182416368,9200,2018-04-05 07:23:31,15,0,16.608,5918.6853416289,94.816276,1.2750558,5.4013781256,0,0,-11.1847,204.9, 6.9, -1.9,0,1,1024,1024,1684,1023,205,0,99,4.157,4.159,4.151,4.151,0,0,17.594,84.11,6,P-GPS,
0.355938406928945,36.8882776810973,5920.3257616289,96.456696,0,5.1939962292,9300,2018-04-05 07:23:31,15,0,16.608,5920.3257616289,96.456696,1.2750558,5.4013781256,0,0,-11.1847,204.9, 6.9, -1.6,0,1,1024,1024,1684,1024,205,0,99,4.157,4.159,4.151,4.151,0,0,17.594,84.11,6,P-GPS,
0.355938512862484,36.88827766357,5921.9661816289,98.097116,0,5.1603020024,9400,2018-04-05 07:23:31,15,0,16.608,5921.9661816289,98.097116,1.2750558,5.4013781256,0,0,-11.408394,204.9, 7.2, -1.3,0,1,1024,1024,1684,1023,205,0,99,4.157,4.159,4.151,4.151,0,0,17.594,84.11,6,P-GPS,
0.355938603638466,36.8882776309222,5923.6066016289,99.737536,0,5.133858432,9500,2018-04-05 07:23:31,15,0,16.476,5923.6066016289,99.737536,1.2750558,5.4013781256,0,0,-11.1847,204.9, 7.1, -1.8,0,1,1024,1024,1684,1024,205,0,99,4.151,4.152,4.144,4.147,0,0,17.454,84.11,6,P-GPS,
0.355938830646816,36.8882775432354,5927.2155256289,103.34646,0,5.0689962252,9700,2018-04-05 07:23:31,15,0,16.476,5927.2155256289,103.34646,1.2750558,5.4013781256,0,0,-11.1847,204.9, 7.2, -2.6,0,1,1024,1024,1684,1024,205,0,99,4.151,4.152,4.144,4.147,0,0,17.454,84.11,6,P-GPS,
0.355938962568692,36.8882774922145,5928.8559456289,104.98688,0,5.031660266,9800,2018-04-05 07:23:31,15,0,16.476,5928.8559456289,104.98688,1.2750558,5.4013781256,0,0,-11.408394,204.9, 6.8, -2.9,0,1,1024,1024,1684,1024,205,0,99,4.151,4.152,4.144,4.147,0,0,17.454,84.11,6,P-GPS,
0.35593905244903,36.8882774474089,5930.4963656289,106.6273,0,5.0078085592,9900,2018-04-05 07:23:31,15,0,16.476,5930.4963656289,106.6273,1.2750558,5.4013781256,0,0,-11.1847,204.8, 6.9, -2.8,0,1,1024,1024,1684,1024,205,0,99,4.151,4.152,4.144,4.147,0,0,17.454,84.11,6,P-GPS,
0.355939178604587,36.8882774087101,5932.4648696289,108.595804,0,4.9710631512,10000,2018-04-05 07:23:31,15,0,16.476,5932.4648696289,108.595804,1.2750558,5.4013781256,0,0,-11.1847,204.8, 7.1, -2.5,0,1,1024,1024,1684,1024,205,0,99,4.151,4.152,4.144,4.147,0,0,17.454,84.11,6,P-GPS,
0.355939278864627,36.8882773762105,5934.1052896289,110.236224,0,4.942257376,10100,2018-04-05 07:23:31,15,0,16.476,5934.1052896289,110.236224,1.2750558,5.4013781256,0,0,-11.1847,204.9, 7.2, -2.4,0,1,1024,1024,1684,1024,205,0,99,4.151,4.152,4.144,4.147,0,0,17.454,84.11,6,P-GPS,
0.35593940409197,36.8882773658551,5935.7457096289,111.876644,0,4.9020014692,10200,2018-04-05 07:23:32,15,0,16.476,5935.7457096289,111.876644,1.2750558,5.4013781256,0,0,-10.961006,204.8, 7, -2.5,0,1,1024,1024,1684,1024,205,0,99,4.151,4.152,4.144,4.147,0,0,17.454,84.11,6,P-GPS,
0.355939493096205,36.8882773592404,5937.3861296289,113.517064,0,4.8733269276,10300,2018-04-05 07:23:32,15,0,16.476,5937.3861296289,113.517064,1.2750558,5.4013781256,0,0,-11.1847,204.9, 7.2, -2.6,0,1,1024,1024,1684,1024,205,0,99,4.151,4.152,4.144,4.147,0,0,17.454,84.11,6,P-GPS,
0.355939608901372,36.8882773693228,5939.0265496289,115.157484,0,4.8332678712,10400,2018-04-05 07:23:32,15,0,16.476,5939.0265496289,115.157484,1.2750558,5.4013781256,0,0,-11.1847,204.9, 7.1, -2.8,0,1,1024,1024,1684,1024,205,0,99,4.151,4.152,4.144,4.147,0,0,17.454,84.11,6,P-GPS,
0.35593969405108,36.8882773828931,5940.6669696289,116.797904,0,4.8029201012,10500,2018-04-05 07:23:32,15,0,16.476,5940.6669696289,116.797904,1.2750558,5.4013781256,0,0,-10.961006,204.9, 7, -2.6,0,1,1024,1024,1684,1024,205,0,99,4.151,4.152,4.144,4.147,0,0,17.454,84.11,6,P-GPS,
0.355939805071878,36.888277383164,5942.3073896289,118.438324,0,4.7660106512,10600,2018-04-05 07:23:32,15,0,16.503,5942.3073896289,118.438324,1.2750558,5.4013781256,0,0,-10.961006,204.9, 6.8, -2.5,0,1,1024,1024,1684,1024,205,0,98,4.149,4.151,4.144,4.147,0,0,17.04,84.11,6,P-GPS,
0.355939882914758,36.8882773756645,5943.9478096289,120.078744,0,4.7413387344,10700,2018-04-05 07:23:32,15,0,16.503,5943.9478096289,120.078744,1.2750558,5.4013781256,0,0,-10.961006,204.8, 6.7, -2.5,0,1,1024,1024,1684,1024,205,0,98,4.149,4.151,4.144,4.147,0,0,17.04,84.11,6,P-GPS,
0.355939984664824,36.8882773692874,5945.5882296289,121.719164,0,4.708661568,10800,2018-04-05 07:23:32,15,0,16.503,5945.5882296289,121.719164,1.2750558,5.4013781256,0,0,-10.961006,204.8, 6.9, -2.6,0,1,1024,1024,1684,1098,205,0,98,4.149,4.151,4.144,4.147,0,0,17.04,84.11,6,P-GPS,
0.355940052785893,36.8882773662025,5947.2286496289,123.359584,0,4.6866143232,10900,2018-04-05 07:23:32,15,0,16.503,5947.2286496289,123.359584,1.2750558,5.4013781256,0,0,-10.961006,204.9, 7, -2.7,0,1,1024,1024,1684,1292,205.6,0,98,4.149,4.151,4.144,4.147,0,0,17.04,84.11,6,P-GPS,
0.355940152225197,36.8882773717852,5948.8690696289,125.000004,0,4.6529200964,11000,2018-04-05 07:23:32,15,0,16.503,5948.8690696289,125.000004,1.2750558,5.4013781256,0,0,-10.961006,205.9, 6.9, -2.5,0,1,1024,1024,1684,1406,207.6,0,98,4.149,4.151,4.144,4.147,0,0,17.04,84.11,6,P-GPS,
0.355940220699639,36.8882773861772,5950.5094896289,126.640424,0,4.6280841376,11100,2018-04-05 07:23:32,15,0,16.503,5950.5094896289,126.640424,1.2750558,5.4013781256,0,0,-10.961006,210.5, 6.6, -1.7,0,1,1024,1024,1684,1415,210.4,0,98,4.149,4.151,4.144,4.147,0,0,17.04,84.11,6,P-GPS,
0.355940293111658,36.8882774008117,5952.1499096289,128.280844,0,4.6019358428,11200,2018-04-05 07:23:33,15,0,16.503,5952.1499096289,128.280844,1.2750558,5.4013781256,0,0,-10.961006,217.4, 6.6, -1,0,1,1024,1024,1684,1405,215,0,98,4.149,4.151,4.144,4.147,0,0,17.04,84.11,6,P-GPS,
0.355940324341957,36.8882774048447,5953.7903296289,129.921264,0,4.5910106456,11300,2018-04-05 07:23:33,15,0,16.503,5953.7903296289,129.921264,1.2750558,5.4013781256,0,0,-10.961006,224.6, 7.1, -0.6,0,1,1024,1024,1684,1408,221.9,0,98,4.149,4.151,4.144,4.147,0,0,17.04,84.11,6,P-GPS,
0.355940395669433,36.8882773993471,5955.4307496289,131.561684,0,4.5683728496,11400,2018-04-05 07:23:33,15,0,16.503,5955.4307496289,131.561684,1.2750558,5.4013781256,0,0,-10.961006,231.6, 7.3, -0.1,0,1,1024,1024,1684,1407,221.9,0,98,4.149,4.151,4.144,4.147,0,0,17.04,84.11,6,P-GPS,
0.355940440565634,36.8882773984896,5957.0711696289,133.202104,0,4.5537731116,11500,2018-04-05 07:23:33,15,0,16.503,5957.0711696289,133.202104,1.2750558,5.4013781256,0,0,-10.961006,238.5, 7.1, 0.3,0,1,1024,1024,1684,1406,229.4,0,98,4.149,4.151,4.144,4.147,0,0,17.04,84.11,6,P-GPS,
0.355940525067221,36.8882773963602,5958.7115896289,134.842524,0,4.5263452892,11600,2018-04-05 07:23:33,15,0,16.476,5958.7115896289,134.842524,1.2750558,5.4013781256,0,0,-11.1847,245.6, 6.9, 1.2,0,1,1024,1024,1684,1397,236.6,0,98,4.149,4.151,4.144,4.147,0,0,17.256,84.11,6,P-GPS,
0.355940569802206,36.8882773872911,5960.3520096289,136.482944,0,4.513123504,11700,2018-04-05 07:23:33,15,0,16.476,5960.3520096289,136.482944,1.2750558,5.4013781256,0,0,-10.961006,252.5, 6.9, 2.1,0,1,1024,1024,1684,1388,244,0,98,4.149,4.151,4.144,4.147,0,0,17.256,84.11,6,P-GPS,
0.355940657682815,36.8882773382674,5961.9924296289,138.123364,0,4.4922573616,11800,2018-04-05 07:23:33,15,0,16.476,5961.9924296289,138.123364,1.2750558,5.4013781256,0,0,-11.1847,259.1, 7.2, 3.3,0,1,1024,1024,1684,1378,251.3,0,98,4.149,4.151,4.144,4.147,0,0,17.256,84.11,6,P-GPS,
0.355940695977304,36.8882772804188,5963.6328496289,139.763784,0,4.4892061804,11900,2018-04-05 07:23:33,15,0,16.476,5963.6328496289,139.763784,1.2750558,5.4013781256,0,0,-11.1847,265.9, 7.2, 4.6,0,1,1024,1024,1684,1331,258.2,0,98,4.149,4.151,4.144,4.147,0,0,17.256,84.11,6,P-GPS,
0.355940770853159,36.8882771970262,5965.6013536289,141.732288,0,4.478674684,12000,2018-04-05 07:23:33,15,0,16.476,5965.6013536289,141.732288,1.2750558,5.4013781256,0,0,-11.408394,271.9, 6.2, 4.8,0,1,1024,1024,1684,1216,264.8,0,98,4.149,4.151,4.144,4.147,0,0,17.256,84.11,6,P-GPS,
0.355940795825348,36.8882771036299,5967.2417736289,143.372708,0,4.4863190412,12100,2018-04-05 07:23:33,15,0,16.476,5967.2417736289,143.372708,1.2750558,5.4013781256,0,0,-11.408394,276.8, 6.3, 5.3,0,1,1024,1024,1684,1223,270.3,0,98,4.149,4.151,4.144,4.147,0,0,17.256,84.11,6,P-GPS,
0.355940848044661,36.8882770150851,5968.8821936289,145.013128,0.223694,4.4846130044,12200,2018-04-05 07:23:34,15,0,16.476,5968.8821936289,145.013128,1.2750558,5.4013781256,-0.223694,0,-11.1847,279.7, 7, 6.2,0,1,1024,1024,1684,1246,274.5,0,98,4.149,4.151,4.144,4.147,0,0,17.256,84.11,6,P-GPS,
0.355940857667137,36.8882769479158,5970.5226136289,146.653548,0.223694,4.4931431884,12300,2018-04-05 07:23:34,15,0,16.476,5970.5226136289,146.653548,1.2750558,5.4013781256,-0.223694,0,-10.961006,282.3, 6.7, 8.2,0,1,1024,1024,1684,1053,280,0,98,4.149,4.151,4.144,4.147,0,0,17.256,84.11,6,P-GPS,
0.355940945425612,36.8882768684245,5973.8034536289,149.934388,0,4.479002768,12500,2018-04-05 07:23:34,15,0,16.476,5973.8034536289,149.934388,1.2750558,5.4013781256,0,0,-10.961006,286.7, 4.7, 6.8,0,1,1024,1024,1684,1024,282,0,98,4.149,4.151,4.144,4.147,0,0,17.256,84.11,6,P-GPS,
0.355941044480604,36.8882768373167,5975.4438736289,151.574808,0,4.4529857068,12600,2018-04-05 07:23:34,15,0,16.45,5975.4438736289,151.574808,1.2750558,5.4013781256,0,0,-10.961006,287.2, 5.3, 6.1,0,1,1024,1024,1684,1028,283.3,0,98,4.143,4.145,4.139,4.141,0,0,17.256,84.11,6,P-GPS,
0.3559411228511,36.8882767920069,5977.0842936289,153.215228,0,4.4362534228,12700,2018-04-05 07:23:34,15,0,16.45,5977.0842936289,153.215228,1.2750558,5.4013781256,0,0,-10.961006,287.2, 5.6, 6.1,0,1,1024,1024,1684,1054,283.9,0,98,4.143,4.145,4.139,4.141,0,0,17.256,84.11,6,P-GPS,
0.355941192340062,36.8882767692931,5978.7247136289,154.855648,0,4.4183728448,12800,2018-04-05 07:23:34,15,0,16.45,5978.7247136289,154.855648,1.2750558,5.4013781256,0,0,-10.961006,287.2, 5.7, 6.9,0,1,1024,1024,1684,1059,283.9,0,98,4.143,4.145,4.139,4.141,0,0,17.256,84.11,6,P-GPS,
0.355941239830374,36.8882767326952,5980.3651336289,156.496068,0,4.4100723196,12900,2018-04-05 07:23:34,15,0,16.45,5980.3651336289,156.496068,1.2750558,5.4013781256,0,0,-10.961006,287.1, 6, 7.3,0,1,1024,1024,1684,1082,284.3,0,98,4.143,4.145,4.139,4.141,0,0,17.256,84.11,6,P-GPS,
0.355941303803797,36.8882767456034,5982.0055536289,158.136488,0,4.3875329488,13000,2018-04-05 07:23:34,15,0,16.45,5982.0055536289,158.136488,1.2750558,5.4013781256,0,0,-10.961006,287.2, 5.8, 6.9,0,1,1024,1024,1684,1075,284.6,0,98,4.143,4.145,4.139,4.141,0,0,17.256,84.11,6,P-GPS,
0.355941362566198,36.8882767465477,5983.6459736289,159.776908,0,4.3688649692,13100,2018-04-05 07:23:34,15,0,16.45,5983.6459736289,159.776908,1.2750558,5.4013781256,0,0,-10.961006,287.4, 5.3, 6.3,0,1,1024,1024,1684,1101,284.9,0,98,4.143,4.145,4.139,4.141,0,0,17.256,84.11,6,P-GPS,
0.355941418218272,36.888276766562,5985.2863936289,161.417328,0,4.3476707428,13200,2018-04-05 07:23:35,15,0,16.45,5985.2863936289,161.417328,1.2750558,5.4013781256,0,0,-10.961006,287.8, 5.7, 6.8,0,1,1024,1024,1684,1171,285.3,0,98,4.143,4.145,4.139,4.141,0,0,17.256,84.11,6,P-GPS,
0.355941451796787,36.8882767619804,5986.9268136289,163.057748,0,4.3379594564,13300,2018-04-05 07:23:35,15,0,16.45,5986.9268136289,163.057748,1.2750558,5.4013781256,0,0,-10.961006,288.4, 6, 7.2,0,1,1024,1024,1684,1237,285.9,0,98,4.143,4.145,4.139,4.141,0,0,17.256,84.11,6,P-GPS,
0.355941484469887,36.8882768158084,5988.5672336289,164.698168,0,4.3177166736,13400,2018-04-05 07:23:35,15,0,16.45,5988.5672336289,164.698168,1.2750558,5.4013781256,0,0,-10.961006,289.9, 5.9, 7.8,0,1,1024,1024,1684,1138,287.2,0,98,4.143,4.145,4.139,4.141,0,0,17.256,84.11,6,P-GPS,
0.355941502770341,36.8882768492571,5990.2076536289,166.338588,0,4.305774416,13500,2018-04-05 07:23:35,15,0,16.45,5990.2076536289,166.338588,1.2750558,5.4013781256,0,0,-10.961006,292.6, 5.8, 8.2,0,1,1024,1024,1684,1049,288.5,0,98,4.143,4.145,4.139,4.141,0,0,17.256,84.11,6,P-GPS,
0.355941534609678,36.8882769139072,5991.8480736289,167.979008,0,4.2838584048,13600,2018-04-05 07:23:35,15,0,16.555,5991.8480736289,167.979008,1.2750558,5.4013781256,0,0,-10.961006,294.3, 5.1, 7.6,0,1,1024,1024,1684,1057,289.6,0,98,4.135,4.139,4.134,4.141,0,0,17.632,84.11,6,P-GPS,
0.355941546321447,36.8882769474598,5993.4884936289,169.619428,0,4.2740158848,13700,2018-04-05 07:23:35,15,0,16.555,5993.4884936289,169.619428,1.2750558,5.4013781256,0,0,-10.961006,294.7, 4.8, 7.5,0,1,1024,1024,1684,1056,290.5,0,98,4.135,4.139,4.134,4.141,0,0,17.632,84.11,6,P-GPS,
0.355941529758543,36.8882770114595,5995.1289136289,171.259848,0,4.2676182468,13800,2018-04-05 07:23:35,15,0,16.555,5995.1289136289,171.259848,1.2750558,5.4013781256,0,0,-11.1847,294.7, 4.7, 8.1,0,1,1024,1024,1684,1024,291.1,0,98,4.135,4.139,4.134,4.141,0,0,17.632,84.11,6,P-GPS,
0.355941488725011,36.8882770379012,5996.7693336289,172.900268,0,4.2758531552,13900,2018-04-05 07:23:35,15,0,16.555,5996.7693336289,172.900268,1.2750558,5.4013781256,0,0,-10.961006,294.7, 4.7, 9.1,0,1,1024,1024,1684,1024,291.5,0,98,4.135,4.139,4.134,4.141,0,0,17.632,84.11,6,P-GPS,
0.355941462334448,36.8882770690411,5998.4097536289,174.540688,0,4.2786418692,14000,2018-04-05 07:23:35,15,0,16.555,5998.4097536289,174.540688,1.2750558,5.4013781256,0,0,-10.961006,294.7, 4.9, 9.7,0,1,1024,1024,1684,1024,291.7,0,98,4.135,4.139,4.134,4.141,0,0,17.632,84.11,6,P-GPS,
0.355941457916479,36.8882770853725,6000.0501736289,176.181108,0,4.2771326828,14100,2018-04-05 07:23:35,15,0,16.555,6000.0501736289,176.181108,1.2750558,5.4013781256,0,0,-10.961006,294.8, 4.8, 9.4,0,1,1024,1024,1684,1024,291.9,0,98,4.135,4.139,4.134,4.141,0,0,17.632,84.11,6,P-GPS,
0.355941486428905,36.8882771615798,6001.6905936289,177.821528,0,4.2545276952,14200,2018-04-05 07:23:35,15,0,16.555,6001.6905936289,177.821528,1.2750558,5.4013781256,0,0,-10.737312,294.8, 4.8, 8.5,0,1,1024,1024,1684,1024,292.1,0,98,4.135,4.139,4.134,4.141,0,0,17.632,84.11,6,P-GPS,
0.355941538058722,36.8882772319062,6003.3310136289,179.461948,0,4.2256234948,14300,2018-04-05 07:23:36,15,0,16.555,6003.3310136289,179.461948,1.2750558,5.4013781256,0,0,-10.737312,294.7, 4.9, 7.1,0,1,1024,1024,1684,1024,292.2,0,98,4.135,4.139,4.134,4.141,0,0,17.632,84.11,6,P-GPS,
0.355941614769834,36.8882773669,6004.9714336289,181.102368,0,4.1774607636,14400,2018-04-05 07:23:36,15,0,16.555,6004.9714336289,181.102368,1.2750558,5.4013781256,0,0,-10.737312,294.7, 4.6, 6.9,0,1,1024,1024,1684,1024,292.3,0,98,4.135,4.139,4.134,4.141,0,0,17.632,84.11,6,P-GPS,
0.355941676932426,36.8882774772593,6006.6118536289,182.742788,0,4.1384187676,14500,2018-04-05 07:23:36,15,0,16.555,6006.6118536289,182.742788,1.2750558,5.4013781256,0,0,-10.737312,294.7, 4.5, 7,0,1,1024,1024,1684,1024,292.3,0,98,4.135,4.139,4.134,4.141,0,0,17.632,84.11,6,P-GPS,
0.355941734291109,36.8882775915071,6008.2522736289,184.383208,0,4.1004266404,14600,2018-04-05 07:23:36,15,0,16.555,6008.2522736289,184.383208,1.2750558,5.4013781256,0,0,-10.737312,294.7, 4.7, 7.3,0,1,1024,1024,1684,1024,292.4,0,98,4.135,4.139,4.134,4.141,0,0,17.632,84.11,6,P-GPS,
0.355941777832445,36.8882776752899,6009.5646096289,185.695544,0,4.072178608,14700,2018-04-05 07:23:36,15,0,16.555,6009.5646096289,185.695544,1.2750558,5.4013781256,0,0,-10.513618,294.7, 4.3, 7.2,0,1,1024,1024,1684,1024,292.4,0,98,4.135,4.139,4.134,4.141,0,0,17.632,84.11,6,P-GPS,
0.355941801242956,36.8882777873338,6011.2050296289,187.335964,0,4.0458990796,14800,2018-04-05 07:23:36,15,0,16.555,6011.2050296289,187.335964,1.2750558,5.4013781256,0,0,-10.737312,294.7, 4.3, 7,0,1,1024,1024,1684,1024,292.5,0,98,4.135,4.139,4.134,4.141,0,0,17.632,84.11,6,P-GPS,
0.35594181307523,36.8882778704121,6012.8454496289,188.976384,0,4.028379394,14900,2018-04-05 07:23:36,15,0,16.555,6012.8454496289,188.976384,1.2750558,5.4013781256,0,0,-10.737312,294.6, 4.3, 6.8,0,1,1024,1024,1684,1024,292.6,0,98,4.135,4.139,4.134,4.141,0,0,17.632,84.11,6,P-GPS,
0.355941826286796,36.8882779509452,6014.4858696289,190.616804,0,4.010990942,15000,2018-04-05 07:23:36,15,0,16.555,6014.4858696289,190.616804,1.2750558,5.4013781256,0,0,-10.961006,294.7, 4.2, 7.2,0,1,1024,1024,1684,1024,292.6,0,98,4.135,4.139,4.134,4.141,0,0,17.632,84.11,6,P-GPS,
0.355941841664193,36.8882779931203,6016.1262896289,192.257224,0,3.9991471096,15100,2018-04-05 07:23:36,15,0,16.555,6016.1262896289,192.257224,1.2750558,5.4013781256,0,0,-10.961006,294.7, 4.4, 7.3,0,1,1024,1024,1684,1024,292.7,0,98,4.135,4.139,4.134,4.141,0,0,17.632,84.11,6,P-GPS,
0.355941875684016,36.8882780560933,6017.7667096289,193.897644,0,3.9779200748,15200,2018-04-05 07:23:37,15,0,16.555,6017.7667096289,193.897644,1.2750558,5.4013781256,0,0,-11.1847,294.7, 4.6, 7.5,0,1,1024,1024,1684,1024,292.7,0,98,4.135,4.139,4.134,4.141,0,0,17.632,84.11,6,P-GPS,
0.355941912084625,36.8882781045994,6019.4071296289,195.538064,0,3.9582678432,15300,2018-04-05 07:23:37,15,0,16.555,6019.4071296289,195.538064,1.2750558,5.4013781256,0,0,-10.961006,294.7, 4.7, 7.4,0,1,1024,1024,1684,1024,292.8,0,98,4.135,4.139,4.134,4.141,0,0,17.632,84.11,6,P-GPS,
0.355941944394582,36.88827816385,6021.3756336289,197.506568,0,3.9382875276,15400,2018-04-05 07:23:37,15,0,16.555,6021.3756336289,197.506568,1.2750558,5.4013781256,0,0,-11.1847,294.7, 4.6, 7.3,0,1,1024,1024,1684,1024,292.8,0,98,4.135,4.139,4.134,4.141,0,0,17.632,84.11,6,P-GPS,
0.355941972027648,36.8882781937631,6023.0160536289,199.146988,0,3.9244751912,15500,2018-04-05 07:23:37,15,0,16.555,6023.0160536289,199.146988,1.2750558,5.4013781256,0,0,-11.1847,294.7, 4.6, 7.3,0,1,1024,1024,1684,1024,292.8,0,98,4.135,4.139,4.134,4.141,0,0,17.632,84.11,6,P-GPS,
0.355942020516197,36.8882782351186,6024.6564736289,200.787408,0,3.9020342456,15600,2018-04-05 07:23:37,15,0,16.371,6024.6564736289,200.787408,1.2750558,5.4013781256,0,0,-11.1847,294.7, 4.8, 7.1,0,1,1024,1024,1684,1024,292.9,0,98,4.141,4.141,4.132,4.136,0,0,17.61,84.11,6,P-GPS,
0.355942070242363,36.888278250645,6026.2968936289,202.427828,0,3.883202224,15700,2018-04-05 07:23:37,15,0,16.371,6026.2968936289,202.427828,1.2750558,5.4013781256,0,0,-10.961006,294.7, 5.1, 7,0,1,1024,1024,1684,1024,292.9,0,98,4.141,4.141,4.132,4.136,0,0,17.61,84.11,6,P-GPS,
0.355942126807993,36.8882782917586,6027.9373136289,204.068248,0,3.8581366064,15800,2018-04-05 07:23:37,15,0,16.371,6027.9373136289,204.068248,1.2750558,5.4013781256,0,0,-10.961006,294.7, 5.2, 7.2,0,1,1024,1024,1684,1024,293,0,98,4.141,4.141,4.132,4.136,0,0,17.61,84.11,6,P-GPS,
0.355942175154867,36.8882783199271,6029.5777336289,205.708668,0,3.8377953984,15900,2018-04-05 07:23:37,15,0,16.371,6029.5777336289,205.708668,1.2750558,5.4013781256,0,0,-11.1847,294.7, 5.2, 7,0,1,1024,1024,1684,1024,293,0,98,4.141,4.141,4.132,4.136,0,0,17.61,84.11,6,P-GPS,
0.355942201382586,36.8882783855702,6031.2181536289,207.349088,0,3.8189633768,16000,2018-04-05 07:23:37,15,0,16.371,6031.2181536289,207.349088,1.2750558,5.4013781256,0,0,-11.1847,294.7, 5.1, 7,0,1,1024,1024,1684,1024,293,0,98,4.141,4.141,4.132,4.136,0,0,17.61,84.11,6,P-GPS,
0.355942220485863,36.8882784375558,6032.8585736289,208.989508,0,3.804626106,16100,2018-04-05 07:23:37,15,0,16.371,6032.8585736289,208.989508,1.2750558,5.4013781256,0,0,-10.961006,294.7, 4.9, 6.9,0,1,1024,1024,1684,1024,293,0,98,4.141,4.141,4.132,4.136,0,0,17.61,84.11,6,P-GPS,
0.355942253829882,36.8882785210549,6034.4989936289,210.629928,0,3.7808728244,16200,2018-04-05 07:23:38,15,0,16.371,6034.4989936289,210.629928,1.2750558,5.4013781256,0,0,-10.961006,294.7, 4.8, 6.6,0,1,1024,1024,1684,1024,293.1,0,98,4.141,4.141,4.132,4.136,0,0,17.61,84.11,6,P-GPS,
0.355942292259532,36.8882785824697,6035.8113296289,211.942264,0,3.758858388,16300,2018-04-05 07:23:38,15,0,16.371,6035.8113296289,211.942264,1.2750558,5.4013781256,0,0,-10.961006,294.7, 4.8, 6.2,0,1,1024,1024,1684,1024,293.1,0,98,4.141,4.141,4.132,4.136,0,0,17.61,84.11,6,P-GPS,
0.355942333999809,36.8882786600297,6037.4517496289,213.582684,0,3.7333990696,16400,2018-04-05 07:23:38,15,0,16.371,6037.4517496289,213.582684,1.2750558,5.4013781256,0,0,-10.961006,294.7, 4.6, 6.3,0,1,1024,1024,1684,1024,293.1,-0.3,98,4.141,4.141,4.132,4.136,0,0,17.61,84.11,6,P-GPS,
0.355942366778758,36.8882787053598,6039.4202536289,215.551188,0,3.7157481504,16500,2018-04-05 07:23:38,15,0,16.371,6039.4202536289,215.551188,1.2750558,5.4013781256,0,0,-11.1847,294.7, 4.7, 6.5,0,1,1024,1024,1684,1024,293.1,-0.8,98,4.141,4.141,4.132,4.136,0,0,17.61,84.11,6,P-GPS,
0.355942405356596,36.8882787621272,6041.0606736289,217.191608,0,3.694553924,16600,2018-04-05 07:23:38,15,0,16.424,6041.0606736289,217.191608,1.2750558,5.4013781256,0,0,-10.961006,294.7, 4.9, 6.6,0,1,1024,1024,1684,1024,293.1,-1.4,98,4.127,4.128,4.12,4.123,0,0,17.61,84.11,6,P-GPS,
0.355942434606707,36.8882788004,6042.7010936289,218.832028,0,3.6791667844,16700,2018-04-05 07:23:38,15,0,16.424,6042.7010936289,218.832028,1.2750558,5.4013781256,0,0,-10.961006,294.7, 4.8, 6.7,0,1,1024,1024,1684,1024,293.2,-2,98,4.127,4.128,4.12,4.123,0,0,17.61,84.11,6,P-GPS,
0.355942450272338,36.8882788618287,6044.3415136289,220.472448,0,3.6650591724,16800,2018-04-05 07:23:38,15,0,16.424,6044.3415136289,220.472448,1.2750558,5.4013781256,0,0,-10.961006,294.7, 4.6, 6.5,0,1,1024,1024,1684,1024,293.2,-3.4,98,4.127,4.128,4.12,4.123,0,0,17.61,84.11,6,P-GPS,
0.355942456416457,36.8882789017513,6045.6538496289,221.784784,0,3.6572835816,16900,2018-04-05 07:23:38,15,0,16.424,6045.6538496289,221.784784,1.2750558,5.4013781256,0,0,-10.961006,294.7, 4.6, 6.6,0,1,1024,1024,1684,1024,293.2,-5.2,98,4.127,4.128,4.12,4.123,0,0,17.61,84.11,6,P-GPS,
0.355942456963615,36.8882789847643,6049.2627736289,225.393708,0,3.6453741324,17100,2018-04-05 07:23:38,15,0,16.424,6049.2627736289,225.393708,1.2750558,5.4013781256,0,0,-10.961006,294.6, 4.4, 6.9,0,1,1024,1024,1684,1024,293.3,-8.7,98,4.127,4.128,4.12,4.123,0,0,17.61,84.11,6,P-GPS,
0.355942471541445,36.8882790244375,6050.9031936289,227.034128,0,3.6349410612,17200,2018-04-05 07:23:39,15,0,16.424,6050.9031936289,227.034128,1.2750558,5.4013781256,0,0,-11.1847,294.7, 4.8, 6.7,0,1,1024,1024,1684,1024,293.3,-10.5,98,4.127,4.128,4.12,4.123,0,0,17.61,84.11,6,P-GPS,
0.355942497516756,36.8882790380073,6052.5436136289,228.674548,0,3.6242783312,17300,2018-04-05 07:23:39,15,0,16.424,6052.5436136289,228.674548,1.2750558,5.4013781256,0,0,-10.961006,294.7, 5.3, 6.6,0,1,1024,1024,1684,1024,293.3,-12.3,98,4.127,4.128,4.12,4.123,0,0,17.61,84.11,6,P-GPS,
0.355942545565624,36.8882790809768,6054.1840336289,230.314968,0,3.6020998528,17400,2018-04-05 07:23:39,15,0,16.424,6054.1840336289,230.314968,1.2750558,5.4013781256,0,0,-10.961006,294.8, 5.5, 6.3,0,1,1024,1024,1684,1024,293.3,-14.1,98,4.127,4.128,4.12,4.123,0,0,17.61,84.11,6,P-GPS,
0.355942602458572,36.8882791159446,6055.4963696289,231.627304,0,3.578084104,17500,2018-04-05 07:23:39,15,0,16.424,6055.4963696289,231.627304,1.2750558,5.4013781256,0,0,-10.737312,294.7, 5.5, 6,0,1,1024,1024,1684,1024,293.3,-15.9,98,4.127,4.128,4.12,4.123,0,0,17.61,84.11,6,P-GPS,
0.355942664153801,36.8882791937075,6057.1367896289,233.267724,0,3.5465552316,17600,2018-04-05 07:23:39,15,0,16.371,6057.1367896289,233.267724,1.2750558,5.4013781256,0,0,-10.961006,294.7, 5.5, 5.9,0,1,1024,1024,1684,1024,293.3,-17.6,98,4.124,4.126,4.117,4.12,0,0,18.002,84.11,6,P-GPS,
0.355942714591597,36.8882792596135,6058.7772096289,234.908144,0,3.5205709788,17700,2018-04-05 07:23:39,15,0,16.371,6058.7772096289,234.908144,1.2750558,5.4013781256,0,0,-10.961006,294.7, 5.3, 5.9,0,1,1024,1024,1684,1024,293.4,-19.3,98,4.124,4.126,4.117,4.12,0,0,18.002,84.11,6,P-GPS,
0.355942764213543,36.8882793544031,6060.4176296289,236.548564,0,3.4910762272,17800,2018-04-05 07:23:39,15,0,16.371,6060.4176296289,236.548564,1.2750558,5.4013781256,0,0,-11.1847,294.6, 4.8, 5.7,0,1,1024,1024,1684,1024,293.4,-20.9,98,4.124,4.126,4.117,4.12,0,0,18.002,84.11,6,P-GPS,
0.355942810291994,36.8882794225889,6062.0580496289,238.188984,0,3.4664371188,17900,2018-04-05 07:23:39,15,0,16.371,6062.0580496289,238.188984,1.2750558,5.4013781256,0,0,-11.1847,294.6, 4.6, 5.8,0,1,1024,1024,1684,1024,293.4,-20.9,98,4.124,4.126,4.117,4.12,0,0,18.002,84.11,6,P-GPS,
0.355942840450777,36.8882794607792,6063.6984696289,239.829404,0,3.4511812128,18000,2018-04-05 07:23:39,15,0,16.371,6063.6984696289,239.829404,1.2750558,5.4013781256,0,0,-10.961006,294.6, 5, 5.8,0,1,1024,1024,1684,1024,293.4,-21.4,98,4.124,4.126,4.117,4.12,0,0,18.002,84.11,6,P-GPS,
0.355942865012598,36.8882794683248,6065.3388896289,241.469824,0,3.4418308188,18100,2018-04-05 07:23:39,15,0,16.371,6065.3388896289,241.469824,1.2750558,5.4013781256,0,0,-11.1847,294.6, 5.4, 6,0,1,1024,1024,1684,1024,293.4,-21.4,98,4.124,4.126,4.117,4.12,0,0,18.002,84.11,6,P-GPS,
0.355942897920194,36.8882794962085,6066.9793096289,243.110244,0,3.427001422,18200,2018-04-05 07:23:40,15,0,16.371,6066.9793096289,243.110244,1.2750558,5.4013781256,0,0,-10.961006,294.6, 5.5, 6.1,0,1,1024,1024,1684,1024,293.4,-21.4,98,4.124,4.126,4.117,4.12,0,0,18.002,84.11,6,P-GPS,
0.35594295102701,36.8882795252158,6068.6197296289,244.750664,0,3.4051510276,18300,2018-04-05 07:23:40,15,0,16.371,6068.6197296289,244.750664,1.2750558,5.4013781256,0,0,-10.961006,294.6, 5.7, 5.4,0,1,1024,1024,1684,1024,293.4,-21.4,98,4.124,4.126,4.117,4.12,0,0,18.002,84.11,6,P-GPS,
0.355943002943433,36.8882795891069,6070.2601496289,246.391084,0,3.3792323916,18400,2018-04-05 07:23:40,15,0,16.371,6070.2601496289,246.391084,1.2750558,5.4013781256,0,0,-10.961006,294.6, 5.2, 5.3,0,1,1024,1024,1684,1024,293.4,-21.4,98,4.124,4.126,4.117,4.12,0,0,18.002,84.11,6,P-GPS,
0.355943052325997,36.888279647311,6071.9005696289,248.031504,0,3.3549541756,18500,2018-04-05 07:23:40,15,0,16.371,6071.9005696289,248.031504,1.2750558,5.4013781256,0,0,-11.1847,294.6, 4.8, 4.7,0,1,1024,1024,1684,1024,293.4,-21.4,98,4.124,4.126,4.117,4.12,0,0,18.002,84.11,6,P-GPS,
0.355943103170904,36.888279714552,6073.5409896289,249.671924,0,3.3291339648,18600,2018-04-05 07:23:40,15,0,16.345,6073.5409896289,249.671924,1.2750558,5.4013781256,0,0,-10.961006,294.7, 5.7, 4.4,0,1,1024,1024,1684,1024,293.5,-21.4,98,4.119,4.12,4.11,4.114,0,0,18.338,84.11,6,P-GPS,
0.355943124612626,36.8882797672265,6075.1814096289,251.312344,0,3.31528882,18700,2018-04-05 07:23:40,15,0,16.345,6075.1814096289,251.312344,1.2750558,5.4013781256,0,0,-10.961006,294.7, 5.7, 4.8,0,1,1024,1024,1684,1024,293.5,-21.4,98,4.119,4.12,4.11,4.114,0,0,18.338,84.11,6,P-GPS,
0.35594312131177,36.8882798436254,6076.8218296289,252.952764,0,3.3071851452,18800,2018-04-05 07:23:40,15,0,16.345,6076.8218296289,252.952764,1.2750558,5.4013781256,0,0,-10.961006,294.6, 4.9, 5.4,0,1,1024,1024,1684,1024,293.5,-21.4,98,4.119,4.12,4.11,4.114,0,0,18.338,84.11,6,P-GPS,
0.355943115483569,36.8882799011288,6078.4622496289,254.593184,0,3.3023623104,18900,2018-04-05 07:23:40,15,0,16.345,6078.4622496289,254.593184,1.2750558,5.4013781256,0,0,-10.961006,294.6, 4.5, 5.4,0,1,1024,1024,1684,1024,293.5,-21.4,98,4.119,4.12,4.11,4.114,0,0,18.338,84.11,6,P-GPS,
0.355943102848472,36.8882799501766,6080.1026696289,256.233604,0,3.301017166,19000,2018-04-05 07:23:40,15,0,16.345,6080.1026696289,256.233604,1.2750558,5.4013781256,0,0,-10.961006,294.6, 4.6, 5.5,0,1,1024,1024,1684,1024,293.5,-21.4,98,4.119,4.12,4.11,4.114,0,0,18.338,84.11,6,P-GPS,
0.355943085342699,36.8882799680642,6081.7430896289,257.874024,0,3.3050197908,19100,2018-04-05 07:23:40,15,0,16.345,6081.7430896289,257.874024,1.2750558,5.4013781256,0,0,-11.1847,294.6, 4.8, 5.9,0,1,1024,1024,1684,1024,293.5,-21.4,98,4.119,4.12,4.11,4.114,0,0,18.338,84.11,6,P-GPS,
0.355943072059481,36.88827998381,6083.3835096289,259.514444,0,3.3078085048,19200,2018-04-05 07:23:41,15,0,16.345,6083.3835096289,259.514444,1.2750558,5.4013781256,0,0,-11.1847,294.7, 5.4, 6.2,0,1,1024,1024,1684,1024,293.5,-21.4,98,4.119,4.12,4.11,4.114,0,0,18.338,84.11,6,P-GPS,
0.355943056353139,36.8882799867814,6085.0239296289,261.154864,0,3.3129266152,19300,2018-04-05 07:23:41,15,0,16.345,6085.0239296289,261.154864,1.2750558,5.4013781256,0,0,-11.1847,294.7, 5.6, 6.3,0,1,1024,1024,1684,1024,293.5,-21.4,98,4.119,4.12,4.11,4.114,0,0,18.338,84.11,6,P-GPS,
0.355943014738253,36.888279997118,6086.6643496289,262.795284,0,3.3261812088,19400,2018-04-05 07:23:41,15,0,16.345,6086.6643496289,262.795284,1.2750558,5.4013781256,0,0,-11.1847,294.7, 5.4, 6.2,0,1,1024,1024,1684,1024,293.5,-21.4,98,4.119,4.12,4.11,4.114,0,0,18.338,84.11,6,P-GPS,
0.355942972274947,36.8882799978883,6088.3047696289,264.435704,0,3.3408137552,19500,2018-04-05 07:23:41,15,0,16.345,6088.3047696289,264.435704,1.2750558,5.4013781256,0,0,-11.1847,294.7, 5.4, 6.2,0,1,1024,1024,1684,1024,293.5,-21.4,98,4.119,4.12,4.11,4.114,0,0,18.338,84.11,6,P-GPS,
0.355942932467633,36.8882800289587,6089.9451896289,266.076124,0,3.3511812096,19600,2018-04-05 07:23:41,15,0,16.371,6089.9451896289,266.076124,1.2750558,5.4013781256,0,0,-11.1847,294.7, 5.2, 6.4,0,1,1024,1024,1684,1024,293.5,-21.4,98,4.119,4.12,4.11,4.114,0,0,18.338,84.11,6,P-GPS,
0.355942898972169,36.8882800536702,6091.5856096289,267.716544,0,3.3601379028,19700,2018-04-05 07:23:41,15,0,16.371,6091.5856096289,267.716544,1.2750558,5.4013781256,0,0,-11.1847,294.6, 5.1, 6.4,0,1,1024,1024,1684,1024,293.6,-21.4,98,4.119,4.12,4.11,4.114,0,0,18.338,84.11,6,P-GPS,
0.355942855649045,36.8882800720224,6093.2260296289,269.356964,0,3.373195646,19800,2018-04-05 07:23:41,15,0,16.371,6093.2260296289,269.356964,1.2750558,5.4013781256,0,0,-11.1847,294.7, 5.2, 6.7,0,1,1024,1024,1684,1024,293.6,-21.4,98,4.119,4.12,4.11,4.114,0,0,18.338,84.11,6,P-GPS,
0.35594281032782,36.8882800651748,6094.8664496289,270.997384,0,3.3897310796,19900,2018-04-05 07:23:41,15,0,16.371,6094.8664496289,270.997384,1.2750558,5.4013781256,0,0,-11.1847,294.7, 5.4, 6.8,0,1,1024,1024,1684,1024,293.6,-21.4,98,4.119,4.12,4.11,4.114,0,0,18.338,84.11,6,P-GPS,
0.355942711267943,36.888280099132,6098.4753736289,274.606308,0,3.4206694008,20100,2018-04-05 07:23:41,15,0,16.371,6098.4753736289,274.606308,1.2750558,5.4013781256,0,0,-10.961006,294.8, 5.4, 7.2,0,1,1024,1024,1684,1024,293.6,-21.4,98,4.119,4.12,4.11,4.114,0,0,18.338,84.11,6,P-GPS,
0.355942669949434,36.8882801217912,6100.1157936289,276.246728,0,3.4327100836,20200,2018-04-05 07:23:42,15,0,16.371,6100.1157936289,276.246728,1.2750558,5.4013781256,0,0,-11.1847,294.8, 5.3, 7.4,0,1,1024,1024,1684,1024,293.6,-21.4,98,4.119,4.12,4.11,4.114,0,0,18.338,84.11,6,P-GPS,
0.355942657517892,36.8882801317671,6101.4281296289,277.559064,0,3.436023732,20300,2018-04-05 07:23:42,15,0,16.371,6101.4281296289,277.559064,1.2750558,5.4013781256,0,0,-10.961006,294.7, 5.6, 6.6,0,1,1024,1024,1684,1024,293.6,-21.4,98,4.119,4.12,4.11,4.114,0,0,18.338,84.11,6,P-GPS,
0.355942648370922,36.8882801584051,6103.3966336289,279.527568,0,3.4364830496,20400,2018-04-05 07:23:42,15,0,16.371,6103.3966336289,279.527568,1.2750558,5.4013781256,0,0,-10.961006,294.8, 6.2, 6.3,0,1,1024,1024,1684,1024,293.6,-21.4,98,4.119,4.12,4.11,4.114,0,0,18.338,84.11,6,P-GPS,
0.355942640485996,36.8882801945046,6105.0370536289,281.167988,0,3.435531606,20500,2018-04-05 07:23:42,15,0,16.371,6105.0370536289,281.167988,1.2750558,5.4013781256,0,0,-10.961006,294.8, 5.6, 6.6,0,1,1024,1024,1684,1024,293.6,-21.4,98,4.119,4.12,4.11,4.114,0,0,18.338,84.11,6,P-GPS,
0.355942645837063,36.8882802539196,6106.3493896289,282.480324,0,3.4276903984,20600,2018-04-05 07:23:42,15,0,16.371,6106.3493896289,282.480324,1.2750558,5.4013781256,0,0,-10.961006,294.6, 5, 6.2,0,1,1024,1024,1684,1024,293.6,-21.4,98,4.117,4.118,4.108,4.112,0,0,18.3,85.91,6,P-GPS,
0.35594267278944,36.8882803011013,6107.9898096289,284.120744,0,3.413549978,20700,2018-04-05 07:23:42,15,0,16.371,6107.9898096289,284.120744,1.2750558,5.4013781256,0,0,-10.961006,294.6, 4.8, 5.7,0,1,1024,1024,1684,1024,293.6,-21.4,98,4.117,4.118,4.108,4.112,0,0,18.3,85.91,6,P-GPS,
0.355942697732317,36.8882803500346,6109.6302296289,285.761164,0,3.4000329172,20800,2018-04-05 07:23:42,15,0,16.371,6109.6302296289,285.761164,1.2750558,5.4013781256,0,0,-10.961006,294.7, 5.1, 5.4,0,1,1024,1024,1684,1024,293.6,-21.4,98,4.117,4.118,4.108,4.112,0,0,18.3,85.91,6,P-GPS,
0.355942716376372,36.8882803770409,6111.2706496289,287.401584,0,3.3908465652,20900,2018-04-05 07:23:42,15,0,16.371,6111.2706496289,287.401584,1.2750558,5.4013781256,0,0,-10.737312,294.8, 5.9, 6,0,1,1024,1024,1684,1045,293.6,-21.4,98,4.117,4.118,4.108,4.112,0,0,18.3,85.91,6,P-GPS,
0.355942711570834,36.8882804247211,6112.9110696289,289.042004,0,3.3880250428,21000,2018-04-05 07:23:42,15,0,16.371,6112.9110696289,289.042004,1.2750558,5.4013781256,0,0,-10.961006,294.7, 5.8, 5.5,0,1,1024,1024,1684,1031,293.6,-21.4,98,4.117,4.118,4.108,4.112,0,0,18.3,85.91,6,P-GPS,
0.355942689524959,36.8882804762891,6114.5514896289,290.682424,0,3.3910106072,21100,2018-04-05 07:23:42,15,0,16.371,6114.5514896289,290.682424,1.2750558,5.4013781256,0,0,-10.961006,294.7, 5, 5.3,0,1,1024,1024,1684,1040,293.6,-21.4,98,4.117,4.118,4.108,4.112,0,0,18.3,85.91,6,P-GPS,
0.355942599187028,36.888280531723,6116.1919096289,292.322844,0,3.4179463036,21200,2018-04-05 07:23:43,15,0,16.371,6116.1919096289,292.322844,1.2750558,5.4013781256,0,0,-10.961006,294.7, 4.5, 5.9,0,1,1024,1024,1684,1024,293.7,-21.4,98,4.117,4.118,4.108,4.112,0,0,18.3,85.91,6,P-GPS,
0.355942493867413,36.8882805505328,6117.8323296289,293.963264,0,3.453576226,21300,2018-04-05 07:23:43,15,0,16.371,6117.8323296289,293.963264,1.2750558,5.4013781256,0,0,-10.961006,294.8, 4.9, 7.5,0,1,1024,1024,1684,1024,293.7,-21.4,98,4.117,4.118,4.108,4.112,0,0,18.3,85.91,6,P-GPS,
0.355942377065638,36.8882805450037,6119.4727496289,295.603684,0,3.4954397444,21400,2018-04-05 07:23:43,15,0,16.371,6119.4727496289,295.603684,1.2750558,5.4013781256,0,0,-10.961006,294.8, 5.6, 7.7,0,1,1024,1024,1684,1024,293.7,-21.4,98,4.117,4.118,4.108,4.112,0,0,18.3,85.91,6,P-GPS,
0.35594229115219,36.8882805502775,6121.1131696289,297.244104,0,3.525426622,21500,2018-04-05 07:23:43,15,0,16.371,6121.1131696289,297.244104,1.2750558,5.4013781256,0,0,-11.1847,294.9, 5.1, 7.1,0,1,1024,1024,1684,1024,293.7,-21.4,98,4.117,4.118,4.108,4.112,0,0,18.3,85.91,6,P-GPS,
0.355942175757392,36.8882805958314,6122.7535896289,298.884524,0,3.5625657308,21600,2018-04-05 07:23:43,15,0,16.345,6122.7535896289,298.884524,1.2750558,5.4013781256,0,0,-11.1847,294.8, 4.2, 7.6,0,1,1024,1024,1684,1024,293.7,-21.4,98,4.113,4.114,4.106,4.11,0,0,18.078,85.91,6,P-GPS,
0.355942079464241,36.8882806272203,6124.3940096289,300.524944,0,3.5942258368,21700,2018-04-05 07:23:43,15,0,16.345,6124.3940096289,300.524944,1.2750558,5.4013781256,0,0,-11.1847,294.8, 4.7, 8.5,0,1,1024,1024,1684,1024,293.7,-21.4,98,4.113,4.114,4.106,4.11,0,0,18.078,85.91,6,P-GPS,
