latitude,longitude,altitude(feet),ascent(feet),speed(mph),distance(feet),time(millisecond),datetime(utc),satellites,voltage(v),max_altitude(feet),max_ascent(feet),max_speed(mph),max_distance(feet),compass_heading(degrees), pitch(degrees), roll(degrees),isPhoto,isVideo,rc_elevator,rc_aileron,rc_throttle,rc_rudder,gimbal_heading(degrees),gimbal_pitch(degrees),battery_percent,voltageCell1,voltageCell2,voltageCell3,voltageCell4,voltageCell5,voltageCell6,battery_temperature(f),flycStateRaw,flycState,message
0.305146082486313,36.8793887081209,5833.9606922642,0,0,0,0,2017-11-11 12:01:09,17,0,5833.9606922642,0,0,0,85.2, -1.2, 0.6,0,0,1024,1024,1024,1024,89.7,0,99,4.298,4.301,4.297,4.284,0,0,87.71,41,Motors_Started,
0.30514605762608,36.879388716661,5833.9606922642,0,0,0.0095904858712,200,2017-11-11 12:01:09,17,0,5833.9606922642,0,0,0.0095904858712,85.2, -1.1, 0.6,0,0,1024,1024,1024,1024,89.7,0,99,4.298,4.301,4.297,4.284,0,0,87.71,41,Motors_Started,
0.305146059150304,36.8793887215906,5833.9606922642,0,0,0.0098306105508,300,2017-11-11 12:01:09,17,0,5833.9606922642,0,0,0.0098306105508,85.2, -1.1, 0.6,0,0,1024,1024,1024,1024,89.7,0,99,4.298,4.301,4.297,4.284,0,0,87.71,41,Motors_Started,
0.305146050882286,36.8793887293459,5833.9606922642,0,0,0.0138896986072,400,2017-11-11 12:01:09,17,0,5833.9606922642,0,0,0.0138896986072,85.2, -1.1, 0.6,0,0,1024,1024,1024,1024,89.7,0,99,4.298,4.301,4.297,4.284,0,0,87.71,41,Motors_Started,
0.305146058606403,36.8793887329495,5833.9606922642,0,0,0.0125684715308,500,2017-11-11 12:01:09,17,0,5833.9606922642,0,0,0.0138896986072,85.2, -1.1, 0.6,0,0,1024,1024,1024,1024,89.7,0,99,4.298,4.301,4.297,4.284,0,0,87.71,41,Motors_Started,
0.305146055559585,36.8793887403243,5833.9606922642,0,0,0.015315289204,600,2017-11-11 12:01:09,17,0,5833.9606922642,0,0,0.015315289204,85.2, -1.1, 0.6,0,0,1024,1024,1024,1024,89.7,0,99,4.298,4.301,4.297,4.284,0,0,87.71,41,Motors_Started,
0.305146065802497,36.8793887424943,5833.9606922642,0,0,0.0139401579264,700,2017-11-11 12:01:09,17,17.135,5833.9606922642,0,0,0.015315289204,85.2, -1.1, 0.6,0,0,1024,1024,1024,1024,89.7,0,99,4.298,4.301,4.297,4.284,0,0,87.71,41,Motors_Started,Setting new Return-To-Home altitude to 30m (98 ft). Setting new Maximum Flight Altitude to 120m (394 ft)
0.305146065915674,36.8793887491829,5833.9606922642,0,0,0.0161551186272,800,2017-11-11 12:01:10,17,17.135,5833.9606922642,0,0,0.0161551186272,85.2, -1.1, 0.7,0,0,1024,1024,1024,1024,89.7,0,99,4.298,4.301,4.297,4.284,0,0,87.71,41,Motors_Started,
0.305146035777247,36.8793887502829,5833.9606922642,0,0,0.0229574482412,900,2017-11-11 12:01:10,17,17.135,5833.9606922642,0,0,0.0229574482412,85.2, -1.1, 0.7,0,0,364,385,393,1684,89.7,0,99,4.298,4.301,4.297,4.284,0,0,87.71,41,Motors_Started,
0.305146007073886,36.879388756541,5833.9606922642,0,0,0.0326972451408,1000,2017-11-11 12:01:10,17,17.135,5833.9606922642,0,0,0.0326972451408,85.2, -1.1, 0.7,0,0,364,385,393,1684,89.7,0,99,4.298,4.301,4.297,4.284,0,0,87.71,41,Motors_Started,
0.305145993103465,36.8793887568531,5833.9606922642,0,0,0.037143045808,1100,2017-11-11 12:01:10,17,17.135,5833.9606922642,0,0,0.037143045808,85.2, -1.2, 0.7,0,0,964,988,1024,1074,89.5,0,99,4.298,4.301,4.297,4.284,0,0,87.71,41,Motors_Started,
0.305145975267525,36.8793887637065,5833.9606922642,0,0,0.044062993536,1200,2017-11-11 12:01:10,17,17.135,5833.9606922642,0,0,0.044062993536,85.2, -1.1, 0.6,0,0,1024,1024,1024,1024,88.2,0,99,4.298,4.301,4.297,4.284,0,0,87.71,41,Motors_Started,
0.305145963688881,36.8793887700845,5833.9606922642,0,0,0.048884516,1400,2017-11-11 12:01:10,17,17.135,5833.9606922642,0,0,0.048884516,85.2, -1.2, 0.6,0,0,1024,1024,1024,1024,86.6,0,99,4.298,4.301,4.297,4.284,0,0,87.71,41,Motors_Started,
0.305145968624695,36.8793888104821,5833.9606922642,0,0,0.05586122226,1500,2017-11-11 12:01:10,17,17.135,5833.9606922642,0,0,0.05586122226,85.1, -1.2, 0.6,0,0,1024,1024,1024,1024,86.3,0,99,4.298,4.301,4.297,4.284,0,0,87.71,10,Assisted_Takeoff,
0.305145964077672,36.8793888487503,5833.9606922642,0,0,0.06707349296,1600,2017-11-11 12:01:10,17,17.135,5833.9606922642,0,0,0.06707349296,85.1, -1.1, 0.6,0,0,1024,1024,1024,1024,86.1,0,99,4.298,4.301,4.297,4.284,0,0,87.71,10,Assisted_Takeoff,
0.30514593037336,36.8793888709367,5833.9606922642,0,0,0.081293965856,1700,2017-11-11 12:01:10,17,17.135,5833.9606922642,0,0,0.081293965856,85.1, -1.2, 0.7,0,0,1024,1024,1024,1024,86,0,99,4.298,4.301,4.297,4.284,0,0,87.71,10,Assisted_Takeoff,
0.305145898836913,36.8793888962904,5833.9606922642,0,0,0.095931105432,1800,2017-11-11 12:01:11,17,17.135,5833.9606922642,0,0,0.095931105432,85.1, -1.2, 0.7,0,0,1024,1024,1024,1024,85.9,0,99,4.298,4.301,4.297,4.284,0,0,87.71,10,Assisted_Takeoff,
0.305145884152826,36.8793889047111,5833.9606922642,0,0,0.101885501948,1900,2017-11-11 12:01:11,17,17.135,5833.9606922642,0,0,0.101885501948,85.1, -1.1, 0.7,0,0,1024,1024,1024,1024,85.8,0,99,4.298,4.301,4.297,4.284,0,0,87.71,10,Assisted_Takeoff,
0.305145865061763,36.8793889209841,5833.9606922642,0,0,0.111014439248,2000,2017-11-11 12:01:11,17,17.135,5833.9606922642,0,0,0.111014439248,85.1, -1.2, 0.7,0,0,1024,1024,1024,1024,85.7,0,99,4.298,4.301,4.297,4.284,0,0,87.71,10,Assisted_Takeoff,
0.3051458230646,36.8793889189521,5833.9606922642,0,0,0.121964570832,2100,2017-11-11 12:01:11,17,17.135,5833.9606922642,0,0,0.121964570832,85.1, -1.2, 0.7,0,0,1024,1024,1024,1024,85.7,0,99,4.298,4.301,4.297,4.284,0,0,87.71,10,Assisted_Takeoff,
0.3051457828974,36.8793889286977,5833.9606922642,0,0,0.13573491248,2200,2017-11-11 12:01:11,17,17.135,5833.9606922642,0,0,0.13573491248,85.1, -1.1, 0.7,0,0,1024,1024,1024,1024,85.7,0,99,4.298,4.301,4.297,4.284,0,0,87.71,10,Assisted_Takeoff,
0.305145764160116,36.8793889626316,5833.9606922642,0,0,0.148698167488,2300,2017-11-11 12:01:11,17,17.135,5833.9606922642,0,0,0.148698167488,85.1, -1.1, 0.7,0,0,1024,1024,1024,1024,85.6,0,99,4.298,4.301,4.297,4.284,0,0,87.71,10,Assisted_Takeoff,
0.305145738726671,36.8793890132432,5833.9606922642,0,0,0.167698824264,2500,2017-11-11 12:01:11,17,17.135,5833.9606922642,0,0,0.167698824264,85.1, -1.1, 0.7,0,0,1024,1024,1024,1024,85.6,0,99,4.298,4.301,4.297,4.284,0,0,87.71,10,Assisted_Takeoff,
0.305145693684317,36.8793890360644,5833.9606922642,0,0,0.18557579334,2700,2017-11-11 12:01:12,17,17.135,5833.9606922642,0,0,0.18557579334,85.1, -1.1, 0.7,0,0,1024,1024,1024,1024,85.6,0,99,4.29,4.296,4.29,4.275,0,0,87.71,10,Assisted_Takeoff,
0.305145658930065,36.879389047395,5833.9606922642,0,0,0.19799705358,2800,2017-11-11 12:01:12,17,17.135,5833.9606922642,0,0,0.19799705358,85.1, -1.1, 0.7,0,0,1024,1024,1024,1024,85.5,0,99,4.29,4.296,4.29,4.275,0,0,87.71,10,Assisted_Takeoff,
0.305145645988007,36.8793890782927,5833.9606922642,0,0,0.208811686472,2900,2017-11-11 12:01:12,17,17.135,5833.9606922642,0,0,0.208811686472,85.1, -1.1, 0.7,0,0,1024,1024,1024,1024,85.5,0,99,4.29,4.296,4.29,4.275,0,0,87.71,10,Assisted_Takeoff,
0.305145638539911,36.8793891050441,5833.9606922642,0,0,0.217271332412,3000,2017-11-11 12:01:12,17,17.135,5833.9606922642,0,0,0.217271332412,85.1, -1.2, 0.7,0,0,1024,1024,1024,1024,85.5,0,99,4.29,4.296,4.29,4.275,0,0,87.71,10,Assisted_Takeoff,
0.305145628117055,36.8793891249447,5833.9606922642,0,0,0.22496391796,3100,2017-11-11 12:01:12,17,17.135,5833.9606922642,0,0,0.22496391796,85.1, -1.1, 0.7,0,0,1024,1024,1024,1024,85.5,0,99,4.29,4.296,4.29,4.275,0,0,87.71,10,Assisted_Takeoff,
0.305145614914445,36.8793891479908,5833.9606922642,0,0,0.234216214844,3200,2017-11-11 12:01:12,17,17.135,5833.9606922642,0,0,0.234216214844,85.1, -1.1, 0.7,0,0,1024,1024,1024,1024,85.5,0,99,4.29,4.296,4.29,4.275,0,0,87.71,10,Assisted_Takeoff,
0.305145625257507,36.8793891458201,5833.9606922642,0,0,0.230933734424,3300,2017-11-11 12:01:12,17,17.135,5833.9606922642,0,0,0.234216214844,85.1, -1.1, 0.7,0,0,1024,1024,1024,1024,85.5,0,99,4.29,4.296,4.29,4.275,0,0,87.71,10,Assisted_Takeoff,
0.305145621718491,36.8793891570897,5833.9606922642,0,0,0.234718839532,3400,2017-11-11 12:01:12,17,17.135,5833.9606922642,0,0,0.234718839532,85.1, -1.1, 0.7,0,0,1024,1024,1024,1024,85.5,0,99,4.29,4.296,4.29,4.275,0,0,87.71,10,Assisted_Takeoff,
0.305145594653752,36.8793891471648,5833.9606922642,0,0,0.2394521074,3500,2017-11-11 12:01:12,17,17.135,5833.9606922642,0,0,0.2394521074,85.1, -1.1, 0.7,0,0,1024,1024,1024,1024,85.5,0,99,4.29,4.296,4.29,4.275,0,0,87.71,10,Assisted_Takeoff,
0.305145565209449,36.8793891525124,5833.9606922642,0,0,0.248808406912,3600,2017-11-11 12:01:12,17,17.135,5833.9606922642,0,0,0.248808406912,85.1, -1.1, 0.7,0,0,1024,1024,1024,1024,85.5,0,99,4.29,4.296,4.29,4.275,0,0,87.71,10,Assisted_Takeoff,
0.305145555477461,36.8793891397499,5833.9606922642,0,0,0.248536425276,3700,2017-11-11 12:01:12,17,17.135,5833.9606922642,0,0,0.248808406912,85.1, -1.2, 0.7,0,0,1024,1024,1024,1024,85.5,0,99,4.293,4.296,4.292,4.279,0,0,87.71,10,Assisted_Takeoff,
0.305145537015384,36.8793891420929,5833.9606922642,0,0,0.254314640684,3800,2017-11-11 12:01:13,17,17.135,5833.9606922642,0,0,0.254314640684,85.1, -1.1, 0.7,0,0,1024,1024,1024,1024,85.4,0,99,4.293,4.296,4.292,4.279,0,0,87.71,10,Assisted_Takeoff,
0.305145537540964,36.8793891697221,5833.9606922642,0,0,0.260563656632,3900,2017-11-11 12:01:13,17,17.135,5833.9606922642,0,0,0.260563656632,85.1, -1.1, 0.8,0,0,1024,1024,1024,1024,85.5,0,99,4.293,4.296,4.292,4.279,0,0,87.71,10,Assisted_Takeoff,
0.305145526770029,36.8793891999058,5833.9606922642,0,0,0.270743446984,4000,2017-11-11 12:01:13,17,17.135,5833.9606922642,0,0,0.270743446984,85.1, -1.1, 0.7,0,0,1024,1024,1024,1024,85.4,0,99,4.293,4.296,4.292,4.279,0,0,87.71,10,Assisted_Takeoff,
0.30514549227185,36.8793892107669,5833.9606922642,0,0,0.28284613766,4100,2017-11-11 12:01:13,17,17.135,5833.9606922642,0,0,0.28284613766,85.1, -1.1, 0.8,0,0,1024,1024,1024,1024,85.4,0,99,4.293,4.296,4.292,4.279,0,0,87.71,10,Assisted_Takeoff,
0.30514545488074,36.8793892298475,5833.9606922642,0,0,0.297767069896,4200,2017-11-11 12:01:13,17,17.135,5833.9606922642,0,0,0.297767069896,85.1, -1.1, 0.8,0,0,1024,1024,1024,1024,85.4,0,99,4.293,4.296,4.292,4.279,0,0,87.71,10,Assisted_Takeoff,
0.30514543972359,36.8793892288197,5833.9606922642,0,0,0.301804143516,4300,2017-11-11 12:01:13,17,17.135,5833.9606922642,0,0,0.301804143516,85.1, -1.1, 0.8,0,0,1024,1024,1024,1024,85.4,0,99,4.293,4.296,4.292,4.279,0,0,87.71,10,Assisted_Takeoff,
0.305145414446476,36.8793892397221,5833.9606922642,0,0,0.311485902356,4400,2017-11-11 12:01:13,17,17.135,5833.9606922642,0,0,0.311485902356,85.1, -1.1, 0.8,0,0,1024,1024,1024,1024,85.4,0,99,4.293,4.296,4.292,4.279,0,0,87.71,10,Assisted_Takeoff,
0.305145395700235,36.8793892371912,5833.9606922642,0,0,0.316302175476,4600,2017-11-11 12:01:13,17,17.135,5833.9606922642,0,0,0.316302175476,85, -1.1, 0.8,0,0,1024,1024,1024,1024,85.4,0,99,4.293,4.296,4.292,4.279,0,0,87.71,10,Assisted_Takeoff,
0.305145402387441,36.8793892259152,5833.9606922642,0,0,0.31186352704,4700,2017-11-11 12:01:14,17,17.135,5833.9606922642,0,0,0.316302175476,85, -1.2, 0.7,0,0,1024,1024,1111,1024,85.4,0,99,4.293,4.296,4.292,4.279,0,0,87.71,10,Assisted_Takeoff,
0.305145360459486,36.879389218708,5833.9606922642,0,0,0.322642070692,4900,2017-11-11 12:01:14,17,17.135,5833.9606922642,0,0,0.322642070692,85, -1.2, 0.8,0,0,1024,1024,1405,1024,85.4,0,99,4.293,4.296,4.292,4.279,0,0,87.71,10,Assisted_Takeoff,
0.305145323595992,36.87938922112,5833.9606922642,0,0,0.33420604744,5000,2017-11-11 12:01:14,17,17.135,5833.9606922642,0,0,0.33420604744,85, -1.1, 0.8,0,0,1024,1024,1680,1024,85.4,0,99,4.293,4.296,4.292,4.279,0,0,87.71,10,Assisted_Takeoff,
0.305145312343037,36.8793892100105,5833.9606922642,0,0,0.335383869,5100,2017-11-11 12:01:14,17,17.135,5833.9606922642,0,0,0.335383869,85, -1, 0.8,0,0,1024,1024,1684,1024,85.4,0,99,4.293,4.296,4.292,4.279,0,0,87.71,10,Assisted_Takeoff,
0.30514528762,36.8793892118482,5833.9606922642,0,0,0.34333662516,5200,2017-11-11 12:01:14,17,17.135,5833.9606922642,0,0,0.34333662516,85, -1, 0.9,0,0,1024,1024,1684,1024,85.4,0,99,4.293,4.296,4.292,4.279,0,0,87.71,10,Assisted_Takeoff,
0.305145258692728,36.8793892709281,5833.9606922642,0,0,0.36400591716,5400,2017-11-11 12:01:14,17,17.135,5833.9606922642,0,0,0.36400591716,85.2, 1.2, 2.4,0,0,1024,1024,1684,1024,85.4,0,99,4.293,4.296,4.292,4.279,0,0,87.71,10,Assisted_Takeoff,
0.3051451609295,36.8793892676586,5833.9606922642,0,0.223694,0.39334975012,5500,2017-11-11 12:01:14,17,17.135,5833.9606922642,0,0.223694,0.39334975012,85.3, 3.4, 3.8,0,0,1024,1024,1684,1024,85.4,0,99,4.293,4.296,4.292,4.279,0,0,87.71,10,Assisted_Takeoff,
0.305144952253358,36.8793891958124,5833.9606922642,0,0.447388,0.4491141876,5600,2017-11-11 12:01:14,17,17.135,5833.9606922642,0,0.447388,0.4491141876,85.1, 2.2, 3,0,0,1024,1024,1684,1029,85.4,0,99,4.293,4.296,4.292,4.279,0,0,87.71,6,GPS_Atti,
0.305144614008441,36.8793890545711,5833.9606922642,0,0.70687304,0.55048230108,5700,2017-11-11 12:01:15,17,17.135,5833.9606922642,0,0.70687304,0.55048230108,85, 0.7, 1,0,0,1024,1024,1684,1024,85.4,0,99,4.293,4.296,4.292,4.279,0,0,87.71,6,GPS_Atti,Home Point Recorded. RTH Altitude:  30m.
0.305143726172836,36.8793885854105,5834.9449442642,0.984252,0.99991218,0.86086616928,5900,2017-11-11 12:01:15,17,17.135,5834.9449442642,0.984252,0.99991218,0.86086616928,85.1, -0.3, -2.4,0,0,1024,1024,1684,1024,85.4,0,99,4.293,4.296,4.292,4.279,0,0,87.71,6,GPS_Atti,
0.305143233405886,36.8793882734866,5835.2730282642,1.312336,0.99991218,1.05151250084,6000,2017-11-11 12:01:15,17,17.135,5835.2730282642,1.312336,0.99991218,1.05151250084,85.1, -0.9, -4,0,0,1024,1024,1684,1028,85.4,0,99,4.293,4.296,4.292,4.279,0,0,87.71,6,GPS_Atti,
0.305142797486287,36.8793877955311,5836.2572802642,2.296588,1.11847,1.24391736264,6100,2017-11-11 12:01:15,17,17.135,5836.2572802642,2.296588,1.11847,1.24391736264,85.3, -2.9, -5.7,0,0,1024,1024,1684,1024,85.4,0,99,4.293,4.296,4.292,4.279,0,0,87.71,6,GPS_Atti,
0.305142066905549,36.8793869096122,5837.8977002642,3.937008,0.80753534,1.605315012,6300,2017-11-11 12:01:15,17,17.135,5837.8977002642,3.937008,1.11847,1.605315012,85.7, -4.9, -4.6,0,0,1024,1024,1684,1024,85.4,0,99,4.293,4.296,4.292,4.279,0,0,87.71,6,GPS_Atti,
0.305141759054827,36.8793865874829,5839.2100362642,5.249344,0.80753534,1.75693247092,6400,2017-11-11 12:01:15,17,17.135,5839.2100362642,5.249344,1.11847,1.75693247092,85.5, -3.2, -4.5,0,0,1024,1024,1684,1024,85.4,0,99,4.293,4.296,4.292,4.279,0,0,87.71,6,GPS_Atti,
0.305141522583029,36.8793862200612,5840.5223722642,6.56168,0.63305402,1.89521659608,6500,2017-11-11 12:01:15,17,17.135,5840.5223722642,6.56168,1.11847,1.89521659608,85.4, -2.6, -5.9,0,0,1024,1024,1684,1024,85.4,0,99,4.293,4.296,4.292,4.279,0,0,87.71,6,GPS_Atti,
0.305141314327509,36.8793858836845,5842.1627922642,8.2021,0.63305402,2.02195544528,6600,2017-11-11 12:01:15,17,17.135,5842.1627922642,8.2021,1.11847,2.02195544528,85.6, -3.8, -5.6,0,0,1024,1024,1684,1024,85.4,0,99,4.293,4.296,4.292,4.279,0,0,87.71,6,GPS_Atti,
0.305141197348464,36.8793855178125,5843.4751282642,9.514436,0.63305402,2.12874350644,6700,2017-11-11 12:01:15,17,16.55,5843.4751282642,9.514436,1.11847,2.12874350644,85.5, -4.7, -5,0,0,1024,1024,1684,1024,85.4,0,99,4.168,4.18,4.17,4.153,0,0,87.71,6,GPS_Atti,
0.305141108174069,36.8793852307384,5845.4436322642,11.48294,0.63305402,2.21435702624,6800,2017-11-11 12:01:15,17,16.55,5845.4436322642,11.48294,1.11847,2.21435702624,85.4, -4.1, -3.7,0,0,1024,1024,1684,1024,85.4,0,99,4.168,4.18,4.17,4.153,0,0,87.71,6,GPS_Atti,
0.305141117839736,36.8793849856735,5847.0840522642,13.12336,0.223694,2.26394692284,6900,2017-11-11 12:01:16,17,16.55,5847.0840522642,13.12336,1.11847,2.26394692284,85.3, -3.2, -2.8,0,0,1024,1024,1684,1024,85.4,0,99,4.168,4.18,4.17,4.153,0,0,87.71,6,GPS_Atti,
0.305141064645023,36.8793847676518,5848.7244722642,14.76378,0.223694,2.3277723842,7000,2017-11-11 12:01:16,17,16.55,5848.7244722642,14.76378,1.11847,2.3277723842,85.3, -2.5, -3.5,0,0,1024,1024,1684,1024,85.4,0,99,4.168,4.18,4.17,4.153,0,0,87.71,6,GPS_Atti,
0.305141101812501,36.8793845763433,5850.3648922642,16.4042,0.31540854,2.36106306768,7100,2017-11-11 12:01:16,17,16.55,5850.3648922642,16.4042,1.11847,2.36106306768,85.2, -2, -4.6,0,0,1024,1024,1684,1024,85.4,0,99,4.168,4.18,4.17,4.153,0,0,87.71,6,GPS_Atti,
0.305141139954617,36.8793840436806,5853.6457322642,19.68504,0.50107456,2.47950139168,7300,2017-11-11 12:01:16,17,16.55,5853.6457322642,19.68504,1.11847,2.47950139168,85.4, -4.2, -3.1,0,0,1024,1024,1684,1024,85.4,0,99,4.168,4.18,4.17,4.153,0,0,87.71,6,GPS_Atti,
0.305141116615783,36.8793837517296,5855.2861522642,21.32546,0.50107456,2.55980323152,7400,2017-11-11 12:01:16,17,16.55,5855.2861522642,21.32546,1.11847,2.55980323152,85.5, -5, -3.3,0,0,1024,1024,1684,1024,85.4,0,99,4.168,4.18,4.17,4.153,0,0,87.71,6,GPS_Atti,
0.305141063679763,36.8793834228442,5856.9265722642,22.96588,0.63305402,2.65919299848,7500,2017-11-11 12:01:16,17,16.55,5856.9265722642,22.96588,1.11847,2.65919299848,85.5, -5.3, -3.8,0,0,1024,1024,1684,1025,85.4,0,99,4.168,4.18,4.17,4.153,0,0,87.71,6,GPS_Atti,
0.30514093029228,36.8793828480992,5859.8793282642,25.918636,0.63305402,2.84685376564,7700,2017-11-11 12:01:16,17,16.497,5859.8793282642,25.918636,1.11847,2.84685376564,85.6, -5.3, -4.4,0,0,1024,1024,1684,1024,85.4,0,99,4.168,4.18,4.17,4.153,0,0,87.71,6,GPS_Atti,
0.305140836826077,36.8793825883892,5861.5197482642,27.559056,0.63305402,2.9407645298,7800,2017-11-11 12:01:16,17,16.497,5861.5197482642,27.559056,1.11847,2.9407645298,85.5, -5.3, -4.4,0,0,1024,1024,1684,1026,85.4,0,99,4.168,4.18,4.17,4.153,0,0,87.71,6,GPS_Atti,
0.305140704581501,36.8793822979348,5862.8320842642,28.871392,0.63305402,3.05279209244,7900,2017-11-11 12:01:17,17,16.497,5862.8320842642,28.871392,1.11847,3.05279209244,85.5, -5.8, -5.6,0,0,1024,1024,1684,1025,85.4,0,99,4.168,4.18,4.17,4.153,0,0,87.71,6,GPS_Atti,
0.305140540955512,36.8793820327284,5864.4725042642,30.511812,0.63305402,3.16533146612,8000,2017-11-11 12:01:17,17,16.497,5864.4725042642,30.511812,1.11847,3.16533146612,85.6, -6.3, -7,0,0,1024,1024,1684,1024,85.4,0,99,4.168,4.18,4.17,4.153,0,0,87.71,6,GPS_Atti,
0.30514040575517,36.8793817670838,5866.1129242642,32.152232,0.63305402,3.27149944852,8100,2017-11-11 12:01:17,17,16.497,5866.1129242642,32.152232,1.11847,3.27149944852,85.7, -6.9, -7.8,0,0,1024,1024,1684,1024,85.4,0,99,4.168,4.18,4.17,4.153,0,0,87.71,6,GPS_Atti,
0.30514030335678,36.8793815374496,5867.4252602642,33.464568,0.31540854,3.3601050944,8200,2017-11-11 12:01:17,17,16.497,5867.4252602642,33.464568,1.11847,3.3601050944,85.7, -6.7, -7.3,0,0,1024,1024,1684,1024,85.4,0,99,4.168,4.18,4.17,4.153,0,0,87.71,6,GPS_Atti,
0.305140244732083,36.8793812711656,5869.0656802642,35.104988,0.31540854,3.4494423676,8300,2017-11-11 12:01:17,17,16.497,5869.0656802642,35.104988,1.11847,3.4494423676,85.6, -6.3, -6.4,0,0,1024,1024,1684,1024,85.3,0,99,4.168,4.18,4.17,4.153,0,0,87.71,6,GPS_Atti,
0.30514008451416,36.8793803469593,5875.2992762642,41.338584,0.31540854,3.754265212,8700,2017-11-11 12:01:18,17,16.497,5875.2992762642,41.338584,1.11847,3.754265212,85.7, -8, -7.2,0,0,1024,1024,1684,1029,85.3,0,99,4.168,4.18,4.17,4.153,0,0,87.71,6,GPS_Atti,
0.305140150536522,36.8793798072075,5880.5486202642,46.587928,0,3.90255918,9000,2017-11-11 12:01:18,17,16.497,5880.5486202642,46.587928,1.11847,3.90255918,85.7, -7.5, -7.5,0,0,1024,1024,1684,1032,85.3,0,99,4.168,4.18,4.17,4.153,0,0,87.71,6,GPS_Atti,
0.305140233721614,36.879379673313,5882.1890402642,48.228348,0,3.9267389708,9100,2017-11-11 12:01:18,17,16.497,5882.1890402642,48.228348,1.11847,3.9267389708,85.6, -7.2, -7,0,0,1024,1024,1684,1027,85.3,0,99,4.168,4.18,4.17,4.153,0,0,87.71,6,GPS_Atti,
0.30514030970079,36.8793795654891,5883.8294602642,49.868768,0,3.9449476328,9200,2017-11-11 12:01:18,17,16.497,5883.8294602642,49.868768,1.11847,3.9449476328,85.7, -8, -6.6,0,0,1024,1024,1684,1029,85.3,0,99,4.168,4.18,4.17,4.153,0,0,87.71,6,GPS_Atti,
0.305140354425852,36.8793794630214,5885.7979642642,51.837272,0,3.9679791296,9300,2017-11-11 12:01:18,17,16.497,5885.7979642642,51.837272,1.11847,3.9679791296,85.6, -7.8, -6.7,0,0,1024,1024,1684,1024,85.3,0,99,4.168,4.18,4.17,4.153,0,0,87.71,6,GPS_Atti,
0.305140503145256,36.8793793210668,5891.0473082642,57.086616,0,3.984088054,9600,2017-11-11 12:01:18,17,16.55,5891.0473082642,57.086616,1.11847,3.984088054,85.6, -6.1, -7.8,0,0,1024,1024,1684,1024,85.3,0,99,4.168,4.183,4.177,4.162,0,0,87.71,6,GPS_Atti,
0.305140651581183,36.8793793220373,5894.3281482642,60.367456,0,3.9563977644,9800,2017-11-11 12:01:19,17,16.55,5894.3281482642,60.367456,1.11847,3.984088054,85.5, -5.4, -7.5,0,0,1024,1024,1684,1024,85.3,0,99,4.168,4.183,4.177,4.162,0,0,87.71,6,GPS_Atti,
0.305140782163639,36.8793792227846,5898.2651562642,64.304464,0,3.9643373972,10000,2017-11-11 12:01:19,17,16.55,5898.2651562642,64.304464,1.11847,3.984088054,85.5, -5.6, -7.3,0,0,1024,1024,1684,1026,85.3,0,99,4.168,4.183,4.177,4.162,0,0,87.71,6,GPS_Atti,
0.305140840319891,36.8793790976986,5899.9055762642,65.944884,0,3.9940289992,10100,2017-11-11 12:01:19,17,16.55,5899.9055762642,65.944884,1.11847,3.9940289992,85.5, -6.2, -6.8,0,0,1024,1024,1684,1024,85.2,0,99,4.168,4.183,4.177,4.162,0,0,87.71,6,GPS_Atti,
0.305140948833976,36.879378861989,5903.5145002642,69.553808,0,4.0512796572,10300,2017-11-11 12:01:19,17,16.55,5903.5145002642,69.553808,1.11847,4.0512796572,85.6, -7.4, -7.2,0,0,1024,1024,1684,1028,85.2,0,99,4.168,4.183,4.177,4.162,0,0,87.71,6,GPS_Atti,
0.305141089956093,36.8793786474761,5907.4515082642,73.490816,0,4.0976707348,10500,2017-11-11 12:01:19,17,16.55,5907.4515082642,73.490816,1.11847,4.0976707348,85.7, -7.7, -7.5,0,0,1024,1024,1684,1029,85.2,0,99,4.168,4.183,4.177,4.162,0,0,87.71,6,GPS_Atti,
0.305141165047768,36.879378570861,5909.0919282642,75.131236,0,4.1106956696,10600,2017-11-11 12:01:19,17,16.55,5909.0919282642,75.131236,1.11847,4.1106956696,85.7, -7.9, -6.7,0,0,1024,1024,1684,1035,85.2,0,99,4.168,4.183,4.177,4.162,0,0,87.71,6,GPS_Atti,
0.305141246934965,36.8793785255114,5910.7323482642,76.771656,0,4.112696982,10700,2017-11-11 12:01:19,17,16.577,5910.7323482642,76.771656,1.11847,4.112696982,85.7, -8.1, -6.3,0,0,1024,1024,1684,1040,85.2,0,99,4.156,4.174,4.167,4.152,0,0,87.71,6,GPS_Atti,
0.305141282384282,36.8793785213521,5912.7008522642,78.74016,0,4.1085303152,10800,2017-11-11 12:01:20,17,16.577,5912.7008522642,78.74016,1.11847,4.112696982,85.6, -7.2, -7,0,0,1024,1024,1684,1025,85.2,0,99,4.156,4.174,4.167,4.152,0,0,87.71,6,GPS_Atti,
0.305141341040937,36.8793785198988,5914.3412722642,80.38058,0,4.0999345144,10900,2017-11-11 12:01:20,17,16.577,5914.3412722642,80.38058,1.11847,4.112696982,85.6, -6.9, -7.8,0,0,1024,1024,1684,1065,85.2,0,99,4.156,4.174,4.167,4.152,0,0,87.71,6,GPS_Atti,
0.305141369737428,36.8793785227916,5916.3097762642,82.349084,0,4.0945867452,11000,2017-11-11 12:01:20,17,16.577,5916.3097762642,82.349084,1.11847,4.112696982,85.5, -6.8, -7.9,0,0,1024,1024,1684,1042,85.2,0,99,4.156,4.174,4.167,4.152,0,0,87.71,6,GPS_Atti,
0.305141469349246,36.8793784738758,5921.8872042642,87.926512,0,4.0957022308,11300,2017-11-11 12:01:20,17,16.577,5921.8872042642,87.926512,1.11847,4.112696982,85.8, -8, -8.1,0,0,1024,1024,1684,1074,85.2,0,99,4.156,4.174,4.167,4.152,0,0,87.71,6,GPS_Atti,
0.30514146827488,36.879378467069,5923.8557082642,89.895016,0,4.0981300524,11400,2017-11-11 12:01:20,17,16.577,5923.8557082642,89.895016,1.11847,4.112696982,85.8, -7.9, -9.1,0,0,1024,1024,1684,1037,85.3,0,99,4.156,4.174,4.167,4.152,0,0,87.71,6,GPS_Atti,
0.305141535223011,36.8793785189412,5925.4961282642,91.535436,0,4.070866272,11500,2017-11-11 12:01:20,17,16.577,5925.4961282642,91.535436,1.11847,4.112696982,86, -7, -7.8,0,0,1024,1024,1684,1046,85.3,0,99,4.156,4.174,4.167,4.152,0,0,87.71,6,GPS_Atti,
0.305141584024068,36.8793785721939,5927.4646322642,93.50394,0,4.0458990796,11600,2017-11-11 12:01:20,17,16.577,5927.4646322642,93.50394,1.11847,4.112696982,86.1, -6.6, -7,0,0,1024,1024,1684,1091,85.3,0,99,4.156,4.174,4.167,4.152,0,0,87.71,6,GPS_Atti,
0.305141657228376,36.879378596461,5929.1050522642,95.14436,0,4.0270014412,11700,2017-11-11 12:01:20,17,16.577,5929.1050522642,95.14436,1.11847,4.112696982,86.2, -7.2, -7.3,0,0,1024,1024,1684,1028,85.3,0,99,4.152,4.172,4.164,4.15,0,0,87.71,6,GPS_Atti,
0.305141660550758,36.8793786217975,5931.0735562642,97.112864,0,4.018044748,11800,2017-11-11 12:01:21,17,16.577,5931.0735562642,97.112864,1.11847,4.112696982,86.3, -7.7, -8,0,0,1024,1024,1684,1052,85.5,0,99,4.152,4.172,4.164,4.15,0,0,87.71,6,GPS_Atti,
0.305141656467079,36.8793785579208,5934.6824802642,100.721788,0,4.0399935676,12000,2017-11-11 12:01:21,17,16.577,5934.6824802642,100.721788,1.11847,4.112696982,86.7, -7.6, -9.8,0,0,1024,1024,1684,1103,85.8,0,99,4.152,4.172,4.164,4.15,0,0,87.71,6,GPS_Atti,
0.305141696621709,36.8793785239671,5936.6509842642,102.690292,0,4.0455381872,12100,2017-11-11 12:01:21,17,16.577,5936.6509842642,102.690292,1.11847,4.112696982,87, -7.3, -9.2,0,0,1024,1024,1684,1087,85.8,0,99,4.152,4.172,4.164,4.15,0,0,87.71,6,GPS_Atti,
0.305141746538962,36.8793785047848,5938.2914042642,104.330712,0,4.0448164024,12200,2017-11-11 12:01:21,17,16.577,5938.2914042642,104.330712,1.11847,4.112696982,87.5, -7.2, -8.2,0,0,1024,1024,1684,1092,86.1,0,99,4.152,4.172,4.164,4.15,0,0,87.71,6,GPS_Atti,
0.305141846285177,36.8793784365749,5939.9318242642,105.971132,0,4.0537074788,12300,2017-11-11 12:01:21,17,16.577,5939.9318242642,105.971132,1.11847,4.112696982,88.1, -7, -7.4,0,0,1024,1024,1684,1087,86.4,0,99,4.152,4.172,4.164,4.15,0,0,87.71,6,GPS_Atti,
0.305141913151938,36.8793783830604,5941.9003282642,107.939636,0,4.0625657468,12400,2017-11-11 12:01:21,17,16.577,5941.9003282642,107.939636,1.11847,4.112696982,88.7, -7.6, -7.2,0,0,1024,1024,1684,1078,86.9,0,99,4.152,4.172,4.164,4.15,0,0,87.71,6,GPS_Atti,
0.305142046315299,36.8793782343512,5945.1811682642,111.220476,0,4.0952101048,12600,2017-11-11 12:01:21,17,16.577,5945.1811682642,111.220476,1.11847,4.112696982,90.1, -8.8, -8.4,0,0,1024,1024,1684,1060,87.2,0,99,4.152,4.172,4.164,4.15,0,0,87.71,6,GPS_Atti,
0.30514209919627,36.8793782013771,5947.1496722642,113.18898,0,4.099573622,12700,2017-11-11 12:01:21,17,16.63,5947.1496722642,113.18898,1.11847,4.112696982,90.6, -7.2, -7.2,0,0,1024,1024,1684,1078,87.4,0,99,4.152,4.172,4.164,4.15,0,0,87.71,6,GPS_Atti,
0.305142123172462,36.8793782120161,5948.7900922642,114.8294,0,4.0928479,12800,2017-11-11 12:01:22,17,16.63,5948.7900922642,114.8294,1.11847,4.112696982,90.6, -6.2, -7.5,0,0,1024,1024,1684,1087,87.7,0,99,4.152,4.172,4.164,4.15,0,0,87.71,6,GPS_Atti,
0.305142124284994,36.8793781938562,5950.7585962642,116.797904,0,4.0988846456,12900,2017-11-11 12:01:22,17,16.63,5950.7585962642,116.797904,1.11847,4.112696982,91, -7.2, -8.9,0,0,1024,1024,1684,1066,88,0,99,4.152,4.172,4.164,4.15,0,0,87.71,6,GPS_Atti,
0.305142098427136,36.8793781558674,5952.7271002642,118.766408,0,4.1151904204,13000,2017-11-11 12:01:22,17,16.63,5952.7271002642,118.766408,1.11847,4.1151904204,91.5, -8.2, -9.7,0,0,1024,1024,1684,1074,88.3,0,99,4.152,4.172,4.164,4.15,0,0,87.71,6,GPS_Atti,
0.305142097922216,36.8793780523821,5954.3675202642,120.406828,0,4.150590684,13100,2017-11-11 12:01:22,17,16.63,5954.3675202642,120.406828,1.11847,4.150590684,92, -8.2, -9.9,0,0,1024,1024,1684,1079,88.3,0,99,4.152,4.172,4.164,4.15,0,0,87.71,6,GPS_Atti,
0.305142093104363,36.8793779785612,5956.3360242642,122.375332,0,4.1764437032,13200,2017-11-11 12:01:22,17,16.63,5956.3360242642,122.375332,1.11847,4.1764437032,92.4, -8.7, -9.7,0,0,1024,1024,1684,1085,88.5,0,99,4.152,4.172,4.164,4.15,0,0,87.71,6,GPS_Atti,
0.30514215562216,36.8793778635831,5957.9764442642,124.015752,0,4.2079725756,13300,2017-11-11 12:01:22,17,16.63,5957.9764442642,124.015752,1.11847,4.2079725756,92.8, -8.8, -9.1,0,0,1024,1024,1684,1085,88.8,0,99,4.152,4.172,4.164,4.15,0,0,87.71,6,GPS_Atti,
0.305142180316699,36.8793777979501,5959.9449482642,125.984256,0,4.2274607652,13400,2017-11-11 12:01:22,17,16.63,5959.9449482642,125.984256,1.11847,4.2274607652,93.2, -8.4, -9.3,0,0,1024,1024,1684,1124,89.2,0,99,4.152,4.172,4.164,4.15,0,0,87.71,6,GPS_Atti,
0.305142200669705,36.8793777325018,5961.5853682642,127.624676,0,4.2474738892,13500,2017-11-11 12:01:22,17,16.63,5961.5853682642,127.624676,1.11847,4.2474738892,93.9, -8.4, -9.2,0,0,1024,1024,1684,1124,89.8,0,99,4.152,4.172,4.164,4.15,0,0,87.71,6,GPS_Atti,
0.30514217924274,36.8793777029278,5963.5538722642,129.59318,0,4.2602363568,13600,2017-11-11 12:01:22,17,16.63,5963.5538722642,129.59318,1.11847,4.2602363568,94.7, -8.3, -9.5,0,0,1024,1024,1684,1116,90.6,0,99,4.152,4.172,4.164,4.15,0,0,87.71,6,GPS_Atti,
0.305142135771428,36.8793776259219,5965.5223762642,131.561684,0,4.2920276964,13700,2017-11-11 12:01:22,17,16.524,5965.5223762642,131.561684,1.11847,4.2920276964,95.5, -8, -10.3,0,0,1024,1024,1684,1116,91.1,0,99,4.153,4.17,4.16,4.145,0,0,87.71,6,GPS_Atti,
0.305142061217699,36.8793775836856,5967.4908802642,133.530188,0.223694,4.3157153612,13800,2017-11-11 12:01:23,17,16.524,5967.4908802642,133.530188,1.11847,4.3157153612,96.2, -7.9, -11.3,0,0,1024,1024,1684,1095,91.8,0,99,4.153,4.17,4.16,4.145,0,0,87.71,6,GPS_Atti,
0.305141967374136,36.879377489706,5971.0998042642,137.139112,0.223694,4.3596458088,14000,2017-11-11 12:01:23,17,16.524,5971.0998042642,137.139112,1.11847,4.3596458088,97.4, -7.2, -11.3,0,0,1024,1024,1684,1087,92.9,0,99,4.153,4.17,4.16,4.145,0,0,87.71,6,GPS_Atti,
0.305141937504605,36.879377405342,5972.7402242642,138.779532,0.223694,4.3923229752,14100,2017-11-11 12:01:23,17,16.524,5972.7402242642,138.779532,1.11847,4.3923229752,98.1, -7.8, -11.5,0,0,1024,1024,1684,1111,93.4,0,99,4.153,4.17,4.16,4.145,0,0,87.71,6,GPS_Atti,
0.305141886724327,36.8793773493646,5974.7087282642,140.748036,0,4.4178807188,14200,2017-11-11 12:01:23,17,16.524,5974.7087282642,140.748036,1.11847,4.4178807188,98.7, -8, -12.1,0,0,1024,1024,1684,1113,94.2,0,99,4.153,4.17,4.16,4.145,0,0,87.71,6,GPS_Atti,
0.305141864470419,36.8793772437232,5976.3491482642,142.388456,0,4.456857098,14300,2017-11-11 12:01:23,17,16.524,5976.3491482642,142.388456,1.11847,4.456857098,99.5, -8, -12.2,0,0,1024,1024,1684,1104,94.9,0,99,4.153,4.17,4.16,4.145,0,0,87.71,6,GPS_Atti,
0.305141838705178,36.8793772038137,5978.3176522642,144.35696,0,4.473753424,14400,2017-11-11 12:01:23,17,16.524,5978.3176522642,144.35696,1.11847,4.473753424,100.2, -7.3, -12.2,0,0,1024,1024,1684,1095,95.6,0,99,4.153,4.17,4.16,4.145,0,0,87.71,6,GPS_Atti,
0.30514185186443,36.8793771250735,5979.9580722642,145.99738,0,4.4990815088,14500,2017-11-11 12:01:23,17,16.524,5979.9580722642,145.99738,1.11847,4.4990815088,100.8, -6.4, -11.8,0,0,1024,1024,1684,1120,96.4,0,99,4.153,4.17,4.16,4.145,0,0,87.71,6,GPS_Atti,
0.305141880869969,36.8793770836529,5981.5984922642,147.6378,0,4.509678622,14600,2017-11-11 12:01:23,17,16.524,5981.5984922642,147.6378,1.11847,4.509678622,101.5, -6.2, -11.4,0,0,1024,1024,1684,1114,96.4,0,99,4.153,4.17,4.16,4.145,0,0,87.71,6,GPS_Atti,
0.305141979997223,36.8793769869359,5983.2389122642,149.27822,0,4.5307744232,14700,2017-11-11 12:01:23,17,16.47,5983.2389122642,149.27822,1.11847,4.5307744232,102.3, -5.9, -11,0,0,1024,1024,1684,1102,97.3,0,99,4.146,4.163,4.152,4.138,0,0,87.71,6,GPS_Atti,
0.305142101222665,36.879376913009,5984.5512482642,150.590556,0,4.5419292792,14800,2017-11-11 12:01:23,17,16.47,5984.5512482642,150.590556,1.11847,4.5419292792,103.3, -5.8, -10,0,0,1024,1024,1684,1113,98.1,0,99,4.146,4.163,4.152,4.138,0,0,87.71,6,GPS_Atti,
0.305142277921154,36.879376718833,5986.1916682642,152.230976,0.223694,4.5891733752,14900,2017-11-11 12:01:24,17,16.47,5986.1916682642,152.230976,1.11847,4.5891733752,104.3, -7.7, -9.6,0,0,1024,1024,1684,1107,99,0,99,4.146,4.163,4.152,4.138,0,0,87.71,6,GPS_Atti,
0.305142439179042,36.8793765571194,5987.8320882642,153.871396,0.223694,4.6282153712,15000,2017-11-11 12:01:24,17,16.47,5987.8320882642,153.871396,1.11847,4.6282153712,105.4, -8.8, -9.7,0,0,1024,1024,1684,1117,99.9,0,99,4.146,4.163,4.152,4.138,0,0,87.71,6,GPS_Atti,
0.305142650741703,36.8793764190118,5989.8005922642,155.8399,0.223694,4.6551510676,15100,2017-11-11 12:01:24,17,16.47,5989.8005922642,155.8399,1.11847,4.6551510676,106.2, -8.7, -9.7,0,0,1024,1024,1684,1128,100.9,0,99,4.146,4.163,4.152,4.138,0,0,87.71,6,GPS_Atti,
0.305142830167733,36.8793763206905,5991.4410122642,157.48032,0.223694,4.6726707532,15200,2017-11-11 12:01:24,17,16.47,5991.4410122642,157.48032,1.11847,4.6726707532,107.2, -8.1, -10,0,0,1024,1024,1684,1121,101.9,0,99,4.146,4.163,4.152,4.138,0,0,87.71,6,GPS_Atti,
0.305143056695082,36.8793762142894,5993.0814322642,159.12074,0.223694,4.6900920136,15300,2017-11-11 12:01:24,17,16.47,5993.0814322642,159.12074,1.11847,4.6900920136,108.4, -8.5, -8.9,0,0,1024,1024,1684,1133,103.1,0,99,4.146,4.163,4.152,4.138,0,0,87.71,6,GPS_Atti,
0.305143225672812,36.8793761408834,5994.7218522642,160.76116,0.223694,4.7020670796,15400,2017-11-11 12:01:24,17,16.47,5994.7218522642,160.76116,1.11847,4.7020670796,109.4, -8.2, -8.7,0,0,1024,1024,1684,1081,104.2,0,99,4.146,4.163,4.152,4.138,0,0,87.71,6,GPS_Atti,
0.305143346760854,36.8793759883383,5996.6903562642,162.729664,0,4.7468505456,15500,2017-11-11 12:01:24,17,16.47,5996.6903562642,162.729664,1.11847,4.7468505456,110.5, -8.3, -10.1,0,0,1024,1024,1684,1131,105.1,0,99,4.146,4.163,4.152,4.138,0,0,87.71,6,GPS_Atti,
0.305143422106516,36.879375858478,5998.3307762642,164.370084,0,4.7875329616,15600,2017-11-11 12:01:24,17,16.47,5998.3307762642,164.370084,1.11847,4.7875329616,111.4, -8.9, -10.8,0,0,1024,1024,1684,1125,106.2,0,99,4.146,4.163,4.152,4.138,0,0,87.71,6,GPS_Atti,
0.3051435070144,36.8793757220421,5999.9711962642,166.010504,0,4.8301838816,15700,2017-11-11 12:01:24,17,16.524,5999.9711962642,166.010504,1.11847,4.8301838816,112.5, -8.9, -10.8,0,0,1024,1024,1684,1097,107.3,0,99,4.138,4.154,4.149,4.136,0,0,87.71,6,GPS_Atti,
0.305143550098143,36.8793756310902,6001.9397002642,167.979008,0,4.8597114416,15800,2017-11-11 12:01:24,17,16.524,6001.9397002642,167.979008,1.11847,4.8597114416,113.6, -8.6, -11.5,0,0,1024,1024,1684,1100,108.2,0,99,4.138,4.154,4.149,4.136,0,0,87.71,6,GPS_Atti,
0.305143648011798,36.8793755065244,6003.5801202642,169.619428,0,4.8977363772,15900,2017-11-11 12:01:25,17,16.524,6003.5801202642,169.619428,1.11847,4.8977363772,114.4, -7.9, -12,0,0,1024,1024,1684,1092,109.1,0,99,4.138,4.154,4.149,4.136,0,0,87.71,6,GPS_Atti,
0.305143758472412,36.8793754090676,6005.2205402642,171.259848,0,4.9256235172,16000,2017-11-11 12:01:25,17,16.524,6005.2205402642,171.259848,1.11847,4.9256235172,115, -7.3, -12.2,0,0,1024,1024,1684,1099,109.1,0,99,4.138,4.154,4.149,4.136,0,0,87.71,6,GPS_Atti,
0.305143863794673,36.8793753468835,6006.8609602642,172.900268,0,4.9415355912,16100,2017-11-11 12:01:25,17,16.524,6006.8609602642,172.900268,1.11847,4.9415355912,115.7, -7.6, -12.2,0,0,1024,1024,1684,1087,110,0,99,4.138,4.154,4.149,4.136,0,0,87.71,6,GPS_Atti,
0.305144181521196,36.8793751646494,6010.4698842642,176.509192,0,4.9896983224,16300,2017-11-11 12:01:25,17,16.524,6010.4698842642,176.509192,1.11847,4.9896983224,117.1, -7.7, -11.2,0,0,1024,1024,1684,1101,111.5,0,99,4.138,4.154,4.149,4.136,0,0,87.71,6,GPS_Atti,
0.305144353613325,36.8793750951248,6012.1103042642,178.149612,0,5.0065290316,16400,2017-11-11 12:01:25,17,16.524,6012.1103042642,178.149612,1.11847,5.0065290316,117.5, -7.1, -10.4,0,0,1024,1024,1684,1114,111.5,0,99,4.138,4.154,4.149,4.136,0,0,87.71,6,GPS_Atti,
0.305144576727252,36.8793749737232,6013.7507242642,179.790032,0,5.0409450432,16500,2017-11-11 12:01:25,17,16.524,6013.7507242642,179.790032,1.11847,5.0409450432,118.2, -6.9, -10.8,0,0,1024,1024,1684,1112,113.1,0,99,4.138,4.154,4.149,4.136,0,0,87.71,6,GPS_Atti,
0.305144765526606,36.8793748792613,6015.3911442642,181.430452,0.223694,5.0682088236,16600,2017-11-11 12:01:25,17,16.524,6015.3911442642,181.430452,1.11847,5.0682088236,119.2, -7.8, -11.2,0,0,1024,1024,1684,1113,113.1,0,99,4.138,4.154,4.149,4.136,0,0,87.71,6,GPS_Atti,
0.305144995686402,36.8793747697946,6017.0315642642,183.070872,0.223694,5.1007547564,16700,2017-11-11 12:01:25,17,16.417,6017.0315642642,183.070872,1.11847,5.1007547564,120.3, -8.1, -10.7,0,0,1024,1024,1684,1097,115,0,99,4.138,4.154,4.149,4.136,0,0,87.71,6,GPS_Atti,
0.30514517691797,36.8793747151903,6018.6719842642,184.711292,0.223694,5.1159122372,16800,2017-11-11 12:01:26,17,16.417,6018.6719842642,184.711292,1.11847,5.1159122372,121.1, -7.8, -10.5,0,0,1024,1024,1684,1091,115.9,0,99,4.138,4.154,4.149,4.136,0,0,87.71,6,GPS_Atti,
0.305145393403315,36.87937462719,6020.3124042642,186.351712,0.223694,5.1435041016,16900,2017-11-11 12:01:26,17,16.417,6020.3124042642,186.351712,1.11847,5.1435041016,122.1, -8.2, -10.6,0,0,1024,1024,1684,1095,116.6,0,99,4.138,4.154,4.149,4.136,0,0,87.71,6,GPS_Atti,
0.305145560858654,36.8793745871393,6022.2809082642,188.320216,0,5.1554791676,17000,2017-11-11 12:01:26,17,16.417,6022.2809082642,188.320216,1.11847,5.1554791676,122.8, -8.3, -10.3,0,0,1024,1024,1684,1092,117.5,0,99,4.138,4.154,4.149,4.136,0,0,87.71,6,GPS_Atti,
0.305145772861707,36.8793745434828,6023.9213282642,189.960636,0,5.169127462,17100,2017-11-11 12:01:26,17,16.417,6023.9213282642,189.960636,1.11847,5.169127462,123.6, -8, -11.1,0,0,1024,1024,1684,1024,118.8,0,99,4.138,4.154,4.149,4.136,0,0,87.71,6,GPS_Atti,
0.305146094976072,36.879374519538,6027.5302522642,193.56956,0,5.1766405856,17300,2017-11-11 12:01:26,17,16.417,6027.5302522642,193.56956,1.11847,5.1766405856,124.4, -7, -11.1,0,0,1024,1024,1684,1024,118.8,0,99,4.138,4.154,4.149,4.136,0,0,87.71,6,GPS_Atti,
0.305146211724514,36.8793745311849,6029.1706722642,195.20998,0.223694,5.172572344,17400,2017-11-11 12:01:26,17,16.417,6029.1706722642,195.20998,1.11847,5.1766405856,124.5, -7, -11.6,0,0,1024,1024,1684,1024,119.2,0,99,4.138,4.154,4.149,4.136,0,0,87.71,6,GPS_Atti,
0.305146367010491,36.8793744584715,6030.8110922642,196.8504,0.223694,5.1999345496,17500,2017-11-11 12:01:26,17,16.417,6030.8110922642,196.8504,1.11847,5.1999345496,124.4, -6.7, -11.6,0,0,1024,1024,1684,1005,119.5,0,99,4.138,4.154,4.149,4.136,0,0,87.71,6,GPS_Atti,
0.305146487982303,36.879374443782,6032.4515122642,198.49082,0.223694,5.206364996,17600,2017-11-11 12:01:26,17,16.417,6032.4515122642,198.49082,1.11847,5.206364996,124.4, -6.8, -11.5,0,0,1024,1024,1684,923,119.8,0,99,4.138,4.154,4.149,4.136,0,0,87.71,6,GPS_Atti,
0.305146680718421,36.8793744192205,6034.0919322642,200.13124,0.223694,5.2177823192,17700,2017-11-11 12:01:26,17,16.47,6034.0919322642,200.13124,1.11847,5.2177823192,124.5, -7, -10.6,0,0,1024,1024,1684,898,120,0,99,4.125,4.147,4.138,4.125,0,0,87.71,6,GPS_Atti,
0.305146819752527,36.8793744445956,6035.7323522642,201.77166,0.223694,5.2109253636,17800,2017-11-11 12:01:27,17,16.47,6035.7323522642,201.77166,1.11847,5.2177823192,124.2, -7.2, -9.8,0,0,1024,1024,1684,958,119.9,0,99,4.125,4.147,4.138,4.125,0,0,87.71,6,GPS_Atti,
0.305147126524913,36.8793743646269,6039.3412762642,205.380584,0.223694,5.2469817952,18000,2017-11-11 12:01:27,17,16.47,6039.3412762642,205.380584,1.11847,5.2469817952,121.6, -7, -10.4,0,0,1024,1024,1684,946,119.4,0,99,4.125,4.147,4.138,4.125,0,0,87.71,6,GPS_Atti,
0.305147273312448,36.8793742914842,6040.9816962642,207.021004,0,5.2777560744,18100,2017-11-11 12:01:27,17,16.47,6040.9816962642,207.021004,1.11847,5.2777560744,121, -7.6, -10.9,0,0,1024,1024,1684,961,119.1,0,99,4.125,4.147,4.138,4.125,0,0,87.71,6,GPS_Atti,
0.305147370513863,36.8793742604618,6042.6221162642,208.661424,0,5.2920605368,18200,2017-11-11 12:01:27,17,16.47,6042.6221162642,208.661424,1.11847,5.2920605368,120.4, -8.3, -11,0,0,1024,1024,1684,964,118.8,0,99,4.125,4.147,4.138,4.125,0,0,87.71,6,GPS_Atti,
0.305147533841504,36.8793742218178,6044.2625362642,210.301844,0.223694,5.3117127684,18300,2017-11-11 12:01:27,17,16.47,6044.2625362642,210.301844,1.11847,5.3117127684,119.8, -8.5, -10.9,0,0,1024,1024,1684,991,118.6,0,99,4.125,4.147,4.138,4.125,0,0,87.71,6,GPS_Atti,
0.305147635366438,36.8793742412661,6045.9029562642,211.942264,0.223694,5.3084647368,18400,2017-11-11 12:01:27,17,16.47,6045.9029562642,211.942264,1.11847,5.3117127684,119.2, -8.2, -10.5,0,0,1024,1024,1684,986,118.5,0,99,4.125,4.147,4.138,4.125,0,0,87.71,6,GPS_Atti,
0.30514776115478,36.8793742184369,6047.5433762642,213.582684,0.223694,5.321850564,18500,2017-11-11 12:01:27,17,16.47,6047.5433762642,213.582684,1.11847,5.321850564,118.7, -7.8, -10,0,0,1024,1024,1684,966,118.4,0,99,4.125,4.147,4.138,4.125,0,0,87.71,6,GPS_Atti,
0.305147828153037,36.8793742332046,6049.1837962642,215.223104,0.223694,5.3193571256,18600,2017-11-11 12:01:27,17,16.47,6049.1837962642,215.223104,1.11847,5.321850564,118.4, -7.7, -10,0,0,1024,1024,1684,970,118.2,0,99,4.125,4.147,4.138,4.125,0,0,87.71,6,GPS_Atti,
0.305147970985489,36.8793742057311,6050.8242162642,216.863524,0.223694,5.335794134,18700,2017-11-11 12:01:27,17,16.417,6050.8242162642,216.863524,1.11847,5.335794134,118, -8, -10,0,0,1024,1024,1684,986,118.2,0,99,4.124,4.141,4.134,4.125,0,0,87.71,6,GPS_Atti,
0.305148053909114,36.8793742138569,6052.4646362642,218.503944,0.223694,5.3368440028,18800,2017-11-11 12:01:27,17,16.417,6052.4646362642,218.503944,1.11847,5.3368440028,117.7, -8.7, -10,0,0,1024,1024,1684,1002,118,0,99,4.124,4.141,4.134,4.125,0,0,87.71,6,GPS_Atti,
0.305148176565144,36.8793741937105,6054.4331402642,220.472448,0.223694,5.3503282552,18900,2017-11-11 12:01:28,17,16.417,6054.4331402642,220.472448,1.11847,5.3503282552,117.2, -8.5, -10.3,0,0,1024,1024,1684,1010,117.9,0,99,4.124,4.141,4.134,4.125,0,0,87.71,6,GPS_Atti,
0.305148246926138,36.8793742214045,6056.0735602642,222.112868,0.223694,5.3440618508,19000,2017-11-11 12:01:28,17,16.417,6056.0735602642,222.112868,1.11847,5.3503282552,117, -8.3, -10,0,0,1024,1024,1684,1010,117.9,0,99,4.124,4.141,4.134,4.125,0,0,87.71,6,GPS_Atti,
0.305148377671464,36.8793742173192,6057.7139802642,223.753288,0.223694,5.3527888852,19100,2017-11-11 12:01:28,17,16.417,6057.7139802642,223.753288,1.11847,5.3527888852,117, -8.1, -9.9,0,0,1024,1024,1684,1024,117.7,0,99,4.124,4.141,4.134,4.125,0,0,87.71,6,GPS_Atti,
0.305148453445406,36.8793742514196,6059.3544002642,225.393708,0.223694,5.3449148692,19200,2017-11-11 12:01:28,17,16.417,6059.3544002642,225.393708,1.11847,5.3527888852,117, -8.4, -9.6,0,0,1024,1024,1684,1024,117.6,0,99,4.124,4.141,4.134,4.125,0,0,87.71,6,GPS_Atti,
0.305148585057878,36.8793742756106,6060.9948202642,227.034128,0.223694,5.3441930844,19300,2017-11-11 12:01:28,17,16.417,6060.9948202642,227.034128,1.11847,5.3527888852,117, -8.7, -9.7,0,0,1024,1024,1684,1024,117.6,0,99,4.124,4.141,4.134,4.125,0,0,87.71,6,GPS_Atti,
0.305148665762748,36.8793743198709,6062.6352402642,228.674548,0.223694,5.3333991208,19400,2017-11-11 12:01:28,17,16.417,6062.6352402642,228.674548,1.11847,5.3527888852,117, -9, -9.8,0,0,1024,1024,1684,1024,117.5,0,99,4.124,4.141,4.134,4.125,0,0,87.71,6,GPS_Atti,
0.30514875719825,36.8793743173722,6064.2756602642,230.314968,0.223694,5.3402888848,19500,2017-11-11 12:01:28,17,16.417,6064.2756602642,230.314968,1.11847,5.3527888852,117, -9.3, -9.4,0,0,1024,1024,1684,1024,117.4,0,99,4.124,4.141,4.134,4.125,0,0,87.71,6,GPS_Atti,
0.305148797788031,36.879374366357,6065.9160802642,231.955388,0.223694,5.325459488,19600,2017-11-11 12:01:28,17,16.417,6065.9160802642,231.955388,1.11847,5.3527888852,117, -9.1, -9.3,0,0,1024,1024,1684,1024,117.4,0,99,4.124,4.141,4.134,4.125,0,0,87.71,6,GPS_Atti,
0.305148880502401,36.8793743839971,6067.5565002642,233.595808,0.223694,5.3248361284,19700,2017-11-11 12:01:28,17,16.417,6067.5565002642,233.595808,1.11847,5.3527888852,116.9, -8.6, -9.3,0,0,1024,1024,1684,1024,117.2,0,98,4.113,4.13,4.124,4.111,0,0,87.71,6,GPS_Atti,
0.305148954712223,36.8793744648822,6070.8373402642,236.876648,0.223694,5.301181272,19900,2017-11-11 12:01:29,17,16.417,6070.8373402642,236.876648,1.11847,5.3527888852,116.9, -8.4, -9.5,0,0,1024,1024,1684,1024,117.2,0,98,4.113,4.13,4.124,4.111,0,0,87.71,6,GPS_Atti,
0.305148958925821,36.8793745158059,6072.4777602642,238.517068,0.223694,5.2832678856,20000,2017-11-11 12:01:29,17,16.417,6072.4777602642,238.517068,1.11847,5.3527888852,116.9, -8.2, -9.5,0,0,1024,1024,1684,1024,117.2,0,98,4.113,4.13,4.124,4.111,0,0,87.71,6,GPS_Atti,
0.305148999170372,36.8793745236726,6074.1181802642,240.157488,0.31540854,5.2833991192,20100,2017-11-11 12:01:29,17,16.417,6074.1181802642,240.157488,1.11847,5.3527888852,116.9, -8.5, -9.8,0,0,1024,1024,1668,1024,117.1,0,98,4.113,4.13,4.124,4.111,0,0,87.71,6,GPS_Atti,
0.305149056121944,36.8793745668452,6077.3990202642,243.438328,0.31540854,5.2722114548,20300,2017-11-11 12:01:29,17,16.417,6077.3990202642,243.438328,1.11847,5.3527888852,117, -8.8, -9.6,0,0,1024,1024,1517,1024,117.1,0,98,4.113,4.13,4.124,4.111,0,0,87.71,6,GPS_Atti,
0.30514904892015,36.8793746154927,6079.0394402642,245.078748,0.31540854,5.2542980684,20400,2017-11-11 12:01:29,17,16.417,6079.0394402642,245.078748,1.11847,5.3527888852,117.1, -9, -10.2,0,0,1024,1024,1442,1024,117,0,98,4.113,4.13,4.124,4.111,0,0,87.71,6,GPS_Atti,
0.305149079684714,36.8793745757567,6080.6798602642,246.719168,0.223694,5.2708006936,20500,2017-11-11 12:01:29,17,16.417,6080.6798602642,246.719168,1.11847,5.3527888852,117.5, -11.4, -13.5,0,0,1024,1024,1390,1024,117,0,98,4.113,4.13,4.124,4.111,0,0,87.71,6,GPS_Atti,
0.305149048918522,36.8793745416617,6081.9921962642,248.031504,0.223694,5.2806432136,20600,2017-11-11 12:01:29,17,16.417,6081.9921962642,248.031504,1.11847,5.3527888852,117.7, -12.3, -14.6,0,0,1024,1024,1377,1024,116.9,0,98,4.113,4.13,4.124,4.111,0,0,87.71,6,GPS_Atti,
0.305149056585236,36.8793744941393,6082.9764482642,249.015756,0.223694,5.2981957076,20700,2017-11-11 12:01:29,17,16.338,6082.9764482642,249.015756,1.11847,5.3527888852,117.5, -11.5, -13.5,0,0,1024,1024,1393,1024,116.8,0,98,4.113,4.13,4.124,4.111,0,0,87.71,6,GPS_Atti,
0.305149020509502,36.879374458433,6083.9607002642,250.000008,0.223694,5.3082678864,20800,2017-11-11 12:01:29,17,16.338,6083.9607002642,250.000008,1.11847,5.3527888852,117.2, -10.5, -12,0,0,1024,1024,1305,1024,116.7,0,98,4.113,4.13,4.124,4.111,0,0,87.71,6,GPS_Atti,
0.305149010950536,36.8793743384114,6084.6168682642,250.656176,0.223694,5.3504594888,20900,2017-11-11 12:01:30,17,16.338,6084.6168682642,250.656176,1.11847,5.3527888852,117.1, -9.2, -9.9,0,0,1024,1024,1220,1024,116.7,0,98,4.113,4.13,4.124,4.111,0,0,87.71,6,GPS_Atti,
0.305148952118111,36.8793742377032,6085.6011202642,251.640428,0.223694,5.3822508284,21000,2017-11-11 12:01:30,17,16.338,6085.6011202642,251.640428,1.11847,5.3822508284,117.2, -10, -11.6,0,0,1024,1024,1179,1024,116.6,0,98,4.113,4.13,4.124,4.111,0,0,87.71,6,GPS_Atti,
0.305148890741243,36.8793738682342,6086.5853722642,252.62468,0.223694,5.510334822,21200,2017-11-11 12:01:30,17,16.338,6086.5853722642,252.62468,1.11847,5.510334822,117.5, -11.1, -12.5,0,0,1024,1024,1151,1024,116.6,0,98,4.113,4.13,4.124,4.111,0,0,87.71,6,GPS_Atti,
0.305148887985101,36.879373729003,6086.9134562642,252.952764,0.223694,5.5600723564,21300,2017-11-11 12:01:30,17,16.338,6086.9134562642,252.952764,1.11847,5.5600723564,117.2, -10.3, -11.4,0,0,1024,1024,1100,1024,116.6,0,98,4.113,4.13,4.124,4.111,0,0,87.71,6,GPS_Atti,
0.305148855868929,36.8793736186627,6087.2415402642,253.280848,0.223694,5.5975067408,21400,2017-11-11 12:01:30,17,16.338,6087.2415402642,253.280848,1.11847,5.5975067408,117.1, -10.4, -11.6,0,0,1024,1024,1089,1024,116.5,0,98,4.113,4.13,4.124,4.111,0,0,87.71,6,GPS_Atti,
0.30514886662073,36.8793734417189,6087.2415402642,253.280848,0.223694,5.6617127796,21500,2017-11-11 12:01:30,17,16.338,6087.2415402642,253.280848,1.11847,5.6617127796,117.2, -10.6, -11.5,0,0,1024,1024,1073,1024,116.5,0,98,4.113,4.13,4.124,4.111,0,0,87.71,6,GPS_Atti,
0.305148863221354,36.8793733328336,6087.5696242642,253.608932,0,5.7005907336,21600,2017-11-11 12:01:30,17,16.338,6087.5696242642,253.608932,1.11847,5.7005907336,117.1, -10.1, -10.5,0,0,1024,1024,1070,1024,116.5,0,98,4.113,4.13,4.124,4.111,0,0,87.71,6,GPS_Atti,
0.305148920289359,36.8793732922251,6087.5696242642,253.608932,0.223694,5.7188978208,21700,2017-11-11 12:01:30,17,16.311,6087.5696242642,253.608932,1.11847,5.7188978208,117, -9.6, -10.1,0,0,1024,1024,1024,1024,116.4,0,98,4.11,4.131,4.12,4.111,0,0,89.51,6,GPS_Atti,
0.305148945982134,36.8793732857737,6087.5696242642,253.608932,0.223694,5.722933254,21800,2017-11-11 12:01:31,17,16.311,6087.5696242642,253.608932,1.11847,5.722933254,117, -9.4, -9.7,0,0,1024,1024,1024,1024,116.4,0,98,4.11,4.131,4.12,4.111,0,0,89.51,6,GPS_Atti,
0.305149003848892,36.8793732720883,6087.8977082642,253.937016,0.223694,5.7317259052,21900,2017-11-11 12:01:31,17,16.311,6087.8977082642,253.937016,1.11847,5.7317259052,116.9, -9.1, -9.6,0,0,1024,1024,1024,1024,116.4,0,98,4.11,4.131,4.12,4.111,0,0,89.51,6,GPS_Atti,
0.305149034471781,36.8793732982867,6087.8977082642,253.937016,0.447388,5.724409632,22000,2017-11-11 12:01:31,17,16.311,6087.8977082642,253.937016,1.11847,5.7317259052,116.8, -8.7, -9.1,0,0,1024,1024,1024,1024,116.4,0,98,4.11,4.131,4.12,4.111,0,0,89.51,6,GPS_Atti,
0.305149075862756,36.8793733426477,6087.8977082642,253.937016,0.447388,5.7113846972,22100,2017-11-11 12:01:31,17,16.311,6087.8977082642,253.937016,1.11847,5.7317259052,116.9, -8.4, -8.8,0,0,1024,1024,1024,1024,116.4,0,98,4.11,4.131,4.12,4.111,0,0,89.51,6,GPS_Atti,
0.305149088440858,36.879373404168,6087.8977082642,253.937016,0.447388,5.6902560876,22200,2017-11-11 12:01:31,17,16.311,6087.8977082642,253.937016,1.11847,5.7317259052,116.8, -8.2, -9,0,0,1024,1024,1024,1024,116.4,0,98,4.11,4.131,4.12,4.111,0,0,89.51,6,GPS_Atti,
0.305149144946236,36.8793734744062,6087.8977082642,253.937016,0.447388,5.669127478,22300,2017-11-11 12:01:31,17,16.311,6087.8977082642,253.937016,1.11847,5.7317259052,116.7, -8, -8.6,0,0,1024,1024,1024,1024,116.3,0,98,4.11,4.131,4.12,4.111,0,0,89.51,6,GPS_Atti,
0.305149168141792,36.8793735487714,6087.8977082642,253.937016,0.447388,5.6442259024,22400,2017-11-11 12:01:31,17,16.311,6087.8977082642,253.937016,1.11847,5.7317259052,116.7, -7.9, -8.7,0,0,1024,1024,1024,1024,116.3,0,98,4.11,4.131,4.12,4.111,0,0,89.51,6,GPS_Atti,
0.30514926880243,36.8793736082545,6087.8977082642,253.937016,0.447388,5.630413566,22500,2017-11-11 12:01:31,17,16.311,6087.8977082642,253.937016,1.11847,5.7317259052,116.7, -7.8, -8.4,0,0,1024,1024,1024,1024,116.3,0,98,4.11,4.131,4.12,4.111,0,0,89.51,6,GPS_Atti,
0.305149328100589,36.8793736822461,6087.8977082642,253.937016,0.447388,5.6085303632,22600,2017-11-11 12:01:31,17,16.311,6087.8977082642,253.937016,1.11847,5.7317259052,116.7, -7.6, -8.2,0,0,1024,1024,1024,1024,116.3,0,98,4.11,4.131,4.12,4.111,0,0,89.51,6,GPS_Atti,
0.305149455307306,36.8793736974613,6087.8977082642,253.937016,0.447388,5.6130907308,22700,2017-11-11 12:01:31,17,16.603,6087.8977082642,253.937016,1.11847,5.7317259052,116.7, -7.8, -8.3,0,0,1024,1024,1024,1024,116.3,0,98,4.163,4.182,4.18,4.171,0,0,89.51,6,GPS_Atti,
0.305149682757779,36.8793737717013,6087.5696242642,253.608932,0.223694,5.6055447988,22900,2017-11-11 12:01:32,17,16.603,6087.8977082642,253.937016,1.11847,5.7317259052,116.7, -7.8, -7.6,0,0,1024,1024,1024,1024,116.3,0,98,4.163,4.182,4.18,4.171,0,0,89.51,6,GPS_Atti,
0.305149766499697,36.8793738228477,6087.5696242642,253.608932,0.223694,5.59465241,23000,2017-11-11 12:01:32,17,16.603,6087.8977082642,253.937016,1.11847,5.7317259052,116.7, -7.9, -7.8,0,0,1024,1024,1024,1024,116.3,0,98,4.163,4.182,4.18,4.171,0,0,89.51,6,GPS_Atti,
0.305149922668291,36.8793738192366,6087.5696242642,253.608932,0.223694,5.609908316,23100,2017-11-11 12:01:32,17,16.603,6087.8977082642,253.937016,1.11847,5.7317259052,116.7, -8.1, -7.8,0,0,1024,1024,1024,1024,116.3,0,98,4.163,4.182,4.18,4.171,0,0,89.51,6,GPS_Atti,
0.305150025484988,36.8793738415027,6087.5696242642,253.608932,0.223694,5.611548736,23200,2017-11-11 12:01:32,17,16.603,6087.8977082642,253.937016,1.11847,5.7317259052,116.7, -8.2, -7.7,0,0,1024,1024,1024,1024,116.3,0,98,4.163,4.182,4.18,4.171,0,0,89.51,6,GPS_Atti,
0.305150171702974,36.8793738108817,6087.8977082642,253.937016,0.223694,5.6362206528,23300,2017-11-11 12:01:32,17,16.603,6087.8977082642,253.937016,1.11847,5.7317259052,116.8, -8.3, -7.9,0,0,1024,1024,1024,1024,116.3,0,98,4.163,4.182,4.18,4.171,0,0,89.51,6,GPS_Atti,
0.305150246975355,36.8793738195942,6087.8977082642,253.937016,0.223694,5.6404857448,23400,2017-11-11 12:01:32,17,16.603,6087.8977082642,253.937016,1.11847,5.7317259052,116.7, -8.2, -7.9,0,0,1024,1024,1024,1024,116.3,0,98,4.163,4.182,4.18,4.171,0,0,89.51,6,GPS_Atti,
0.305150368235809,36.8793737888436,6087.8977082642,253.937016,0.223694,5.6633531996,23500,2017-11-11 12:01:32,17,16.603,6087.8977082642,253.937016,1.11847,5.7317259052,116.7, -8, -7.8,0,0,1024,1024,1024,1024,116.3,0,98,4.163,4.182,4.18,4.171,0,0,89.51,6,GPS_Atti,
0.305150437387684,36.8793737879507,6087.8977082642,253.937016,0.223694,5.6706694728,23600,2017-11-11 12:01:32,17,16.603,6087.8977082642,253.937016,1.11847,5.7317259052,116.7, -8.3, -7.8,0,0,1024,1024,1024,1024,116.2,0,98,4.163,4.182,4.18,4.171,0,0,89.51,6,GPS_Atti,
0.305150601234391,36.8793737931131,6087.8977082642,253.937016,0.223694,5.6859253788,23700,2017-11-11 12:01:33,17,16.603,6087.8977082642,253.937016,1.11847,5.7317259052,116.7, -8.3, -7.7,0,0,1024,1024,1024,1024,116.2,0,98,4.163,4.182,4.18,4.171,0,0,89.51,6,GPS_Atti,
0.305150848469643,36.8793737856361,6087.5696242642,253.608932,0.223694,5.7153217052,23900,2017-11-11 12:01:33,17,16.603,6087.8977082642,253.937016,1.11847,5.7317259052,116.7, -8.4, -7.6,0,0,1024,1024,1024,1024,116.2,0,98,4.163,4.182,4.18,4.171,0,0,89.51,6,GPS_Atti,
0.305150938748136,36.8793737890427,6087.5696242642,253.608932,0.223694,5.72424559,24000,2017-11-11 12:01:33,17,16.603,6087.8977082642,253.937016,1.11847,5.7317259052,116.8, -8.5, -7.1,0,0,1024,1024,1024,1024,116.2,0,98,4.163,4.182,4.18,4.171,0,0,89.51,6,GPS_Atti,
0.305151110568519,36.8793738167539,6087.5696242642,253.608932,0.223694,5.7343833856,24100,2017-11-11 12:01:33,17,16.603,6087.8977082642,253.937016,1.11847,5.7343833856,116.8, -8.6, -7,0,0,1024,1024,1024,1024,116.2,0,98,4.163,4.182,4.18,4.171,0,0,89.51,6,GPS_Atti,
0.305151354463019,36.879373927349,6087.5696242642,253.608932,0.223694,5.7254595008,24300,2017-11-11 12:01:33,17,16.603,6087.8977082642,253.937016,1.11847,5.7343833856,116.7, -8, -6.9,0,0,1024,1024,1024,1024,116.2,0,98,4.163,4.182,4.18,4.171,0,0,89.51,6,GPS_Atti,
0.305151425857261,36.8793739996426,6087.5696242642,253.608932,0.223694,5.7094490016,24400,2017-11-11 12:01:33,17,16.603,6087.8977082642,253.937016,1.11847,5.7343833856,116.8, -8.1, -7.1,0,0,1024,1024,1024,1024,116.2,0,98,4.163,4.182,4.18,4.171,0,0,89.51,6,GPS_Atti,
0.305151532594437,36.8793740578474,6087.2415402642,253.280848,0.31540854,5.7029529384,24500,2017-11-11 12:01:33,17,16.603,6087.8977082642,253.937016,1.11847,5.7343833856,116.7, -7.8, -7.3,0,0,1024,1024,1024,1024,116.2,0,98,4.163,4.182,4.18,4.171,0,0,89.51,6,GPS_Atti,
0.305151559318017,36.8793741403181,6087.2415402642,253.280848,0.31540854,5.6781825964,24600,2017-11-11 12:01:33,17,16.63,6087.8977082642,253.937016,1.11847,5.7343833856,116.7, -7.7, -7.4,0,0,1024,1024,1024,1024,116.2,0,98,4.169,4.182,4.176,4.163,0,0,89.51,6,GPS_Atti,
0.30515165055322,36.8793742485204,6087.5696242642,253.608932,0.31540854,5.6531497872,24800,2017-11-11 12:01:34,17,16.63,6087.8977082642,253.937016,1.11847,5.7343833856,116.8, -7.7, -8,0,0,1024,1024,1024,1024,116.2,0,98,4.169,4.182,4.176,4.163,0,0,89.51,6,GPS_Atti,
0.30515174296416,36.8793742303033,6087.5696242642,253.608932,0.31540854,5.6715224912,24900,2017-11-11 12:01:34,17,16.63,6087.8977082642,253.937016,1.11847,5.7343833856,116.8, -7.8, -8.4,0,0,1024,1024,1024,1024,116.2,0,98,4.169,4.182,4.176,4.163,0,0,89.51,6,GPS_Atti,
0.30515176588451,36.8793742409877,6087.5696242642,253.608932,0.31540854,5.6709647484,25000,2017-11-11 12:01:34,17,16.63,6087.8977082642,253.937016,1.11847,5.7343833856,116.8, -7.9, -8.1,0,0,1024,1024,1024,1024,116.2,0,98,4.169,4.182,4.176,4.163,0,0,89.51,6,GPS_Atti,
0.305151861584092,36.8793742194453,6087.5696242642,253.608932,0.31540854,5.691109106,25100,2017-11-11 12:01:34,17,16.63,6087.8977082642,253.937016,1.11847,5.7343833856,116.8, -7.8, -8,0,0,1024,1024,1024,1024,116.2,0,98,4.169,4.182,4.176,4.163,0,0,89.51,6,GPS_Atti,
0.30515187302554,36.8793742268688,6087.5696242642,253.608932,0.223694,5.6901576624,25200,2017-11-11 12:01:34,17,16.63,6087.8977082642,253.937016,1.11847,5.7343833856,116.8, -8.1, -8.3,0,0,1024,1024,1024,1024,116.2,0,98,4.169,4.182,4.176,4.163,0,0,89.51,6,GPS_Atti,
0.305151952393457,36.8793741779033,6087.5696242642,253.608932,0.223694,5.717519868,25300,2017-11-11 12:01:34,17,16.63,6087.8977082642,253.937016,1.11847,5.7343833856,116.8, -8.5, -8.6,0,0,1024,1024,1024,1024,116.1,0,98,4.169,4.182,4.176,4.163,0,0,89.51,6,GPS_Atti,
0.305151968038733,36.8793741688546,6087.5696242642,253.608932,0.223694,5.7227035952,25400,2017-11-11 12:01:34,17,16.63,6087.8977082642,253.937016,1.11847,5.7343833856,116.9, -8.6, -8.6,0,0,1024,1024,1024,1024,116.1,0,98,4.169,4.182,4.176,4.163,0,0,89.51,6,GPS_Atti,
0.305152011545871,36.879374134857,6087.5696242642,253.608932,0.223694,5.7401904724,25500,2017-11-11 12:01:34,17,16.63,6087.8977082642,253.937016,1.11847,5.7401904724,116.9, -8.6, -8.5,0,0,1024,1024,1024,1024,116.1,0,98,4.169,4.182,4.176,4.163,0,0,89.51,6,GPS_Atti,
0.305151986683603,36.8793741414497,6087.5696242642,253.608932,0.223694,5.7345474276,25600,2017-11-11 12:01:34,17,16.63,6087.8977082642,253.937016,1.11847,5.7401904724,116.9, -8.4, -8.4,0,0,1024,1024,1024,1024,116.1,0,98,4.169,4.182,4.176,4.163,0,0,89.51,6,GPS_Atti,
0.305152030082449,36.8793741261114,6087.8977082642,253.937016,0.223694,5.7457022836,25700,2017-11-11 12:01:34,17,16.656,6087.8977082642,253.937016,1.11847,5.7457022836,116.9, -8.3, -8.9,0,0,1024,1024,1024,1024,116.1,0,98,4.171,4.18,4.171,4.16,0,0,89.51,6,GPS_Atti,
0.305152007882687,36.879374144381,6087.8977082642,253.937016,0.223694,5.7364503148,25800,2017-11-11 12:01:35,17,16.656,6087.8977082642,253.937016,1.11847,5.7457022836,116.9, -8.4, -9.3,0,0,1024,1024,1024,1024,116.1,0,98,4.171,4.18,4.171,4.16,0,0,89.51,6,GPS_Atti,
0.305152083880539,36.8793741399851,6087.8977082642,253.937016,0.31540854,5.7484581892,25900,2017-11-11 12:01:35,17,16.656,6087.8977082642,253.937016,1.11847,5.7484581892,116.9, -8.1, -9,0,0,1024,1024,1024,1024,116.1,0,98,4.171,4.18,4.171,4.16,0,0,89.51,6,GPS_Atti,
0.305152098434758,36.8793741753531,6087.8977082642,253.937016,0.31540854,5.7385500524,26000,2017-11-11 12:01:35,17,16.656,6087.8977082642,253.937016,1.11847,5.7484581892,116.9, -8.3, -8.6,0,0,1024,1024,1024,1024,116.1,0,98,4.171,4.18,4.171,4.16,0,0,89.51,6,GPS_Atti,
0.305152172256195,36.8793741896765,6087.8977082642,253.937016,0.31540854,5.744094672,26100,2017-11-11 12:01:35,17,16.656,6087.8977082642,253.937016,1.11847,5.7484581892,116.8, -7.9, -8.5,0,0,1024,1024,1024,1024,116.1,0,98,4.171,4.18,4.171,4.16,0,0,89.51,6,GPS_Atti,
0.305152187028625,36.8793742393283,6087.8977082642,253.937016,0.31540854,5.7294621256,26200,2017-11-11 12:01:35,17,16.656,6087.8977082642,253.937016,1.11847,5.7484581892,117, -8.1, -8.9,0,0,1024,1024,1024,1024,116.1,0,98,4.171,4.18,4.171,4.16,0,0,89.51,6,GPS_Atti,
0.305152255992414,36.8793742542256,6087.5696242642,253.608932,0.31540854,5.7343177688,26300,2017-11-11 12:01:35,17,16.656,6087.8977082642,253.937016,1.11847,5.7484581892,116.9, -8, -8.1,0,0,1024,1024,1024,1024,116.1,0,98,4.171,4.18,4.171,4.16,0,0,89.51,6,GPS_Atti,
0.305152275473489,36.8793743323593,6087.5696242642,253.608932,0.31540854,5.7109253796,26400,2017-11-11 12:01:35,17,16.656,6087.8977082642,253.937016,1.11847,5.7484581892,116.9, -7.4, -7,0,0,1024,1024,1024,1024,116.1,0,98,4.171,4.18,4.171,4.16,0,0,89.51,6,GPS_Atti,
0.305152309368737,36.8793744068852,6087.5696242642,253.608932,0.31540854,5.6908794472,26500,2017-11-11 12:01:35,17,16.656,6087.8977082642,253.937016,1.11847,5.7484581892,116.9, -7.3, -7.8,0,0,1024,1024,1024,1024,116.1,0,98,4.171,4.18,4.171,4.16,0,0,89.51,6,GPS_Atti,
0.305152278942075,36.8793745205529,6087.2415402642,253.280848,0.50107456,5.6484253776,26600,2017-11-11 12:01:35,17,16.656,6087.8977082642,253.937016,1.11847,5.7484581892,117, -7.4, -8.2,0,0,1024,1024,1024,1024,116.1,0,98,4.171,4.18,4.171,4.16,0,0,89.51,6,GPS_Atti,
0.305152327426553,36.8793746244086,6087.2415402642,253.280848,0.50107456,5.6208663216,26700,2017-11-11 12:01:35,17,16.683,6087.8977082642,253.937016,1.11847,5.7484581892,116.8, -6.5, -6.8,0,0,1024,1024,1024,1024,116.1,0,98,4.174,4.186,4.181,4.168,0,0,89.51,6,GPS_Atti,
