latitude,longitude,altitude(feet),ascent(feet),speed(mph),distance(feet),time(millisecond),datetime(utc),satellites,gpslevel,voltage(v),max_altitude(feet),max_ascent(feet),max_speed(mph),max_distance(feet), xSpeed(mph), ySpeed(mph), zSpeed(mph), compass_heading(degrees), pitch(degrees), roll(degrees),isPhoto,isVideo,rc_elevator,rc_aileron,rc_throttle,rc_rudder,gimbal_heading(degrees),gimbal_pitch(degrees),battery_percent,voltageCell1,voltageCell2,voltageCell3,voltageCell4,voltageCell5,voltageCell6,current(A),battery_temperature(f),flycStateRaw,flycState,message
0.305852618822439,36.8800473867793,5826.9144154639,0,0,0,0,2018-04-14 12:09:13,14,0,0,5826.9144154639,0,0,0,0,0,0,29.5, -1.4, 4,0,0,364,364,364,1684,34.1,0,98,4.289,4.289,4.29,4.288,0,0,0,78.71,41,Motors_Started,
0.305852642937659,36.8800474187265,5826.9144154639,0,0,0.0146037078164,100,2018-04-14 12:09:13,14,0,0,5826.9144154639,0,0,0.0146037078164,0,0,0,29.5, -1.4, 4,0,0,364,364,364,1684,34.1,0,98,4.289,4.289,4.29,4.288,0,0,0,78.71,41,Motors_Started,
0.305852656637758,36.8800474384423,5826.9144154639,0,0,0.0233588590152,200,2018-04-14 12:09:13,14,0,0,5826.9144154639,0,0,0.0233588590152,0,0,0,29.5, -1.4, 4,0,0,364,364,364,1684,34.1,0,98,4.289,4.289,4.29,4.288,0,0,0,78.71,41,Motors_Started,
0.305852683008373,36.8800474731143,5826.9144154639,0,0,0.03925032934,300,2018-04-14 12:09:13,14,0,0,5826.9144154639,0,0,0.03925032934,0,0,0,29.5, -1.4, 4,0,0,364,364,364,1684,34.1,0,98,4.289,4.289,4.29,4.288,0,0,0,78.71,41,Motors_Started,
0.305852713696604,36.8800475095809,5826.9144154639,0,0,0.05661745588,400,2018-04-14 12:09:13,14,0,17.125,5826.9144154639,0,0,0.05661745588,0,0,0,29.5, -1.4, 4,0,0,364,364,364,1684,34.1,0,98,4.289,4.289,4.29,4.288,0,0,1.57,78.71,41,Motors_Started,Setting new Return-To-Home altitude to 45m (148 ft). Setting new Maximum Flight Altitude to 150m (492 ft)
0.305852733507846,36.8800475363531,5826.9144154639,0,0,0.0687664064,500,2018-04-14 12:09:13,14,0,17.125,5826.9144154639,0,0,0.0687664064,0,0,0,29.5, -1.4, 4,0,0,364,364,364,1684,34.1,0,98,4.289,4.289,4.29,4.288,0,0,1.57,78.71,41,Motors_Started,
0.305852744923442,36.8800475542072,5826.9144154639,0,0,0.07647309956,600,2018-04-14 12:09:13,14,0,17.125,5826.9144154639,0,0,0.07647309956,0,0,0,29.5, -1.4, 4,0,0,364,364,364,1684,34.1,0,98,4.289,4.289,4.29,4.288,0,0,1.57,78.71,41,Motors_Started,
0.305852745395894,36.8800475604583,5826.9144154639,0,0,0.078408138992,700,2018-04-14 12:09:13,14,0,17.125,5826.9144154639,0,0,0.078408138992,0,0,0,29.5, -1.4, 4,0,0,364,364,364,1684,34.1,0,98,4.289,4.289,4.29,4.288,0,0,1.57,78.71,41,Motors_Started,
0.305852744270232,36.8800475655029,5826.9144154639,0,0,0.079666341132,800,2018-04-14 12:09:13,14,0,17.125,5826.9144154639,0,0,0.079666341132,0,0,0,29.5, -1.4, 4,0,0,364,364,364,1684,34.1,0,98,4.289,4.289,4.29,4.288,0,0,1.57,78.71,41,Motors_Started,
0.305852759907569,36.8800475847567,5826.9144154639,0,0,0.08869586898,900,2018-04-14 12:09:13,14,0,17.125,5826.9144154639,0,0,0.08869586898,0,0,0,29.5, -1.4, 4,0,0,364,364,364,1684,34.1,0,98,4.289,4.289,4.29,4.288,0,0,1.57,78.71,41,Motors_Started,
0.305852781281508,36.8800476115648,5826.9144154639,0,0,0.101188979616,1000,2018-04-14 12:09:13,14,0,17.125,5826.9144154639,0,0,0.101188979616,0,0,0,29.5, -1.4, 4,0,0,547,522,512,1619,34.1,0,98,4.289,4.289,4.29,4.288,0,0,1.57,78.71,41,Motors_Started,
0.305852823339534,36.8800476289228,5826.9144154639,0,0,0.115640095564,1100,2018-04-14 12:09:14,14,0,17.125,5826.9144154639,0,0,0.115640095564,0,0,0,29.6, -1.3, 4,0,0,1024,1024,1033,1186,34.1,0,98,4.289,4.289,4.29,4.288,0,0,1.57,78.71,41,Motors_Started,
0.305852860410451,36.8800476404712,5826.9144154639,0,0,0.1278133243,1200,2018-04-14 12:09:14,14,0,17.125,5826.9144154639,0,0,0.1278133243,0,0,0,29.5, -1.3, 4,0,0,1024,1024,1198,1024,33.3,0,98,4.289,4.289,4.29,4.288,0,0,1.57,78.71,41,Motors_Started,
0.305852892109742,36.880047642727,5826.9144154639,0,0,0.136608272088,1300,2018-04-14 12:09:14,14,0,17.125,5826.9144154639,0,0,0.136608272088,0,0,0,29.5, -1.3, 4,0,0,1024,1024,1199,1024,31.9,0,98,4.289,4.289,4.29,4.288,0,0,1.57,78.71,41,Motors_Started,
0.305852909725028,36.880047643656,5826.9144154639,0,0,0.141591539964,1400,2018-04-14 12:09:14,14,0,17.098,5826.9144154639,0,0,0.141591539964,0,0,0,29.5, -1.3, 4,0,0,1024,1024,1072,1024,31.2,0,98,4.289,4.289,4.29,4.288,0,0,1.57,78.71,41,Motors_Started,
0.305852918314866,36.8800476617289,5826.9144154639,0,0,0.148333009996,1500,2018-04-14 12:09:14,14,0,17.098,5826.9144154639,0,0,0.148333009996,0,0,0,29.5, -1.3, 4,0,0,1024,1024,1024,1024,30.8,0,98,4.289,4.289,4.29,4.288,0,0,1.57,78.71,41,Motors_Started,
0.305852923032876,36.8800476875484,5826.9144154639,0,0,0.156078417068,1600,2018-04-14 12:09:14,14,0,17.098,5826.9144154639,0,0,0.156078417068,0,0,0,29.5, -1.3, 4,0,0,1024,1024,1024,1024,30.6,0,98,4.289,4.289,4.29,4.288,0,0,1.57,78.71,10,Assisted_Takeoff,
0.305852919364195,36.8800477085689,5826.9144154639,0,0,0.160646002516,1700,2018-04-14 12:09:14,14,0,17.098,5826.9144154639,0,0,0.160646002516,0,0,0,29.5, -1.4, 4,0,0,1024,1024,1024,1024,30.4,0,98,4.289,4.289,4.29,4.288,0,0,1.57,78.71,10,Assisted_Takeoff,
0.305852913765605,36.8800477220917,5826.9144154639,0,0,0.16292979524,1800,2018-04-14 12:09:14,14,0,17.098,5826.9144154639,0,0,0.16292979524,0,0,0,29.5, -1.3, 4,0,0,1024,1024,1024,1024,30.3,0,98,4.289,4.289,4.29,4.288,0,0,1.57,78.71,10,Assisted_Takeoff,
0.30585292873304,36.8800477534393,5826.9144154639,0,0,0.175158142088,1900,2018-04-14 12:09:14,14,0,17.098,5826.9144154639,0,0,0.175158142088,0,0,0,29.5, -1.3, 4,0,0,1024,1024,1061,1024,30.2,0,98,4.289,4.289,4.29,4.288,0,0,1.57,78.71,10,Assisted_Takeoff,
0.305852947644568,36.880047787137,5826.9144154639,0,0,0.18902067534,2000,2018-04-14 12:09:14,14,0,17.098,5826.9144154639,0,0,0.18902067534,0,0,0,29.5, -1.3, 4,0,0,1024,1024,1082,1024,30.2,0,98,4.289,4.289,4.29,4.288,0,0,1.57,78.71,10,Assisted_Takeoff,
0.305852963841479,36.8800477897241,5826.9144154639,0,0,0.193541344776,2100,2018-04-14 12:09:15,14,0,17.098,5826.9144154639,0,0,0.193541344776,0,0,0,29.5, -1.3, 4,0,0,1024,1024,1070,1024,30.1,0,98,4.289,4.289,4.29,4.288,0,0,1.57,78.71,10,Assisted_Takeoff,
0.305852970398205,36.8800477753919,5826.9144154639,0,0,0.191196856512,2200,2018-04-14 12:09:15,14,0,17.098,5826.9144154639,0,0,0.193541344776,0,0,0,29.5, -1.3, 3.9,0,0,1024,1024,1070,1024,30.1,0,98,4.289,4.289,4.29,4.288,0,0,1.57,78.71,10,Assisted_Takeoff,
0.305852974417815,36.8800477761909,5826.9144154639,0,0,0.192398956288,2300,2018-04-14 12:09:15,14,0,17.098,5826.9144154639,0,0,0.193541344776,0,0,0,29.5, -1.3, 3.9,0,0,1024,1024,1085,1024,30.1,0,98,4.289,4.289,4.29,4.288,0,0,1.57,78.71,10,Assisted_Takeoff,
0.305852973419376,36.8800477918365,5826.9144154639,0,0,0.196411423608,2400,2018-04-14 12:09:15,14,0,16.992,5826.9144154639,0,0,0.196411423608,0,0,0,29.5, -1.3, 3.9,0,0,1024,1024,1101,1024,30.1,0,98,4.267,4.265,4.268,4.291,0,0,2.794,78.71,10,Assisted_Takeoff,
0.305852970537437,36.8800478022399,5826.9144154639,0,0,0.198602040476,2500,2018-04-14 12:09:15,14,0,16.992,5826.9144154639,0,0,0.198602040476,0,0,0,29.5, -1.3, 3.9,0,0,1024,1024,1137,1024,30,0,98,4.267,4.265,4.268,4.291,0,0,2.794,78.71,10,Assisted_Takeoff,
0.305852964274034,36.8800478071499,5826.9144154639,0,0,0.198514113964,2600,2018-04-14 12:09:15,14,0,16.992,5826.9144154639,0,0,0.198602040476,0,0,0,29.5, -1.3, 3.9,0,0,1024,1024,1149,1024,30,0,98,4.267,4.265,4.268,4.291,0,0,2.794,78.71,10,Assisted_Takeoff,
0.305852980961921,36.8800478071396,5826.9144154639,0,0,0.202431436924,2700,2018-04-14 12:09:15,14,0,16.992,5826.9144154639,0,0,0.202431436924,0,0,0,29.5, -1.2, 3.9,0,0,1024,1024,1168,1024,30,0,98,4.267,4.265,4.268,4.291,0,0,2.794,78.71,10,Assisted_Takeoff,
0.305853001420877,36.8800478055128,5826.9144154639,0,0,0.20694226384,2800,2018-04-14 12:09:15,14,0,16.992,5826.9144154639,0,0,0.20694226384,0,0,0,29.5, -1.2, 3.9,0,0,1024,1024,1185,1024,30,0,98,4.267,4.265,4.268,4.291,0,0,2.794,78.71,10,Assisted_Takeoff,
0.305853023083661,36.8800477998949,5826.9144154639,0,0,0.210883865016,2900,2018-04-14 12:09:15,14,0,16.992,5826.9144154639,0,0,0.210883865016,0,0,0,29.6, -1.2, 3.9,0,0,1024,1024,1198,1024,30,0,98,4.267,4.265,4.268,4.291,0,0,2.794,78.71,10,Assisted_Takeoff,
0.305853030967772,36.8800477943189,5826.9144154639,0,0,0.211470151124,3000,2018-04-14 12:09:15,14,0,16.992,5826.9144154639,0,0,0.211470151124,0,0,0,29.5, -1.1, 3.9,0,0,1024,1024,1238,1024,30,0,98,4.267,4.265,4.268,4.291,0,0,2.794,78.71,10,Assisted_Takeoff,
0.305853037586583,36.8800478098916,5826.9144154639,0,0,0.21719488884,3100,2018-04-14 12:09:16,14,0,16.992,5826.9144154639,0,0,0.21719488884,0,0,0,29.3, -1, 3.9,0,0,1024,1024,1269,1024,29.9,0,98,4.267,4.265,4.268,4.291,0,0,2.794,78.71,10,Assisted_Takeoff,
0.305853035859211,36.8800478376533,5826.9144154639,0,0,0.224078419244,3200,2018-04-14 12:09:16,14,0,16.992,5826.9144154639,0,0,0.224078419244,0,0,0,29.4, -0.6, 3.8,0,0,1024,1024,1297,1024,29.9,0,98,4.267,4.265,4.268,4.291,0,0,2.794,78.71,10,Assisted_Takeoff,
0.305853050718763,36.8800479015207,5826.9144154639,0,0.223694,0.245151910732,3300,2018-04-14 12:09:16,14,0,16.992,5826.9144154639,0,0.223694,0.245151910732,0,0.223694,0,29.6, 1.8, 3.3,0,0,1024,1024,1324,1024,29.9,0,98,4.267,4.265,4.268,4.291,0,0,2.794,78.71,10,Assisted_Takeoff,
0.305853023726082,36.8800479992142,5826.9144154639,0,0.3131716,0.267863197548,3400,2018-04-14 12:09:16,14,0,17.098,5826.9144154639,0,0.3131716,0.267863197548,-0.223694,0.223694,-0.447388,29.7, 2.3, 2.7,0,0,1024,1024,1323,1024,29.9,0,98,4.278,4.283,4.286,4.279,0,0,2.214,78.71,6,P-GPS,
0.305852892536802,36.880048131287,5826.9144154639,0,0.3131716,0.289405192988,3500,2018-04-14 12:09:16,14,0,17.098,5826.9144154639,0,0.3131716,0.289405192988,-0.223694,0.223694,-0.894776,29.7, 0.1, 1,0,0,1024,1024,1324,1024,29.9,0,98,4.278,4.283,4.286,4.279,0,0,2.214,78.71,6,P-GPS,Home Point Recorded. RTH Altitude:  45m.
0.305852703548344,36.8800482825948,5826.9144154639,0,0.3131716,0.32829069292,3600,2018-04-14 12:09:16,14,0,17.098,5826.9144154639,0,0.3131716,0.32829069292,-0.223694,0.223694,-1.342164,29.7, -0.6, -1,0,0,1024,1024,1326,1024,29.9,0,98,4.278,4.283,4.286,4.279,0,0,2.214,78.71,6,P-GPS,
0.305852495306386,36.8800484362547,5827.2424994639,0.328084,0.3131716,0.38553807008,3700,2018-04-14 12:09:16,14,0,17.098,5827.2424994639,0.328084,0.3131716,0.38553807008,-0.223694,0.223694,-2.013246,29.6, 0.5, -2.7,0,0,1024,1024,1312,1024,29.9,0,98,4.278,4.283,4.286,4.279,0,0,2.214,78.71,6,P-GPS,
0.305851718357028,36.8800482770509,5828.2267514639,1.312336,0.4921268,0.4619914846,4000,2018-04-14 12:09:16,13,0,17.098,5828.2267514639,1.312336,0.4921268,0.4619914846,-0.447388,-0.223694,-2.908022,29.7, -3, -0.3,0,0,1024,1024,1316,1024,29.9,0,98,4.278,4.283,4.286,4.279,0,0,2.214,78.71,6,P-GPS,
0.305851421922818,36.8800480278168,5828.8829194639,1.968504,0.4921268,0.4953740316,4100,2018-04-14 12:09:16,13,0,17.098,5828.8829194639,1.968504,0.4921268,0.4953740316,-0.447388,-0.223694,-3.131716,29.6, -5, 1.2,0,0,1024,1024,1318,1024,29.9,0,98,4.278,4.283,4.286,4.279,0,0,2.214,78.71,6,P-GPS,Obstacle Avoided. Revise Flight Route
0.305851134832111,36.8800478197967,5829.2110034639,2.296588,0.447388,0.56401248524,4200,2018-04-14 12:09:17,13,0,17.098,5829.2110034639,2.296588,0.4921268,0.56401248524,-0.447388,0,-3.35541,29.3, -5.5, -0.5,0,0,1024,1024,1318,1024,29.9,0,98,4.278,4.283,4.286,4.279,0,0,2.214,78.71,6,P-GPS,
0.305850835395152,36.88004768586,5829.8671714639,2.952756,0.4921268,0.65976708148,4300,2018-04-14 12:09:17,13,0,17.098,5829.8671714639,2.952756,0.4921268,0.65976708148,-0.447388,-0.223694,-3.579104,29.4, -5.6, -1.4,0,0,1024,1024,1304,1024,29.9,0,98,4.278,4.283,4.286,4.279,0,0,2.214,78.71,6,P-GPS,
0.305850588139849,36.8800475761403,5830.5233394639,3.608924,0.3131716,0.74410763536,4400,2018-04-14 12:09:17,13,0,16.7,5830.5233394639,3.608924,0.4921268,0.74410763536,-0.223694,-0.223694,-3.579104,29.5, -5.3, -0.4,0,0,1024,1024,1314,1024,29.9,0,98,4.278,4.283,4.286,4.279,0,0,12.968,78.71,6,P-GPS,
0.30585046292594,36.8800474726389,5830.8514234639,3.937008,0.3131716,0.78720146876,4500,2018-04-14 12:09:17,14,0,16.7,5830.8514234639,3.937008,0.4921268,0.78720146876,-0.223694,-0.223694,-3.35541,29.6, -3.9, 0.2,0,0,1024,1024,1314,1024,29.9,0,98,4.278,4.283,4.286,4.279,0,0,12.968,78.71,6,P-GPS,
0.305850388675204,36.880047354767,5831.5075914639,4.593176,0.3131716,0.81375330688,4600,2018-04-14 12:09:17,14,0,16.7,5831.5075914639,4.593176,0.4921268,0.81375330688,-0.223694,-0.223694,-3.35541,29.6, -5, 0.3,0,0,1024,1024,1322,1024,29.9,0,98,4.278,4.283,4.286,4.279,0,0,12.968,78.71,6,P-GPS,
0.305850378619969,36.8800472279971,5831.8356754639,4.92126,0,0.81938650916,4700,2018-04-14 12:09:17,14,0,16.7,5831.8356754639,4.92126,0.4921268,0.81938650916,0,0,-3.35541,29.5, -4.3, 0.6,0,0,1024,1024,1325,1024,29.9,0,98,4.278,4.283,4.286,4.279,0,0,12.968,78.71,6,P-GPS,
0.305850368020936,36.8800470903806,5832.4918434639,5.577428,0.223694,0.82829398976,4800,2018-04-14 12:09:17,14,0,16.7,5832.4918434639,5.577428,0.4921268,0.82829398976,0,-0.223694,-3.35541,29.5, -2.8, 1.6,0,0,1024,1024,1327,1024,29.9,0,98,4.278,4.283,4.286,4.279,0,0,12.968,78.71,6,P-GPS,
0.305850371516188,36.880046975283,5832.8199274639,5.905512,0.3131716,0.83355973796,4900,2018-04-14 12:09:17,14,0,16.7,5832.8199274639,5.905512,0.4921268,0.83355973796,-0.223694,-0.223694,-3.35541,29.6, -2.7, 2,0,0,1024,1024,1334,1024,29.9,0,98,4.278,4.283,4.286,4.279,0,0,12.968,78.71,6,P-GPS,
0.305850287653612,36.8800468636268,5833.4760954639,6.56168,0.4921268,0.87167981792,5000,2018-04-14 12:09:17,14,0,16.7,5833.4760954639,6.56168,0.4921268,0.87167981792,-0.447388,-0.223694,-3.35541,29.6, -4.9, 1.9,0,0,1024,1024,1334,1024,29.9,0,98,4.278,4.283,4.286,4.279,0,0,12.968,78.71,6,P-GPS,
0.305850179025151,36.8800467392805,5833.8041794639,6.889764,0.447388,0.92097115808,5100,2018-04-14 12:09:18,14,0,16.7,5833.8041794639,6.889764,0.4921268,0.92097115808,-0.447388,0,-3.35541,29.6, -6.4, 0.4,0,0,1024,1024,1334,1024,29.9,0,98,4.278,4.283,4.286,4.279,0,0,12.968,78.71,6,P-GPS,
0.305850043106513,36.8800465966185,5834.4603474639,7.545932,0.3131716,0.9829724724,5200,2018-04-14 12:09:18,14,0,16.7,5834.4603474639,7.545932,0.4921268,0.9829724724,-0.223694,-0.223694,-3.579104,29.7, -7.7, -0.6,0,0,1024,1024,1335,1024,29.9,0,98,4.278,4.283,4.286,4.279,0,0,12.968,78.71,6,P-GPS,
0.305849960430793,36.8800464288824,5835.1165154639,8.2021,0.223694,1.0309547574,5300,2018-04-14 12:09:18,14,0,16.7,5835.1165154639,8.2021,0.4921268,1.0309547574,0,-0.223694,-3.579104,29.6, -6.8, 0.1,0,0,1024,1024,1336,1024,29.9,0,98,4.278,4.283,4.286,4.279,0,0,12.968,78.71,6,P-GPS,
0.30584989352612,36.8800462445715,5835.4445994639,8.530184,0.223694,1.07812011324,5400,2018-04-14 12:09:18,14,0,16.674,5835.4445994639,8.530184,0.4921268,1.07812011324,0,-0.223694,-3.579104,29.7, -6.9, 1.6,0,0,1024,1024,1337,1024,29.9,0,98,4.191,4.195,4.198,4.192,0,0,12.968,78.71,6,P-GPS,
0.305849861397149,36.8800460604412,5836.1007674639,9.186352,0.3131716,1.11637470764,5500,2018-04-14 12:09:18,14,0,16.674,5836.1007674639,9.186352,0.4921268,1.11637470764,-0.223694,-0.223694,-3.579104,29.7, -8.1, 1.6,0,0,1024,1024,1337,1024,29.9,0,98,4.191,4.195,4.198,4.192,0,0,12.968,78.71,6,P-GPS,
0.30584985428006,36.8800459032918,5836.7569354639,9.84252,0,1.144685076,5600,2018-04-14 12:09:18,14,0,16.674,5836.7569354639,9.84252,0.4921268,1.144685076,0,0,-3.579104,29.6, -7.7, 1.9,0,0,1024,1024,1338,1024,29.9,0,98,4.191,4.195,4.198,4.192,0,0,12.968,78.71,6,P-GPS,
0.305849904057242,36.880045789473,5837.0850194639,10.170604,0,1.14920279268,5700,2018-04-14 12:09:18,14,0,16.674,5837.0850194639,10.170604,0.4921268,1.14920279268,0,0,-3.579104,29.5, -6.6, 1.3,0,0,1024,1024,1339,1024,29.9,0,98,4.191,4.195,4.198,4.192,0,0,12.968,78.71,6,P-GPS,
0.305849956347291,36.8800456958164,5837.7411874639,10.826772,0,1.15075463,5800,2018-04-14 12:09:18,14,0,16.674,5837.7411874639,10.826772,0.4921268,1.15075463,0,0,-3.579104,29.5, -6, 0.9,0,0,1024,1024,1337,1024,29.9,0,98,4.191,4.195,4.198,4.192,0,0,12.968,78.71,6,P-GPS,
0.305850036975726,36.8800456583178,5838.3973554639,11.48294,0.223694,1.13358599428,5900,2018-04-14 12:09:18,14,0,16.674,5838.3973554639,11.48294,0.4921268,1.15075463,0,-0.223694,-3.802798,29.5, -6.1, 1.1,0,0,1024,1024,1338,1024,29.9,0,98,4.191,4.195,4.198,4.192,0,0,12.968,78.71,6,P-GPS,
0.30585011657356,36.8800456221057,5839.0535234639,12.139108,0.223694,1.11713258168,6000,2018-04-14 12:09:18,14,0,16.674,5839.0535234639,12.139108,0.4921268,1.15075463,0,-0.223694,-3.802798,29.5, -6.8, 1.6,0,0,1024,1024,1339,1024,29.9,0,98,4.191,4.195,4.198,4.192,0,0,12.968,78.71,6,P-GPS,
0.305850203067905,36.8800456068934,5839.7096914639,12.795276,0,1.09477693792,6100,2018-04-14 12:09:19,14,0,16.674,5839.7096914639,12.795276,0.4921268,1.15075463,0,0,-3.802798,29.5, -6.2, 2.6,0,0,1024,1024,1341,1024,29.9,0,98,4.191,4.195,4.198,4.192,0,0,12.968,78.71,6,P-GPS,
0.305850278457534,36.8800455796613,5840.0377754639,13.12336,0,1.07879924712,6200,2018-04-14 12:09:19,14,0,16.674,5840.0377754639,13.12336,0.4921268,1.15075463,0,0,-3.802798,29.6, -6, 3.1,0,0,1024,1024,1343,1024,29.9,0,98,4.191,4.195,4.198,4.192,0,0,12.968,78.71,6,P-GPS,
0.305850327629978,36.8800455929874,5840.6939434639,13.779528,0,1.06165357728,6300,2018-04-14 12:09:19,14,0,16.674,5840.6939434639,13.779528,0.4921268,1.15075463,0,0,-3.802798,29.5, -6.3, 2.5,0,0,1024,1024,1351,1024,29.9,0,98,4.191,4.195,4.198,4.192,0,0,12.968,78.71,6,P-GPS,
0.3058503622251,36.8800456052997,5841.3501114639,14.435696,0,1.04895344564,6400,2018-04-14 12:09:19,14,0,16.7,5841.3501114639,14.435696,0.4921268,1.15075463,0,0,-3.802798,29.5, -6.3, 2,0,0,1024,1024,1352,1024,29.9,0,98,4.19,4.193,4.197,4.192,0,0,13.24,78.71,6,P-GPS,
0.305850402473824,36.8800456076575,5842.0062794639,15.091864,0,1.03692916704,6500,2018-04-14 12:09:19,14,0,16.7,5842.0062794639,15.091864,0.4921268,1.15075463,0,0,-4.026492,29.5, -6.4, 1.8,0,0,1024,1024,1350,1024,29.9,0,98,4.19,4.193,4.197,4.192,0,0,13.24,78.71,6,P-GPS,
0.305850442334367,36.8800455847814,5842.6624474639,15.748032,0,1.03093179152,6600,2018-04-14 12:09:19,14,0,16.7,5842.6624474639,15.748032,0.4921268,1.15075463,0,0,-4.026492,29.4, -6.5, 2.2,0,0,1024,1024,1352,1024,29.9,0,98,4.19,4.193,4.197,4.192,0,0,13.24,78.71,6,P-GPS,
0.305850474887879,36.8800455849396,5843.3186154639,16.4042,0,1.02177168624,6700,2018-04-14 12:09:19,14,0,16.7,5843.3186154639,16.4042,0.4921268,1.15075463,0,0,-4.026492,29.4, -6.8, 1.7,0,0,1024,1024,1355,1024,29.9,0,98,4.19,4.193,4.197,4.192,0,0,13.24,78.71,6,P-GPS,
0.305850506660653,36.8800455921735,5843.9747834639,17.060368,0,1.01121394312,6800,2018-04-14 12:09:19,14,0,16.7,5843.9747834639,17.060368,0.4921268,1.15075463,0,0,-4.026492,29.5, -7, 1.7,0,0,1024,1024,1352,1024,29.9,0,98,4.19,4.193,4.197,4.192,0,0,13.24,78.71,6,P-GPS,
0.305850571780907,36.8800456102057,5844.3028674639,17.388452,0,0.98890423112,6900,2018-04-14 12:09:19,14,0,16.7,5844.3028674639,17.388452,0.4921268,1.15075463,0,0,-3.802798,29.5, -6.8, 2.2,0,0,1024,1024,1352,1024,29.9,0,98,4.19,4.193,4.197,4.192,0,0,13.24,78.71,6,P-GPS,
0.305850646752637,36.8800456381596,5844.9590354639,18.04462,0,0.961614204,7000,2018-04-14 12:09:19,14,0,16.7,5844.9590354639,18.04462,0.4921268,1.15075463,0,0,-3.802798,29.5, -6.2, 2.4,0,0,1024,1024,1353,1024,29.9,0,98,4.19,4.193,4.197,4.192,0,0,13.24,78.71,6,P-GPS,
0.305850735356987,36.8800456885015,5845.6152034639,18.700788,0,0.92527233932,7100,2018-04-14 12:09:20,14,0,16.7,5845.6152034639,18.700788,0.4921268,1.15075463,0,0,-3.802798,29.5, -6, 2.5,0,0,1024,1024,1353,1024,29.9,0,98,4.19,4.193,4.197,4.192,0,0,13.24,78.71,6,P-GPS,
0.305850813567081,36.8800457542162,5846.2713714639,19.356956,0,0.88802824364,7200,2018-04-14 12:09:20,14,0,16.7,5846.2713714639,19.356956,0.4921268,1.15075463,0,0,-3.802798,29.5, -5.8, 2.3,0,0,1024,1024,1352,1024,29.9,0,98,4.19,4.193,4.197,4.192,0,0,13.24,78.71,6,P-GPS,
0.305850905489793,36.8800458387705,5846.9275394639,20.013124,0.223694,0.84246065688,7300,2018-04-14 12:09:20,14,0,16.7,5846.9275394639,20.013124,0.4921268,1.15075463,0,0.223694,-3.802798,29.5, -5.6, 1.3,0,0,1024,1024,1353,1024,29.9,0,98,4.19,4.193,4.197,4.192,0,0,13.24,78.71,6,P-GPS,
0.305850988914878,36.8800459286556,5847.5837074639,20.669292,0.223694,0.797900288,7400,2018-04-14 12:09:20,14,0,16.647,5847.5837074639,20.669292,0.4921268,1.15075463,0,0.223694,-3.579104,29.5, -5.5, 0.9,0,0,1024,1024,1352,1024,29.9,0,98,4.182,4.186,4.188,4.185,0,0,13.746,78.71,6,P-GPS,
0.305851137694814,36.880046148377,5848.5679594639,21.653544,0,0.70438978632,7600,2018-04-14 12:09:20,14,0,16.647,5848.5679594639,21.653544,0.4921268,1.15075463,0,0,-3.802798,29.5, -5.5, 0.2,0,0,1024,1024,1349,1024,29.8,0,98,4.182,4.186,4.188,4.185,0,0,13.746,78.71,6,P-GPS,
0.305851231218897,36.8800462219964,5849.2241274639,22.309712,0,0.66098427312,7700,2018-04-14 12:09:20,14,0,16.647,5849.2241274639,22.309712,0.4921268,1.15075463,0,0,-3.802798,29.6, -5.8, 0.4,0,0,1024,1024,1343,1024,29.9,0,98,4.182,4.186,4.188,4.185,0,0,13.746,78.71,6,P-GPS,
0.305851345754793,36.8800462731235,5849.8802954639,22.96588,0,0.61711288064,7800,2018-04-14 12:09:20,14,0,16.647,5849.8802954639,22.96588,0.4921268,1.15075463,0,0,-3.802798,29.6, -5, 0.9,0,0,1024,1024,1345,1024,29.8,0,98,4.182,4.186,4.188,4.185,0,0,13.746,78.71,6,P-GPS,
0.305851549471508,36.8800464102411,5850.8645474639,23.950132,0,0.52835303528,8000,2018-04-14 12:09:20,14,0,16.647,5850.8645474639,23.950132,0.4921268,1.15075463,0,0,-3.802798,29.6, -5.2, 1.5,0,0,1024,1024,1354,1024,29.9,0,98,4.182,4.186,4.188,4.185,0,0,13.746,78.71,6,P-GPS,
0.305851650047059,36.8800464892454,5851.5207154639,24.6063,0,0.48183072408,8100,2018-04-14 12:09:21,14,0,16.647,5851.5207154639,24.6063,0.4921268,1.15075463,0,0,-3.802798,29.6, -4.9, 1.4,0,0,1024,1024,1355,1024,29.9,0,98,4.182,4.186,4.188,4.185,0,0,13.746,78.71,6,P-GPS,
0.305851741536504,36.8800465529576,5852.1768834639,25.262468,0,0.4415846598,8200,2018-04-14 12:09:21,14,0,16.647,5852.1768834639,25.262468,0.4921268,1.15075463,0,0,-3.802798,29.7, -5.1, 1.6,0,0,1024,1024,1363,1024,29.8,0,98,4.182,4.186,4.188,4.185,0,0,13.746,78.71,6,P-GPS,
0.305851850553501,36.8800466080385,5852.8330514639,25.918636,0,0.399114186,8300,2018-04-14 12:09:21,14,0,16.647,5852.8330514639,25.918636,0.4921268,1.15075463,0,0,-3.802798,29.6, -5.2, 1.6,0,0,1024,1024,1371,1024,29.9,0,98,4.182,4.186,4.188,4.185,0,0,13.746,78.71,6,P-GPS,
0.305851953341497,36.880046649148,5853.4892194639,26.574804,0,0.36246064152,8400,2018-04-14 12:09:21,14,0,16.674,5853.4892194639,26.574804,0.4921268,1.15075463,0,0,-4.026492,29.6, -4.8, 1.2,0,0,1024,1024,1397,1024,29.8,0,98,4.182,4.186,4.188,4.185,0,0,13.746,80.51,6,P-GPS,
0.305852027666938,36.8800466793751,5854.1453874639,27.230972,0,0.33634843596,8500,2018-04-14 12:09:21,14,0,16.674,5854.1453874639,27.230972,0.4921268,1.15075463,0,0,-4.026492,29.6, -5.1, 1.4,0,0,1024,1024,1404,1024,29.9,0,98,4.182,4.186,4.188,4.185,0,0,13.746,80.51,6,P-GPS,
0.305852074263031,36.8800466834213,5854.8015554639,27.88714,0,0.324540364716,8600,2018-04-14 12:09:21,14,0,16.674,5854.8015554639,27.88714,0.4921268,1.15075463,0,0,-4.250186,29.6, -5.4, 1.6,0,0,1024,1024,1411,1024,29.9,0,98,4.182,4.186,4.188,4.185,0,0,13.746,80.51,6,P-GPS,
0.305852126448961,36.880046668176,5855.4577234639,28.543308,0,0.317818579724,8700,2018-04-14 12:09:21,14,0,16.674,5855.4577234639,28.543308,0.4921268,1.15075463,0,0,-4.47388,29.6, -5.7, 1.7,0,0,1024,1024,1417,1024,29.9,0,98,4.182,4.186,4.188,4.185,0,0,13.746,80.51,6,P-GPS,
0.305852175341364,36.8800466306911,5856.1138914639,29.199476,0,0.31980644068,8800,2018-04-14 12:09:21,14,0,16.674,5856.1138914639,29.199476,0.4921268,1.15075463,0,0,-4.47388,29.5, -6.1, 2.3,0,0,1024,1024,1420,1024,29.8,0,98,4.182,4.186,4.188,4.185,0,0,13.746,80.51,6,P-GPS,
0.305852236165172,36.8800466031464,5856.7700594639,29.855644,0,0.31817094194,8900,2018-04-14 12:09:21,14,0,16.674,5856.7700594639,29.855644,0.4921268,1.15075463,0,0,-4.697574,29.5, -6.1, 2.4,0,0,1024,1024,1423,1024,29.8,0,98,4.182,4.186,4.188,4.185,0,0,13.746,80.51,6,P-GPS,
0.305852281331084,36.8800465908208,5857.7543114639,30.839896,0,0.315427503532,9000,2018-04-14 12:09:21,14,0,16.674,5857.7543114639,30.839896,0.4921268,1.15075463,0,0,-4.921268,29.4, -6.5, 2,0,0,1024,1024,1422,1024,29.9,0,98,4.182,4.186,4.188,4.185,0,0,13.746,80.51,6,P-GPS,
0.305852328377645,36.880046602959,5858.4104794639,31.496064,0,0.304974747292,9100,2018-04-14 12:09:22,14,0,16.674,5858.4104794639,31.496064,0.4921268,1.15075463,0,0,-4.921268,29.4, -6.3, 1.7,0,0,1024,1024,1425,1024,29.8,0,98,4.182,4.186,4.188,4.185,0,0,13.746,80.51,6,P-GPS,
0.305852361226821,36.8800466178603,5859.0666474639,32.152232,0,0.295859917604,9200,2018-04-14 12:09:22,14,0,16.674,5859.0666474639,32.152232,0.4921268,1.15075463,0,0,-5.144962,29.4, -6.5, 1.6,0,0,1024,1024,1428,1024,29.8,0,98,4.182,4.186,4.188,4.185,0,0,13.746,80.51,6,P-GPS,
0.305852430979795,36.8800466116151,5860.0508994639,33.136484,0,0.290999681228,9300,2018-04-14 12:09:22,14,0,16.674,5860.0508994639,33.136484,0.4921268,1.15075463,0,0,-5.144962,29.4, -6.6, 1.6,0,0,1024,1024,1418,1024,29.9,0,98,4.182,4.186,4.188,4.185,0,0,13.746,80.51,6,P-GPS,
0.305852507815075,36.8800465929641,5860.7070674639,33.792652,0,0.292437017232,9400,2018-04-14 12:09:22,14,0,16.647,5860.7070674639,33.792652,0.4921268,1.15075463,0,0,-5.368656,29.4, -6.6, 2,0,0,1024,1024,1418,1024,29.9,0,98,4.185,4.189,4.193,4.193,0,0,12.786,80.51,6,P-GPS,
0.305852609206477,36.8800465762784,5861.6913194639,34.776904,0,0.295727371668,9500,2018-04-14 12:09:22,14,0,16.647,5861.6913194639,34.776904,0.4921268,1.15075463,0,0,-5.368656,29.3, -6.5, 2.5,0,0,1024,1024,1419,1024,29.8,0,98,4.185,4.189,4.193,4.193,0,0,12.786,80.51,6,P-GPS,
0.305852690542776,36.8800465744987,5862.6755714639,35.761156,0,0.297508867788,9600,2018-04-14 12:09:22,14,0,16.647,5862.6755714639,35.761156,0.4921268,1.15075463,0,0,-5.368656,29.3, -6.5, 2.3,0,0,1024,1024,1419,1024,29.8,0,98,4.185,4.189,4.193,4.193,0,0,12.786,80.51,6,P-GPS,
0.305852803976725,36.8800465845299,5863.3317394639,36.417324,0,0.30039042956,9700,2018-04-14 12:09:22,14,0,16.647,5863.3317394639,36.417324,0.4921268,1.15075463,0,0,-5.368656,29.3, -6.4, 2.4,0,0,1024,1024,1425,1024,29.9,0,98,4.185,4.189,4.193,4.193,0,0,12.786,80.51,6,P-GPS,
0.305852908612394,36.8800466023534,5864.3159914639,37.401576,0,0.305098763044,9800,2018-04-14 12:09:22,14,0,16.647,5864.3159914639,37.401576,0.4921268,1.15075463,0,0,-5.368656,29.4, -6.4, 2.5,0,0,1024,1024,1441,1024,29.8,0,98,4.185,4.189,4.193,4.193,0,0,12.786,80.51,6,P-GPS,
0.305853014566695,36.8800466509198,5864.9721594639,38.057744,0,0.30483760818,9900,2018-04-14 12:09:22,14,0,16.647,5864.9721594639,38.057744,0.4921268,1.15075463,0,0,-5.144962,29.4, -6, 2.5,0,0,1024,1024,1450,1024,29.8,0,98,4.185,4.189,4.193,4.193,0,0,12.786,80.51,6,P-GPS,
0.305853093832224,36.8800467161757,5865.9564114639,39.041996,0,0.2998277655,10000,2018-04-14 12:09:22,14,0,16.647,5865.9564114639,39.041996,0.4921268,1.15075463,0,0,-5.368656,29.4, -5.9, 2.2,0,0,1024,1024,1458,1024,29.8,0,98,4.185,4.189,4.193,4.193,0,0,12.786,80.51,6,P-GPS,
0.305853190272749,36.8800468044247,5866.6125794639,39.698164,0,0.297678487216,10100,2018-04-14 12:09:23,14,0,16.647,5866.6125794639,39.698164,0.4921268,1.15075463,0,0,-5.59235,29.4, -5.8, 2.1,0,0,1024,1024,1480,1024,29.8,0,98,4.185,4.189,4.193,4.193,0,0,12.786,80.51,6,P-GPS,
0.305853282135718,36.8800468862169,5867.5968314639,40.682416,0,0.303185377156,10200,2018-04-14 12:09:23,14,0,16.647,5867.5968314639,40.682416,0.4921268,1.15075463,0,0,-5.816044,29.5, -5.8, 2.3,0,0,1024,1024,1485,1024,29.8,0,98,4.185,4.189,4.193,4.193,0,0,12.786,80.51,6,P-GPS,
0.30585333935354,36.8800469818456,5868.5810834639,41.666668,0,0.301554471592,10300,2018-04-14 12:09:23,14,0,16.647,5868.5810834639,41.666668,0.4921268,1.15075463,0,0,-6.039738,29.5, -5.9, 2,0,0,1024,1024,1486,1024,29.8,0,98,4.185,4.189,4.193,4.193,0,0,12.786,80.51,6,P-GPS,
0.305853369943046,36.880047078832,5869.5653354639,42.65092,0,0.29618275226,10400,2018-04-14 12:09:23,14,0,16.567,5869.5653354639,42.65092,0.4921268,1.15075463,0,0,-6.263432,29.5, -6, 1.5,0,0,1024,1024,1489,1024,29.8,0,98,4.162,4.167,4.173,4.173,0,0,14.876,80.51,6,P-GPS,
0.305853416251922,36.880047167402,5870.5495874639,43.635172,0,0.30175033774,10500,2018-04-14 12:09:23,14,0,16.567,5870.5495874639,43.635172,0.4921268,1.15075463,0,0,-6.71082,29.4, -5.8, 1.6,0,0,1024,1024,1502,1024,29.8,0,98,4.162,4.167,4.173,4.173,0,0,14.876,80.51,6,P-GPS,
0.30585346964738,36.8800472481987,5871.8619234639,44.947508,0,0.314513461508,10600,2018-04-14 12:09:23,14,0,16.567,5871.8619234639,44.947508,0.4921268,1.15075463,0,0,-6.71082,29.4, -5.7, 1.5,0,0,1024,1024,1516,1024,29.8,0,98,4.162,4.167,4.173,4.173,0,0,14.876,80.51,6,P-GPS,
0.305853516284795,36.8800473359175,5872.8461754639,45.93176,0,0.327963921256,10700,2018-04-14 12:09:23,14,0,16.567,5872.8461754639,45.93176,0.4921268,1.15075463,0,0,-6.71082,29.4, -5.8, 1.5,0,0,1024,1024,1521,1024,29.8,0,98,4.162,4.167,4.173,4.173,0,0,14.876,80.51,6,P-GPS,
0.305853553501661,36.8800474278707,5873.8304274639,46.916012,0.223694,0.34134515528,10800,2018-04-14 12:09:23,14,0,16.567,5873.8304274639,46.916012,0.4921268,1.15075463,0,0.223694,-6.934514,29.4, -5.5, 1,0,0,1024,1024,1517,1024,29.8,0,98,4.162,4.167,4.173,4.173,0,0,14.876,80.51,6,P-GPS,
0.305853615903635,36.8800475162536,5875.1427634639,48.228348,0,0.36683728208,10900,2018-04-14 12:09:23,14,0,16.567,5875.1427634639,48.228348,0.4921268,1.15075463,0,0,-7.381902,29.4, -5.7, 0.9,0,0,1024,1024,1517,1024,29.8,0,98,4.162,4.167,4.173,4.173,0,0,14.876,80.51,6,P-GPS,
0.305853683476325,36.8800475840479,5876.4550994639,49.540684,0,0.39504922524,11000,2018-04-14 12:09:23,14,0,16.567,5876.4550994639,49.540684,0.4921268,1.15075463,0,0,-7.158208,29.4, -6, 1.3,0,0,1024,1024,1519,1024,29.8,0,98,4.162,4.167,4.173,4.173,0,0,14.876,80.51,6,P-GPS,
0.305853759906937,36.8800476541247,5877.4393514639,50.524936,0,0.42759843888,11100,2018-04-14 12:09:24,14,0,16.567,5877.4393514639,50.524936,0.4921268,1.15075463,0,0,-7.158208,29.4, -6, 1.6,0,0,1024,1024,1521,1024,29.8,0,98,4.162,4.167,4.173,4.173,0,0,14.876,80.51,6,P-GPS,
0.305853814440677,36.8800477323504,5878.7516874639,51.837272,0,0.45407481768,11200,2018-04-14 12:09:24,14,0,16.567,5878.7516874639,51.837272,0.4921268,1.15075463,0,0,-7.158208,29.4, -6, 1.3,0,0,1024,1024,1536,1024,29.8,0,98,4.162,4.167,4.173,4.173,0,0,14.876,80.51,6,P-GPS,
0.305853864061401,36.8800478433581,5879.7359394639,52.821524,0,0.48390093412,11300,2018-04-14 12:09:24,14,0,16.567,5879.7359394639,52.821524,0.4921268,1.15075463,0,0,-7.158208,29.4, -6, 0.8,0,0,1024,1024,1536,1024,29.8,0,98,4.162,4.167,4.173,4.173,0,0,14.876,80.51,6,P-GPS,
0.305853900353718,36.8800479531607,5881.0482754639,54.13386,0,0.51119424208,11400,2018-04-14 12:09:24,14,0,16.567,5881.0482754639,54.13386,0.4921268,1.15075463,0,0,-7.381902,29.4, -6.2, 0.4,0,0,1024,1024,1552,1024,29.8,0,98,4.15,4.158,4.161,4.155,0,0,15.83,80.51,6,P-GPS,
0.305853980857883,36.8800480481408,5882.3606114639,55.446196,0,0.55242127752,11500,2018-04-14 12:09:24,14,0,16.567,5882.3606114639,55.446196,0.4921268,1.15075463,0,0,-7.605596,29.4, -5.4, 0.4,0,0,1024,1024,1552,1024,29.8,0,98,4.15,4.158,4.161,4.155,0,0,15.83,80.51,6,P-GPS,
0.305854067964574,36.88004811606,5883.6729474639,56.758532,0,0.59189306356,11600,2018-04-14 12:09:24,14,0,16.567,5883.6729474639,56.758532,0.4921268,1.15075463,0,0,-7.82929,29.4, -5.2, 0.5,0,0,1024,1024,1575,1024,29.8,0,98,4.15,4.158,4.161,4.155,0,0,15.83,80.51,6,P-GPS,
0.305854154068143,36.880048152407,5884.9852834639,58.070868,0,0.62592193604,11700,2018-04-14 12:09:24,14,0,16.567,5884.9852834639,58.070868,0.4921268,1.15075463,0,0,-8.052984,29.4, -5.4, 0.5,0,0,1024,1024,1575,1024,29.8,0,98,4.15,4.158,4.161,4.155,0,0,15.83,80.51,6,P-GPS,
0.305854214012795,36.8800481684953,5886.2976194639,59.383204,0,0.648129942,11800,2018-04-14 12:09:24,14,0,16.567,5886.2976194639,59.383204,0.4921268,1.15075463,0,0,-8.276678,29.4, -5.9, 0.7,0,0,1024,1024,1614,1024,29.8,0,98,4.15,4.158,4.161,4.155,0,0,15.83,80.51,6,P-GPS,
0.305854303216107,36.8800481887451,5887.6099554639,60.69554,0,0.68064962808,11900,2018-04-14 12:09:24,14,0,16.567,5887.6099554639,60.69554,0.4921268,1.15075463,0,0,-8.500372,29.4, -5.7, 1.1,0,0,1024,1024,1614,1024,29.8,0,98,4.15,4.158,4.161,4.155,0,0,15.83,80.51,6,P-GPS,
0.305854387083416,36.8800482166304,5888.9222914639,62.007876,0,0.71266078396,12000,2018-04-14 12:09:24,14,0,16.567,5888.9222914639,62.007876,0.4921268,1.15075463,0,0,-8.724066,29.3, -5.5, 1,0,0,1024,1024,1629,1024,29.8,0,98,4.15,4.158,4.161,4.155,0,0,15.83,80.51,6,P-GPS,
0.305854466711884,36.8800482214292,5890.5627114639,63.648296,0,0.73978348824,12100,2018-04-14 12:09:25,14,0,16.567,5890.5627114639,63.648296,0.4921268,1.15075463,0,0,-9.171454,29.3, -5.9, 1.2,0,0,1024,1024,1646,1024,29.8,0,98,4.15,4.158,4.161,4.155,0,0,15.83,80.51,6,P-GPS,
0.305854530943822,36.8800482079409,5892.2031314639,65.288716,0,0.75924543112,12200,2018-04-14 12:09:25,14,0,16.567,5892.2031314639,65.288716,0.4921268,1.15075463,0,0,-9.618842,29.4, -5.9, 1.5,0,0,1024,1024,1652,1024,29.8,0,98,4.15,4.158,4.161,4.155,0,0,15.83,80.51,6,P-GPS,
0.30585459883121,36.8800482150899,5893.8435514639,66.929136,0,0.78306761036,12300,2018-04-14 12:09:25,14,0,16.514,5893.8435514639,66.929136,0.4921268,1.15075463,0,0,-9.842536,29.4, -6.1, 1.7,0,0,1024,1024,1684,1024,29.8,0,98,4.15,4.158,4.161,4.155,0,0,15.83,80.51,6,P-GPS,
0.30585472132521,36.8800482642406,5897.1243914639,70.209976,0,0.83122049904,12500,2018-04-14 12:09:25,14,0,16.514,5897.1243914639,70.209976,0.4921268,1.15075463,0,0,-10.289924,29.3, -5.9, 1.6,0,0,1024,1024,1684,1024,29.8,0,98,4.15,4.158,4.161,4.155,0,0,15.83,80.51,6,P-GPS,
0.305854782200925,36.8800482917183,5898.7648114639,71.850396,0,0.8555774552,12600,2018-04-14 12:09:25,14,0,16.514,5898.7648114639,71.850396,0.4921268,1.15075463,0,0,-10.737312,29.4, -6, 1.3,0,0,1024,1024,1684,1024,29.8,0,98,4.15,4.158,4.161,4.155,0,0,15.83,80.51,6,P-GPS,
0.305854861081531,36.8800483387835,5900.4052314639,73.490816,0,0.88876643264,12700,2018-04-14 12:09:25,14,0,16.514,5900.4052314639,73.490816,0.4921268,1.15075463,0,0,-10.737312,29.4, -6.5, 1.4,0,0,1024,1024,1684,1024,29.8,0,98,4.15,4.158,4.161,4.155,0,0,15.83,80.51,6,P-GPS,
0.305854950065003,36.8800483877295,5902.0456514639,75.131236,0,0.92563651256,12800,2018-04-14 12:09:25,14,0,16.514,5902.0456514639,75.131236,0.4921268,1.15075463,0,0,-10.961006,29.4, -6.1, 1.8,0,0,1024,1024,1684,1024,29.8,0,98,4.15,4.158,4.161,4.155,0,0,15.83,80.51,6,P-GPS,
0.305855057463735,36.8800484361847,5903.6860714639,76.771656,0,0.9686187974,12900,2018-04-14 12:09:25,14,0,16.514,5903.6860714639,76.771656,0.4921268,1.15075463,0,0,-10.737312,29.3, -6.5, 1.7,0,0,1024,1024,1684,1024,29.8,0,98,4.15,4.158,4.161,4.155,0,0,15.83,80.51,6,P-GPS,
0.305855156256954,36.8800484796571,5905.6545754639,78.74016,0,1.00799543908,13000,2018-04-14 12:09:25,14,0,16.514,5905.6545754639,78.74016,0.4921268,1.15075463,0,0,-10.961006,29.3, -6.2, 1.3,0,0,1024,1024,1684,1024,29.8,0,98,4.15,4.158,4.161,4.155,0,0,15.83,80.51,6,P-GPS,
0.305855255422272,36.8800485624558,5907.2949954639,80.38058,0,1.05326118856,13100,2018-04-14 12:09:25,14,0,16.514,5907.2949954639,80.38058,0.4921268,1.15075463,0,0,-11.1847,29.3, -5.8, 1.3,0,0,1024,1024,1684,1024,29.8,0,98,4.15,4.158,4.161,4.155,0,0,15.83,80.51,6,P-GPS,
0.305855332321062,36.8800486471922,5908.9354154639,82.021,0,1.09160436564,13200,2018-04-14 12:09:26,14,0,16.514,5908.9354154639,82.021,0.4921268,1.15075463,0,0,-10.961006,29.3, -5.5, 1.5,0,0,1024,1024,1684,1024,29.8,0,98,4.15,4.158,4.161,4.155,0,0,15.83,80.51,6,P-GPS,
0.305855432538355,36.8800487352385,5910.9039194639,83.989504,0,1.13838258236,13300,2018-04-14 12:09:26,14,0,16.514,5910.9039194639,83.989504,0.4921268,1.15075463,0,0,-10.961006,29.4, -5.7, 1.3,0,0,1024,1024,1684,1024,29.8,0,98,4.15,4.158,4.161,4.155,0,0,15.83,80.51,6,P-GPS,
0.305855525053922,36.8800488065212,5912.5443394639,85.629924,0,1.18009518212,13400,2018-04-14 12:09:26,14,0,16.328,5912.5443394639,85.629924,0.4921268,1.18009518212,0,0,-10.961006,29.3, -6.1, 1.2,0,0,1024,1024,1684,1024,29.8,0,98,4.13,4.133,4.133,4.124,0,0,18.728,80.51,6,P-GPS,
0.305855611313008,36.8800488753248,5914.1847594639,87.270344,0,1.2194226112,13500,2018-04-14 12:09:26,14,0,16.328,5914.1847594639,87.270344,0.4921268,1.2194226112,0,0,-10.961006,29.3, -5.9, 1.1,0,0,1024,1024,1684,1024,29.8,0,98,4.13,4.133,4.133,4.124,0,0,18.728,80.51,6,P-GPS,
0.305855676924238,36.8800489361489,5915.8251794639,88.910764,0,1.2507710374,13600,2018-04-14 12:09:26,14,0,16.328,5915.8251794639,88.910764,0.4921268,1.2507710374,0,0,-10.961006,29.4, -5.4, 1.2,0,0,1024,1024,1684,1024,29.8,0,98,4.13,4.133,4.133,4.124,0,0,18.728,80.51,6,P-GPS,
0.305855731135953,36.8800490146579,5917.7936834639,90.879268,0,1.28146985728,13700,2018-04-14 12:09:26,14,0,16.328,5917.7936834639,90.879268,0.4921268,1.28146985728,0,0,-10.737312,29.4, -5.4, 1.4,0,0,1024,1024,1684,1024,29.8,0,98,4.13,4.133,4.133,4.124,0,0,18.728,80.51,6,P-GPS,
0.305855762784355,36.8800490962867,5919.4341034639,92.519688,0,1.30567261396,13800,2018-04-14 12:09:26,14,0,16.328,5919.4341034639,92.519688,0.4921268,1.30567261396,0,0,-10.737312,29.4, -5.8, 1.1,0,0,1024,1024,1684,1024,29.8,0,98,4.13,4.133,4.133,4.124,0,0,18.728,80.51,6,P-GPS,
0.305855809530875,36.8800491551552,5921.0745234639,94.160108,0,1.33095804784,13900,2018-04-14 12:09:26,14,0,16.328,5921.0745234639,94.160108,0.4921268,1.33095804784,0,0,-10.737312,29.4, -5.9, 0.9,0,0,1024,1024,1684,1024,29.8,0,98,4.13,4.133,4.133,4.124,0,0,18.728,80.51,6,P-GPS,
0.305855863216603,36.8800491938846,5922.7149434639,95.800528,0,1.35494426908,14000,2018-04-14 12:09:26,14,0,16.328,5922.7149434639,95.800528,0.4921268,1.35494426908,0,0,-10.961006,29.3, -5.9, 0.9,0,0,1024,1024,1684,1024,29.8,0,98,4.13,4.133,4.133,4.124,0,0,18.728,80.51,6,P-GPS,
0.30585593212991,36.880049231742,5924.3553634639,97.440948,0,1.38363193404,14100,2018-04-14 12:09:27,14,0,16.328,5924.3553634639,97.440948,0.4921268,1.38363193404,0,0,-10.737312,29.3, -5.6, 0.6,0,0,1024,1024,1684,1024,29.8,0,98,4.13,4.133,4.133,4.124,0,0,18.728,80.51,6,P-GPS,
0.305855993060178,36.8800492703341,5925.9957834639,99.081368,0,1.40990490076,14200,2018-04-14 12:09:27,14,0,16.328,5925.9957834639,99.081368,0.4921268,1.40990490076,0,0,-10.737312,29.3, -5.4, 0.4,0,0,1024,1024,1684,1024,29.8,0,98,4.13,4.133,4.133,4.124,0,0,18.728,80.51,6,P-GPS,
0.305856090153709,36.8800493133991,5927.6362034639,100.721788,0,1.44849742168,14300,2018-04-14 12:09:27,14,0,16.328,5927.6362034639,100.721788,0.4921268,1.44849742168,0,0,-10.961006,29.3, -5.3, 0.7,0,0,1024,1024,1684,1024,29.8,0,98,4.13,4.133,4.133,4.124,0,0,18.728,80.51,6,P-GPS,
0.305856189163511,36.8800493549669,5929.6047074639,102.690292,0,1.48744755416,14400,2018-04-14 12:09:27,14,0,16.435,5929.6047074639,102.690292,0.4921268,1.48744755416,0,0,-10.961006,29.3, -5.3, 1.1,0,0,1024,1024,1684,1024,29.8,0,98,4.127,4.131,4.132,4.127,0,0,18.07,80.51,6,P-GPS,
0.305856293587889,36.8800494016529,5931.2451274639,104.330712,0,1.52904204368,14500,2018-04-14 12:09:27,14,0,16.435,5931.2451274639,104.330712,0.4921268,1.52904204368,0,0,-10.961006,29.3, -4.9, 1.2,0,0,1024,1024,1684,1024,29.8,0,98,4.127,4.131,4.132,4.127,0,0,18.07,80.51,6,P-GPS,
0.305856371174289,36.8800494398342,5932.8855474639,105.971132,0,1.56056107356,14600,2018-04-14 12:09:27,14,0,16.435,5932.8855474639,105.971132,0.4921268,1.56056107356,0,0,-10.961006,29.4, -4.9, 1.2,0,0,1024,1024,1684,1024,29.8,0,98,4.127,4.131,4.132,4.127,0,0,18.07,80.51,6,P-GPS,
0.305856539210168,36.8800495347548,5936.1663874639,109.251972,0,1.63096789996,14800,2018-04-14 12:09:27,14,0,16.435,5936.1663874639,109.251972,0.4921268,1.63096789996,0,0,-10.961006,29.3, -4.4, 1.4,0,0,1024,1024,1684,1024,29.8,0,98,4.127,4.131,4.132,4.127,0,0,18.07,80.51,6,P-GPS,
0.305856622328393,36.8800495998025,5937.8068074639,110.892392,0,1.66897643136,14900,2018-04-14 12:09:27,14,0,16.435,5937.8068074639,110.892392,0.4921268,1.66897643136,0,0,-11.1847,29.4, -4.4, 0.8,0,0,1024,1024,1684,1024,29.8,0,98,4.127,4.131,4.132,4.127,0,0,18.07,80.51,6,P-GPS,
0.305856678219033,36.8800496461018,5939.7753114639,112.860896,0,1.69500333508,15000,2018-04-14 12:09:27,14,0,16.435,5939.7753114639,112.860896,0.4921268,1.69500333508,0,0,-11.1847,29.4, -4.8, 0.6,0,0,1024,1024,1684,1024,29.8,0,98,4.127,4.131,4.132,4.127,0,0,18.07,80.51,6,P-GPS,
0.305856730062176,36.8800496845585,5941.4157314639,114.501316,0,1.7183563542,15100,2018-04-14 12:09:27,14,0,16.435,5941.4157314639,114.501316,0.4921268,1.7183563542,0,0,-11.1847,29.4, -5, 0.7,0,0,1024,1024,1684,1024,29.8,0,98,4.127,4.131,4.132,4.127,0,0,18.07,80.51,6,P-GPS,
0.305856765687646,36.8800497058421,5943.0561514639,116.141736,0,1.73349086912,15200,2018-04-14 12:09:28,14,0,16.435,5943.0561514639,116.141736,0.4921268,1.73349086912,0,0,-11.1847,29.4, -5, 0.9,0,0,1024,1024,1684,1024,29.8,0,98,4.127,4.131,4.132,4.127,0,0,18.07,80.51,6,P-GPS,
0.305856808630528,36.8800497117522,5944.6965714639,117.782156,0,1.7482284024,15300,2018-04-14 12:09:28,14,0,16.435,5944.6965714639,117.782156,0.4921268,1.7482284024,0,0,-11.1847,29.4, -5.1, 0.9,0,0,1024,1024,1684,1024,29.8,0,98,4.127,4.131,4.132,4.127,0,0,18.07,80.51,6,P-GPS,
0.305856839976446,36.8800497021303,5946.6650754639,119.75066,0,1.7565453318,15400,2018-04-14 12:09:28,14,0,16.381,5946.6650754639,119.75066,0.4921268,1.7565453318,0,0,-11.1847,29.4, -4.9, 1.1,0,0,1024,1024,1684,1024,29.8,0,98,4.116,4.122,4.122,4.117,0,0,19.028,80.51,6,P-GPS,
0.30585687007742,36.8800497030323,5948.3054954639,121.39108,0,1.7663386392,15500,2018-04-14 12:09:28,14,0,16.381,5948.3054954639,121.39108,0.4921268,1.7663386392,0,0,-11.408394,29.4, -5, 1.1,0,0,1024,1024,1684,1024,29.8,0,98,4.116,4.122,4.122,4.117,0,0,19.028,80.51,6,P-GPS,
0.305856875124782,36.8800497025976,5950.2739994639,123.359584,0,1.767880634,15600,2018-04-14 12:09:28,14,0,16.381,5950.2739994639,123.359584,0.4921268,1.767880634,0,0,-11.408394,29.4, -5.7, 1,0,0,1024,1024,1684,1024,29.8,0,98,4.116,4.122,4.122,4.117,0,0,19.028,80.51,6,P-GPS,
0.305856871549533,36.8800496991313,5951.9144194639,125.000004,0,1.76613194628,15700,2018-04-14 12:09:28,14,0,16.381,5951.9144194639,125.000004,0.4921268,1.767880634,0,0,-11.1847,29.4, -6, 1.2,0,0,1024,1024,1684,1024,29.8,0,98,4.116,4.122,4.122,4.117,0,0,19.028,80.51,6,P-GPS,
0.305856857781039,36.8800496915593,5953.5548394639,126.640424,0,1.76039703796,15800,2018-04-14 12:09:28,14,0,16.381,5953.5548394639,126.640424,0.4921268,1.767880634,0,0,-11.1847,29.4, -6, 1.3,0,0,1024,1024,1684,1024,29.8,0,98,4.116,4.122,4.122,4.117,0,0,19.028,80.51,6,P-GPS,
0.305856852812656,36.8800496751415,5955.1952594639,128.280844,0,1.75595149976,15900,2018-04-14 12:09:28,14,0,16.381,5955.1952594639,128.280844,0.4921268,1.767880634,0,0,-11.1847,29.4, -5.9, 1.2,0,0,1024,1024,1684,1024,29.8,0,98,4.116,4.122,4.122,4.117,0,0,19.028,80.51,6,P-GPS,
0.305856848665824,36.8800496553672,5956.8356794639,129.921264,0,1.7511975626,16000,2018-04-14 12:09:28,14,0,16.381,5956.8356794639,129.921264,0.4921268,1.767880634,0,0,-11.1847,29.4, -5.3, 0.9,0,0,1024,1024,1684,1024,29.8,0,98,4.116,4.122,4.122,4.117,0,0,19.028,80.51,6,P-GPS,
0.30585684840283,36.8800496379115,5958.8041834639,131.889768,0,1.748113573,16100,2018-04-14 12:09:29,14,0,16.381,5958.8041834639,131.889768,0.4921268,1.767880634,0,0,-11.408394,29.4, -5.3, 0.9,0,0,1024,1024,1684,1024,29.8,0,98,4.116,4.122,4.122,4.117,0,0,19.028,80.51,6,P-GPS,
0.305856832721728,36.8800496176011,5960.4446034639,133.530188,0,1.739583389,16200,2018-04-14 12:09:29,14,0,16.381,5960.4446034639,133.530188,0.4921268,1.767880634,0,0,-11.1847,29.5, -5.7, 1.1,0,0,1024,1024,1684,1024,29.8,0,98,4.116,4.122,4.122,4.117,0,0,19.028,80.51,6,P-GPS,
0.305856813865161,36.8800495778945,5962.0850234639,135.170608,0,1.72675202376,16300,2018-04-14 12:09:29,14,0,16.381,5962.0850234639,135.170608,0.4921268,1.767880634,0,0,-11.1847,29.5, -6.3, 1.1,0,0,1024,1024,1684,1024,29.8,0,98,4.116,4.122,4.122,4.117,0,0,19.028,80.51,6,P-GPS,
0.305856789364407,36.880049534374,5963.7254434639,136.811028,0,1.71150596028,16400,2018-04-14 12:09:29,14,0,16.381,5963.7254434639,136.811028,0.4921268,1.767880634,0,0,-10.961006,29.5, -6.6, 1,0,0,1024,1024,1684,1024,29.8,0,98,4.116,4.122,4.122,4.117,0,0,19.028,80.51,6,P-GPS,
0.305856809087307,36.8800494344451,5967.0062834639,140.091868,0,1.70158798096,16600,2018-04-14 12:09:29,14,0,16.381,5967.0062834639,140.091868,0.4921268,1.767880634,0,0,-10.961006,29.4, -6.1, 1.1,0,0,1024,1024,1684,1024,29.8,0,98,4.116,4.122,4.122,4.117,0,0,19.028,80.51,6,P-GPS,
0.305856823923246,36.8800493711762,5968.6467034639,141.732288,0,1.69647643224,16700,2018-04-14 12:09:29,14,0,16.381,5968.6467034639,141.732288,0.4921268,1.767880634,0,0,-10.961006,29.4, -5.8, 1.4,0,0,1024,1024,1684,1024,29.8,0,98,4.116,4.122,4.122,4.117,0,0,19.028,80.51,6,P-GPS,
0.305856825794328,36.8800493080429,5970.2871234639,143.372708,0,1.68739506712,16800,2018-04-14 12:09:29,14,0,16.381,5970.2871234639,143.372708,0.4921268,1.767880634,0,0,-11.1847,29.4, -5.8, 1.7,0,0,1024,1024,1684,1024,29.8,0,98,4.116,4.122,4.122,4.117,0,0,19.028,80.51,6,P-GPS,
0.305856821106852,36.8800492362436,5971.9275434639,145.013128,0,1.675114883,16900,2018-04-14 12:09:29,14,0,16.381,5971.9275434639,145.013128,0.4921268,1.767880634,0,0,-10.961006,29.4, -6, 1.9,0,0,1024,1024,1684,1024,29.8,0,98,4.116,4.122,4.122,4.117,0,0,19.028,80.51,6,P-GPS,
0.30585681170503,36.8800491775281,5973.8960474639,146.981632,0,1.66344821596,17000,2018-04-14 12:09:29,14,0,16.381,5973.8960474639,146.981632,0.4921268,1.767880634,0,0,-11.1847,29.4, -5.8, 2,0,0,1024,1024,1684,1024,29.8,0,98,4.116,4.122,4.122,4.117,0,0,19.028,80.51,6,P-GPS,
0.305856764263571,36.8800491298486,5975.5364674639,148.622052,0,1.64072183728,17100,2018-04-14 12:09:30,14,0,16.381,5975.5364674639,148.622052,0.4921268,1.767880634,0,0,-10.961006,29.4, -6.2, 1.4,0,0,1024,1024,1684,1024,29.8,0,98,4.116,4.122,4.122,4.117,0,0,19.028,80.51,6,P-GPS,
0.305856707563594,36.8800490997291,5977.1768874639,150.262472,0,1.61739506488,17200,2018-04-14 12:09:30,14,0,16.381,5977.1768874639,150.262472,0.4921268,1.767880634,0,0,-10.961006,29.4, -6.5, 1.1,0,0,1024,1024,1684,1024,29.8,0,98,4.116,4.122,4.122,4.117,0,0,19.028,80.51,6,P-GPS,
0.305856670389474,36.8800490634669,5978.8173074639,151.902892,0,1.59979007744,17300,2018-04-14 12:09:30,14,0,16.381,5978.8173074639,151.902892,0.4921268,1.767880634,0,0,-10.961006,29.4, -6.4, 1.3,0,0,1024,1024,1684,1024,29.8,0,98,4.116,4.122,4.122,4.117,0,0,19.028,80.51,6,P-GPS,
0.305856657932692,36.8800490345254,5980.4577274639,153.543312,0,1.59157157324,17400,2018-04-14 12:09:30,14,0,16.408,5980.4577274639,153.543312,0.4921268,1.767880634,0,0,-10.961006,29.4, -6.1, 1.6,0,0,1024,1024,1684,1024,29.8,0,98,4.121,4.125,4.126,4.122,0,0,17.446,80.51,6,P-GPS,
0.305856640058077,36.8800490007502,5982.0981474639,155.183732,0,1.5809055624,17500,2018-04-14 12:09:30,14,0,16.408,5982.0981474639,155.183732,0.4921268,1.767880634,0,0,-10.961006,29.4, -5.9, 1.6,0,0,1024,1024,1684,1024,29.8,0,98,4.121,4.125,4.126,4.122,0,0,17.446,80.51,6,P-GPS,
0.305856619242491,36.8800489794893,5983.7385674639,156.824152,0,1.57097445972,17600,2018-04-14 12:09:30,14,0,16.408,5983.7385674639,156.824152,0.4921268,1.767880634,0,0,-10.961006,29.4, -5.8, 1.4,0,0,1024,1024,1684,1024,29.8,0,98,4.121,4.125,4.126,4.122,0,0,17.446,80.51,6,P-GPS,
0.305856603068785,36.8800489465368,5985.3789874639,158.464572,0,1.56106960376,17700,2018-04-14 12:09:30,14,0,16.408,5985.3789874639,158.464572,0.4921268,1.767880634,0,0,-10.961006,29.5, -5.7, 0.8,0,0,1024,1024,1684,1024,29.8,0,98,4.121,4.125,4.126,4.122,0,0,17.446,80.51,6,P-GPS,
0.305856597903361,36.8800489109335,5987.0194074639,160.104992,0,1.55461947232,17800,2018-04-14 12:09:30,14,0,16.408,5987.0194074639,160.104992,0.4921268,1.767880634,0,0,-11.1847,29.4, -5.6, 0.9,0,0,1024,1024,1684,1024,29.7,0,98,4.121,4.125,4.126,4.122,0,0,17.446,80.51,6,P-GPS,
0.305856604308845,36.8800488401273,5988.6598274639,161.745412,0,1.54776579756,17900,2018-04-14 12:09:30,14,0,16.408,5988.6598274639,161.745412,0.4921268,1.767880634,0,0,-10.961006,29.4, -5.9, 1.6,0,0,1024,1024,1684,1024,29.8,0,98,4.121,4.125,4.126,4.122,0,0,17.446,80.51,6,P-GPS,
0.305856612080594,36.8800487828835,5990.3002474639,163.385832,0,1.54341212288,18000,2018-04-14 12:09:30,14,0,16.408,5990.3002474639,163.385832,0.4921268,1.767880634,0,0,-10.961006,29.4, -5.9, 2,0,0,1024,1024,1684,1024,29.7,0,98,4.121,4.125,4.126,4.122,0,0,17.446,80.51,6,P-GPS,
0.305856620920603,36.8800487312703,5991.9406674639,165.026252,0,1.54035438,18100,2018-04-14 12:09:31,14,0,16.408,5991.9406674639,165.026252,0.4921268,1.767880634,0,0,-10.961006,29.4, -5.7, 1.7,0,0,1024,1024,1684,1024,29.7,0,98,4.121,4.125,4.126,4.122,0,0,17.446,80.51,6,P-GPS,
0.305856624928203,36.8800487072047,5993.5810874639,166.666672,0,1.53896986552,18200,2018-04-14 12:09:31,14,0,16.408,5993.5810874639,166.666672,0.4921268,1.767880634,0,0,-10.961006,29.4, -5.3, 1.4,0,0,1024,1024,1684,1024,29.7,0,98,4.121,4.125,4.126,4.122,0,0,17.446,80.51,6,P-GPS,
0.305856589520946,36.8800486772592,5995.2215074639,168.307092,0,1.523294012,18300,2018-04-14 12:09:31,14,0,16.408,5995.2215074639,168.307092,0.4921268,1.767880634,0,0,-10.961006,29.5, -5.5, 1,0,0,1024,1024,1684,1024,29.8,0,98,4.121,4.125,4.126,4.122,0,0,17.446,80.51,6,P-GPS,
0.305856532597871,36.8800486617996,5996.8619274639,169.947512,0,1.50180122916,18400,2018-04-14 12:09:31,14,0,16.408,5996.8619274639,169.947512,0.4921268,1.767880634,0,0,-10.961006,29.5, -5.6, 0.8,0,0,1024,1024,1684,1024,29.7,0,97,4.118,4.122,4.123,4.118,0,0,17.57,80.51,6,P-GPS,
0.305856471346393,36.880048665456,5998.1742634639,171.259848,0,1.4809875802,18500,2018-04-14 12:09:31,14,0,16.408,5998.1742634639,171.259848,0.4921268,1.767880634,0,0,-10.961006,29.6, -6, 1,0,0,1024,1024,1684,1024,29.8,0,97,4.118,4.122,4.123,4.118,0,0,17.57,80.51,6,P-GPS,
0.305856416045249,36.8800486871114,5999.8146834639,172.900268,0,1.46439309148,18600,2018-04-14 12:09:31,14,0,16.408,5999.8146834639,172.900268,0.4921268,1.767880634,0,0,-10.737312,29.5, -6.2, 1,0,0,1024,1024,1684,1024,29.8,0,97,4.118,4.122,4.123,4.118,0,0,17.57,80.51,6,P-GPS,
0.305856349453696,36.8800486962916,6001.4551034639,174.540688,0,1.4425361354,18700,2018-04-14 12:09:31,14,0,16.408,6001.4551034639,174.540688,0.4921268,1.767880634,0,0,-10.961006,29.5, -6.4, 0.2,0,0,1024,1024,1684,1024,29.7,0,97,4.118,4.122,4.123,4.118,0,0,17.57,80.51,6,P-GPS,
0.305856289640134,36.8800486968103,6003.0955234639,176.181108,0,1.42202432372,18800,2018-04-14 12:09:31,14,0,16.408,6003.0955234639,176.181108,0.4921268,1.767880634,0,0,-11.1847,29.6, -6.5, -0.3,0,0,1024,1024,1684,1024,29.7,0,97,4.118,4.122,4.123,4.118,0,0,17.57,80.51,6,P-GPS,
0.305856220964579,36.8800486795421,6004.7359434639,177.821528,0,1.39631238064,18900,2018-04-14 12:09:31,14,0,16.408,6004.7359434639,177.821528,0.4921268,1.767880634,0,0,-10.961006,29.5, -6.3, 0.3,0,0,1024,1024,1684,1024,29.7,0,97,4.118,4.122,4.123,4.118,0,0,17.57,80.51,6,P-GPS,
0.305856157895757,36.8800486694048,6006.3763634639,179.461948,0,1.37341211744,19000,2018-04-14 12:09:31,14,0,16.408,6006.3763634639,179.461948,0.4921268,1.767880634,0,0,-10.961006,29.5, -6.3, 0.6,0,0,1024,1024,1684,1024,29.7,0,97,4.118,4.122,4.123,4.118,0,0,17.57,80.51,6,P-GPS,
0.305856091975123,36.8800486647007,6008.0167834639,181.102368,0,1.350229702,19100,2018-04-14 12:09:31,14,0,16.408,6008.0167834639,181.102368,0.4921268,1.767880634,0,0,-10.961006,29.5, -6.8, 0,0,0,1024,1024,1684,1024,29.7,0,97,4.118,4.122,4.123,4.118,0,0,17.57,80.51,6,P-GPS,
0.305856049737357,36.8800486718699,6009.6572034639,182.742788,0,1.33669295616,19200,2018-04-14 12:09:32,14,0,16.408,6009.6572034639,182.742788,0.4921268,1.767880634,0,0,-10.961006,29.5, -6.4, -0.2,0,0,1024,1024,1684,1024,29.7,0,97,4.118,4.122,4.123,4.118,0,0,17.57,80.51,6,P-GPS,
0.305856016507329,36.8800486662006,6011.2976234639,184.383208,0,1.32461618412,19300,2018-04-14 12:09:32,14,0,16.408,6011.2976234639,184.383208,0.4921268,1.767880634,0,0,-11.1847,29.4, -6.1, 0.2,0,0,1024,1024,1684,1024,29.7,0,97,4.118,4.122,4.123,4.118,0,0,17.57,80.51,6,P-GPS,
0.305855984560922,36.8800486680484,6012.9380434639,186.023628,0,1.31395345412,19400,2018-04-14 12:09:32,14,0,16.355,6012.9380434639,186.023628,0.4921268,1.767880634,0,0,-11.1847,29.5, -5.6, 0.1,0,0,1024,1024,1684,1024,29.7,0,97,4.118,4.122,4.123,4.118,0,0,16.972,80.51,6,P-GPS,
0.305855959580998,36.8800486759046,6014.5784634639,187.664048,0,1.30646985808,19500,2018-04-14 12:09:32,14,0,16.355,6014.5784634639,187.664048,0.4921268,1.767880634,0,0,-11.1847,29.5, -6, 0.5,0,0,1024,1024,1684,1024,29.7,0,97,4.118,4.122,4.123,4.118,0,0,16.972,80.51,6,P-GPS,
0.305855926108331,36.8800486940255,6016.2188834639,189.304468,0,1.29750004152,19600,2018-04-14 12:09:32,14,0,16.355,6016.2188834639,189.304468,0.4921268,1.767880634,0,0,-11.1847,29.5, -6.2, 0.5,0,0,1024,1024,1684,1024,29.7,0,97,4.118,4.122,4.123,4.118,0,0,16.972,80.51,6,P-GPS,
0.305855863765796,36.8800486895867,6018.1873874639,191.272972,0,1.27576775736,19700,2018-04-14 12:09:32,14,0,16.355,6018.1873874639,191.272972,0.4921268,1.767880634,0,0,-11.1847,29.5, -6.8, 0,0,0,1024,1024,1684,1024,29.7,0,97,4.118,4.122,4.123,4.118,0,0,16.972,80.51,6,P-GPS,
0.305855790454468,36.8800486765173,6019.8278074639,192.913392,0,1.24918311084,19800,2018-04-14 12:09:32,14,0,16.355,6019.8278074639,192.913392,0.4921268,1.767880634,0,0,-11.1847,29.5, -7.2, -0.3,0,0,1024,1024,1684,1024,29.7,0,97,4.118,4.122,4.123,4.118,0,0,16.972,80.51,6,P-GPS,
0.305855700674687,36.8800486618371,6021.4682274639,194.553812,0,1.21684387096,19900,2018-04-14 12:09:32,14,0,16.355,6021.4682274639,194.553812,0.4921268,1.767880634,0,0,-11.1847,29.6, -6.7, -0.5,0,0,1024,1024,1684,1024,29.7,0,97,4.118,4.122,4.123,4.118,0,0,16.972,80.51,6,P-GPS,
0.305855615228602,36.8800486550002,6023.1086474639,196.194232,0,1.1871227414,20000,2018-04-14 12:09:32,14,0,16.355,6023.1086474639,196.194232,0.4921268,1.767880634,0,0,-11.408394,29.5, -6.5, -0.6,0,0,1024,1024,1684,1024,29.7,0,97,4.118,4.122,4.123,4.118,0,0,16.972,80.51,6,P-GPS,
0.305855530017013,36.8800486531723,6024.7490674639,197.834652,0,1.15829071948,20100,2018-04-14 12:09:33,14,0,16.355,6024.7490674639,197.834652,0.4921268,1.767880634,0,0,-11.408394,29.5, -7, -0.3,0,0,1024,1024,1684,1024,29.7,0,97,4.118,4.122,4.123,4.118,0,0,16.972,80.51,6,P-GPS,
0.30585545437986,36.8800486615076,6026.3894874639,199.475072,0,1.13428153236,20200,2018-04-14 12:09:33,14,0,16.355,6026.3894874639,199.475072,0.4921268,1.767880634,0,0,-11.1847,29.5, -7.6, -0.3,0,0,1024,1024,1684,1024,29.7,0,97,4.118,4.122,4.123,4.118,0,0,16.972,80.51,6,P-GPS,
0.305855384633197,36.8800486746375,6028.0299074639,201.115492,0,1.11313323772,20300,2018-04-14 12:09:33,14,0,16.355,6028.0299074639,201.115492,0.4921268,1.767880634,0,0,-11.408394,29.6, -7.1, -0.7,0,0,1024,1024,1684,1024,29.7,0,97,4.118,4.122,4.123,4.118,0,0,16.972,80.51,6,P-GPS,
0.305855316786927,36.8800486685538,6029.9984114639,203.083996,0,1.08979006112,20400,2018-04-14 12:09:33,14,0,16.461,6029.9984114639,203.083996,0.4921268,1.767880634,0,0,-11.408394,29.7, -7.9, -0.7,0,0,1024,1024,1684,1024,29.7,0,97,4.12,4.123,4.124,4.12,0,0,16.972,80.51,6,P-GPS,
0.305855239182614,36.8800486297669,6031.6388314639,204.724416,0,1.05814307848,20500,2018-04-14 12:09:33,14,0,16.461,6031.6388314639,204.724416,0.4921268,1.767880634,0,0,-11.408394,29.7, -8.2, -0.7,0,0,1024,1024,1684,1024,29.7,0,97,4.12,4.123,4.124,4.12,0,0,16.972,80.51,6,P-GPS,
0.305855176702475,36.8800485834908,6033.2792514639,206.364836,0,1.03032483612,20600,2018-04-14 12:09:33,14,0,16.461,6033.2792514639,206.364836,0.4921268,1.767880634,0,0,-11.1847,29.6, -8, -0.3,0,0,1024,1024,1684,1024,29.7,0,97,4.12,4.123,4.124,4.12,0,0,16.972,80.51,6,P-GPS,
0.305855135009423,36.8800485263369,6034.9196714639,208.005256,0,1.00778874616,20700,2018-04-14 12:09:33,14,0,16.461,6034.9196714639,208.005256,0.4921268,1.767880634,0,0,-10.961006,29.6, -7.8, 0,0,0,1024,1024,1684,1024,29.7,0,97,4.12,4.123,4.124,4.12,0,0,16.972,80.51,6,P-GPS,
0.305855104574212,36.8800484814852,6036.5600914639,209.645676,0,0.99097444116,20800,2018-04-14 12:09:33,14,0,16.461,6036.5600914639,209.645676,0.4921268,1.767880634,0,0,-10.961006,29.6, -7.6, -0.4,0,0,1024,1024,1684,1024,29.7,0,97,4.12,4.123,4.124,4.12,0,0,16.972,80.51,6,P-GPS,
0.305855071628755,36.8800484416336,6037.8724274639,210.958012,0,0.97415029364,20900,2018-04-14 12:09:33,14,0,16.461,6037.8724274639,210.958012,0.4921268,1.767880634,0,0,-10.961006,29.6, -7.9, -0.2,0,0,1024,1024,1684,1024,29.7,0,97,4.12,4.123,4.124,4.12,0,0,16.972,80.51,6,P-GPS,
0.305855041298171,36.8800484158686,6039.5128474639,212.598432,0,0.96028218296,21000,2018-04-14 12:09:33,14,0,16.461,6039.5128474639,212.598432,0.4921268,1.767880634,0,0,-10.737312,29.6, -7.9, -0.6,0,0,1024,1024,1684,1024,29.7,0,97,4.12,4.123,4.124,4.12,0,0,16.972,80.51,6,P-GPS,
0.305855009629006,36.8800483917422,6041.1532674639,214.238852,0,0.9462106602,21100,2018-04-14 12:09:33,14,0,16.461,6041.1532674639,214.238852,0.4921268,1.767880634,0,0,-10.737312,29.5, -7.6, -0.3,0,0,1024,1024,1684,1024,29.7,0,97,4.12,4.123,4.124,4.12,0,0,16.972,80.51,6,P-GPS,
0.305854981485423,36.8800483564303,6042.7936874639,215.879272,0,0.93178808756,21200,2018-04-14 12:09:34,14,0,16.461,6042.7936874639,215.879272,0.4921268,1.767880634,0,0,-10.961006,29.5, -7.8, 0.1,0,0,1024,1024,1684,1024,29.7,0,97,4.12,4.123,4.124,4.12,0,0,16.972,80.51,6,P-GPS,
0.30585494003216,36.8800483147822,6044.4341074639,217.519692,0,0.91206367748,21300,2018-04-14 12:09:34,14,0,16.461,6044.4341074639,217.519692,0.4921268,1.767880634,0,0,-10.961006,29.5, -8, 0,0,0,1024,1024,1684,1024,29.7,0,97,4.12,4.123,4.124,4.12,0,0,16.972,80.51,6,P-GPS,
0.30585490125728,36.8800482716543,6046.0745274639,219.160112,0,0.89313651152,21400,2018-04-14 12:09:34,14,0,16.435,6046.0745274639,219.160112,0.4921268,1.767880634,0,0,-11.1847,29.5, -8.2, 0,0,0,1024,1024,1684,1024,29.7,0,97,4.124,4.129,4.13,4.126,0,0,16.182,80.51,6,P-GPS,
0.30585488202617,36.8800482265178,6047.7149474639,220.800532,0,0.88073493632,21500,2018-04-14 12:09:34,14,0,16.435,6047.7149474639,220.800532,0.4921268,1.767880634,0,0,-10.961006,29.5, -8.2, 0.1,0,0,1024,1024,1684,1024,29.7,0,97,4.124,4.129,4.13,4.126,0,0,16.182,80.51,6,P-GPS,
0.305854882955605,36.8800481846141,6049.3553674639,222.440952,0,0.8758530464,21600,2018-04-14 12:09:34,14,0,16.435,6049.3553674639,222.440952,0.4921268,1.767880634,0,0,-11.1847,29.4, -8.2, 0.1,0,0,1024,1024,1684,1024,29.7,0,97,4.124,4.129,4.13,4.126,0,0,16.182,80.51,6,P-GPS,
0.30585490410095,36.8800481669475,6050.9957874639,224.081372,0,0.88103021192,21700,2018-04-14 12:09:34,14,0,16.435,6050.9957874639,224.081372,0.4921268,1.767880634,0,0,-10.961006,29.5, -8, -0.1,0,0,1024,1024,1684,1024,29.7,0,97,4.124,4.129,4.13,4.126,0,0,16.182,80.51,6,P-GPS,
0.30585494227127,36.8800481584168,6052.6362074639,225.721792,0,0.89323493672,21800,2018-04-14 12:09:34,14,0,16.435,6052.6362074639,225.721792,0.4921268,1.767880634,0,0,-10.961006,29.5, -7.9, 0.5,0,0,1024,1024,1684,1024,29.7,0,97,4.124,4.129,4.13,4.126,0,0,16.182,80.51,6,P-GPS,
0.305854990543236,36.880048156792,6054.2766274639,227.362212,0,0.90978349368,21900,2018-04-14 12:09:34,14,0,16.435,6054.2766274639,227.362212,0.4921268,1.767880634,0,0,-10.737312,29.5, -7.6, 0.6,0,0,1024,1024,1684,1024,29.7,0,97,4.124,4.129,4.13,4.126,0,0,16.182,80.51,6,P-GPS,
0.305855037086201,36.8800481666701,6055.5889634639,228.674548,0,0.92704727376,22000,2018-04-14 12:09:34,14,0,16.435,6055.5889634639,228.674548,0.4921268,1.767880634,0,0,-10.737312,29.5, -7.4, 0.3,0,0,1024,1024,1684,1024,29.7,0,97,4.124,4.129,4.13,4.126,0,0,16.182,80.51,6,P-GPS,
0.30585507522843,36.8800481716454,6057.2293834639,230.314968,0,0.94085304848,22100,2018-04-14 12:09:35,14,0,16.435,6057.2293834639,230.314968,0.4921268,1.767880634,0,0,-10.737312,29.5, -7.2, 0.1,0,0,1024,1024,1684,1024,29.7,0,97,4.124,4.129,4.13,4.126,0,0,16.182,80.51,6,P-GPS,
0.305855116602307,36.8800481794594,6058.8698034639,231.955388,0,0.9561023928,22200,2018-04-14 12:09:35,14,0,16.435,6058.8698034639,231.955388,0.4921268,1.767880634,0,0,-10.961006,29.6, -6.5, 0,0,0,1024,1024,1684,1024,29.7,0,97,4.124,4.129,4.13,4.126,0,0,16.182,80.51,6,P-GPS,
