latitude,longitude,altitude(feet),ascent(feet),speed(mph),distance(feet),time(millisecond),datetime(utc),satellites,gpslevel,voltage(v),max_altitude(feet),max_ascent(feet),max_speed(mph),max_distance(feet), xSpeed(mph), ySpeed(mph), zSpeed(mph), compass_heading(degrees), pitch(degrees), roll(degrees),isPhoto,isVideo,rc_elevator,rc_aileron,rc_throttle,rc_rudder,gimbal_heading(degrees),gimbal_pitch(degrees),battery_percent,voltageCell1,voltageCell2,voltageCell3,voltageCell4,voltageCell5,voltageCell6,current(A),battery_temperature(f),flycStateRaw,flycState,message
0.347648891772838,36.8999819809218,5713.2472468003,0,0,0,0,2018-04-04 12:46:30,13,0,0,5713.2472468003,0,0,0,0,0,0,156.5, -2.5, 3,0,0,364,364,364,1684,161.2,0,93,4.235,4.215,4.21,4.204,0,0,0,82.31,6,P-GPS,
0.347648892624107,36.8999820036951,5713.2472468003,0,0,0.00831446877,100,2018-04-04 12:46:30,13,0,0,5713.2472468003,0,0,0.00831446877,0,0,0,156.5, -2.5, 3,0,0,364,364,364,1684,161.2,0,93,4.235,4.215,4.21,4.204,0,0,0,82.31,41,Motors_Started,
0.347648892085092,36.8999820363537,5713.2472468003,0,0,0.0202242788624,200,2018-04-04 12:46:30,13,0,0,5713.2472468003,0,0,0.0202242788624,0,0,0,156.5, -2.5, 3,0,0,364,364,364,1684,161.2,0,93,4.235,4.215,4.21,4.204,0,0,0,82.31,41,Motors_Started,
0.347648895803644,36.8999820715444,5713.2472468003,0,0,0.033095801584,300,2018-04-04 12:46:30,13,0,0,5713.2472468003,0,0,0.033095801584,0,0,0,156.6, -2.5, 3,0,0,364,364,364,1684,161.2,0,93,4.235,4.215,4.21,4.204,0,0,0,82.31,41,Motors_Started,
0.347648896569826,36.8999821121994,5713.2472468003,0,0,0.047927494972,400,2018-04-04 12:46:30,13,0,0,5713.2472468003,0,0,0.047927494972,0,0,0,156.5, -2.4, 3,0,0,364,364,364,1684,161.2,0,93,4.235,4.215,4.21,4.204,0,0,0,82.31,41,Motors_Started,
0.347648901010186,36.8999821568718,5713.2472468003,0,0,0.064282482372,500,2018-04-04 12:46:30,13,0,0,5713.2472468003,0,0,0.064282482372,0,0,0,156.5, -2.5, 3.1,0,0,364,364,364,1684,161.2,0,93,4.235,4.215,4.21,4.204,0,0,0,82.31,41,Motors_Started,
0.347648902334111,36.8999822031592,5713.2472468003,0,0,0.081173230944,600,2018-04-04 12:46:30,13,0,16.842,5713.2472468003,0,0,0.081173230944,0,0,0,156.5, -2.5, 3.1,0,0,364,364,364,1684,161.2,0,93,4.235,4.215,4.21,4.204,0,0,1.61,82.31,41,Motors_Started,Setting new Return-To-Home altitude to 45m (148 ft). Setting new Maximum Flight Altitude to 150m (492 ft)
0.34764890629693,36.8999822374152,5713.2472468003,0,0,0.093729661792,700,2018-04-04 12:46:31,13,0,16.842,5713.2472468003,0,0,0.093729661792,0,0,0,156.5, -2.5, 3.1,0,0,364,364,364,1684,161.2,0,93,4.235,4.215,4.21,4.204,0,0,1.61,82.31,41,Motors_Started,
0.347648908232742,36.8999822548505,5713.2472468003,0,0,0.100121066196,800,2018-04-04 12:46:31,13,0,16.842,5713.2472468003,0,0,0.100121066196,0,0,0,156.5, -2.5, 3.1,0,0,364,364,364,1684,161.2,0,93,4.235,4.215,4.21,4.204,0,0,1.61,82.31,41,Motors_Started,
0.347648912800528,36.8999822882206,5713.2472468003,0,0,0.112377956352,900,2018-04-04 12:46:31,13,0,16.842,5713.2472468003,0,0,0.112377956352,0,0,0,156.5, -2.4, 3.1,0,0,364,364,364,1684,161.2,0,93,4.235,4.215,4.21,4.204,0,0,1.61,82.31,41,Motors_Started,
0.347648914208725,36.8999823482887,5713.2472468003,0,0,0.134280844192,1000,2018-04-04 12:46:31,13,0,16.842,5713.2472468003,0,0,0.134280844192,0,0,0,156.5, -2.4, 3.1,0,0,364,364,364,1684,161.1,0,93,4.235,4.215,4.21,4.204,0,0,1.61,82.31,41,Motors_Started,
0.347648901412819,36.8999823993098,5713.2472468003,0,0,0.152686356592,1100,2018-04-04 12:46:31,13,0,16.842,5713.2472468003,0,0,0.152686356592,0,0,0,156.5, -2.4, 3.2,0,0,704,644,730,1392,161.2,0,93,4.235,4.215,4.21,4.204,0,0,1.61,82.31,41,Motors_Started,
0.347648873557063,36.8999824283397,5713.2472468003,0,0,0.163372380556,1200,2018-04-04 12:46:31,13,0,16.842,5713.2472468003,0,0,0.163372380556,0,0,0,156.5, -2.6, 3,0,0,704,644,730,1392,161,0,93,4.235,4.215,4.21,4.204,0,0,1.61,82.31,41,Motors_Started,
0.347648840496393,36.8999824648295,5713.2472468003,0,0,0.177538719592,1300,2018-04-04 12:46:31,13,0,16.842,5713.2472468003,0,0,0.177538719592,0,0,0,156.4, -2.4, 3.1,0,0,1024,1024,1024,1024,159.6,0,93,4.235,4.215,4.21,4.204,0,0,1.61,82.31,41,Motors_Started,
0.347648824418358,36.8999824991696,5713.2472468003,0,0,0.19066929744,1400,2018-04-04 12:46:31,13,0,16.842,5713.2472468003,0,0,0.19066929744,0,0,0,156.5, -2.4, 3.2,0,0,1024,1024,1024,1024,158.4,0,93,4.235,4.215,4.21,4.204,0,0,1.61,82.31,41,Motors_Started,
0.347648806644706,36.8999825458643,5713.2472468003,0,0,0.208442263888,1500,2018-04-04 12:46:31,13,0,16.842,5713.2472468003,0,0,0.208442263888,0,0,0,156.5, -2.5, 3.1,0,0,1024,1024,1024,1024,157.9,0,93,4.235,4.215,4.21,4.204,0,0,1.61,82.31,41,Motors_Started,
0.347648795559888,36.8999825879855,5713.2472468003,0,0,0.224247382504,1600,2018-04-04 12:46:31,13,0,16.816,5713.2472468003,0,0,0.224247382504,0,0,0,156.5, -2.4, 3.2,0,0,1024,1024,1024,1024,157.7,0,93,4.217,4.194,4.184,4.177,0,0,3.218,82.31,10,Assisted_Takeoff,
0.347648774482937,36.8999826220622,5713.2472468003,0,0,0.237797579788,1700,2018-04-04 12:46:32,13,0,16.816,5713.2472468003,0,0,0.237797579788,0,0,0,156.4, -2.6, 3,0,0,1024,1024,1024,1024,157.5,0,93,4.217,4.194,4.184,4.177,0,0,3.218,82.31,10,Assisted_Takeoff,
0.347648739981909,36.8999826412457,5713.2472468003,0,0,0.247197842556,1800,2018-04-04 12:46:32,13,0,16.816,5713.2472468003,0,0,0.247197842556,0,0,0,156.5, -2.4, 3.1,0,0,1024,1024,1024,1024,157.4,0,93,4.217,4.194,4.184,4.177,0,0,3.218,82.31,10,Assisted_Takeoff,
0.347648705638839,36.8999826608939,5713.2472468003,0,0,0.257209981984,1900,2018-04-04 12:46:32,13,0,16.816,5713.2472468003,0,0,0.257209981984,0,0,0,156.4, -2.5, 3,0,0,1024,1024,1024,1024,157.3,0,93,4.217,4.194,4.184,4.177,0,0,3.218,82.31,10,Assisted_Takeoff,
0.347648685562974,36.8999826902418,5713.2472468003,0,0,0.2695046018,2000,2018-04-04 12:46:32,13,0,16.816,5713.2472468003,0,0,0.2695046018,0,0,0,156.4, -2.5, 3.1,0,0,1024,1024,1026,1024,157.2,0,93,4.217,4.194,4.184,4.177,0,0,3.218,82.31,10,Assisted_Takeoff,
0.347648652689575,36.8999827282112,5713.2472468003,0,0,0.286257227008,2100,2018-04-04 12:46:32,13,0,16.816,5713.2472468003,0,0,0.286257227008,0,0,0,156.4, -2.5, 3.1,0,0,1024,1024,1086,1024,157.2,0,93,4.217,4.194,4.184,4.177,0,0,3.218,82.31,10,Assisted_Takeoff,
0.347648612115265,36.899982766202,5713.2472468003,0,0,0.304129930992,2200,2018-04-04 12:46:32,13,0,16.816,5713.2472468003,0,0,0.304129930992,0,0,0,156.4, -2.5, 3.1,0,0,1024,1024,1069,1024,157.2,0,93,4.217,4.194,4.184,4.177,0,0,3.218,82.31,10,Assisted_Takeoff,
0.34764855812339,36.8999827976867,5713.2472468003,0,0,0.321896007676,2300,2018-04-04 12:46:32,13,0,16.816,5713.2472468003,0,0,0.321896007676,0,0,0,156.4, -2.5, 3.1,0,0,1024,1024,1093,1024,157.1,0,93,4.217,4.194,4.184,4.177,0,0,3.218,82.31,10,Assisted_Takeoff,
0.347648503642982,36.8999828140241,5713.2472468003,0,0,0.33532153304,2400,2018-04-04 12:46:32,13,0,16.816,5713.2472468003,0,0,0.33532153304,0,0,0,156.4, -2.5, 3.1,0,0,1024,1024,1109,1024,157.1,0,93,4.217,4.194,4.184,4.177,0,0,3.218,82.31,10,Assisted_Takeoff,
0.347648438192968,36.8999828346326,5713.2472468003,0,0,0.35270342336,2500,2018-04-04 12:46:32,13,0,16.816,5713.2472468003,0,0,0.35270342336,0,0,0,156.4, -2.5, 3.1,0,0,1024,1024,1117,1024,157.1,0,93,4.217,4.194,4.184,4.177,0,0,3.218,82.31,10,Assisted_Takeoff,
0.347648376710657,36.899982866066,5713.2472468003,0,0,0.37363518256,2600,2018-04-04 12:46:32,13,0,16.842,5713.2472468003,0,0,0.37363518256,0,0,0,156.5, -2.6, 3.1,0,0,1024,1024,1125,1024,157,0,93,4.217,4.194,4.184,4.177,0,0,3.218,82.31,10,Assisted_Takeoff,
0.347648322470445,36.8999828901261,5713.2472468003,0,0,0.39138124612,2700,2018-04-04 12:46:33,13,0,16.842,5713.2472468003,0,0,0.39138124612,0,0,0,156.4, -2.6, 3,0,0,1024,1024,1144,1024,157,0,93,4.217,4.194,4.184,4.177,0,0,3.218,82.31,10,Assisted_Takeoff,
0.347648287732884,36.899982900338,5713.2472468003,0,0,0.4013615614,2800,2018-04-04 12:46:33,13,0,16.842,5713.2472468003,0,0,0.4013615614,0,0,0,156.4, -2.5, 3.1,0,0,1024,1024,1155,1024,157,0,93,4.217,4.194,4.184,4.177,0,0,3.218,82.31,10,Assisted_Takeoff,
0.347648251944571,36.8999829155004,5713.2472468003,0,0,0.41322835968,2900,2018-04-04 12:46:33,13,0,16.842,5713.2472468003,0,0,0.41322835968,0,0,0,156.5, -2.5, 3.1,0,0,1024,1024,1171,1024,157,0,93,4.217,4.194,4.184,4.177,0,0,3.218,82.31,10,Assisted_Takeoff,
0.347648205516004,36.8999829434217,5713.2472468003,0,0,0.4312828222,3000,2018-04-04 12:46:33,13,0,16.842,5713.2472468003,0,0,0.4312828222,0,0,0,156.4, -2.6, 3.1,0,0,1024,1024,1199,1024,157,0,93,4.217,4.194,4.184,4.177,0,0,3.218,82.31,10,Assisted_Takeoff,
0.347648152184463,36.899982966681,5713.2472468003,0,0,0.44961943696,3100,2018-04-04 12:46:33,13,0,16.842,5713.2472468003,0,0,0.44961943696,0,0,0,156.2, -2.7, 3,0,0,1024,1024,1204,1024,156.9,0,93,4.217,4.194,4.184,4.177,0,0,3.218,82.31,10,Assisted_Takeoff,
0.347648082518,36.8999829814735,5713.2472468003,0,0,0.4695046082,3200,2018-04-04 12:46:33,13,0,16.842,5713.2472468003,0,0,0.4695046082,0,0,0,155.8, -1.2, 1.9,0,0,1024,1024,1176,1024,156.9,0,93,4.217,4.194,4.184,4.177,0,0,3.218,82.31,10,Assisted_Takeoff,
0.347647971024547,36.8999829931243,5713.2472468003,0,0,0.4992290186,3300,2018-04-04 12:46:33,13,0,16.842,5713.2472468003,0,0,0.4992290186,0,0,-0.223694,155.4, 1.5, -0.7,0,0,1024,1024,1193,1024,156.8,0,93,4.217,4.194,4.184,4.177,0,0,3.218,82.31,10,Assisted_Takeoff,
0.347647876196182,36.899983022007,5713.2472468003,0,0,0.53062993824,3400,2018-04-04 12:46:33,13,0,16.842,5713.2472468003,0,0,0.53062993824,0,0,-0.447388,155.3, 1.5, -1.1,0,0,1024,1024,1210,1024,156.7,0,93,4.217,4.194,4.184,4.177,0,0,3.218,82.31,6,P-GPS,Obstacle Avoided. Revise Flight Route
0.347647836099412,36.8999830659674,5713.2472468003,0,0,0.55232613316,3500,2018-04-04 12:46:33,13,0,16.842,5713.2472468003,0,0,0.55232613316,0,0,-0.671082,155.2, 0.9, -0.5,0,0,1024,1024,1214,1024,156.6,0,93,4.217,4.194,4.184,4.177,0,0,3.218,82.31,6,P-GPS,
0.347647812568396,36.8999831109942,5713.2472468003,0,0,0.5701115668,3600,2018-04-04 12:46:33,13,0,16.816,5713.2472468003,0,0,0.5701115668,0,0,-0.671082,155.1, 0.7, -0.1,0,0,1024,1024,1241,1024,156.6,0,93,4.217,4.197,4.192,4.188,0,0,2.644,82.31,6,P-GPS,
0.347647781827445,36.899983191164,5713.5753308003,0.328084,0,0.59913387744,3700,2018-04-04 12:46:34,13,0,16.816,5713.5753308003,0.328084,0,0.59913387744,0,0,-0.894776,155, 0.9, 0.4,0,0,1024,1024,1235,1024,156.4,0,93,4.217,4.197,4.192,4.188,0,0,2.644,82.31,6,P-GPS,Home Point Recorded. RTH Altitude:  45m.
0.347647740203602,36.8999832887814,5713.5753308003,0.328084,0,0.63577429856,3800,2018-04-04 12:46:34,13,0,16.816,5713.5753308003,0.328084,0,0.63577429856,0,0,-0.894776,154.8, 0.8, 0.7,0,0,1024,1024,1241,1024,156.4,0,93,4.217,4.197,4.192,4.188,0,0,2.644,82.31,6,P-GPS,
0.347647735731488,36.8999833577928,5713.5753308003,0.328084,0,0.65593177952,3900,2018-04-04 12:46:34,13,0,16.816,5713.5753308003,0.328084,0,0.65593177952,0,0,-1.11847,154.7, 0.2, 0.7,0,0,1024,1024,1240,1024,156.2,0,93,4.217,4.197,4.192,4.188,0,0,2.644,82.31,6,P-GPS,
0.347647757316513,36.8999833837426,5713.9034148003,0.656168,0,0.65822836752,4000,2018-04-04 12:46:34,13,0,16.816,5713.9034148003,0.656168,0,0.65822836752,0,0,-1.342164,154.7, 0, 0.1,0,0,1024,1024,1247,1024,156.2,0,93,4.217,4.197,4.192,4.188,0,0,2.644,82.31,6,P-GPS,
0.347647788516279,36.8999834264033,5714.2314988003,0.984252,0,0.6634350606,4100,2018-04-04 12:46:34,13,0,16.816,5714.2314988003,0.984252,0,0.6634350606,0,0,-1.565858,154.9, 0.2, 0.1,0,0,1024,1024,1245,1024,156.1,0,93,4.217,4.197,4.192,4.188,0,0,2.644,82.31,6,P-GPS,
0.347647815853782,36.8999834864287,5714.5595828003,1.312336,0,0.67512469352,4200,2018-04-04 12:46:34,13,0,16.816,5714.5595828003,1.312336,0,0.67512469352,0,0,-1.789552,155.1, -0.2, 0.3,0,0,1024,1024,1244,1024,156.1,0,93,4.217,4.197,4.192,4.188,0,0,2.644,82.31,6,P-GPS,
0.347647862373542,36.8999835392735,5714.5595828003,1.312336,0,0.68140422128,4300,2018-04-04 12:46:34,13,0,16.816,5714.5595828003,1.312336,0,0.68140422128,0,0,-1.789552,155.3, -0.4, 0.1,0,0,1024,1024,1249,1024,156.1,0,93,4.217,4.197,4.192,4.188,0,0,2.644,82.31,6,P-GPS,
0.347647900523506,36.8999835838137,5714.8876668003,1.64042,0,0.6875984472,4400,2018-04-04 12:46:34,13,0,16.816,5714.8876668003,1.64042,0,0.6875984472,0,0,-2.013246,155.4, -0.4, 0.3,0,0,1024,1024,1251,1024,156.1,0,93,4.217,4.197,4.192,4.188,0,0,2.644,82.31,6,P-GPS,
0.347647963729525,36.8999836080901,5715.2157508003,1.968504,0,0.6834317804,4500,2018-04-04 12:46:34,13,0,16.816,5715.2157508003,1.968504,0,0.6875984472,0,0,-2.23694,155.5, -0.4, 0.5,0,0,1024,1024,1254,1024,156,0,93,4.217,4.197,4.192,4.188,0,0,2.644,82.31,6,P-GPS,
0.347648040023347,36.8999835992603,5715.5438348003,2.296588,0,0.6672244308,4600,2018-04-04 12:46:34,13,0,16.338,5715.5438348003,2.296588,0,0.6875984472,0,0,-2.23694,155.6, -0.7, 0.7,0,0,1024,1024,1254,1024,156,0,93,4.125,4.113,4.106,4.103,0,0,13.328,82.31,6,P-GPS,
0.347648144948879,36.899983559108,5715.8719188003,2.624672,0,0.6370078944,4700,2018-04-04 12:46:35,13,0,16.338,5715.8719188003,2.624672,0,0.6875984472,0,0,-2.23694,155.7, -1, 0.1,0,0,1024,1024,1256,1024,156,0,93,4.125,4.113,4.106,4.103,0,0,13.328,82.31,6,P-GPS,
0.347648261876451,36.8999835055089,5716.2000028003,2.952756,0,0.60184057044,4800,2018-04-04 12:46:35,13,0,16.338,5716.2000028003,2.952756,0,0.6875984472,0,0,-2.23694,155.8, -1.6, -0.2,0,0,1024,1024,1258,1024,156,0,93,4.125,4.113,4.106,4.103,0,0,13.328,82.31,6,P-GPS,
0.347648383616888,36.8999834414618,5716.8561708003,3.608924,0,0.56419949312,4900,2018-04-04 12:46:35,13,0,16.338,5716.8561708003,3.608924,0,0.6875984472,0,0,-2.23694,155.8, -1.9, -0.1,0,0,1024,1024,1262,1024,156,0,93,4.125,4.113,4.106,4.103,0,0,13.328,82.31,6,P-GPS,
0.347648456228799,36.8999833819627,5717.1842548003,3.937008,0,0.53529201188,5000,2018-04-04 12:46:35,13,0,16.338,5717.1842548003,3.937008,0,0.6875984472,0,0,-2.23694,155.9, -2, -0.1,0,0,1024,1024,1272,1024,156,0,93,4.125,4.113,4.106,4.103,0,0,13.328,82.31,6,P-GPS,
0.347648507081441,36.899983330531,5717.5123388003,4.265092,0,0.5120078904,5100,2018-04-04 12:46:35,13,0,16.338,5717.5123388003,4.265092,0,0.6875984472,0,0,-2.23694,156, -2, 0,0,0,1024,1024,1303,1024,156,0,93,4.125,4.113,4.106,4.103,0,0,13.328,82.31,6,P-GPS,
0.34764851031146,36.8999833040749,5717.8404228003,4.593176,0,0.50240487172,5200,2018-04-04 12:46:35,13,0,16.338,5717.8404228003,4.593176,0,0.6875984472,0,0,-2.23694,156, -1.8, -0.9,0,0,1024,1024,1310,1024,156,0,93,4.125,4.113,4.106,4.103,0,0,13.328,82.31,6,P-GPS,
0.347648494190271,36.8999832890934,5718.1685068003,4.92126,0,0.49883203696,5300,2018-04-04 12:46:35,13,0,16.338,5718.1685068003,4.92126,0,0.6875984472,0,0,-2.460634,156, -1, -0.9,0,0,1024,1024,1310,1024,156,0,93,4.125,4.113,4.106,4.103,0,0,13.328,82.31,6,P-GPS,
0.347648467989014,36.8999832917132,5718.4965908003,5.249344,0,0.50260500296,5400,2018-04-04 12:46:35,13,0,16.338,5718.4965908003,5.249344,0,0.6875984472,0,0,-2.684328,155.9, -0.6, 0,0,0,1024,1024,1326,1024,156,0,93,4.125,4.113,4.106,4.103,0,0,13.328,82.31,6,P-GPS,
0.34764842620477,36.8999833170329,5718.8246748003,5.577428,0,0.51621720812,5500,2018-04-04 12:46:35,13,0,16.338,5718.8246748003,5.577428,0,0.6875984472,0,0,-2.908022,155.7, -0.6, 1,0,0,1024,1024,1343,1024,156,0,93,4.125,4.113,4.106,4.103,0,0,13.328,82.31,6,P-GPS,
0.347648354179506,36.899983342101,5719.4808428003,6.233596,0,0.53394686748,5600,2018-04-04 12:46:35,13,0,16.364,5719.4808428003,6.233596,0,0.6875984472,0,0,-3.131716,155.5, -0.7, 0.9,0,0,1024,1024,1349,1024,156,0,93,4.125,4.113,4.106,4.103,0,0,13.56,82.31,6,P-GPS,
0.347648285720942,36.8999833298357,5719.8089268003,6.56168,0,0.539534138,5700,2018-04-04 12:46:36,13,0,16.364,5719.8089268003,6.56168,0,0.6875984472,0,0,-3.35541,155.4, -0.4, -0.6,0,0,1024,1024,1348,1024,156,0,93,4.125,4.113,4.106,4.103,0,0,13.56,82.31,6,P-GPS,
0.347648257674658,36.8999832863591,5720.4650948003,7.217848,0,0.5294947676,5800,2018-04-04 12:46:36,13,0,16.364,5720.4650948003,7.217848,0,0.6875984472,0,0,-3.579104,155.4, -0.2, -1.6,0,0,1024,1024,1358,1024,156,0,93,4.125,4.113,4.106,4.103,0,0,13.56,82.31,6,P-GPS,
0.347648283706557,36.8999832275585,5720.7931788003,7.545932,0,0.50604988496,5900,2018-04-04 12:46:36,13,0,16.364,5720.7931788003,7.545932,0,0.6875984472,0,0,-3.802798,155.6, -1.1, -1.9,0,0,1024,1024,1364,1024,156,0,93,4.125,4.113,4.106,4.103,0,0,13.56,82.31,6,P-GPS,
0.347648325154527,36.899983155688,5721.4493468003,8.2021,0,0.47585631444,6000,2018-04-04 12:46:36,13,0,16.364,5721.4493468003,8.2021,0,0.6875984472,0,0,-3.802798,155.7, -2.4, -1.6,0,0,1024,1024,1369,1024,156,0,93,4.125,4.113,4.106,4.103,0,0,13.56,82.31,6,P-GPS,
0.34764836426161,36.8999831186661,5722.1055148003,8.858268,0,0.4575459464,6100,2018-04-04 12:46:36,13,0,16.364,5722.1055148003,8.858268,0,0.6875984472,0,0,-3.802798,155.9, -2.5, -1.3,0,0,1024,1024,1382,1024,156,0,93,4.125,4.113,4.106,4.103,0,0,13.56,82.31,6,P-GPS,
0.347648350623799,36.8999831512306,5722.7616828003,9.514436,0,0.47041668172,6200,2018-04-04 12:46:36,13,0,16.364,5722.7616828003,9.514436,0,0.6875984472,0,0,-4.026492,155.7, -1.7, -0.2,0,0,1024,1024,1382,1024,156,0,93,4.125,4.113,4.106,4.103,0,0,13.56,82.31,6,P-GPS,
0.34764831524341,36.8999832114508,5723.4178508003,10.170604,0,0.4957841366,6300,2018-04-04 12:46:36,13,0,16.364,5723.4178508003,10.170604,0,0.6875984472,0,0,-4.250186,155.6, -0.8, 0.3,0,0,1024,1024,1391,1024,156,0,93,4.125,4.113,4.106,4.103,0,0,13.56,82.31,6,P-GPS,
0.347648234411114,36.8999832661333,5724.0740188003,10.826772,0,0.52667652604,6400,2018-04-04 12:46:36,13,0,16.364,5724.0740188003,10.826772,0,0.6875984472,0,0,-4.250186,155.4, -0.1, 0,0,0,1024,1024,1398,1024,156,0,93,4.125,4.113,4.106,4.103,0,0,13.56,82.31,6,P-GPS,
0.347648169513143,36.899983342526,5724.7301868003,11.48294,0,0.562335976,6500,2018-04-04 12:46:36,13,0,16.364,5724.7301868003,11.48294,0,0.6875984472,0,0,-4.47388,155.5, 0.6, -0.7,0,0,1024,1024,1405,1024,156,0,93,4.125,4.113,4.106,4.103,0,0,13.56,82.31,6,P-GPS,
0.347648117083353,36.8999834357256,5725.3863548003,12.139108,0,0.60133860192,6600,2018-04-04 12:46:36,13,0,16.231,5725.3863548003,12.139108,0,0.6875984472,0,0,-4.47388,155.5, 1.1, -1.3,0,0,1024,1024,1418,1024,156,0,93,4.103,4.09,4.085,4.082,0,0,13.56,82.31,6,P-GPS,
0.347648116296,36.8999835345115,5726.0425228003,12.795276,0,0.63350723812,6700,2018-04-04 12:46:37,13,0,16.231,5726.0425228003,12.795276,0,0.6875984472,0,0,-4.697574,155.4, 0.6, -1.3,0,0,1024,1024,1419,1024,156,0,93,4.103,4.09,4.085,4.082,0,0,13.56,82.31,6,P-GPS,
0.347648148331157,36.8999836257914,5726.6986908003,13.451444,0.223694,0.65856957488,6800,2018-04-04 12:46:37,13,0,16.231,5726.6986908003,13.451444,0.223694,0.6875984472,0,0.223694,-4.697574,155.4, 0, 0.2,0,0,1024,1024,1419,1024,156,0,93,4.103,4.09,4.085,4.082,0,0,13.56,82.31,6,P-GPS,
0.347648241903178,36.8999837403409,5727.3548588003,14.107612,0,0.684301203,6900,2018-04-04 12:46:37,13,0,16.231,5727.3548588003,14.107612,0.223694,0.6875984472,0,0,-4.921268,155.3, -0.3, 1.4,0,0,1024,1024,1423,1024,156,0,93,4.103,4.09,4.085,4.082,0,0,13.56,82.31,6,P-GPS,
0.347648329241108,36.8999838506117,5728.0110268003,14.76378,0,0.71234910416,7000,2018-04-04 12:46:37,13,0,16.231,5728.0110268003,14.76378,0.223694,0.71234910416,0,0,-4.921268,155.5, -0.5, 1.9,0,0,1024,1024,1433,1024,156,0,93,4.103,4.09,4.085,4.082,0,0,13.56,82.31,6,P-GPS,
0.347648432590306,36.8999839240559,5728.9952788003,15.748032,0,0.72846459024,7100,2018-04-04 12:46:37,13,0,16.231,5728.9952788003,15.748032,0.223694,0.72846459024,0,0,-5.144962,155.6, 0, 1.4,0,0,1024,1024,1447,1024,156,0,93,4.103,4.09,4.085,4.082,0,0,13.56,82.31,6,P-GPS,
0.34764850008931,36.8999839491744,5729.6514468003,16.4042,0,0.7321850628,7200,2018-04-04 12:46:37,13,0,16.231,5729.6514468003,16.4042,0.223694,0.7321850628,0,0,-5.144962,155.6, 0.1, 1.1,0,0,1024,1024,1462,1024,156,0,93,4.103,4.09,4.085,4.082,0,0,13.56,82.31,6,P-GPS,
0.347648583003164,36.8999839582531,5730.3076148003,17.060368,0,0.73015750368,7300,2018-04-04 12:46:37,13,0,16.231,5730.3076148003,17.060368,0.223694,0.7321850628,0,0,-5.368656,155.5, -0.4, 1.5,0,0,1024,1024,1474,1024,156,0,93,4.103,4.09,4.085,4.082,0,0,13.56,82.31,6,P-GPS,
0.347648625457106,36.8999839490705,5731.2918668003,18.04462,0,0.72460960324,7400,2018-04-04 12:46:37,13,0,16.231,5731.2918668003,18.04462,0.223694,0.7321850628,0,0,-5.59235,155.2, -1.1, 0.6,0,0,1024,1024,1483,1024,156,0,93,4.103,4.09,4.085,4.082,0,0,13.56,82.31,6,P-GPS,
0.347648651754441,36.8999839224093,5731.9480348003,18.700788,0,0.7137303378,7500,2018-04-04 12:46:37,13,0,16.231,5731.9480348003,18.700788,0.223694,0.7321850628,0,0,-5.816044,155.1, -0.4, -0.5,0,0,1024,1024,1504,1024,156,0,93,4.103,4.09,4.085,4.082,0,0,13.56,82.31,6,P-GPS,
0.347648663067242,36.8999839036246,5732.9322868003,19.68504,0,0.7064304688,7600,2018-04-04 12:46:37,13,0,16.284,5732.9322868003,19.68504,0.223694,0.7321850628,0,0,-6.039738,155.1, 0.2, -0.1,0,0,1024,1024,1511,1024,155.9,0,93,4.091,4.082,4.076,4.073,0,0,14.568,82.31,6,P-GPS,
0.347648700284108,36.8999839009492,5733.9165388003,20.669292,0,0.70398296216,7700,2018-04-04 12:46:38,13,0,16.284,5733.9165388003,20.669292,0.223694,0.7321850628,0,0,-6.263432,155.2, 0.7, 0.5,0,0,1024,1024,1511,1024,155.9,0,93,4.091,4.082,4.076,4.073,0,0,14.568,82.31,6,P-GPS,
0.347648738408832,36.8999838945898,5734.9007908003,21.653544,0,0.7004265316,7800,2018-04-04 12:46:38,13,0,16.284,5734.9007908003,21.653544,0.223694,0.7321850628,0,0,-6.487126,155.2, -0.2, 0.4,0,0,1024,1024,1512,1024,155.9,0,93,4.091,4.082,4.076,4.073,0,0,14.568,82.31,6,P-GPS,
0.34764878365067,36.8999839027863,5735.8850428003,22.637796,0,0.70228676788,7900,2018-04-04 12:46:38,13,0,16.284,5735.8850428003,22.637796,0.223694,0.7321850628,0,0,-6.71082,155.3, -0.6, 0.3,0,0,1024,1024,1518,1024,155.9,0,93,4.091,4.082,4.076,4.073,0,0,14.568,82.31,6,P-GPS,
0.347648795087639,36.8999839358679,5736.8692948003,23.622048,0,0.71412075776,8000,2018-04-04 12:46:38,13,0,16.284,5736.8692948003,23.622048,0.223694,0.7321850628,0,0,-6.71082,155.4, -0.1, 1,0,0,1024,1024,1518,1024,155.9,0,93,4.091,4.082,4.076,4.073,0,0,14.568,82.31,6,P-GPS,
0.347648793717711,36.899983979254,5737.8535468003,24.6063,0.223694,0.7299540916,8100,2018-04-04 12:46:38,13,0,16.284,5737.8535468003,24.6063,0.223694,0.7321850628,-0.223694,0,-6.934514,155.5, 0.8, 0.7,0,0,1024,1024,1541,1024,155.9,0,93,4.091,4.082,4.076,4.073,0,0,14.568,82.31,6,P-GPS,
0.347648759120604,36.8999839962326,5738.8377988003,25.590552,0.223694,0.73686354064,8200,2018-04-04 12:46:38,13,0,16.284,5738.8377988003,25.590552,0.223694,0.73686354064,-0.223694,0,-6.934514,155.4, 1.4, -0.6,0,0,1024,1024,1556,1024,155.9,0,93,4.091,4.082,4.076,4.073,0,0,14.568,82.31,6,P-GPS,
0.347648744518754,36.8999839911398,5739.8220508003,26.574804,0,0.73537732012,8300,2018-04-04 12:46:38,13,0,16.284,5739.8220508003,26.574804,0.223694,0.73686354064,0,0,-7.158208,155.6, 0.3, -1.2,0,0,1024,1024,1574,1024,155.9,0,93,4.091,4.082,4.076,4.073,0,0,14.568,82.31,6,P-GPS,
0.347648705313557,36.899983968821,5741.1343868003,27.88714,0.223694,0.72845474772,8400,2018-04-04 12:46:38,13,0,16.284,5741.1343868003,27.88714,0.223694,0.73686354064,-0.223694,0,-7.381902,155.5, 1.1, -1.1,0,0,1024,1024,1592,1024,155.9,0,93,4.091,4.082,4.076,4.073,0,0,14.568,82.31,6,P-GPS,
0.347648697755949,36.8999839648019,5742.1186388003,28.871392,0.223694,0.72725724112,8500,2018-04-04 12:46:38,13,0,16.284,5742.1186388003,28.871392,0.223694,0.73686354064,-0.223694,0,-7.82929,155.6, 1.8, -1.3,0,0,1024,1024,1608,1024,155.9,0,93,4.091,4.082,4.076,4.073,0,0,14.568,82.31,6,P-GPS,
0.347648715505581,36.8999839767188,5743.4309748003,30.183728,0,0.7309875562,8600,2018-04-04 12:46:38,13,0,16.152,5743.4309748003,30.183728,0.223694,0.73686354064,0,0,-8.052984,155.6, 2.2, -1.1,0,0,1024,1024,1621,1024,155.9,0,93,4.078,4.066,4.054,4.053,0,0,15.866,82.31,6,P-GPS,
0.347648779110975,36.8999839989359,5744.7433108003,31.496064,0,0.73740487924,8700,2018-04-04 12:46:39,13,0,16.152,5744.7433108003,31.496064,0.223694,0.73740487924,0,0,-8.500372,155.6, 2.6, -0.2,0,0,1024,1024,1644,1024,155.9,0,93,4.078,4.066,4.054,4.053,0,0,15.866,82.31,6,P-GPS,
0.347648835971354,36.8999839977336,5745.7275628003,32.480316,0,0.73609910492,8800,2018-04-04 12:46:39,13,0,16.152,5745.7275628003,32.480316,0.223694,0.73740487924,0,0,-8.724066,155.5, 2.5, -0.2,0,0,1024,1024,1674,1024,155.9,0,93,4.078,4.066,4.054,4.053,0,0,15.866,82.31,6,P-GPS,
0.347648961470648,36.8999839618727,5747.0398988003,33.792652,0.223694,0.72318243784,8900,2018-04-04 12:46:39,13,0,16.152,5747.0398988003,33.792652,0.223694,0.73740487924,0,-0.223694,-9.171454,155.4, 1.4, -0.8,0,0,1024,1024,1684,1024,155.9,0,93,4.078,4.066,4.054,4.053,0,0,15.866,82.31,6,P-GPS,
0.34764909359954,36.8999839103629,5748.6803188003,35.433072,0,0.70778217488,9000,2018-04-04 12:46:39,13,0,16.152,5748.6803188003,35.433072,0.223694,0.73740487924,0,0,-9.618842,155.5, 0.3, -0.5,0,0,1024,1024,1684,1024,155.9,0,93,4.078,4.066,4.054,4.053,0,0,15.866,82.31,6,P-GPS,
0.347649277084671,36.8999838531479,5749.9926548003,36.745408,0,0.69738519292,9100,2018-04-04 12:46:39,13,0,16.152,5749.9926548003,36.745408,0.223694,0.73740487924,0,0,-10.06623,155.7, -0.1, -0.8,0,0,1024,1024,1684,1024,155.9,0,93,4.078,4.066,4.054,4.053,0,0,15.866,82.31,6,P-GPS,
0.347649430346899,36.8999837881089,5751.3049908003,38.057744,0,0.68799542884,9200,2018-04-04 12:46:39,13,0,16.152,5751.3049908003,38.057744,0.223694,0.73740487924,0,0,-10.289924,155.8, -1.3, 0.2,0,0,1024,1024,1684,1024,155.9,0,93,4.078,4.066,4.054,4.053,0,0,15.866,82.31,6,P-GPS,
0.347649534847611,36.8999837045496,5752.9454108003,39.698164,0.3131716,0.67119752804,9300,2018-04-04 12:46:39,13,0,16.152,5752.9454108003,39.698164,0.3131716,0.73740487924,-0.223694,-0.223694,-10.737312,155.7, -1.2, -0.6,0,0,1024,1024,1684,1024,155.9,0,93,4.078,4.066,4.054,4.053,0,0,15.866,82.31,6,P-GPS,
0.347649494646214,36.8999835595127,5754.5858308003,41.338584,0.4921268,0.61650920608,9400,2018-04-04 12:46:39,13,0,16.152,5754.5858308003,41.338584,0.4921268,0.73740487924,-0.447388,-0.223694,-10.737312,155.6, 0.8, -3.6,0,0,1024,1024,1684,1024,155.9,0,93,4.078,4.066,4.054,4.053,0,0,15.866,82.31,6,P-GPS,
0.347649435973173,36.8999834055534,5756.2262508003,42.979004,0.4921268,0.5563976556,9500,2018-04-04 12:46:39,13,0,16.152,5756.2262508003,42.979004,0.4921268,0.73740487924,-0.447388,-0.223694,-10.961006,155.5, 1.7, -6.8,0,0,1024,1024,1684,1024,155.9,0,93,4.078,4.066,4.054,4.053,0,0,15.866,82.31,6,P-GPS,
0.347649363827812,36.8999833033924,5757.8666708003,44.619424,0.223694,0.51231300852,9600,2018-04-04 12:46:39,13,0,15.992,5757.8666708003,44.619424,0.4921268,0.73740487924,-0.223694,0,-10.961006,155.7, 2, -7.5,0,0,1024,1024,1684,1024,155.9,0,93,4.078,4.066,4.054,4.053,0,0,15.866,82.31,6,P-GPS,
0.347649359880464,36.8999833362577,5759.5070908003,46.259844,0.3131716,0.5231463422,9700,2018-04-04 12:46:40,13,0,15.992,5759.5070908003,46.259844,0.4921268,0.73740487924,-0.223694,0.223694,-11.1847,155.6, 3.4, -2.9,0,0,1024,1024,1684,1024,155.9,0,93,4.078,4.066,4.054,4.053,0,0,15.866,82.31,6,P-GPS,
0.347649371178812,36.899983399292,5761.1475108003,47.900264,0.223694,0.5462434558,9800,2018-04-04 12:46:40,13,0,15.992,5761.1475108003,47.900264,0.4921268,0.73740487924,0,0.223694,-11.1847,155.6, 4.6, -0.8,0,0,1024,1024,1684,1024,155.9,0,93,4.078,4.066,4.054,4.053,0,0,15.866,82.31,6,P-GPS,
0.347649431619935,36.8999834421085,5763.1160148003,49.868768,0,0.56832678984,9900,2018-04-04 12:46:40,13,0,15.992,5763.1160148003,49.868768,0.4921268,0.73740487924,0,0,-11.408394,155.5, 4.6, 0.2,0,0,1024,1024,1684,1024,155.9,0,93,4.078,4.066,4.054,4.053,0,0,15.866,82.31,6,P-GPS,
0.347649470593893,36.899983446688,5764.7564348003,51.509188,0,0.57496064832,10000,2018-04-04 12:46:40,13,0,15.992,5764.7564348003,51.509188,0.4921268,0.73740487924,0,0,-11.408394,155.4, 4.1, 0.1,0,0,1024,1024,1684,1024,155.9,0,93,4.078,4.066,4.054,4.053,0,0,15.866,82.31,6,P-GPS,
0.347649526854801,36.8999833568004,5766.3968548003,53.149608,0.223694,0.55287731428,10100,2018-04-04 12:46:40,13,0,15.992,5766.3968548003,53.149608,0.4921268,0.73740487924,-0.223694,0,-11.632088,155.3, 4, -0.9,0,0,1024,1024,1684,1024,155.9,0,93,4.078,4.066,4.054,4.053,0,0,15.866,82.31,6,P-GPS,
0.34764953286152,36.8999831638171,5768.3653588003,55.118112,0.223694,0.4908792808,10200,2018-04-04 12:46:40,13,0,15.992,5768.3653588003,55.118112,0.4921268,0.73740487924,-0.223694,-0.223694,-11.632088,155.3, 4.3, -2.1,0,0,1024,1024,1684,1024,155.9,0,93,4.078,4.066,4.054,4.053,0,0,15.866,82.31,6,P-GPS,
0.347649546679071,36.899982884521,5770.0057788003,56.758532,0.6263432,0.40715552484,10300,2018-04-04 12:46:40,13,0,15.992,5770.0057788003,56.758532,0.6263432,0.73740487924,-0.447388,-0.447388,-11.632088,155.3, 3.9, -4.5,0,0,1024,1024,1684,1024,155.9,0,93,4.078,4.066,4.054,4.053,0,0,15.866,82.31,6,P-GPS,
0.347649492810347,36.8999825778169,5771.9742828003,58.727036,0.6263432,0.309050534824,10400,2018-04-04 12:46:40,13,0,15.992,5771.9742828003,58.727036,0.6263432,0.73740487924,-0.447388,-0.447388,-11.408394,155.3, 4.2, -7.2,0,0,1024,1024,1684,1024,155.9,0,93,4.078,4.066,4.054,4.053,0,0,15.866,82.31,6,P-GPS,
0.347649494780561,36.8999822754023,5773.6147028003,60.367456,0.3131716,0.24483924668,10500,2018-04-04 12:46:40,13,0,15.992,5773.6147028003,60.367456,0.6263432,0.73740487924,-0.223694,-0.223694,-11.408394,155.4, 4.3, -7.6,0,0,1024,1024,1684,1024,155.9,0,93,4.078,4.066,4.054,4.053,0,0,15.866,82.31,6,P-GPS,
0.347649524041867,36.8999820203916,5775.2551228003,62.007876,0.3131716,0.23113189716,10600,2018-04-04 12:46:41,13,0,16.098,5775.2551228003,62.007876,0.6263432,0.73740487924,-0.223694,-0.223694,-11.1847,155.4, 4.2, -6.3,0,0,1024,1024,1684,1024,155.9,0,93,4.04,4.03,4.022,4.021,0,0,20.488,84.11,6,P-GPS,
0.34764979759074,36.899981555334,5778.8640468003,65.6168,0.223694,0.36514436864,10800,2018-04-04 12:46:41,13,0,16.098,5778.8640468003,65.6168,0.6263432,0.73740487924,0,-0.223694,-11.1847,155.4, 3.2, -5.8,0,0,1024,1024,1684,1024,155.9,0,93,4.04,4.03,4.022,4.021,0,0,20.488,84.11,6,P-GPS,
0.347650042898729,36.8999813262763,5780.5044668003,67.25722,0.223694,0.4831529026,10900,2018-04-04 12:46:41,13,0,16.098,5780.5044668003,67.25722,0.6263432,0.73740487924,0,-0.223694,-11.408394,155.5, 1.4, -5.5,0,0,1024,1024,1684,1024,155.9,0,93,4.04,4.03,4.022,4.021,0,0,20.488,84.11,6,P-GPS,
0.347650237069099,36.8999810929416,5782.4729708003,69.225724,0.223694,0.58811025504,11000,2018-04-04 12:46:41,13,0,16.098,5782.4729708003,69.225724,0.6263432,0.73740487924,0,-0.223694,-11.408394,155.5, 0.6, -6.1,0,0,1024,1024,1684,1024,155.9,0,93,4.04,4.03,4.022,4.021,0,0,20.488,84.11,6,P-GPS,
0.347650453662125,36.8999808964168,5784.1133908003,70.866144,0.223694,0.69375330304,11100,2018-04-04 12:46:41,13,0,16.098,5784.1133908003,70.866144,0.6263432,0.73740487924,0,-0.223694,-11.408394,155.5, 0.9, -6.7,0,0,1024,1024,1684,1024,155.9,0,93,4.04,4.03,4.022,4.021,0,0,20.488,84.11,6,P-GPS,
0.34765062610783,36.899980742723,5786.0818948003,72.834648,0.223694,0.77748033984,11200,2018-04-04 12:46:41,13,0,16.098,5786.0818948003,72.834648,0.6263432,0.77748033984,0,-0.223694,-11.1847,155.5, 1.2, -6.7,0,0,1024,1024,1684,1024,155.9,0,93,4.04,4.03,4.022,4.021,0,0,20.488,84.11,6,P-GPS,
0.347650822377163,36.899980629849,5787.7223148003,74.475068,0.223694,0.8597277178,11300,2018-04-04 12:46:41,13,0,16.098,5787.7223148003,74.475068,0.6263432,0.8597277178,0,-0.223694,-11.408394,155.5, 1.4, -6.2,0,0,1024,1024,1684,1024,155.9,0,93,4.04,4.03,4.022,4.021,0,0,20.488,84.11,6,P-GPS,
0.347650974933257,36.8999805099969,5789.6908188003,76.443572,0.223694,0.93041013476,11400,2018-04-04 12:46:41,13,0,16.098,5789.6908188003,76.443572,0.6263432,0.93041013476,0,-0.223694,-11.632088,155.5, 1.5, -6.4,0,0,1024,1024,1684,1024,155.9,0,93,4.04,4.03,4.022,4.021,0,0,20.488,84.11,6,P-GPS,
0.347651179928199,36.8999804039753,5791.3312388003,78.083992,0.223694,1.01388126604,11500,2018-04-04 12:46:41,13,0,16.098,5791.3312388003,78.083992,0.6263432,1.01388126604,0,-0.223694,-11.408394,155.5, 1, -6,0,0,1024,1024,1684,1024,155.9,0,93,4.04,4.03,4.022,4.021,0,0,20.488,84.11,6,P-GPS,
0.347651367723618,36.8999802818337,5793.2997428003,80.052496,0.223694,1.09559058624,11600,2018-04-04 12:46:41,13,0,15.913,5793.2997428003,80.052496,0.6263432,1.09559058624,0,-0.223694,-11.408394,155.5, 0.3, -5.7,0,0,1024,1024,1684,1024,155.9,0,93,4.026,4.017,4.012,4.01,0,0,19.124,84.11,6,P-GPS,
0.347651576903559,36.8999801538986,5795.2682468003,82.021,0.223694,1.18493770196,11700,2018-04-04 12:46:42,13,0,15.913,5795.2682468003,82.021,0.6263432,1.18493770196,0,-0.223694,-11.408394,155.6, 0.1, -6.5,0,0,1024,1024,1684,1024,155.9,0,93,4.026,4.017,4.012,4.01,0,0,19.124,84.11,6,P-GPS,
0.347651727736658,36.8999800139288,5796.9086668003,83.66142,0.223694,1.25921263872,11800,2018-04-04 12:46:42,13,0,15.913,5796.9086668003,83.66142,0.6263432,1.25921263872,0,-0.223694,-11.408394,155.5, 0.2, -7.1,0,0,1024,1024,1684,1024,155.9,0,93,4.026,4.017,4.012,4.01,0,0,19.124,84.11,6,P-GPS,
0.347651927015304,36.8999799041339,5798.5490868003,85.30184,0,1.34181106656,11900,2018-04-04 12:46:42,13,0,15.913,5798.5490868003,85.30184,0.6263432,1.34181106656,0,0,-11.1847,155.6, 0.4, -6.9,0,0,1024,1024,1684,1024,155.9,0,93,4.026,4.017,4.012,4.01,0,0,19.124,84.11,6,P-GPS,
0.347652093613445,36.8999798182771,5800.5175908003,87.270344,0,1.40969164616,12000,2018-04-04 12:46:42,13,0,15.913,5800.5175908003,87.270344,0.6263432,1.40969164616,0,0,-11.1847,155.5, 0.6, -6.2,0,0,1024,1024,1684,1024,155.9,0,93,4.026,4.017,4.012,4.01,0,0,19.124,84.11,6,P-GPS,
0.347652284895718,36.8999797413148,5802.1580108003,88.910764,0,1.48332353828,12100,2018-04-04 12:46:42,13,0,15.913,5802.1580108003,88.910764,0.6263432,1.48332353828,0,0,-11.1847,155.5, 0.6, -7.1,0,0,1024,1024,1684,1024,155.9,0,93,4.026,4.017,4.012,4.01,0,0,19.124,84.11,6,P-GPS,
0.347652415652621,36.8999796722156,5804.1265148003,90.879268,0,1.53703745076,12200,2018-04-04 12:46:42,13,0,15.913,5804.1265148003,90.879268,0.6263432,1.53703745076,0,0,-11.1847,155.5, 0.6, -7.1,0,0,1024,1024,1684,1024,155.9,0,93,4.026,4.017,4.012,4.01,0,0,19.124,84.11,6,P-GPS,
0.347652602193985,36.8999796386009,5805.7669348003,92.519688,0,1.60091540556,12300,2018-04-04 12:46:42,13,0,15.913,5805.7669348003,92.519688,0.6263432,1.60091540556,0,0,-11.1847,155.4, 1, -6.9,0,0,1024,1024,1684,1024,155.9,0,93,4.026,4.017,4.012,4.01,0,0,19.124,84.11,6,P-GPS,
0.347652772739551,36.8999796035307,5807.7354388003,94.488192,0,1.66051186416,12400,2018-04-04 12:46:42,13,0,15.913,5807.7354388003,94.488192,0.6263432,1.66051186416,0,0,-10.961006,155.5, 0.2, -7.3,0,0,1024,1024,1684,1024,155.9,0,93,4.026,4.017,4.012,4.01,0,0,19.124,84.11,6,P-GPS,
0.347653013782188,36.8999795927856,5809.3758588003,96.128612,0,1.7380742026,12500,2018-04-04 12:46:42,13,0,15.913,5809.3758588003,96.128612,0.6263432,1.7380742026,0,0,-10.961006,155.6, -0.7, -6.8,0,0,1024,1024,1684,1024,155.9,0,93,4.026,4.017,4.012,4.01,0,0,19.124,84.11,6,P-GPS,
0.347653208022123,36.8999795976573,5811.0162788003,97.769032,0,1.79888785284,12600,2018-04-04 12:46:42,13,0,15.966,5811.0162788003,97.769032,0.6263432,1.79888785284,0,0,-10.737312,155.6, -0.8, -6.4,0,0,1024,1024,1684,1024,155.9,0,93,4.019,4.01,3.999,3.995,0,0,19.894,84.11,6,P-GPS,
0.347653423699709,36.8999796224798,5812.9847828003,99.737536,0,1.86396331424,12700,2018-04-04 12:46:42,13,0,15.966,5812.9847828003,99.737536,0.6263432,1.86396331424,0,0,-10.737312,155.6, -0.5, -6.1,0,0,1024,1024,1684,1024,155.9,0,93,4.019,4.01,3.999,3.995,0,0,19.894,84.11,6,P-GPS,
0.347653579818634,36.8999796426172,5814.6252028003,101.377956,0,1.91138129476,12800,2018-04-04 12:46:43,13,0,15.966,5814.6252028003,101.377956,0.6263432,1.91138129476,0,0,-10.737312,155.5, -0.2, -6.2,0,0,1024,1024,1684,1024,155.9,0,93,4.019,4.01,3.999,3.995,0,0,19.894,84.11,6,P-GPS,
0.347653779540573,36.8999796690809,5816.5937068003,103.34646,0,1.97270675604,12900,2018-04-04 12:46:43,13,0,15.966,5816.5937068003,103.34646,0.6263432,1.97270675604,0,0,-10.961006,155.6, -0.2, -6.2,0,0,1024,1024,1684,1024,155.8,0,93,4.019,4.01,3.999,3.995,0,0,19.894,84.11,6,P-GPS,
0.347653934961711,36.899979702338,5818.2341268003,104.98688,0,2.01908799112,13000,2018-04-04 12:46:43,13,0,15.966,5818.2341268003,104.98688,0.6263432,2.01908799112,0,0,-10.961006,155.6, -0.3, -5.1,0,0,1024,1024,1684,1024,155.8,0,93,4.019,4.01,3.999,3.995,0,0,19.894,84.11,6,P-GPS,
0.347654143617904,36.8999797391891,5819.8745468003,106.6273,0,2.08338589344,13100,2018-04-04 12:46:43,13,0,15.966,5819.8745468003,106.6273,0.6263432,2.08338589344,0,0,-10.961006,155.6, -0.7, -5.3,0,0,1024,1024,1684,1024,155.9,0,93,4.019,4.01,3.999,3.995,0,0,19.894,84.11,6,P-GPS,
0.347654278266407,36.8999797706809,5821.8430508003,108.595804,0,2.12426515984,13200,2018-04-04 12:46:43,13,0,15.966,5821.8430508003,108.595804,0.6263432,2.12426515984,0,0,-10.961006,155.5, -0.3, -6.4,0,0,1024,1024,1684,1024,155.8,0,93,4.019,4.01,3.999,3.995,0,0,19.894,84.11,6,P-GPS,
0.347654452093237,36.8999798291801,5823.4834708003,110.236224,0,2.175278941,13300,2018-04-04 12:46:43,13,0,15.966,5823.4834708003,110.236224,0.6263432,2.175278941,0,0,-10.961006,155.5, 0.1, -6.3,0,0,1024,1024,1684,1024,155.9,0,93,4.019,4.01,3.999,3.995,0,0,19.894,84.11,6,P-GPS,
0.347654599252667,36.8999799048223,5825.4519748003,112.204728,0,2.21584980844,13400,2018-04-04 12:46:43,13,0,15.966,5825.4519748003,112.204728,0.6263432,2.21584980844,0,0,-10.961006,155.5, 0.2, -5.6,0,0,1024,1024,1684,1024,155.8,0,93,4.019,4.01,3.999,3.995,0,0,19.894,84.11,6,P-GPS,
0.347654807243845,36.8999800040798,5827.0923948003,113.845148,0,2.27557750064,13500,2018-04-04 12:46:43,13,0,15.966,5827.0923948003,113.845148,0.6263432,2.27557750064,0,0,-10.961006,155.5, 0, -5.2,0,0,1024,1024,1684,1025,155.8,0,93,4.019,4.01,3.999,3.995,0,0,19.894,84.11,6,P-GPS,
0.347654965538575,36.8999801039834,5828.7328148003,115.485568,0,2.31940296136,13600,2018-04-04 12:46:43,13,0,15.966,5828.7328148003,115.485568,0.6263432,2.31940296136,0,0,-11.1847,155.5, -0.1, -5,0,0,1024,1024,1684,1032,155.8,0,93,4.019,4.01,3.999,3.995,0,0,19.894,84.11,6,P-GPS,
0.347655187242473,36.8999802046445,5830.7013188003,117.454072,0,2.38657159868,13700,2018-04-04 12:46:44,13,0,15.966,5830.7013188003,117.454072,0.6263432,2.38657159868,0,0,-11.1847,155.7, -1, -5.5,0,0,1024,1024,1684,1024,155.8,0,93,4.019,4.01,3.999,3.995,0,0,19.894,84.11,6,P-GPS,
0.347655361549083,36.8999802882172,5832.3417388003,119.094492,0,2.4399443038,13800,2018-04-04 12:46:44,13,0,15.966,5832.3417388003,119.094492,0.6263432,2.4399443038,0,0,-11.1847,155.7, -2.1, -5.5,0,0,1024,1024,1684,1024,155.8,0,93,4.019,4.01,3.999,3.995,0,0,19.894,84.11,6,P-GPS,
0.347655549041814,36.8999803991625,5834.3102428003,121.062996,0.223694,2.49651582792,13900,2018-04-04 12:46:44,13,0,15.966,5834.3102428003,121.062996,0.6263432,2.49651582792,-0.223694,0,-11.1847,155.6, -1.4, -5.4,0,0,1024,1024,1684,1029,155.8,0,93,4.019,4.01,3.999,3.995,0,0,19.894,84.11,6,P-GPS,
0.347655634466526,36.899980497556,5836.2787468003,123.0315,0.223694,2.51889443756,14000,2018-04-04 12:46:44,13,0,15.966,5836.2787468003,123.0315,0.6263432,2.51889443756,-0.223694,0,-11.408394,155.5, 0.1, -4.8,0,0,1024,1024,1684,1025,155.8,0,93,4.019,4.01,3.999,3.995,0,0,19.894,84.11,6,P-GPS,
0.347655757174056,36.8999806086394,5837.9191668003,124.67192,0.223694,2.55438328384,14100,2018-04-04 12:46:44,13,0,15.966,5837.9191668003,124.67192,0.6263432,2.55438328384,-0.223694,0,-11.408394,155.4, 1, -5.1,0,0,1024,1024,1684,1024,155.8,0,93,4.019,4.01,3.999,3.995,0,0,19.894,84.11,6,P-GPS,
0.347655834439856,36.8999806943533,5839.8876708003,126.640424,0.223694,2.57615165724,14200,2018-04-04 12:46:44,13,0,15.966,5839.8876708003,126.640424,0.6263432,2.57615165724,-0.223694,0,-11.408394,155.4, 1.3, -5.8,0,0,1024,1024,1684,1024,155.8,0,93,4.019,4.01,3.999,3.995,0,0,19.894,84.11,6,P-GPS,
0.347656004270687,36.8999807472099,5841.5280908003,128.280844,0,2.63373696092,14300,2018-04-04 12:46:44,13,0,15.966,5841.5280908003,128.280844,0.6263432,2.63373696092,0,0,-11.408394,155.5, 0.5, -4.6,0,0,1024,1024,1684,1024,155.8,0,93,4.019,4.01,3.999,3.995,0,0,19.894,84.11,6,P-GPS,
0.34765612433627,36.8999807131594,5843.4965948003,130.249348,0,2.67902567628,14400,2018-04-04 12:46:44,13,0,15.966,5843.4965948003,130.249348,0.6263432,2.67902567628,0,0,-11.408394,155.5, -0.7, -5.5,0,0,1024,1024,1684,1024,155.8,0,93,4.019,4.01,3.999,3.995,0,0,19.894,84.11,6,P-GPS,
0.347656268634728,36.8999806488201,5845.1370148003,131.889768,0.223694,2.73497055996,14500,2018-04-04 12:46:44,13,0,15.966,5845.1370148003,131.889768,0.6263432,2.73497055996,-0.223694,0,-11.1847,155.6, -1.7, -7.8,0,0,1024,1024,1684,1024,155.8,0,93,4.019,4.01,3.999,3.995,0,0,19.894,84.11,6,P-GPS,
0.347656348214751,36.8999806088481,5847.1055188003,133.858272,0.223694,2.76615166332,14600,2018-04-04 12:46:44,13,0,15.913,5847.1055188003,133.858272,0.6263432,2.76615166332,-0.223694,0,-11.1847,155.7, -2.3, -8.3,0,0,1024,1024,1684,1024,155.8,0,93,4.019,4.01,3.999,3.995,0,0,19.894,84.11,6,P-GPS,
0.347656463971471,36.8999806585609,5848.7459388003,135.498692,0.223694,2.80452108712,14700,2018-04-04 12:46:44,13,0,15.913,5848.7459388003,135.498692,0.6263432,2.80452108712,-0.223694,0,-10.961006,155.7, -2.2, -7.1,0,1,1024,1024,1684,1024,155.8,0,93,4.019,4.01,3.999,3.995,0,0,19.894,84.11,6,P-GPS,
0.347656492459471,36.8999807776294,5850.3863588003,137.139112,0.4921268,2.80764116596,14800,2018-04-04 12:46:45,13,0,15.913,5850.3863588003,137.139112,0.6263432,2.80764116596,-0.447388,0.223694,-11.1847,155.6, -0.5, -5.5,0,1,1024,1024,1684,1024,155.8,0,93,4.019,4.01,3.999,3.995,0,0,19.894,84.11,6,P-GPS,
0.347656504683792,36.8999809349841,5852.3548628003,139.107616,0.4921268,2.8036582262,14900,2018-04-04 12:46:45,13,0,15.913,5852.3548628003,139.107616,0.6263432,2.80764116596,-0.447388,0.223694,-11.1847,155.5, 1.7, -5.7,0,1,1024,1024,1684,1024,155.8,0,93,4.019,4.01,3.999,3.995,0,0,19.894,84.11,6,P-GPS,
0.347656435990325,36.8999810701201,5853.9952828003,140.748036,0.447388,2.7724902462,15000,2018-04-04 12:46:45,13,0,15.913,5853.9952828003,140.748036,0.6263432,2.80764116596,-0.447388,0,-11.1847,155.3, 2.8, -5.4,0,1,1024,1024,1684,1024,155.8,0,93,4.019,4.01,3.999,3.995,0,0,19.894,84.11,6,P-GPS,
0.347656396436235,36.8999811989578,5855.6357028003,142.388456,0.447388,2.75289378888,15100,2018-04-04 12:46:45,13,0,15.913,5855.6357028003,142.388456,0.6263432,2.80764116596,-0.447388,0,-10.961006,155.3, 3.3, -5.2,0,1,1024,1024,1684,1024,155.8,0,93,4.019,4.01,3.999,3.995,0,0,19.894,84.11,6,P-GPS,
0.347656314110656,36.8999812640466,5857.6042068003,144.35696,0.447388,2.72063657,15200,2018-04-04 12:46:45,13,0,15.913,5857.6042068003,144.35696,0.6263432,2.80764116596,-0.447388,0,-11.1847,155.3, 3.2, -6,0,1,1024,1024,1684,1024,155.8,0,93,4.019,4.01,3.999,3.995,0,0,19.894,84.11,6,P-GPS,
0.347656284128966,36.8999813181735,5859.2446268003,145.99738,0.447388,2.70791347248,15300,2018-04-04 12:46:45,13,0,15.913,5859.2446268003,145.99738,0.6263432,2.80764116596,-0.447388,0,-11.408394,155.3, 2.5, -6.6,0,1,1024,1024,1684,1024,155.8,0,93,4.019,4.01,3.999,3.995,0,0,19.894,84.11,6,P-GPS,
0.347656243520865,36.899981365881,5861.2131308003,147.965884,0.447388,2.6916503486,15400,2018-04-04 12:46:45,13,0,15.913,5861.2131308003,147.965884,0.6263432,2.80764116596,-0.447388,0,-11.408394,155.2, 2.3, -6.7,0,1,1024,1024,1684,1024,155.8,0,93,4.019,4.01,3.999,3.995,0,0,19.894,84.11,6,P-GPS,
0.347656261180119,36.899981406975,5862.8535508003,149.606304,0.447388,2.6968668842,15500,2018-04-04 12:46:45,13,0,15.913,5862.8535508003,149.606304,0.6263432,2.80764116596,-0.447388,0,-11.408394,155.4, 2.2, -6.4,0,1,1024,1024,1684,1024,155.8,0,93,4.019,4.01,3.999,3.995,0,0,19.894,84.11,6,P-GPS,
0.347656256981176,36.8999813917393,5864.8220548003,151.574808,0.447388,2.69577436448,15600,2018-04-04 12:46:45,13,0,15.913,5864.8220548003,151.574808,0.6263432,2.80764116596,-0.447388,0,-11.408394,155.4, 1.6, -6.7,0,1,1024,1024,1684,1032,155.8,0,93,4.01,4.001,3.996,3.995,0,0,19.712,84.11,6,P-GPS,
0.347656276870991,36.8999813456804,5866.4624748003,153.215228,0.4921268,2.704396412,15700,2018-04-04 12:46:46,13,0,15.913,5866.4624748003,153.215228,0.6263432,2.80764116596,-0.447388,-0.223694,-11.632088,155.4, 1.5, -7.9,0,1,1024,1024,1684,1040,155.8,0,93,4.01,4.001,3.996,3.995,0,0,19.712,84.11,6,P-GPS,
0.347656227486391,36.8999812567842,5868.4309788003,155.183732,0.4921268,2.68943906244,15800,2018-04-04 12:46:46,13,0,15.913,5868.4309788003,155.183732,0.6263432,2.80764116596,-0.447388,-0.223694,-11.632088,155.4, 1.6, -9.4,0,1,1024,1024,1684,1036,155.8,0,93,4.01,4.001,3.996,3.995,0,0,19.712,84.11,6,P-GPS,
0.34765618798319,36.899981176791,5870.3994828003,157.152236,0.4921268,2.67813656864,15900,2018-04-04 12:46:46,13,0,15.913,5870.3994828003,157.152236,0.6263432,2.80764116596,-0.447388,-0.223694,-11.408394,155.5, 1.9, -9.6,0,1,1024,1024,1684,1036,155.8,0,93,4.01,4.001,3.996,3.995,0,0,19.712,84.11,6,P-GPS,
0.347656074299479,36.899981093767,5872.0399028003,158.792656,0.7158208,2.6404528404,16000,2018-04-04 12:46:46,13,0,15.913,5872.0399028003,158.792656,0.7158208,2.80764116596,-0.671082,-0.223694,-11.408394,155.4, 2.4, -10.4,0,1,1024,1024,1684,1036,155.8,0,93,4.01,4.001,3.996,3.995,0,0,19.712,84.11,6,P-GPS,
0.34765597993237,36.8999810276789,5874.0084068003,160.76116,0.4921268,2.60938984728,16100,2018-04-04 12:46:46,13,0,15.913,5874.0084068003,160.76116,0.7158208,2.80764116596,-0.447388,-0.223694,-11.1847,155.3, 2.8, -10.7,0,1,1024,1024,1684,1026,155.8,0,93,4.01,4.001,3.996,3.995,0,0,19.712,84.11,6,P-GPS,
0.347655852046185,36.8999809737259,5875.6488268003,162.40158,0.4921268,2.56590231308,16200,2018-04-04 12:46:46,13,0,15.913,5875.6488268003,162.40158,0.7158208,2.80764116596,-0.447388,-0.223694,-11.1847,155.2, 3.2, -10,0,1,1024,1024,1684,1026,155.8,0,93,4.01,4.001,3.996,3.995,0,0,19.712,84.11,6,P-GPS,
0.34765577160553,36.899980932639,5877.2892468003,164.042,0.4921268,2.53907160356,16300,2018-04-04 12:46:46,13,0,15.913,5877.2892468003,164.042,0.7158208,2.80764116596,-0.447388,-0.223694,-10.961006,155, 3.8, -10.1,0,1,1024,1024,1684,1027,155.8,0,93,4.01,4.001,3.996,3.995,0,0,19.712,84.11,6,P-GPS,
0.347655702802346,36.8999808548834,5879.2577508003,166.010504,0.4921268,2.51873039556,16400,2018-04-04 12:46:46,13,0,15.913,5879.2577508003,166.010504,0.7158208,2.80764116596,-0.447388,-0.223694,-10.961006,155.1, 3.1, -10.8,0,1,1024,1024,1684,1028,155.8,0,93,4.01,4.001,3.996,3.995,0,0,19.712,84.11,6,P-GPS,
0.34765571106731,36.8999807797299,5880.8981708003,167.650924,0.3131716,2.52631897848,16500,2018-04-04 12:46:46,13,0,15.913,5880.8981708003,167.650924,0.7158208,2.80764116596,-0.223694,-0.223694,-10.737312,155.4, 1.3, -10.9,0,1,1024,1024,1684,1029,155.8,0,93,4.01,4.001,3.996,3.995,0,0,19.712,84.11,6,P-GPS,
0.347655681514716,36.8999807031268,5882.5385908003,169.291344,0.3131716,2.5207185846,16600,2018-04-04 12:46:46,13,0,15.886,5882.5385908003,169.291344,0.7158208,2.80764116596,-0.223694,-0.223694,-10.737312,155.5, 1, -10,0,1,1024,1024,1684,1030,155.8,0,93,4.013,4.008,4.003,4.003,0,0,18.338,84.11,6,P-GPS,
0.347655645215274,36.8999806670476,5884.1790108003,170.931764,0.447388,2.51018380736,16700,2018-04-04 12:46:46,13,0,15.886,5884.1790108003,170.931764,0.7158208,2.80764116596,-0.447388,0,-10.737312,155.4, 1.6, -10,0,1,1024,1024,1684,1025,155.8,0,93,4.013,4.008,4.003,4.003,0,0,18.338,84.11,6,P-GPS,
0.347655563945741,36.8999806470161,5885.8194308003,172.572184,0.447388,2.48250664112,16800,2018-04-04 12:46:47,13,0,15.886,5885.8194308003,172.572184,0.7158208,2.80764116596,-0.447388,0,-10.961006,155.2, 2.7, -10.3,0,1,1024,1024,1684,1032,155.8,0,93,4.013,4.008,4.003,4.003,0,0,18.338,84.11,6,P-GPS,
0.347655528402711,36.8999806432819,5887.4598508003,174.212604,0.223694,2.470062415,16900,2018-04-04 12:46:47,13,0,15.886,5887.4598508003,174.212604,0.7158208,2.80764116596,-0.223694,0,-10.961006,155.2, 2.7, -11.1,0,1,1024,1024,1684,1040,155.8,0,93,4.013,4.008,4.003,4.003,0,0,18.338,84.11,6,P-GPS,
0.347655505379567,36.899980644724,5889.1002708003,175.853024,0.223694,2.46172251972,17000,2018-04-04 12:46:47,13,0,15.886,5889.1002708003,175.853024,0.7158208,2.80764116596,-0.223694,0,-10.737312,155.3, 2.5, -10.5,0,1,1024,1024,1684,1041,155.8,0,93,4.013,4.008,4.003,4.003,0,0,18.338,84.11,6,P-GPS,
0.347655532721345,36.8999806954571,5890.7406908003,177.493444,0.223694,2.46792002648,17100,2018-04-04 12:46:47,13,0,15.886,5890.7406908003,177.493444,0.7158208,2.80764116596,-0.223694,0,-10.513618,155.3, 2.1, -9.4,0,1,1024,1024,1684,1040,155.8,0,93,4.013,4.008,4.003,4.003,0,0,18.338,84.11,6,P-GPS,
0.347655533631442,36.8999807605426,5892.3811108003,179.133864,0.223694,2.46384194236,17200,2018-04-04 12:46:47,13,0,15.886,5892.3811108003,179.133864,0.7158208,2.80764116596,-0.223694,0,-10.513618,155.2, 2, -8.9,0,1,1024,1024,1684,1030,155.8,0,93,4.013,4.008,4.003,4.003,0,0,18.338,84.11,6,P-GPS,
0.347655590360731,36.8999808421213,5894.0215308003,180.774284,0.223694,2.47904207408,17300,2018-04-04 12:46:47,13,0,15.886,5894.0215308003,180.774284,0.7158208,2.80764116596,-0.223694,0,-10.737312,155.3, 1.9, -8.5,0,1,1024,1024,1653,1024,155.8,0,93,4.013,4.008,4.003,4.003,0,0,18.338,84.11,6,P-GPS,
0.347655638173271,36.8999808977893,5895.6619508003,182.414704,0.223694,2.49293971232,17400,2018-04-04 12:46:47,13,0,15.886,5895.6619508003,182.414704,0.7158208,2.80764116596,-0.223694,0,-10.961006,155.2, 2, -8.9,0,1,1024,1024,1172,1024,155.8,0,93,4.013,4.008,4.003,4.003,0,0,18.338,84.11,6,P-GPS,
0.347655726734977,36.8999809462656,5897.3023708003,184.055124,0.223694,2.52214246916,17500,2018-04-04 12:46:47,13,0,15.886,5897.3023708003,184.055124,0.7158208,2.80764116596,-0.223694,0,-10.961006,155.3, 2, -9.4,0,1,1024,1024,1024,1024,155.8,0,93,4.013,4.008,4.003,4.003,0,0,18.338,84.11,6,P-GPS,
0.3476557690275,36.8999809598349,5898.9427908003,185.695544,0.223694,2.53666674784,17600,2018-04-04 12:46:47,13,0,15.939,5898.9427908003,185.695544,0.7158208,2.80764116596,-0.223694,0,-10.289924,155.3, 2, -11.8,0,1,1024,1024,887,1024,155.8,0,93,4.013,4.008,4.003,4.003,0,0,17.062,84.11,6,P-GPS,
0.347655831732568,36.8999809546521,5900.5832108003,187.335964,0.223694,2.55957357272,17700,2018-04-04 12:46:48,13,0,15.939,5900.5832108003,187.335964,0.7158208,2.80764116596,-0.223694,0,-8.94776,155.2, 2.6, -13.8,0,1,1024,1024,634,1024,155.8,0,93,4.013,4.008,4.003,4.003,0,0,17.062,84.11,6,P-GPS,
0.347655848579635,36.8999809405175,5901.5674628003,188.320216,0.223694,2.56641412412,17800,2018-04-04 12:46:48,13,0,15.939,5901.5674628003,188.320216,0.7158208,2.80764116596,-0.223694,0,-7.381902,155.2, 2.4, -13.1,0,1,1024,1024,572,1024,155.8,0,93,4.013,4.008,4.003,4.003,0,0,17.062,84.11,6,P-GPS,
0.347655916746708,36.8999809206408,5902.8797988003,189.632552,0.223694,2.59208669712,17900,2018-04-04 12:46:48,13,0,15.939,5902.8797988003,189.632552,0.7158208,2.80764116596,-0.223694,0,-6.263432,155.3, 1.9, -12.3,0,1,1024,1024,505,1024,155.8,0,93,4.013,4.008,4.003,4.003,0,0,17.062,84.11,6,P-GPS,
0.34765594481579,36.899980859169,5903.5359668003,190.28872,0.3131716,2.60563984716,18000,2018-04-04 12:46:48,13,0,15.939,5903.5359668003,190.28872,0.7158208,2.80764116596,-0.223694,-0.223694,-4.47388,155.2, 2.1, -12.8,0,1,1024,1024,507,1024,155.8,0,93,4.013,4.008,4.003,4.003,0,0,17.062,84.11,6,P-GPS,
0.347655988397429,36.8999807648143,5903.8640508003,190.616804,0.3131716,2.62693906044,18100,2018-04-04 12:46:48,13,0,15.939,5903.8640508003,190.616804,0.7158208,2.80764116596,-0.223694,-0.223694,-2.684328,155.2, 2.2, -13.4,0,1,1024,1024,512,1024,155.8,0,93,4.013,4.008,4.003,4.003,0,0,17.062,84.11,6,P-GPS,
0.347655947085434,36.899980631646,5904.1921348003,190.944888,0.4921268,2.62077436208,18200,2018-04-04 12:46:48,13,0,15.939,5904.1921348003,190.944888,0.7158208,2.80764116596,-0.223694,-0.447388,-0.894776,155.2, 2, -13.6,0,1,1024,1024,505,1024,155.8,0,93,4.013,4.008,4.003,4.003,0,0,17.062,84.11,6,P-GPS,
0.347655926067921,36.8999804529687,5903.8640508003,190.616804,0.6263432,2.62630257748,18300,2018-04-04 12:46:48,13,0,15.939,5904.1921348003,190.944888,0.7158208,2.80764116596,-0.447388,-0.447388,0.671082,155.2, 1.8, -14.7,0,1,1024,1024,472,1024,155.8,0,93,4.013,4.008,4.003,4.003,0,0,17.062,84.11,6,P-GPS,
0.347655857846296,36.8999802358124,5903.8640508003,190.616804,0.4921268,2.62010178988,18400,2018-04-04 12:46:48,13,0,15.939,5904.1921348003,190.944888,0.7158208,2.80764116596,-0.223694,-0.447388,2.23694,155.4, 1.2, -14.7,0,1,1024,1024,446,1024,155.8,0,93,4.013,4.008,4.003,4.003,0,0,17.062,84.11,6,P-GPS,
0.347655825886861,36.899980016411,5903.2078828003,189.960636,0.4921268,2.62947514976,18500,2018-04-04 12:46:48,13,0,15.939,5904.1921348003,190.944888,0.7158208,2.80764116596,-0.223694,-0.447388,3.131716,155.5, 0.4, -14,0,1,1024,1024,446,1024,155.8,0,93,4.013,4.008,4.003,4.003,0,0,17.062,84.11,6,P-GPS,
0.347655748173849,36.89997981798,5902.5517148003,189.304468,0.7158208,2.62307095008,18600,2018-04-04 12:46:48,13,0,15.806,5904.1921348003,190.944888,0.7158208,2.80764116596,-0.223694,-0.671082,4.026492,155.6, 0.3, -14.5,0,1,1024,1024,466,1024,155.8,0,93,4.021,4.007,3.997,3.998,0,0,17.062,84.11,6,P-GPS,
0.347655700278462,36.8999796401688,5901.8955468003,188.6483,0.4921268,2.62678158012,18700,2018-04-04 12:46:49,13,0,15.806,5904.1921348003,190.944888,0.7158208,2.80764116596,-0.223694,-0.447388,4.697574,155.7, -0.4, -14.2,0,1,1024,1024,466,1024,155.8,0,93,4.021,4.007,3.997,3.998,0,0,17.062,84.11,6,P-GPS,
0.347655636111865,36.8999795380099,5901.2393788003,187.992132,0.4921268,2.6171096638,18800,2018-04-04 12:46:49,13,0,15.806,5904.1921348003,190.944888,0.7158208,2.80764116596,-0.223694,-0.447388,4.697574,155.8, -1, -13.3,0,1,1024,1024,470,1024,155.8,0,93,4.021,4.007,3.997,3.998,0,0,17.062,84.11,6,P-GPS,
0.347655596032398,36.8999795129948,5900.5832108003,187.335964,0.3131716,2.60650598892,18900,2018-04-04 12:46:49,13,0,15.806,5904.1921348003,190.944888,0.7158208,2.80764116596,-0.223694,-0.223694,4.697574,155.6, -0.7, -13.4,0,1,1024,1024,466,1024,155.8,0,93,4.021,4.007,3.997,3.998,0,0,17.062,84.11,6,P-GPS,
0.347655510432425,36.8999795811936,5899.9270428003,186.679796,0.3131716,2.56863197196,19000,2018-04-04 12:46:49,13,0,15.806,5904.1921348003,190.944888,0.7158208,2.80764116596,-0.223694,-0.223694,4.697574,155.5, -0.6, -13.7,0,1,1024,1024,463,1024,155.8,0,93,4.021,4.007,3.997,3.998,0,0,17.062,84.11,6,P-GPS,
0.347655443449027,36.8999797510348,5899.2708748003,186.023628,0,2.52502960836,19100,2018-04-04 12:46:49,13,0,15.806,5904.1921348003,190.944888,0.7158208,2.80764116596,0,0,4.697574,155.4, -0.3, -13.1,0,1,1024,1024,472,1024,155.8,0,93,4.021,4.007,3.997,3.998,0,0,17.062,84.11,6,P-GPS,
0.347655324458421,36.8999800013107,5898.9427908003,185.695544,0,2.4555775064,19200,2018-04-04 12:46:49,13,0,15.806,5904.1921348003,190.944888,0.7158208,2.80764116596,0,0,4.697574,155.4, 0.1, -13.1,0,1,1024,1024,469,1024,155.8,0,93,4.021,4.007,3.997,3.998,0,0,17.062,84.11,6,P-GPS,
0.347655243071233,36.8999803273605,5898.2866228003,185.039376,0,2.39451123148,19300,2018-04-04 12:46:49,13,0,15.806,5904.1921348003,190.944888,0.7158208,2.80764116596,0,0,4.921268,155.4, 0, -13,0,1,1024,1024,468,1024,155.8,0,93,4.021,4.007,3.997,3.998,0,0,17.062,84.11,6,P-GPS,
0.347655145916432,36.8999807201055,5897.6304548003,184.383208,0.223694,2.32772645244,19400,2018-04-04 12:46:49,13,0,15.806,5904.1921348003,190.944888,0.7158208,2.80764116596,0,0.223694,4.697574,155.5, -0.3, -11.9,0,1,1024,1024,463,1024,155.8,0,93,4.021,4.007,3.997,3.998,0,0,17.062,84.11,6,P-GPS,
0.347655075011944,36.8999812248123,5896.9742868003,183.72704,0.4921268,2.27275597824,19500,2018-04-04 12:46:49,13,0,15.806,5904.1921348003,190.944888,0.7158208,2.80764116596,-0.223694,0.447388,4.697574,155.5, 0, -11.1,0,1,1024,1024,464,1024,155.8,0,93,4.021,4.007,3.997,3.998,0,0,17.062,84.11,6,P-GPS,
0.347654943964746,36.8999817654131,5895.9900348003,182.742788,0.4921268,2.20953747228,19600,2018-04-04 12:46:49,13,0,16.47,5904.1921348003,190.944888,0.7158208,2.80764116596,-0.223694,0.447388,4.921268,155.4, 1.2, -11,0,1,1024,1024,466,1024,155.8,0,93,4.094,4.081,4.074,4.07,0,0,15.216,84.11,6,P-GPS,
0.34765486305001,36.8999823703865,5895.3338668003,182.08662,0.7158208,2.18324482052,19700,2018-04-04 12:46:50,13,0,16.47,5904.1921348003,190.944888,0.7158208,2.80764116596,-0.223694,0.671082,4.921268,155.3, 1.7, -10,0,1,1024,1024,464,1024,155.8,0,93,4.094,4.081,4.074,4.07,0,0,15.216,84.11,6,P-GPS,
0.347654756725848,36.8999829660269,5894.6776988003,181.430452,0.7158208,2.16979665736,19800,2018-04-04 12:46:50,13,0,16.47,5904.1921348003,190.944888,0.7158208,2.80764116596,-0.223694,0.671082,5.144962,155.3, 2.2, -9,0,1,1024,1024,452,1024,155.8,0,93,4.094,4.081,4.074,4.07,0,0,15.216,84.11,6,P-GPS,
0.347654715597052,36.899983587798,5893.6934468003,180.4462,0.7158208,2.20421266896,19900,2018-04-04 12:46:50,13,0,16.47,5904.1921348003,190.944888,0.7158208,2.80764116596,-0.223694,0.671082,4.921268,155.3, 2.9, -8.5,0,1,1024,1024,444,1024,155.8,0,93,4.094,4.081,4.074,4.07,0,0,15.216,84.11,6,P-GPS,
0.347654656553133,36.8999841549791,5893.0372788003,179.790032,0.7158208,2.24787080684,20000,2018-04-04 12:46:50,13,0,16.47,5904.1921348003,190.944888,0.7158208,2.80764116596,-0.223694,0.671082,5.144962,155.3, 2.1, -9.1,0,1,1024,1024,442,1024,155.8,0,93,4.094,4.081,4.074,4.07,0,0,15.216,84.11,6,P-GPS,
0.347654647183677,36.8999847449892,5892.3811108003,179.133864,0.7158208,2.32945873596,20100,2018-04-04 12:46:50,13,0,16.47,5904.1921348003,190.944888,0.7158208,2.80764116596,-0.223694,0.671082,5.144962,155.4, 2.4, -8.6,0,1,1024,1024,439,1024,155.8,0,93,4.094,4.081,4.074,4.07,0,0,15.216,84.11,6,P-GPS,
0.347654581691527,36.8999853297952,5891.3968588003,178.149612,0.7158208,2.40882881724,20200,2018-04-04 12:46:50,13,0,16.47,5904.1921348003,190.944888,0.7158208,2.80764116596,-0.223694,0.671082,5.144962,155.3, 2.8, -7.7,0,1,1024,1024,435,1024,155.8,0,93,4.094,4.081,4.074,4.07,0,0,15.216,84.11,6,P-GPS,
0.347654575098568,36.8999859570461,5890.7406908003,177.493444,0.7158208,2.53062344056,20300,2018-04-04 12:46:50,13,0,16.47,5904.1921348003,190.944888,0.7158208,2.80764116596,-0.223694,0.671082,5.368656,155.3, 3.8, -7.5,0,1,1024,1024,430,1024,155.8,0,93,4.094,4.081,4.074,4.07,0,0,15.216,84.11,6,P-GPS,
0.347654501010066,36.8999865597225,5889.7564388003,176.509192,0.7158208,2.64177501892,20400,2018-04-04 12:46:50,13,0,16.47,5904.1921348003,190.944888,0.7158208,2.80764116596,-0.223694,0.671082,5.59235,155.2, 4.5, -7.2,0,1,1024,1024,430,1024,155.8,0,93,4.094,4.081,4.074,4.07,0,0,15.216,84.11,6,P-GPS,
0.347654502781406,36.8999871719133,5889.1002708003,175.853024,0.7158208,2.7888616378,20500,2018-04-04 12:46:50,13,0,16.47,5904.1921348003,190.944888,0.7158208,2.80764116596,-0.223694,0.671082,5.59235,155.3, 4.6, -6.5,0,1,1024,1024,431,1024,155.8,0,93,4.094,4.081,4.074,4.07,0,0,15.216,84.11,6,P-GPS,
0.347654470609255,36.8999876965986,5888.1160188003,174.868772,0.7158208,2.91402896464,20600,2018-04-04 12:46:50,13,0,16.178,5904.1921348003,190.944888,0.7158208,2.91402896464,-0.223694,0.447388,5.59235,155.3, 3.6, -6.4,0,1,1024,1024,428,1024,155.8,0,92,4.099,4.082,4.073,4.067,0,0,9.532,84.11,6,P-GPS,
0.347654523840647,36.8999882259517,5887.4598508003,174.212604,0.4921268,3.06818907456,20700,2018-04-04 12:46:50,13,0,16.178,5904.1921348003,190.944888,0.7158208,3.06818907456,-0.223694,0.447388,5.816044,155.4, 3.4, -7.2,0,1,1024,1024,428,1024,155.8,0,92,4.099,4.082,4.073,4.067,0,0,9.532,84.11,6,P-GPS,
0.347654541205152,36.8999887014482,5886.4755988003,173.228352,0.4921268,3.20320220224,20800,2018-04-04 12:46:51,13,0,16.178,5904.1921348003,190.944888,0.7158208,3.20320220224,-0.223694,0.447388,5.59235,155.4, 3.7, -6.8,0,1,1024,1024,428,1024,155.8,0,92,4.099,4.082,4.073,4.067,0,0,9.532,84.11,6,P-GPS,
0.347654643382889,36.8999891666049,5885.4913468003,172.2441,0.3131716,3.3580709736,20900,2018-04-04 12:46:51,13,0,16.178,5904.1921348003,190.944888,0.7158208,3.3580709736,-0.223694,0.223694,5.816044,155.4, 3.9, -6.3,0,1,1024,1024,427,1024,155.8,0,92,4.099,4.082,4.073,4.067,0,0,9.532,84.11,6,P-GPS,
0.347654738079553,36.8999895141165,5884.8351788003,171.587932,0,3.4790355444,21000,2018-04-04 12:46:51,13,0,16.178,5904.1921348003,190.944888,0.7158208,3.4790355444,0,0,5.816044,155.4, 2.5, -7.2,0,1,1024,1024,427,1024,155.8,0,92,4.099,4.082,4.073,4.067,0,0,9.532,84.11,6,P-GPS,
