latitude,longitude,altitude(feet),ascent(feet),speed(mph),distance(feet),time(millisecond),datetime(utc),satellites,voltage(v),max_altitude(feet),max_ascent(feet),max_speed(mph),max_distance(feet),compass_heading(degrees), pitch(degrees), roll(degrees),isPhoto,isVideo,rc_elevator,rc_aileron,rc_throttle,rc_rudder,gimbal_heading(degrees),gimbal_pitch(degrees),battery_percent,voltageCell1,voltageCell2,voltageCell3,voltageCell4,voltageCell5,voltageCell6,battery_temperature(f),flycStateRaw,flycState,message
0.0670574093100021,36.965817292227,5919.860468635,0,0,0,100,2017-11-03 05:09:08,16,0,5919.860468635,0,0,0,136.6, 0.8, 0,0,0,1024,1024,1024,1024,141.1,0,97,4.276,4.274,4.27,4.274,0,0,76.91,41,Motors_Started,
0.0670573976519715,36.9658172822128,5919.860468635,0,0,0.0056072180272,200,2017-11-03 05:09:08,16,0,5919.860468635,0,0,0.0056072180272,136.6, 0.8, -0.1,0,0,1024,1024,1024,1024,141.1,0,97,4.276,4.274,4.27,4.274,0,0,76.91,41,Motors_Started,
0.0670573906504766,36.9658172768728,5919.860468635,0,0,0.00881643729,300,2017-11-03 05:09:08,16,0,5919.860468635,0,0,0.00881643729,136.6, 0.8, 0,0,0,1024,1024,1024,1024,141.1,0,97,4.276,4.274,4.27,4.274,0,0,76.91,41,Motors_Started,
0.0670573881679137,36.9658172660408,5919.860468635,0,0,0.0122792654848,400,2017-11-03 05:09:08,16,0,5919.860468635,0,0,0.0122792654848,136.6, 0.8, 0,0,0,1024,1024,1024,1024,141.1,0,97,4.276,4.274,4.27,4.274,0,0,76.91,41,Motors_Started,
0.0670573865321417,36.96581725978,5919.860468635,0,0,0.0144640096492,500,2017-11-03 05:09:08,16,0,5919.860468635,0,0,0.0144640096492,136.6, 0.8, 0,0,0,497,430,364,1684,141.1,0,97,4.276,4.274,4.27,4.274,0,0,76.91,41,Motors_Started,
0.067057391678839,36.9658172656853,5919.860468635,0,0,0.0116255581148,600,2017-11-03 05:09:08,16,0,5919.860468635,0,0,0.0144640096492,136.6, 0.8, 0,0,0,750,612,535,1569,141.1,0,97,4.276,4.274,4.27,4.274,0,0,76.91,41,Motors_Started,
0.0670573926331071,36.9658172909979,5919.860468635,0,0,0.006101050064,700,2017-11-03 05:09:08,16,0,5919.860468635,0,0,0.0144640096492,136.6, 0.9, 0,0,0,1024,890,768,1418,140.9,0,97,4.276,4.274,4.27,4.274,0,0,76.91,41,Motors_Started,
0.0670573800916457,36.9658173158973,5919.860468635,0,0,0.013719488628,800,2017-11-03 05:09:09,16,0,5919.860468635,0,0,0.0144640096492,136.6, 0.9, -0.1,0,0,1024,1024,1024,1107,140.2,0,97,4.276,4.274,4.27,4.274,0,0,76.91,41,Motors_Started,
0.0670573543834003,36.9658173310994,5919.860468635,0,0,0.024550853804,900,2017-11-03 05:09:09,16,0,5919.860468635,0,0,0.024550853804,136.6, 1, 0,0,0,1024,1024,1024,1024,139.1,0,97,4.276,4.274,4.27,4.274,0,0,76.91,41,Motors_Started,
0.0670573307408361,36.9658173438714,5919.860468635,0,0,0.034304134956,1000,2017-11-03 05:09:09,16,17.07,5919.860468635,0,0,0.034304134956,136.6, 1, 0,0,0,1024,1024,1024,1024,138.3,0,97,4.276,4.274,4.27,4.274,0,0,76.91,41,Motors_Started,
0.0670573166140845,36.9658173517015,5919.860468635,0,0,0.040182744068,1100,2017-11-03 05:09:09,16,17.07,5919.860468635,0,0,0.040182744068,136.6, 1.1, 0,0,0,1024,1024,1024,1024,138.3,0,97,4.276,4.274,4.27,4.274,0,0,76.91,41,Motors_Started,
0.0670573018343267,36.9658173579644,5919.860468635,0,0,0.045965880736,1200,2017-11-03 05:09:09,16,17.07,5919.860468635,0,0,0.045965880736,136.5, 1, 0,0,0,1024,1024,1024,1024,137.8,0,97,4.276,4.274,4.27,4.274,0,0,76.91,41,Motors_Started,
0.0670572943052159,36.9658173606986,5919.860468635,0,0,0.048833334896,1300,2017-11-03 05:09:09,16,17.07,5919.860468635,0,0,0.048833334896,136.6, 0.9, 0,0,0,1024,1024,1024,1024,137.6,0,97,4.276,4.274,4.27,4.274,0,0,76.91,41,Motors_Started,
0.0670572910173875,36.9658173591848,5919.860468635,0,0,0.049593505524,1400,2017-11-03 05:09:09,16,17.07,5919.860468635,0,0,0.049593505524,136.6, 1.1, 0,0,0,1024,1024,1024,1024,137.5,0,97,4.276,4.274,4.27,4.274,0,0,76.91,41,Motors_Started,
0.0670572886007766,36.9658173578894,5919.860468635,0,0,0.050134844124,1500,2017-11-03 05:09:09,16,17.07,5919.860468635,0,0,0.050134844124,136.5, 1.1, -0.1,0,0,1024,1024,1024,1024,137.3,0,97,4.276,4.274,4.27,4.274,0,0,76.91,41,Motors_Started,
0.0670572734806741,36.9658173540182,5919.860468635,0,0,0.054444227464,1600,2017-11-03 05:09:09,16,17.07,5919.860468635,0,0,0.054444227464,136.5, 0.9, 0,0,0,1024,1024,1024,1024,137.3,0,97,4.276,4.274,4.27,4.274,0,0,76.91,10,Assisted_Takeoff,
0.0670572408246724,36.9658173525152,5919.860468635,0,0,0.065288716,1700,2017-11-03 05:09:09,16,17.07,5919.860468635,0,0,0.065288716,136.5, 0.9, 0,0,0,1024,1024,1024,1024,137.2,0,97,4.276,4.274,4.27,4.274,0,0,76.91,10,Assisted_Takeoff,
0.067057210128096,36.9658173643257,5919.860468635,0,0,0.077285763628,1800,2017-11-03 05:09:10,16,17.07,5919.860468635,0,0,0.077285763628,136.5, 0.9, 0,0,0,1024,1024,1024,1024,137.1,0,97,4.276,4.274,4.27,4.274,0,0,76.91,10,Assisted_Takeoff,
0.0670571922074769,36.9658173910408,5919.860468635,0,0,0.087028218008,1900,2017-11-03 05:09:10,16,17.07,5919.860468635,0,0,0.087028218008,136.5, 0.9, 0,0,0,1024,1024,1024,1024,137.1,0,97,4.276,4.274,4.27,4.274,0,0,76.91,10,Assisted_Takeoff,
0.0670571808470444,36.965817417409,5919.860468635,0,0,0.095047247136,2000,2017-11-03 05:09:10,16,17.07,5919.860468635,0,0,0.095047247136,136.5, 0.9, 0,0,0,1024,1024,1024,1024,137.1,0,97,4.272,4.272,4.266,4.265,0,0,76.91,10,Assisted_Takeoff,
0.0670571736615353,36.9658174335082,5919.860468635,0,0,0.10024442578,2100,2017-11-03 05:09:10,16,17.07,5919.860468635,0,0,0.10024442578,136.5, 0.9, 0,0,0,1024,1024,1024,1024,137,0,97,4.272,4.272,4.266,4.265,0,0,76.91,10,Assisted_Takeoff,
0.0670571719598113,36.9658174461496,5919.860468635,0,0,0.103212601728,2200,2017-11-03 05:09:10,16,17.07,5919.860468635,0,0,0.103212601728,136.5, 0.9, 0,0,0,1024,1024,1024,1024,137,0,97,4.272,4.272,4.266,4.265,0,0,76.91,10,Assisted_Takeoff,
0.0670571695053391,36.9658174531875,5919.860468635,0,0,0.105374347204,2300,2017-11-03 05:09:10,16,17.07,5919.860468635,0,0,0.105374347204,136.5, 0.9, 0,0,0,1024,1024,1024,1024,137,0,97,4.272,4.272,4.266,4.265,0,0,76.91,10,Assisted_Takeoff,
0.067057174430568,36.9658174548833,5919.860468635,0,0,0.104238192312,2400,2017-11-03 05:09:10,16,17.07,5919.860468635,0,0,0.105374347204,136.5, 0.9, 0,0,0,1024,1024,1024,1024,137,0,97,4.272,4.272,4.266,4.265,0,0,76.91,10,Assisted_Takeoff,
0.0670571740926659,36.9658174564228,5919.860468635,0,0,0.104659780252,2500,2017-11-03 05:09:10,16,17.07,5919.860468635,0,0,0.105374347204,136.5, 0.9, 0,0,0,1024,1024,1024,1024,137,0,97,4.272,4.272,4.266,4.265,0,0,76.91,10,Assisted_Takeoff,
0.0670571636409052,36.9658174530655,5919.860468635,0,0,0.107133205528,2600,2017-11-03 05:09:10,16,17.07,5919.860468635,0,0,0.107133205528,136.5, 0.9, 0,0,0,1024,1024,1024,1024,136.9,0,97,4.272,4.272,4.266,4.265,0,0,76.91,10,Assisted_Takeoff,
0.0670571357851493,36.9658174508451,5919.860468635,0,0,0.115361552248,2700,2017-11-03 05:09:10,16,17.07,5919.860468635,0,0,0.115361552248,136.5, 0.9, 0,0,0,1024,1024,1024,1024,136.9,0,97,4.272,4.272,4.266,4.265,0,0,76.91,10,Assisted_Takeoff,
0.0670571104233554,36.9658174443253,5919.860468635,0,0,0.122356303128,2800,2017-11-03 05:09:11,16,17.07,5919.860468635,0,0,0.122356303128,136.5, 0.9, 0,0,0,1024,1024,1024,1024,136.9,0,97,4.272,4.272,4.266,4.265,0,0,76.91,10,Assisted_Takeoff,
0.0670570941857331,36.9658174407646,5919.860468635,0,0,0.127105319028,2900,2017-11-03 05:09:11,16,17.07,5919.860468635,0,0,0.127105319028,136.5, 0.9, 0,0,0,1024,1024,1024,1024,136.9,0,97,4.272,4.272,4.266,4.265,0,0,76.91,10,Assisted_Takeoff,
0.0670570841679528,36.9658174341442,5919.860468635,0,0,0.12943569968,3000,2017-11-03 05:09:11,16,16.961,5919.860468635,0,0,0.12943569968,136.5, 0.9, 0,0,0,1024,1024,1024,1024,136.9,0,97,4.268,4.263,4.256,4.259,0,0,76.91,10,Assisted_Takeoff,
0.0670570762276599,36.9658174307205,5919.860468635,0,0,0.131611224684,3100,2017-11-03 05:09:11,16,16.961,5919.860468635,0,0,0.131611224684,136.5, 0.9, 0,0,0,1024,1024,1024,1024,136.9,0,97,4.268,4.263,4.256,4.259,0,0,76.91,10,Assisted_Takeoff,
0.0670570582687724,36.9658174411157,5919.860468635,0,0,0.139121067444,3200,2017-11-03 05:09:11,16,16.961,5919.860468635,0,0,0.139121067444,136.5, 0.9, 0,0,0,1024,1024,1024,1024,136.9,0,97,4.268,4.263,4.256,4.259,0,0,76.91,10,Assisted_Takeoff,
0.0670569979797045,36.9658174972887,5919.860468635,0,0,0.167688981744,3400,2017-11-03 05:09:11,16,16.961,5919.860468635,0,0,0.167688981744,136.5, 0.9, 0,0,0,1024,1024,1024,1024,136.9,0,97,4.268,4.263,4.256,4.259,0,0,76.91,10,Assisted_Takeoff,
0.0670569796873931,36.9658175138076,5919.860468635,0,0,0.176367459712,3500,2017-11-03 05:09:11,16,16.961,5919.860468635,0,0,0.176367459712,136.5, 0.9, 0,0,0,1024,1024,1024,1024,136.9,0,97,4.268,4.263,4.256,4.259,0,0,76.91,10,Assisted_Takeoff,
0.0670569685871046,36.9658175280719,5919.860468635,0,0,0.182373365416,3600,2017-11-03 05:09:11,16,16.961,5919.860468635,0,0,0.182373365416,136.5, 0.9, 0,0,0,1024,1024,1024,1024,136.8,0,97,4.268,4.263,4.256,4.259,0,0,76.91,10,Assisted_Takeoff,
0.0670569614655118,36.9658175364138,5919.860468635,0,0,0.186105977084,3700,2017-11-03 05:09:11,16,16.961,5919.860468635,0,0,0.186105977084,136.5, 0.9, 0,0,0,1024,1024,1024,1024,136.8,0,97,4.268,4.263,4.256,4.259,0,0,76.91,10,Assisted_Takeoff,
0.0670569633634633,36.9658175406019,5919.860468635,0,0,0.186237210684,3800,2017-11-03 05:09:12,16,16.961,5919.860468635,0,0,0.186237210684,136.5, 0.9, 0,0,0,1024,1024,1024,1024,136.8,0,97,4.268,4.263,4.256,4.259,0,0,76.91,10,Assisted_Takeoff,
0.067056961719142,36.9658175431413,5919.860468635,0,0,0.187212604416,3900,2017-11-03 05:09:12,16,16.961,5919.860468635,0,0,0.187212604416,136.5, 0.9, 0,0,0,1024,1024,1024,1024,136.8,0,97,4.268,4.263,4.256,4.259,0,0,76.91,10,Assisted_Takeoff,
0.0670569499198439,36.9658175591613,5919.860468635,0,0,0.193849087568,4000,2017-11-03 05:09:12,16,17.043,5919.860468635,0,0,0.193849087568,136.5, 0.9, 0,0,0,1024,1024,1024,1024,136.8,0,97,4.268,4.263,4.256,4.259,0,0,76.91,10,Assisted_Takeoff,
0.0670569216748899,36.9658175877113,5919.860468635,0,0,0.208027893796,4100,2017-11-03 05:09:12,16,17.043,5919.860468635,0,0,0.208027893796,136.5, 0.9, 0,0,0,1024,1024,1024,1024,136.8,0,97,4.268,4.263,4.256,4.259,0,0,76.91,10,Assisted_Takeoff,
0.06705689693679,36.9658176151865,5919.860468635,0,0,0.22097605694,4200,2017-11-03 05:09:12,16,17.043,5919.860468635,0,0,0.22097605694,136.4, 0.9, 0,0,0,1024,1024,1024,1024,136.8,0,97,4.268,4.263,4.256,4.259,0,0,76.91,10,Assisted_Takeoff,
0.0670568810175286,36.9658176315213,5919.860468635,0,0,0.229075794732,4300,2017-11-03 05:09:12,16,17.043,5919.860468635,0,0,0.229075794732,136.4, 0.9, 0,0,0,1024,1024,1024,1024,136.8,0,97,4.268,4.263,4.256,4.259,0,0,76.91,10,Assisted_Takeoff,
0.0670568642197217,36.9658176515753,5919.860468635,0,0,0.238203419696,4500,2017-11-03 05:09:12,16,17.043,5919.860468635,0,0,0.238203419696,136.4, 0.9, 0,0,0,1024,1024,1024,1024,136.8,0,97,4.268,4.263,4.256,4.259,0,0,76.91,10,Assisted_Takeoff,
0.0670568158068959,36.9658177018022,5919.860468635,0,0,0.263096137028,4700,2017-11-03 05:09:12,16,17.043,5919.860468635,0,0,0.263096137028,136.4, 0.9, 0,0,0,1024,1024,1024,1024,136.8,0,97,4.268,4.263,4.256,4.259,0,0,76.91,10,Assisted_Takeoff,
0.0670567885410438,36.9658177310995,5919.860468635,0,0,0.277372712288,4800,2017-11-03 05:09:13,16,17.043,5919.860468635,0,0,0.277372712288,136.4, 0.9, 0,0,0,1024,1024,1024,1024,136.8,0,97,4.268,4.263,4.256,4.259,0,0,76.91,10,Assisted_Takeoff,
0.0670567710971517,36.9658177474407,5919.860468635,0,0,0.28601378868,4900,2017-11-03 05:09:13,16,17.043,5919.860468635,0,0,0.28601378868,136.4, 0.9, 0,0,0,1024,1024,1024,1024,136.8,0,97,4.268,4.263,4.256,4.259,0,0,76.91,10,Assisted_Takeoff,
0.0670567622327168,36.9658177574442,5919.860468635,0,0,0.290768053924,5000,2017-11-03 05:09:13,16,17.043,5919.860468635,0,0,0.290768053924,136.4, 0.9, 0,0,0,1024,1024,1024,1024,136.8,0,97,4.269,4.267,4.263,4.267,0,0,76.91,10,Assisted_Takeoff,
0.0670567546144487,36.965817763767,5919.860468635,0,0,0.29437172858,5100,2017-11-03 05:09:13,16,17.043,5919.860468635,0,0,0.29437172858,136.4, 0.9, 0,0,0,1024,1024,1024,1024,136.8,0,97,4.269,4.267,4.263,4.267,0,0,76.91,10,Assisted_Takeoff,
0.0670567564130651,36.9658177635807,5919.860468635,0,0,0.293799878168,5200,2017-11-03 05:09:13,16,17.043,5919.860468635,0,0,0.29437172858,136.4, 0.9, 0,0,0,1024,1024,1024,1024,136.8,0,97,4.269,4.267,4.263,4.267,0,0,76.91,10,Assisted_Takeoff,
0.0670567554156431,36.9658177637541,5919.860468635,0,0,0.294131899176,5300,2017-11-03 05:09:13,16,17.043,5919.860468635,0,0,0.29437172858,136.4, 0.9, 0,0,0,1024,1024,1024,1024,136.8,0,97,4.269,4.267,4.263,4.267,0,0,76.91,10,Assisted_Takeoff,
0.0670567628519327,36.9658177584998,5919.860468635,0,0,0.290810048676,5400,2017-11-03 05:09:13,16,17.043,5919.860468635,0,0,0.29437172858,136.4, 0.9, 0,0,0,1024,1024,1024,1024,136.8,0,97,4.269,4.267,4.263,4.267,0,0,76.91,10,Assisted_Takeoff,
0.0670567655714341,36.9658177561488,5919.860468635,0,0,0.289503618188,5500,2017-11-03 05:09:13,16,17.043,5919.860468635,0,0,0.29437172858,136.4, 0.9, 0,0,0,1024,1024,1024,1024,136.8,0,97,4.269,4.267,4.263,4.267,0,0,76.91,10,Assisted_Takeoff,
0.0670567757015771,36.9658177674219,5919.860468635,0,0,0.288961951504,5600,2017-11-03 05:09:13,16,17.043,5919.860468635,0,0,0.29437172858,136.4, 0.8, 0,0,0,1024,1024,1024,1024,136.8,0,97,4.269,4.267,4.263,4.267,0,0,76.91,10,Assisted_Takeoff,
0.0670567795418552,36.9658177950512,5919.860468635,0,0,0.294024287624,5700,2017-11-03 05:09:13,16,17.043,5919.860468635,0,0,0.29437172858,136.4, 0.9, 0,0,0,1024,1024,1024,1024,136.8,0,97,4.269,4.267,4.263,4.267,0,0,76.91,10,Assisted_Takeoff,
0.0670567890023006,36.9658178224622,5919.860468635,0,0,0.297733933412,5800,2017-11-03 05:09:14,16,17.043,5919.860468635,0,0,0.297733933412,136.4, 0.9, 0,0,0,1024,1024,1024,1024,136.8,0,97,4.269,4.267,4.263,4.267,0,0,76.91,10,Assisted_Takeoff,
0.0670567927823262,36.9658178392766,5919.860468635,0,0,0.300723106736,5900,2017-11-03 05:09:14,16,17.043,5919.860468635,0,0,0.300723106736,136.4, 0.8, 0,0,0,1024,1024,1024,1024,136.8,0,97,4.269,4.267,4.263,4.267,0,0,76.91,10,Assisted_Takeoff,
0.0670567821538793,36.965817851115,5919.860468635,0,0,0.306490823456,6000,2017-11-03 05:09:14,16,17.043,5919.860468635,0,0,0.306490823456,136.4, 0.8, 0,0,0,1024,1024,1024,1024,136.8,0,97,4.269,4.267,4.262,4.267,0,0,76.91,10,Assisted_Takeoff,
0.0670567551412503,36.965817859945,5919.860468635,0,0,0.316019367068,6100,2017-11-03 05:09:14,16,17.043,5919.860468635,0,0,0.316019367068,136.4, 0.8, 0,0,0,1024,1024,1024,1024,136.8,0,97,4.269,4.267,4.262,4.267,0,0,76.91,10,Assisted_Takeoff,
0.0670567293051721,36.965817862842,5919.860468635,0,0,0.323875994616,6200,2017-11-03 05:09:14,16,17.043,5919.860468635,0,0,0.323875994616,136.4, 0.8, 0,0,0,1024,1024,1024,1024,136.8,0,97,4.269,4.267,4.262,4.267,0,0,76.91,10,Assisted_Takeoff,
0.0670567108211114,36.96581786621,5919.860468635,0,0,0.32984909192,6300,2017-11-03 05:09:14,16,17.043,5919.860468635,0,0,0.32984909192,136.4, 0.8, 0,0,0,1024,1024,1024,1024,136.8,0,97,4.269,4.267,4.262,4.267,0,0,76.91,10,Assisted_Takeoff,
0.0670566967314068,36.9658178635871,5919.860468635,0,0,0.33323819964,6400,2017-11-03 05:09:14,16,17.043,5919.860468635,0,0,0.33323819964,136.4, 0.8, 0,0,0,1024,1024,1024,1024,136.8,0,97,4.269,4.267,4.262,4.267,0,0,76.91,10,Assisted_Takeoff,
0.0670566858725351,36.9658178631653,5919.860468635,0,0,0.33624344908,6500,2017-11-03 05:09:14,16,17.043,5919.860468635,0,0,0.33624344908,136.4, 0.9, 0,0,0,1024,1024,1024,1024,136.8,0,97,4.269,4.267,4.262,4.267,0,0,76.91,10,Assisted_Takeoff,
0.0670566794963627,36.9658178584827,5919.860468635,0,0,0.33702100816,6600,2017-11-03 05:09:14,16,17.043,5919.860468635,0,0,0.33702100816,136.4, 0.8, 0,0,0,1024,1024,1024,1024,136.8,0,97,4.269,4.267,4.262,4.267,0,0,76.91,10,Assisted_Takeoff,
0.0670566737727891,36.9658178564957,5919.860468635,0,0,0.33823163812,6700,2017-11-03 05:09:14,16,17.043,5919.860468635,0,0,0.33823163812,136.4, 0.8, 0,0,0,1024,1024,1024,1024,136.8,0,97,4.269,4.267,4.262,4.267,0,0,76.91,10,Assisted_Takeoff,
0.0670566741701295,36.9658178510422,5919.860468635,0,0,0.3369094596,6800,2017-11-03 05:09:15,16,17.043,5919.860468635,0,0,0.33823163812,136.4, 0.8, 0,0,0,1024,1024,1024,1024,136.8,0,97,4.269,4.267,4.262,4.267,0,0,76.91,10,Assisted_Takeoff,
0.0670566729679307,36.9658178494342,5919.860468635,0,0,0.33690289792,6900,2017-11-03 05:09:15,16,17.043,5919.860468635,0,0,0.33823163812,136.4, 0.8, 0,0,0,1024,1024,1024,1024,136.8,0,97,4.269,4.267,4.262,4.267,0,0,76.91,10,Assisted_Takeoff,
0.0670566788747042,36.9658178444346,5919.860468635,0,0,0.33408465636,7000,2017-11-03 05:09:15,16,17.043,5919.860468635,0,0,0.33823163812,136.4, 0.8, 0,0,0,1024,1024,1024,1024,136.8,0,97,4.269,4.267,4.262,4.267,0,0,76.91,10,Assisted_Takeoff,
0.0670566793050205,36.9658178444796,5919.860468635,0,0,0.33396982696,7100,2017-11-03 05:09:15,16,17.043,5919.860468635,0,0,0.33823163812,136.4, 0.8, 0,0,0,1024,1024,1024,1024,136.8,0,97,4.269,4.267,4.262,4.267,0,0,76.91,10,Assisted_Takeoff,
0.0670566853111291,36.9658178421971,5919.860468635,0,0,0.33171917072,7200,2017-11-03 05:09:15,16,17.043,5919.860468635,0,0,0.33823163812,136.4, 0.8, 0,0,0,1024,1024,1024,1024,136.8,0,97,4.269,4.267,4.262,4.267,0,0,76.91,10,Assisted_Takeoff,
0.0670566857463307,36.9658178431114,5919.860468635,0,0,0.33179463004,7300,2017-11-03 05:09:15,16,17.043,5919.860468635,0,0,0.33823163812,136.4, 0.8, 0,0,0,1024,1024,1034,1024,136.8,0,97,4.269,4.267,4.262,4.267,0,0,76.91,10,Assisted_Takeoff,
0.0670566744551072,36.96581784124,5919.860468635,0,0,0.33467520756,7400,2017-11-03 05:09:15,16,17.043,5919.860468635,0,0,0.33823163812,136.4, 0.8, 0,0,0,1024,1024,1072,1024,136.8,0,97,4.269,4.267,4.262,4.267,0,0,76.91,10,Assisted_Takeoff,
0.0670566446126496,36.9658178420644,5919.860468635,0,0,0.3436351816,7500,2017-11-03 05:09:15,16,17.043,5919.860468635,0,0,0.3436351816,136.4, 0.8, 0,0,0,1024,1024,1447,1142,136.7,0,97,4.269,4.267,4.262,4.267,0,0,76.91,10,Assisted_Takeoff,
0.0670566158978895,36.9658178398868,5919.860468635,0,0,0.35174213724,7600,2017-11-03 05:09:15,16,17.043,5919.860468635,0,0,0.35174213724,136.4, 0.8, 0,0,0,1024,1024,1684,1286,137.1,0,97,4.269,4.267,4.262,4.267,0,0,76.91,10,Assisted_Takeoff,
0.067056597454947,36.9658178398076,5919.860468635,0,0,0.357283476,7700,2017-11-03 05:09:15,16,17.043,5919.860468635,0,0,0.357283476,136.5, 0.9, -0.1,0,0,1024,1024,1684,1461,137.9,0,97,4.269,4.267,4.262,4.267,0,0,76.91,10,Assisted_Takeoff,
0.0670565854272596,36.9658178361419,5919.860468635,0,0,0.36019030024,7800,2017-11-03 05:09:16,16,17.043,5919.860468635,0,0,0.36019030024,136.5, 1, -0.1,0,0,1024,1024,1684,1222,139.9,0,97,4.269,4.267,4.262,4.267,0,0,76.91,10,Assisted_Takeoff,
0.0670565764117866,36.9658178343562,5919.860468635,0,0,0.36258531344,7900,2017-11-03 05:09:16,16,17.043,5919.860468635,0,0,0.36258531344,137.2, 1.2, -0.3,0,0,1024,1024,1684,1220,140.5,0,97,4.269,4.267,4.262,4.267,0,0,76.91,10,Assisted_Takeoff,
0.0670565927768345,36.9658178132809,5919.860468635,0,0,0.35339896144,8000,2017-11-03 05:09:16,16,17.043,5919.860468635,0,0,0.36258531344,138.6, 3.2, -1.6,0,0,1024,1024,1684,1161,141.1,0,97,4.269,4.267,4.262,4.267,0,0,76.91,10,Assisted_Takeoff,
0.0670566876674875,36.9658177875037,5919.860468635,0,0.223694,0.319335312056,8100,2017-11-03 05:09:16,16,17.043,5919.860468635,0,0.223694,0.36258531344,140.3, 7.6, -4.3,0,0,1024,1024,1684,1172,141.1,0,97,4.269,4.267,4.262,4.267,0,0,76.91,10,Assisted_Takeoff,
0.0670570111391604,36.9658177406405,5919.860468635,0,1.11847,0.218792329836,8200,2017-11-03 05:09:16,16,17.043,5919.860468635,0,1.11847,0.36258531344,143.1, 6.6, -3.5,0,0,1024,1024,1684,1144,142,0,97,4.269,4.267,4.262,4.267,0,0,76.91,6,GPS_Atti,
0.0670575951692008,36.9658176724086,5919.860468635,0,1.565858,0.154396986568,8300,2017-11-03 05:09:16,16,17.043,5919.860468635,0,1.565858,0.36258531344,145.5, 1.1, -0.8,0,0,1024,1024,1684,1161,143.1,0,97,4.269,4.267,4.262,4.267,0,0,76.91,6,GPS_Atti,
0.0670583521334799,36.9658176122617,5920.188552635,0.328084,1.565858,0.36326444732,8400,2017-11-03 05:09:16,16,17.043,5920.188552635,0.328084,1.565858,0.36326444732,147.4, -2, 2.2,0,0,1024,1024,1684,1161,144.5,0,97,4.269,4.267,4.262,4.267,0,0,76.91,6,GPS_Atti,
0.0670591466781753,36.9658175572686,5920.516636635,0.656168,1.58151658,0.64121065044,8500,2017-11-03 05:09:16,16,17.043,5920.516636635,0.656168,1.58151658,0.64121065044,149.1, -3.1, 4.3,0,0,1024,1024,1684,1144,146.1,0,97,4.269,4.267,4.262,4.267,0,0,76.91,6,GPS_Atti,
0.0670599675531817,36.9658174660601,5920.844720635,0.984252,1.58151658,0.93552496432,8600,2017-11-03 05:09:16,16,17.043,5920.844720635,0.984252,1.58151658,0.93552496432,151, -4.5, 5.1,0,0,1024,1024,1684,1138,148,0,97,4.269,4.267,4.262,4.267,0,0,76.91,6,GPS_Atti,
0.0670607398118068,36.9658173295664,5921.500888635,1.64042,1.41374608,1.2152067318,8700,2017-11-03 05:09:16,16,17.043,5921.500888635,1.64042,1.58151658,1.2152067318,152.6, -6.5, 4.4,0,0,1024,1024,1684,1149,149.8,0,97,4.269,4.267,4.262,4.267,0,0,76.91,6,GPS_Atti,
0.0670614543624478,36.9658171192824,5922.157056635,2.296588,1.20571066,1.4771818058,8800,2017-11-03 05:09:17,16,17.043,5922.157056635,2.296588,1.58151658,1.4771818058,154, -7.7, 1.7,0,0,1024,1024,1684,1149,151.5,0,97,4.269,4.267,4.262,4.267,0,0,76.91,6,GPS_Atti,
0.0670620854309072,36.9658168886683,5923.141308635,3.28084,1.20571066,1.71242131464,8900,2017-11-03 05:09:17,16,17.043,5923.141308635,3.28084,1.58151658,1.71242131464,155.4, -8, -0.1,0,0,1024,1024,1684,1145,152.8,0,97,4.269,4.267,4.262,4.267,0,0,76.91,6,GPS_Atti,
0.0670627163910751,36.9658166998943,5924.125560635,4.265092,1.1408394,1.94830714896,9000,2017-11-03 05:09:17,16,16.77,5924.125560635,4.265092,1.58151658,1.94830714896,156.8, -7.6, -0.3,0,0,1024,1024,1684,1147,154.1,0,97,4.268,4.267,4.262,4.266,0,0,76.91,6,GPS_Atti,Home Point Recorded. RTH Altitude:  30m.
0.0670633318118162,36.9658165563669,5925.437896635,5.577428,1.11847,2.17743773372,9100,2017-11-03 05:09:17,16,16.77,5925.437896635,5.577428,1.58151658,2.17743773372,158.3, -7.6, 0.6,0,0,1024,1024,1684,1146,155.5,0,97,4.268,4.267,4.262,4.266,0,0,76.91,6,GPS_Atti,
0.0670639369709175,36.9658164423659,5927.078316635,7.217848,0.894776,2.40171267528,9200,2017-11-03 05:09:17,16,16.77,5927.078316635,7.217848,1.58151658,2.40171267528,159.7, -8.2, 1.9,0,0,1024,1024,1684,1145,157,0,97,4.268,4.267,4.262,4.266,0,0,76.91,6,GPS_Atti,
0.0670644692775054,36.9658163366469,5928.390652635,8.530184,0.92161928,2.5993111068,9300,2017-11-03 05:09:17,16,16.77,5928.390652635,8.530184,1.58151658,2.5993111068,161, -8.8, 2.7,0,0,1024,1024,1684,1148,158.4,0,97,4.268,4.267,4.262,4.266,0,0,76.91,6,GPS_Atti,
0.0670649448938867,36.9658161818957,5930.031072635,10.170604,0.70687304,2.77903880284,9400,2017-11-03 05:09:17,16,16.77,5930.031072635,10.170604,1.58151658,2.77903880284,162.4, -9, 1.7,0,0,1024,1024,1684,1140,159.8,0,97,4.268,4.267,4.262,4.266,0,0,76.91,6,GPS_Atti,
0.0670653392720823,36.965816009238,5931.671492635,11.811024,0.70687304,2.93086295468,9500,2017-11-03 05:09:17,16,16.77,5931.671492635,11.811024,1.58151658,2.93086295468,163.8, -8.8, 0.1,0,0,1024,1024,1684,1125,159.8,0,97,4.268,4.267,4.262,4.266,0,0,76.91,6,GPS_Atti,
0.0670657092203611,36.9658158320262,5933.639996635,13.779528,0.70687304,3.07472450784,9600,2017-11-03 05:09:17,16,16.77,5933.639996635,13.779528,1.58151658,3.07472450784,164.9, -8.5, -1.6,0,0,1024,1024,1684,1148,160.9,0,97,4.268,4.267,4.262,4.266,0,0,76.91,6,GPS_Atti,
0.0670660558509503,36.9658157200037,5935.280416635,15.419948,0.671082,3.2064141446,9700,2017-11-03 05:09:17,16,16.77,5935.280416635,15.419948,1.58151658,3.2064141446,165.9, -8.2, -0.7,0,0,1024,1024,1684,1141,162,0,97,4.268,4.267,4.262,4.266,0,0,76.91,6,GPS_Atti,
0.0670663850978998,36.9658156416292,5937.248920635,17.388452,0.671082,3.329724516,9800,2017-11-03 05:09:18,16,16.77,5937.248920635,17.388452,1.58151658,3.329724516,167.2, -7.8, 0.5,0,0,1024,1024,1684,1134,163.3,0,97,4.268,4.267,4.262,4.266,0,0,76.91,6,GPS_Atti,
0.0670666729107202,36.9658155763478,5938.889340635,19.028872,0.70687304,3.4373032596,9900,2017-11-03 05:09:18,16,16.77,5938.889340635,19.028872,1.58151658,3.4373032596,168.4, -7.4, 0.7,0,0,1024,1024,1684,1146,164.5,0,97,4.268,4.267,4.262,4.266,0,0,76.91,6,GPS_Atti,
0.0670669541088012,36.9658155113277,5940.529760635,20.669292,0.70687304,3.5425197984,10000,2017-11-03 05:09:18,16,16.36,5940.529760635,20.669292,1.58151658,3.5425197984,169.5, -7.1, 0.7,0,0,1024,1024,1684,1147,165.8,0,97,4.078,4.059,4.067,4.062,0,0,76.91,6,GPS_Atti,
0.0670672216507508,36.9658154429524,5942.170180635,22.309712,0.80753534,3.643044736,10100,2017-11-03 05:09:18,16,16.36,5942.170180635,22.309712,1.58151658,3.643044736,170.8, -7.2, -0.2,0,0,1024,1024,1684,1149,167.1,0,97,4.078,4.059,4.067,4.062,0,0,76.91,6,GPS_Atti,
0.0670674810097693,36.9658153475494,5943.810600635,23.950132,0.70687304,3.7425198048,10200,2017-11-03 05:09:18,16,16.36,5943.810600635,23.950132,1.58151658,3.7425198048,172.1, -7.5, -1.6,0,0,1024,1024,1684,1144,168.4,0,97,4.078,4.059,4.067,4.062,0,0,76.91,6,GPS_Atti,
0.0670677192690389,36.9658152614283,5945.451020635,25.590552,0.70687304,3.8338583904,10300,2017-11-03 05:09:18,16,16.36,5945.451020635,25.590552,1.58151658,3.8338583904,173.5, -7.9, -1.8,0,0,1024,1024,1684,1162,169.7,0,97,4.078,4.059,4.067,4.062,0,0,76.91,6,GPS_Atti,
0.0670679156691556,36.9658151972239,5947.091440635,27.230972,0.50107456,3.9086943508,10400,2017-11-03 05:09:18,16,16.36,5947.091440635,27.230972,1.58151658,3.9086943508,174.8, -7.4, -1.4,0,0,1024,1024,1684,1157,171.2,0,97,4.078,4.059,4.067,4.062,0,0,76.91,6,GPS_Atti,
0.067068056000317,36.9658151523498,5948.731860635,28.871392,0.50107456,3.962106426,10500,2017-11-03 05:09:18,16,16.36,5948.731860635,28.871392,1.58151658,3.962106426,176.3, -7.1, -1.4,0,0,1024,1024,1684,1153,172.7,0,97,4.078,4.059,4.067,4.062,0,0,76.91,6,GPS_Atti,
0.0670681655245749,36.965815109043,5950.372280635,30.511812,0.31540854,4.004429262,10600,2017-11-03 05:09:18,16,16.36,5950.372280635,30.511812,1.58151658,4.004429262,177.6, -6.5, -2.3,0,0,1024,1024,1684,1158,174.1,0,97,4.078,4.059,4.067,4.062,0,0,76.91,6,GPS_Atti,
0.0670682472952618,36.9658151008082,5952.012700635,32.152232,0.31540854,4.0342520976,10700,2017-11-03 05:09:18,16,16.36,5952.012700635,32.152232,1.58151658,4.0342520976,178.9, -6.1, -2.8,0,0,1024,1024,1684,1161,175.6,0,97,4.078,4.059,4.067,4.062,0,0,76.91,6,GPS_Atti,
0.0670683346482547,36.9658151155349,5953.981204635,34.120736,0.447388,4.0644358256,10800,2017-11-03 05:09:19,16,16.36,5953.981204635,34.120736,1.58151658,4.0644358256,180.4, -5.7, -2.6,0,0,1024,1024,1684,1149,177.1,0,97,4.078,4.059,4.067,4.062,0,0,76.91,6,GPS_Atti,
0.0670684390966526,36.9658151327797,5955.621624635,35.761156,0.447388,4.1006234908,10900,2017-11-03 05:09:19,16,16.36,5955.621624635,35.761156,1.58151658,4.1006234908,181.9, -6.6, -2.5,0,0,1024,1024,1684,1154,178.4,0,97,4.078,4.059,4.067,4.062,0,0,76.91,6,GPS_Atti,
0.067068561125732,36.9658151632611,5957.262044635,37.401576,0.447388,4.142224542,11000,2017-11-03 05:09:19,16,16.442,5957.262044635,37.401576,1.58151658,4.142224542,183.3, -7.4, -2.5,0,0,1024,1024,1684,1160,178.4,0,97,4.118,4.107,4.116,4.114,0,0,76.91,6,GPS_Atti,
0.0670686482784262,36.965815210559,5958.902464635,39.041996,0.223694,4.170275724,11100,2017-11-03 05:09:19,16,16.442,5958.902464635,39.041996,1.58151658,4.170275724,184.7, -8, -2.6,0,0,1024,1024,1684,1171,179.9,0,97,4.118,4.107,4.116,4.114,0,0,76.91,6,GPS_Atti,
0.0670687156113286,36.9658152725644,5960.542884635,40.682416,0.223694,4.1903872732,11200,2017-11-03 05:09:19,16,16.442,5960.542884635,40.682416,1.58151658,4.1903872732,186.2, -7.1, -2.7,0,0,1024,1024,1684,1145,181.6,0,97,4.118,4.107,4.116,4.114,0,0,76.91,6,GPS_Atti,
0.0670687608429891,36.9658153477528,5962.183304635,42.322836,0.223694,4.20193583,11300,2017-11-03 05:09:19,16,16.442,5962.183304635,42.322836,1.58151658,4.20193583,187.9, -6.5, -1.7,0,0,1024,1024,1684,1149,183.2,0,97,4.118,4.107,4.116,4.114,0,0,76.91,6,GPS_Atti,
0.0670688194197481,36.9658153899483,5963.823724635,43.963256,0.223694,4.2204397676,11400,2017-11-03 05:09:19,16,16.442,5963.823724635,43.963256,1.58151658,4.2204397676,189.3, -7, -3.2,0,0,1024,1024,1684,1160,184.7,0,97,4.118,4.107,4.116,4.114,0,0,76.91,6,GPS_Atti,
0.0670688698249751,36.9658154245942,5965.464144635,45.603676,0.223694,4.2365158836,11500,2017-11-03 05:09:19,16,16.442,5965.464144635,45.603676,1.58151658,4.2365158836,190.6, -7.2, -4.6,0,0,1024,1024,1684,1156,186.2,0,97,4.118,4.107,4.116,4.114,0,0,76.91,6,GPS_Atti,
0.0670689288576985,36.9658154924299,5967.104564635,47.244096,0.223694,4.2539043356,11600,2017-11-03 05:09:19,16,16.442,5967.104564635,47.244096,1.58151658,4.2539043356,192.2, -8.1, -4.6,0,0,1024,1024,1684,1156,187.7,0,97,4.118,4.107,4.116,4.114,0,0,76.91,6,GPS_Atti,
0.0670689830995396,36.9658155872741,5969.073068635,49.2126,0.223694,4.2682744148,11700,2017-11-03 05:09:19,16,16.442,5969.073068635,49.2126,1.58151658,4.2682744148,193.7, -8.6, -4.7,0,0,1024,1024,1684,1171,189.3,0,97,4.118,4.107,4.116,4.114,0,0,76.91,6,GPS_Atti,
0.0670690427201312,36.9658157066772,5970.713488635,50.85302,0.223694,4.2836943628,11800,2017-11-03 05:09:19,16,16.442,5970.713488635,50.85302,1.58151658,4.2836943628,195.2, -8.2, -4.2,0,0,1024,1024,1684,1169,190.9,0,97,4.118,4.107,4.116,4.114,0,0,76.91,6,GPS_Atti,
0.0670690980872271,36.9658158477272,5972.353908635,52.49344,0.223694,4.29708019,11900,2017-11-03 05:09:20,16,16.442,5972.353908635,52.49344,1.58151658,4.29708019,196.9, -8.2, -3.6,0,0,1024,1024,1684,1165,192.7,0,97,4.118,4.107,4.116,4.114,0,0,76.91,6,GPS_Atti,
0.06706918607857,36.9658160109788,5973.994328635,54.13386,0.31540854,4.3221129992,12000,2017-11-03 05:09:20,16,16.36,5973.994328635,54.13386,1.58151658,4.3221129992,198.8, -9.3, -2.5,0,0,1024,1024,1684,1194,194.6,0,97,4.118,4.107,4.116,4.114,0,0,76.91,6,GPS_Atti,
0.067069268513662,36.965816162255,5975.962832635,56.102364,0,4.3464240236,12100,2017-11-03 05:09:20,16,16.36,5975.962832635,56.102364,1.58151658,4.3464240236,200.5, -8.9, -3.1,0,0,1024,1024,1684,1187,196.6,0,97,4.118,4.107,4.116,4.114,0,0,76.91,6,GPS_Atti,
0.0670693653100016,36.9658162838377,5977.603252635,57.742784,0,4.377624812,12200,2017-11-03 05:09:20,16,16.36,5977.603252635,57.742784,1.58151658,4.377624812,202.4, -8, -4.5,0,0,1024,1024,1684,1187,198.7,0,97,4.118,4.107,4.116,4.114,0,0,76.91,6,GPS_Atti,
0.0670694514270055,36.9658164064825,5979.243672635,59.383204,0,4.4054135268,12300,2017-11-03 05:09:20,16,16.36,5979.243672635,59.383204,1.58151658,4.4054135268,204.6, -8.2, -4.8,0,0,1024,1024,1684,1203,198.7,0,97,4.118,4.107,4.116,4.114,0,0,76.91,6,GPS_Atti,
0.0670695378420147,36.9658165537868,5980.884092635,61.023624,0,4.4332678584,12400,2017-11-03 05:09:20,16,16.36,5980.884092635,61.023624,1.58151658,4.4332678584,206.8, -8.5, -4.7,0,0,1024,1024,1684,1207,200.8,0,97,4.118,4.107,4.116,4.114,0,0,76.91,6,GPS_Atti,
0.0670695715947734,36.9658167067031,5982.524512635,62.664044,0,4.4425526356,12500,2017-11-03 05:09:20,16,16.36,5982.524512635,62.664044,1.58151658,4.4425526356,208.9, -8.1, -4.7,0,0,1024,1024,1684,1216,203.2,0,97,4.118,4.107,4.116,4.114,0,0,76.91,6,GPS_Atti,
0.0670696002439886,36.965816872751,5984.164932635,64.304464,0.223694,4.4504922684,12600,2017-11-03 05:09:20,16,16.36,5984.164932635,64.304464,1.58151658,4.4504922684,211.3, -7.9, -4.4,0,0,1024,1024,1684,1219,205.6,0,97,4.118,4.107,4.116,4.114,0,0,76.91,6,GPS_Atti,
0.0670696187496262,36.9658170298489,5985.805352635,65.944884,0,4.4556431872,12700,2017-11-03 05:09:20,16,16.36,5985.805352635,65.944884,1.58151658,4.4556431872,213.7, -8, -4.3,0,0,1024,1024,1684,1201,208.1,0,97,4.118,4.107,4.116,4.114,0,0,76.91,6,GPS_Atti,
0.0670696624798613,36.9658171752969,5987.773856635,67.913388,0,4.4707678596,12800,2017-11-03 05:09:21,16,16.36,5987.773856635,67.913388,1.58151658,4.4707678596,216.3, -7.9, -5.3,0,0,1024,1024,1684,1196,210.8,0,97,4.118,4.107,4.116,4.114,0,0,76.91,6,GPS_Atti,
0.0670697005317122,36.9658172940255,5989.414276635,69.553808,0,4.4844489624,12900,2017-11-03 05:09:21,16,16.36,5989.414276635,69.553808,1.58151658,4.4844489624,219, -7.7, -5.8,0,0,1024,1024,1684,1197,213.1,0,97,4.118,4.107,4.116,4.114,0,0,76.91,6,GPS_Atti,
0.0670697309673305,36.9658173990915,5991.054696635,71.194228,0,4.4957022436,13000,2017-11-03 05:09:21,16,16.333,5991.054696635,71.194228,1.58151658,4.4957022436,221.3, -7.6, -5.8,0,0,1024,1024,1684,1206,215,0,97,4.105,4.091,4.1,4.094,0,0,76.91,6,GPS_Atti,
0.0670697228772207,36.9658174703402,5992.695116635,72.834648,0,4.4930775716,13100,2017-11-03 05:09:21,16,16.333,5992.695116635,72.834648,1.58151658,4.4957022436,223.5, -6.6, -5.5,0,0,1024,1024,1684,1192,217.1,0,97,4.105,4.091,4.1,4.094,0,0,76.91,6,GPS_Atti,
0.067069738454916,36.9658175304614,5994.335536635,74.475068,0,4.4991143172,13200,2017-11-03 05:09:21,16,16.333,5994.335536635,74.475068,1.58151658,4.4991143172,225.9, -6.6, -5.9,0,0,1024,1024,1684,1187,219.6,0,97,4.105,4.091,4.1,4.094,0,0,76.91,6,GPS_Atti,
0.0670697704766387,36.9658175809839,5995.975956635,76.115488,0,4.5111878084,13300,2017-11-03 05:09:21,16,16.333,5995.975956635,76.115488,1.58151658,4.5111878084,228.2, -6.5, -6.4,0,0,1024,1024,1684,1196,221.9,0,97,4.105,4.091,4.1,4.094,0,0,76.91,6,GPS_Atti,
0.0670698106014988,36.9658176258109,5997.616376635,77.755908,0,4.526246864,13400,2017-11-03 05:09:21,16,16.333,5997.616376635,77.755908,1.58151658,4.526246864,230.3, -6.2, -6.8,0,0,1024,1024,1684,1187,224.4,0,97,4.105,4.091,4.1,4.094,0,0,76.91,6,GPS_Atti,
0.0670698229304483,36.9658176747489,5999.256796635,79.396328,0,4.5312665492,13500,2017-11-03 05:09:21,16,16.333,5999.256796635,79.396328,1.58151658,4.5312665492,232.3, -5.7, -7.2,0,0,1024,1024,1684,1185,227.3,0,97,4.105,4.091,4.1,4.094,0,0,76.91,6,GPS_Atti,
0.067069821414367,36.9658177155998,6001.225300635,81.364832,0,4.531168124,13600,2017-11-03 05:09:21,16,16.333,6001.225300635,81.364832,1.58151658,4.5312665492,234.5, -5.4, -7.7,0,0,1024,1024,1684,1194,229.9,0,97,4.105,4.091,4.1,4.094,0,0,76.91,6,GPS_Atti,
0.0670698085545447,36.965817756714,6002.865720635,83.005252,0,4.5270342656,13700,2017-11-03 05:09:21,16,16.333,6002.865720635,83.005252,1.58151658,4.5312665492,236.7, -5.5, -7.3,0,0,1024,1024,1684,1186,229.9,0,97,4.105,4.091,4.1,4.094,0,0,76.91,6,GPS_Atti,
0.0670697626601076,36.9658177909017,6004.506140635,84.645672,0,4.5107941076,13800,2017-11-03 05:09:22,16,16.333,6004.506140635,84.645672,1.58151658,4.5312665492,238.6, -4.8, -7.2,0,0,1024,1024,1684,1187,232.4,0,97,4.105,4.091,4.1,4.094,0,0,76.91,6,GPS_Atti,
0.0670696967814057,36.9658178103304,6006.146560635,86.286092,0,4.4870736344,13900,2017-11-03 05:09:22,16,16.333,6006.146560635,86.286092,1.58151658,4.5312665492,240.9, -4.1, -7.3,0,0,1024,1024,1684,1187,234.8,0,97,4.105,4.091,4.1,4.094,0,0,76.91,6,GPS_Atti,
0.0670696441875499,36.9658178161372,6007.786980635,87.926512,0,4.4679791456,14000,2017-11-03 05:09:22,16,16.251,6007.786980635,87.926512,1.58151658,4.5312665492,243, -4.3, -7.6,0,0,1024,1024,1684,1190,237.2,0,97,4.101,4.086,4.088,4.086,0,0,76.91,6,GPS_Atti,
0.0670696146166354,36.9658177888805,6009.427400635,89.566932,0,4.4567914812,14100,2017-11-03 05:09:22,16,16.251,6009.427400635,89.566932,1.58151658,4.5312665492,245.1, -3.6, -7.9,0,0,1024,1024,1684,1186,239.4,0,97,4.101,4.086,4.088,4.086,0,0,76.91,6,GPS_Atti,
0.0670696297904765,36.965817764784,6011.395904635,91.535436,0,4.4619752084,14200,2017-11-03 05:09:22,16,16.251,6011.395904635,91.535436,1.58151658,4.5312665492,247.2, -3.7, -8.7,0,0,1024,1024,1684,1189,241.8,0,97,4.101,4.086,4.088,4.086,0,0,76.91,6,GPS_Atti,
0.0670696935163754,36.9658177342941,6013.036324635,93.175856,0,4.4847770464,14300,2017-11-03 05:09:22,16,16.251,6013.036324635,93.175856,1.58151658,4.5312665492,249.4, -3.5, -9.8,0,0,1024,1024,1684,1183,244.1,0,97,4.101,4.086,4.088,4.086,0,0,76.91,6,GPS_Atti,
0.0670697918581084,36.9658176730831,6014.676744635,94.816276,0.223694,4.5199148428,14400,2017-11-03 05:09:22,16,16.251,6014.676744635,94.816276,1.58151658,4.5312665492,251.4, -2.2, -10.9,0,0,1024,1024,1684,1183,246.5,0,97,4.101,4.086,4.088,4.086,0,0,76.91,6,GPS_Atti,
0.0670699040904687,36.9658175896769,6016.645248635,96.78478,0.223694,4.5600067076,14500,2017-11-03 05:09:22,16,16.251,6016.645248635,96.78478,1.58151658,4.5600067076,253.5, -1.3, -12.3,0,0,1024,1024,1684,1187,248.7,0,97,4.101,4.086,4.088,4.086,0,0,76.91,6,GPS_Atti,
0.0670700148783991,36.9658175182569,6018.285668635,98.4252,0,4.5998689136,14600,2017-11-03 05:09:22,16,16.251,6018.285668635,98.4252,1.58151658,4.5998689136,255.6, -1.2, -12,0,0,1024,1024,1684,1188,251.1,0,97,4.101,4.086,4.088,4.086,0,0,76.91,6,GPS_Atti,
0.0670700919070571,36.9658174331999,6019.926088635,100.06562,0,4.6275263948,14700,2017-11-03 05:09:22,16,16.251,6019.926088635,100.06562,1.58151658,4.6275263948,257.6, -0.6, -11.3,0,0,1024,1024,1684,1181,253.4,0,97,4.101,4.086,4.088,4.086,0,0,76.91,6,GPS_Atti,
0.0670701704485395,36.9658173723272,6021.894592635,102.034124,0,4.6559712776,14800,2017-11-03 05:09:23,16,16.251,6021.894592635,102.034124,1.58151658,4.6559712776,259.6, -0.2, -11.5,0,0,1024,1024,1684,1183,255.6,0,97,4.101,4.086,4.088,4.086,0,0,76.91,6,GPS_Atti,
0.067070227424538,36.9658173512455,6023.535012635,103.674544,0,4.6767389948,14900,2017-11-03 05:09:23,16,16.251,6023.535012635,103.674544,1.58151658,4.6767389948,261.7, 0, -11.7,0,0,1024,1024,1684,1186,258,0,97,4.101,4.086,4.088,4.086,0,0,76.91,6,GPS_Atti,
0.0670702892549282,36.9658173691347,6025.175432635,105.314964,0,4.699311174,15000,2017-11-03 05:09:23,16,16.305,6025.175432635,105.314964,1.58151658,4.699311174,264, -0.5, -11.6,0,0,1024,1024,1684,1178,260.2,0,97,4.101,4.086,4.088,4.086,0,0,76.91,6,GPS_Atti,
0.0670703542282152,36.9658173758215,6026.815852635,106.955384,0,4.7230316472,15100,2017-11-03 05:09:23,16,16.305,6026.815852635,106.955384,1.58151658,4.7230316472,266.3, -1, -12,0,0,1024,1024,1684,1184,260.2,0,97,4.101,4.086,4.088,4.086,0,0,76.91,6,GPS_Atti,
0.0670704162035368,36.9658173445587,6028.784356635,108.923888,0,4.7456038264,15200,2017-11-03 05:09:23,16,16.305,6028.784356635,108.923888,1.58151658,4.7456038264,268.4, 0, -11.9,0,0,1024,1024,1684,1186,262.5,0,97,4.101,4.086,4.088,4.086,0,0,76.91,6,GPS_Atti,
0.0670704360884665,36.965817266818,6030.424776635,110.564308,0,4.7528216744,15300,2017-11-03 05:09:23,16,16.305,6030.424776635,110.564308,1.58151658,4.7528216744,270.2, 1.5, -11.3,0,0,1024,1024,1684,1185,265,0,97,4.101,4.086,4.088,4.086,0,0,76.91,6,GPS_Atti,
0.0670704618520789,36.9658171906575,6032.065196635,112.204728,0,4.7623689188,15400,2017-11-03 05:09:23,16,16.305,6032.065196635,112.204728,1.58151658,4.7623689188,272.2, 2.2, -11.9,0,0,1024,1024,1684,1183,267.4,0,97,4.101,4.086,4.088,4.086,0,0,76.91,6,GPS_Atti,
0.0670704680255101,36.9658171042088,6033.705616635,113.845148,0,4.7649607824,15500,2017-11-03 05:09:23,16,16.305,6033.705616635,113.845148,1.58151658,4.7649607824,274.4, 2.7, -11.7,0,0,1024,1024,1684,1183,269.7,0,97,4.101,4.086,4.088,4.086,0,0,76.91,6,GPS_Atti,
0.0670704594696654,36.9658170290439,6035.674120635,115.813652,0,4.762303302,15600,2017-11-03 05:09:23,16,16.305,6035.674120635,115.813652,1.58151658,4.7649607824,276.5, 2.8, -10.8,0,0,1024,1024,1684,1184,272.1,0,97,4.101,4.086,4.088,4.086,0,0,76.91,6,GPS_Atti,
0.0670704500670297,36.9658169511062,6037.314540635,117.454072,0.223694,4.7595473964,15700,2017-11-03 05:09:23,16,16.305,6037.314540635,117.454072,1.58151658,4.7649607824,278.7, 3.4, -10,0,0,1024,1024,1684,1178,274.4,0,97,4.101,4.086,4.088,4.086,0,0,76.91,6,GPS_Atti,
0.0670704651040816,36.9658168749007,6038.954960635,119.094492,0.223694,4.7658466092,15800,2017-11-03 05:09:24,16,16.305,6038.954960635,119.094492,1.58151658,4.7658466092,280.9, 4, -10.3,0,0,1024,1024,1684,1176,276.7,0,97,4.101,4.086,4.088,4.086,0,0,76.91,6,GPS_Atti,
0.0670704902847111,36.9658167697491,6040.923464635,121.062996,0.223694,4.7763781056,15900,2017-11-03 05:09:24,16,16.305,6040.923464635,121.062996,1.58151658,4.7763781056,282.9, 5.6, -11.2,0,0,1024,1024,1684,1185,279.1,0,97,4.101,4.086,4.088,4.086,0,0,76.91,6,GPS_Atti,
0.0670705469545622,36.965816675952,6042.563884635,122.703416,0.223694,4.7985237756,16000,2017-11-03 05:09:24,16,16.169,6042.563884635,122.703416,1.58151658,4.7985237756,284.9, 6.9, -11.8,0,0,1024,1024,1684,1180,281.6,0,97,4.097,4.086,4.084,4.077,0,0,76.91,6,GPS_Atti,
0.0670705922334476,36.9658165901991,6044.204304635,124.343836,0.223694,4.816601204,16100,2017-11-03 05:09:24,16,16.169,6044.204304635,124.343836,1.58151658,4.816601204,287.2, 7, -11.1,0,0,1024,1024,1684,1176,284,0,97,4.097,4.086,4.084,4.077,0,0,76.91,6,GPS_Atti,
0.0670706136442292,36.9658165484275,6046.172808635,126.31234,0,4.8252298132,16200,2017-11-03 05:09:24,16,16.169,6046.172808635,126.31234,1.58151658,4.8252298132,289.5, 6.4, -10,0,0,1024,1024,1684,1183,286.4,0,97,4.097,4.086,4.084,4.077,0,0,76.91,6,GPS_Atti,
0.0670706348091159,36.9658165258278,6047.813228635,127.95276,0,4.8333991048,16300,2017-11-03 05:09:24,16,16.169,6047.813228635,127.95276,1.58151658,4.8333991048,291.5, 7, -10,0,0,1024,1024,1684,1176,288.7,0,97,4.097,4.086,4.084,4.077,0,0,76.91,6,GPS_Atti,
0.0670706651502844,36.9658165532173,6049.453648635,129.59318,0,4.8438977928,16400,2017-11-03 05:09:24,16,16.169,6049.453648635,129.59318,1.58151658,4.8438977928,293.6, 7.5, -9.4,0,0,1024,1024,1684,1176,291,0,97,4.097,4.086,4.084,4.077,0,0,76.91,6,GPS_Atti,
0.0670706669676279,36.9658166067116,6051.422152635,131.561684,0,4.843504092,16500,2017-11-03 05:09:24,16,16.169,6051.422152635,131.561684,1.58151658,4.8438977928,295.7, 7.2, -9,0,0,1024,1024,1684,1176,293.2,0,97,4.097,4.086,4.084,4.077,0,0,76.91,6,GPS_Atti,
0.0670706925521116,36.9658167108227,6053.062572635,133.202104,0,4.8510172156,16600,2017-11-03 05:09:24,16,16.169,6053.062572635,133.202104,1.58151658,4.8510172156,297.8, 7.5, -9.8,0,0,1024,1024,1684,1178,293.2,0,97,4.097,4.086,4.084,4.077,0,0,76.91,6,GPS_Atti,
0.0670707072716168,36.9658168054891,6054.702992635,134.842524,0,4.854987032,16700,2017-11-03 05:09:24,16,16.169,6054.702992635,134.842524,1.58151658,4.854987032,299.8, 7.7, -9.9,0,0,1024,1024,1684,1176,295.5,0,97,4.097,4.086,4.084,4.077,0,0,76.91,6,GPS_Atti,
0.0670707134857591,36.9658169563713,6056.343412635,136.482944,0,4.8555775832,16800,2017-11-03 05:09:25,15,16.169,6056.343412635,136.482944,1.58151658,4.8555775832,301.9, 7.6, -10.1,0,0,1024,1024,1684,1179,297.8,0,97,4.097,4.086,4.084,4.077,0,0,76.91,6,GPS_Atti,
0.0670706836103256,36.9658171045021,6058.311916635,138.451448,0,4.8436025172,16900,2017-11-03 05:09:25,15,16.169,6058.311916635,138.451448,1.58151658,4.8555775832,304.2, 7.3, -9.2,0,0,1024,1024,1684,1181,300,0,97,4.097,4.086,4.084,4.077,0,0,76.91,6,GPS_Atti,
0.0670706414466536,36.9658172831571,6059.952336635,140.091868,0,4.8277232516,17000,2017-11-03 05:09:25,15,16.223,6059.952336635,140.091868,1.58151658,4.8555775832,306.4, 6.9, -9.1,0,0,1024,1024,1684,1182,302.3,0,97,4.084,4.071,4.078,4.08,0,0,76.91,6,GPS_Atti,
0.0670706002730756,36.965817432746,6061.592756635,141.732288,0,4.81299228,17100,2017-11-03 05:09:25,15,16.223,6061.592756635,141.732288,1.58151658,4.8555775832,308.5, 7.3, -9.5,0,0,1024,1024,1684,1182,304.6,0,97,4.084,4.071,4.078,4.08,0,0,76.91,6,GPS_Atti,
0.0670705783216505,36.9658175929015,6063.233176635,143.372708,0,4.8059712824,17200,2017-11-03 05:09:25,15,16.223,6063.233176635,143.372708,1.58151658,4.8555775832,310.8, 7.5, -9.4,0,0,1024,1024,1684,1183,307,0,97,4.084,4.071,4.078,4.08,0,0,76.91,6,GPS_Atti,
0.0670705674615575,36.9658177053994,6064.873596635,145.013128,0,4.8031169516,17300,2017-11-03 05:09:25,15,16.223,6064.873596635,145.013128,1.58151658,4.8555775832,312.9, 8.3, -8.7,0,0,1024,1024,1684,1182,309.4,0,97,4.084,4.071,4.078,4.08,0,0,76.91,6,GPS_Atti,
0.0670705649244417,36.9658178008088,6066.842100635,146.981632,0,4.8034122272,17400,2017-11-03 05:09:25,15,16.223,6066.842100635,146.981632,1.58151658,4.8555775832,314.9, 9, -8,0,0,1024,1024,1684,1183,311.7,0,97,4.084,4.071,4.078,4.08,0,0,76.91,6,GPS_Atti,
0.067070546641901,36.9658178571487,6068.482520635,148.622052,0,4.797572332,17500,2017-11-03 05:09:25,15,16.223,6068.482520635,148.622052,1.58151658,4.8555775832,317, 9.7, -7.3,0,0,1024,1024,1684,1182,314,0,97,4.084,4.071,4.078,4.08,0,0,76.91,6,GPS_Atti,
0.0670705126855868,36.9658179347288,6070.122940635,150.262472,0,4.7865159012,17600,2017-11-03 05:09:25,15,16.223,6070.122940635,150.262472,1.58151658,4.8555775832,319.2, 10, -7.1,0,0,1024,1024,1684,1183,316.3,0,97,4.084,4.071,4.078,4.08,0,0,76.91,6,GPS_Atti,
0.0670704338591266,36.9658180081058,6071.763360635,151.902892,0.223694,4.759186504,17700,2017-11-03 05:09:25,15,16.223,6071.763360635,151.902892,1.58151658,4.8555775832,321.3, 9.9, -6.5,0,0,1024,1024,1684,1180,318.5,0,97,4.084,4.071,4.078,4.08,0,0,76.91,6,GPS_Atti,
0.0670703341869549,36.9658181056564,6073.403780635,153.543312,0.223694,4.7249673428,17800,2017-11-03 05:09:26,15,16.223,6073.403780635,153.543312,1.58151658,4.8555775832,323.5, 9.6, -6.1,0,0,1024,1024,1684,1180,320.7,0,97,4.084,4.071,4.078,4.08,0,0,76.91,6,GPS_Atti,
0.06707021796165,36.9658181943576,6075.044200635,155.183732,0.223694,4.6848098612,17900,2017-11-03 05:09:26,15,16.223,6075.044200635,155.183732,1.58151658,4.8555775832,325.7, 9, -5.7,0,0,1024,1024,1684,1176,322.9,0,97,4.084,4.071,4.078,4.08,0,0,76.91,6,GPS_Atti,
0.0670700821885033,36.9658182746891,6076.684620635,156.824152,0.223694,4.6375657652,18000,2017-11-03 05:09:26,15,16.196,6076.684620635,156.824152,1.58151658,4.8555775832,327.7, 9, -5.4,0,0,1024,1024,1684,1175,324.9,0,97,4.087,4.079,4.085,4.081,0,0,76.91,6,GPS_Atti,
0.0670699173915992,36.9658183044403,6078.325040635,158.464572,0.223694,4.5784778368,18100,2017-11-03 05:09:26,15,16.196,6078.325040635,158.464572,1.58151658,4.8555775832,329.7, 9, -4.7,0,0,1024,1024,1684,1174,324.9,0,97,4.087,4.079,4.085,4.081,0,0,76.91,6,GPS_Atti,
0.0670697291678999,36.9658183376987,6079.965460635,160.104992,0.223694,4.5110565748,18200,2017-11-03 05:09:26,16,16.196,6079.965460635,160.104992,1.58151658,4.8555775832,331.6, 9.6, -4,0,0,1024,1024,1684,1174,327,0,97,4.087,4.079,4.085,4.081,0,0,76.91,6,GPS_Atti,
0.0670693342832582,36.9658183939701,6083.574384635,163.713916,0.223694,4.3693570952,18400,2017-11-03 05:09:26,16,16.196,6083.574384635,163.713916,1.58151658,4.8555775832,335.4, 9.3, -2.6,0,0,1024,1024,1684,1175,331,0,97,4.087,4.079,4.085,4.081,0,0,76.91,6,GPS_Atti,
0.0670691276825683,36.9658184035153,6085.214804635,165.354336,0.223694,4.29461956,18500,2017-11-03 05:09:26,16,16.196,6085.214804635,165.354336,1.58151658,4.8555775832,337.3, 9, -2.1,0,0,1024,1024,1684,1175,333,0,97,4.087,4.079,4.085,4.081,0,0,76.91,6,GPS_Atti,
0.0670689166231987,36.9658184013099,6086.855224635,166.994756,0.31540854,4.2178807124,18600,2017-11-03 05:09:26,16,16.196,6086.855224635,166.994756,1.58151658,4.8555775832,339.1, 9.1, -1.5,0,0,1024,1024,1684,1175,334.9,0,97,4.087,4.079,4.085,4.081,0,0,76.91,6,GPS_Atti,
0.0670687333157718,36.9658183591679,6088.495644635,168.635176,0.31540854,4.1498688992,18700,2017-11-03 05:09:26,16,16.196,6088.495644635,168.635176,1.58151658,4.8555775832,340.9, 9.5, -0.8,0,0,1024,1024,1684,1175,336.9,0,97,4.087,4.079,4.085,4.081,0,0,76.91,6,GPS_Atti,
0.0670685636921597,36.9658183246099,6090.136064635,170.275596,0.31540854,4.0870736216,18800,2017-11-03 05:09:27,16,16.196,6090.136064635,170.275596,1.58151658,4.8555775832,342.7, 9.7, 0,0,0,1024,1024,1684,1176,338.7,0,97,4.087,4.079,4.085,4.081,0,0,76.91,6,GPS_Atti,
0.0670684293504153,36.9658182965223,6091.776484635,171.916016,0.223694,4.0373032788,18900,2017-11-03 05:09:27,16,16.196,6091.776484635,171.916016,1.58151658,4.8555775832,344.5, 9.6, 0.2,0,0,1024,1024,1684,1177,340.5,0,97,4.087,4.079,4.085,4.081,0,0,76.91,6,GPS_Atti,
0.0670682949793589,36.9658183026995,6093.416904635,173.556436,0.223694,3.9887140384,19000,2017-11-03 05:09:27,16,16.251,6093.416904635,173.556436,1.58151658,4.8555775832,346.3, 9.6, 0.3,0,0,1024,1024,1684,1175,342.4,0,97,4.087,4.079,4.085,4.081,0,0,76.91,6,GPS_Atti,
0.0670681702519478,36.9658183004727,6095.385408635,175.52494,0,3.9433072128,19100,2017-11-03 05:09:27,16,16.251,6095.385408635,175.52494,1.58151658,4.8555775832,348, 10, 0.5,0,0,1024,1024,1684,1174,344.3,0,97,4.087,4.079,4.085,4.081,0,0,76.91,6,GPS_Atti,
0.0670680340277222,36.9658183297379,6097.025828635,177.16536,0,3.894849206,19200,2017-11-03 05:09:27,16,16.251,6097.025828635,177.16536,1.58151658,4.8555775832,349.9, 10.4, 0.8,0,0,1024,1024,1684,1172,346.1,0,97,4.087,4.079,4.085,4.081,0,0,76.91,6,GPS_Atti,
0.0670678921918785,36.9658183579775,6098.666248635,178.80578,0.223694,3.8443898868,19300,2017-11-03 05:09:27,16,16.251,6098.666248635,178.80578,1.58151658,4.8555775832,351.6, 10.3, 0.5,0,0,1024,1024,1684,1174,348,0,97,4.087,4.079,4.085,4.081,0,0,76.91,6,GPS_Atti,
0.0670677238091408,36.9658183795431,6100.306668635,180.4462,0.31540854,3.7840880476,19400,2017-11-03 05:09:27,16,16.251,6100.306668635,180.4462,1.58151658,4.8555775832,353.2, 9.6, 1.4,0,0,1024,1024,1684,1174,349.8,0,97,4.087,4.079,4.085,4.081,0,0,76.91,6,GPS_Atti,
0.067067587907347,36.965818357288,6101.947088635,182.08662,0.223694,3.733924004,19500,2017-11-03 05:09:27,16,16.251,6101.947088635,182.08662,1.58151658,4.8555775832,354.8, 9.5, 2.4,0,0,1024,1024,1684,1172,351.5,0,97,4.087,4.079,4.085,4.081,0,0,76.91,6,GPS_Atti,
0.067067460488118,36.9658183648291,6103.915592635,184.055124,0.223694,3.687992244,19600,2017-11-03 05:09:27,16,16.251,6103.915592635,184.055124,1.58151658,4.8555775832,356.5, 9.7, 3,0,0,1024,1024,1684,1173,351.5,0,97,4.087,4.079,4.085,4.081,0,0,76.91,6,GPS_Atti,
0.067067372353472,36.9658183690408,6105.556012635,185.695544,0,3.656168096,19700,2017-11-03 05:09:27,16,16.251,6105.556012635,185.695544,1.58151658,4.8555775832,358.2, 9.8, 3.6,0,0,1024,1024,1684,1173,353.2,0,97,4.087,4.079,4.085,4.081,0,0,76.91,6,GPS_Atti,
0.0670672816947378,36.9658184202548,6107.196432635,187.335964,0,3.6253610084,19800,2017-11-03 05:09:28,16,16.251,6107.196432635,187.335964,1.58151658,4.8555775832,359.9, 10.1, 3.2,0,0,1024,1024,1684,1172,354.9,0,97,4.087,4.079,4.085,4.081,0,0,76.91,6,GPS_Atti,
0.0670672287198262,36.965818467906,6109.164936635,189.304468,0,3.6082022152,19900,2017-11-03 05:09:28,16,16.251,6109.164936635,189.304468,1.58151658,4.8555775832,1.6, 10.3, 2.8,0,0,1024,1024,1684,1171,356.7,0,97,4.087,4.079,4.085,4.081,0,0,76.91,6,GPS_Atti,
0.0670671825273838,36.9658185508389,6110.805356635,190.944888,0,3.5952100888,20000,2017-11-03 05:09:28,16,16.278,6110.805356635,190.944888,1.58151658,4.8555775832,3.3, 11, 2.7,0,0,1024,1024,1684,1171,358.5,0,97,4.078,4.07,4.08,4.077,0,0,76.91,6,GPS_Atti,
0.0670671762790441,36.9658186444262,6112.445776635,192.585308,0,3.5974738684,20100,2017-11-03 05:09:28,16,16.278,6112.445776635,192.585308,1.58151658,4.8555775832,5, 11.8, 3,0,0,1024,1024,1684,1171,358.5,0,97,4.078,4.07,4.08,4.077,0,0,76.91,6,GPS_Atti,
0.0670671915701333,36.9658187505071,6114.086196635,194.225728,0,3.6084974908,20200,2017-11-03 05:09:28,16,16.278,6114.086196635,194.225728,1.58151658,4.8555775832,6.7, 12.1, 2.9,0,0,1024,1024,1684,1171,1.9,0,97,4.078,4.07,4.08,4.077,0,0,76.91,6,GPS_Atti,
0.0670671578450581,36.9658189143668,6115.726616635,195.866148,0,3.60564316,20300,2017-11-03 05:09:28,16,16.278,6115.726616635,195.866148,1.58151658,4.8555775832,8.3, 11.8, 2.8,0,0,1024,1024,1684,1167,3.7,0,97,4.078,4.07,4.08,4.077,0,0,76.91,6,GPS_Atti,
0.0670671459606738,36.9658190589069,6117.367036635,197.506568,0,3.610400378,20400,2017-11-03 05:09:28,16,16.278,6117.367036635,197.506568,1.58151658,4.8555775832,9.8, 11.2, 2.4,0,0,1024,1024,1684,1170,5.5,0,97,4.078,4.07,4.08,4.077,0,0,76.91,6,GPS_Atti,
0.0670670671211861,36.9658192206168,6119.007456635,199.146988,0,3.5932087764,20500,2017-11-03 05:09:28,16,16.278,6119.007456635,199.146988,1.58151658,4.8555775832,11.4, 11.4, 2.4,0,0,1024,1024,1684,1172,7.3,0,97,4.078,4.07,4.08,4.077,0,0,76.91,6,GPS_Atti,
0.0670670342852414,36.9658193419105,6120.647876635,200.787408,0,3.5904200624,20600,2017-11-03 05:09:28,16,16.278,6120.647876635,200.787408,1.58151658,4.8555775832,13, 12.1, 2.7,0,0,1024,1024,1684,1172,9,0,97,4.078,4.07,4.08,4.077,0,0,76.91,6,GPS_Atti,
0.0670669763794013,36.9658194358426,6122.616380635,202.755912,0,3.577099852,20700,2017-11-03 05:09:28,16,16.278,6122.616380635,202.755912,1.58151658,4.8555775832,14.7, 11.8, 3.3,0,0,1024,1024,1684,1173,10.7,0,97,4.078,4.07,4.08,4.077,0,0,76.91,6,GPS_Atti,
0.0670668797866172,36.9658195101831,6124.256800635,204.396332,0,3.5487862028,20800,2017-11-03 05:09:28,16,16.278,6124.256800635,204.396332,1.58151658,4.8555775832,16.3, 11, 4,0,0,1024,1024,1684,1172,12.4,0,97,4.078,4.07,4.08,4.077,0,0,76.91,6,GPS_Atti,
0.0670667874163883,36.9658195677413,6125.897220635,206.036752,0,3.5208662544,20900,2017-11-03 05:09:29,16,16.278,6125.897220635,206.036752,1.58151658,4.8555775832,18, 10.6, 4.4,0,0,1024,1024,1684,1173,14.1,0,97,4.078,4.07,4.08,4.077,0,0,76.91,6,GPS_Atti,
0.0670666747736602,36.9658196333075,6127.537640635,207.677172,0,3.4867455184,21000,2017-11-03 05:09:29,16,16.251,6127.537640635,207.677172,1.58151658,4.8555775832,19.6, 10.5, 4.8,0,0,1024,1024,1684,1174,15.8,0,96,4.079,4.069,4.074,4.071,0,0,76.91,6,GPS_Atti,
0.0670665937878833,36.9658196979401,6129.506144635,209.645676,0,3.4640092972,21100,2017-11-03 05:09:29,16,16.251,6129.506144635,209.645676,1.58151658,4.8555775832,21.4, 10.4, 4.5,0,0,1024,1024,1684,1174,15.8,0,96,4.079,4.069,4.074,4.071,0,0,76.91,6,GPS_Atti,
0.0670665193745064,36.9658197631572,6131.146564635,211.286096,0,3.443897748,21200,2017-11-03 05:09:29,16,16.251,6131.146564635,211.286096,1.58151658,4.8555775832,23, 10.4, 4.3,0,0,1024,1024,1684,1176,17.6,0,96,4.079,4.069,4.074,4.071,0,0,76.91,6,GPS_Atti,
0.0670664292694432,36.9658198219616,6132.786984635,212.926516,0,3.4179134952,21300,2017-11-03 05:09:29,16,16.251,6132.786984635,212.926516,1.58151658,4.8555775832,24.7, 10.4, 4,0,0,1024,1024,1684,1173,19.4,0,96,4.079,4.069,4.074,4.071,0,0,76.91,6,GPS_Atti,
0.0670663574729758,36.9658198659621,6134.427404635,214.566936,0,3.3970801612,21400,2017-11-03 05:09:29,16,16.251,6134.427404635,214.566936,1.58151658,4.8555775832,26.4, 10.2, 4.3,0,0,1024,1024,1684,1174,21.3,0,96,4.079,4.069,4.074,4.071,0,0,76.91,6,GPS_Atti,
0.0670663266286181,36.9658198829521,6136.395908635,216.53544,0,3.3879922344,21500,2017-11-03 05:09:29,16,16.251,6136.395908635,216.53544,1.58151658,4.8555775832,28, 9.7, 5.3,0,0,1024,1024,1684,1176,23,0,96,4.079,4.069,4.074,4.071,0,0,76.91,6,GPS_Atti,
0.0670662838575365,36.9658198948312,6138.036328635,218.17586,0,3.3742455148,21600,2017-11-03 05:09:29,16,16.251,6138.036328635,218.17586,1.58151658,4.8555775832,29.6, 9.3, 6.1,0,0,1024,1024,1684,1175,24.7,0,96,4.079,4.069,4.074,4.071,0,0,76.91,6,GPS_Atti,
0.0670662644871952,36.9658198902727,6139.676748635,219.81628,0,3.3669948584,21700,2017-11-03 05:09:29,16,16.251,6139.676748635,219.81628,1.58151658,4.8555775832,31.3, 9.2, 7.1,0,0,1024,1024,1684,1174,26.4,0,96,4.079,4.069,4.074,4.071,0,0,76.91,6,GPS_Atti,
0.0670662716425781,36.9658198937499,6141.317168635,221.4567,0,3.3698491892,21800,2017-11-03 05:09:30,16,16.251,6141.317168635,221.4567,1.58151658,4.8555775832,33.1, 9.6, 7.6,0,0,1024,1024,1684,1175,28.1,0,96,4.079,4.069,4.074,4.071,0,0,76.91,6,GPS_Atti,
0.067066280499685,36.9658198788176,6142.957588635,223.09712,0,3.3714239924,21900,2017-11-03 05:09:30,16,16.251,6142.957588635,223.09712,1.58151658,4.8555775832,34.7, 9.7, 7.4,0,0,1024,1024,1684,1173,29.8,0,96,4.079,4.069,4.074,4.071,0,0,76.91,6,GPS_Atti,
0.0670663117918648,36.9658198686792,6144.926092635,225.065624,0,3.3813649376,22000,2017-11-03 05:09:30,16,16.114,6144.926092635,225.065624,1.58151658,4.8555775832,36.4, 9.9, 7.4,0,0,1024,1024,1684,1172,31.6,0,96,4.053,4.04,4.047,4.043,0,0,78.71,6,GPS_Atti,
0.0670663124660406,36.9658198636326,6146.566512635,226.706044,0,3.381069662,22100,2017-11-03 05:09:30,16,16.114,6146.566512635,226.706044,1.58151658,4.8555775832,38, 9.7, 7.7,0,0,1024,1024,1684,1167,33.2,0,96,4.053,4.04,4.047,4.043,0,0,78.71,6,GPS_Atti,
0.0670663110916339,36.9658198625706,6148.206932635,228.346464,0,3.3804791108,22200,2017-11-03 05:09:30,16,16.114,6148.206932635,228.346464,1.58151658,4.8555775832,39.6, 9.6, 7.9,0,0,1024,1024,1684,1168,35,0,96,4.053,4.04,4.047,4.043,0,0,78.71,6,GPS_Atti,
0.067066331385303,36.965819863502,6149.847352635,229.986884,0,3.3876969588,22300,2017-11-03 05:09:30,16,16.114,6149.847352635,229.986884,1.58151658,4.8555775832,41.2, 9.4, 8,0,0,1024,1024,1684,1167,36.6,0,96,4.053,4.04,4.047,4.043,0,0,78.71,6,GPS_Atti,
0.0670663666118035,36.9658198363373,6151.487772635,231.627304,0.223694,3.3973426284,22400,2017-11-03 05:09:30,16,16.114,6151.487772635,231.627304,1.58151658,4.8555775832,42.7, 9.2, 8.9,0,0,1024,1024,1684,1167,38.3,0,96,4.053,4.04,4.047,4.043,0,0,78.71,6,GPS_Atti,
0.0670663760698063,36.9658197903112,6153.128192635,233.267724,0.31540854,3.3960959092,22500,2017-11-03 05:09:30,16,16.114,6153.128192635,233.267724,1.58151658,4.8555775832,44.3, 9.8, 9.8,0,0,1024,1024,1684,1167,38.3,0,96,4.053,4.04,4.047,4.043,0,0,78.71,6,GPS_Atti,
0.0670664046848242,36.9658196918164,6154.768612635,234.908144,0.223694,3.3967192688,22600,2017-11-03 05:09:30,16,16.114,6154.768612635,234.908144,1.58151658,4.8555775832,45.8, 9.1, 10.5,0,0,1024,1024,1684,1167,39.8,0,96,4.053,4.04,4.047,4.043,0,0,78.71,6,GPS_Atti,
0.0670663792713272,36.9658195990149,6156.409032635,236.548564,0.223694,3.3791667748,22700,2017-11-03 05:09:30,16,16.114,6156.409032635,236.548564,1.58151658,4.8555775832,47.1, 7.6, 11,0,0,1024,1024,1684,1170,41.4,0,96,4.053,4.04,4.047,4.043,0,0,78.71,6,GPS_Atti,
0.067066378911441,36.9658194877161,6158.377536635,238.517068,0.223694,3.3691602128,22800,2017-11-03 05:09:31,16,16.114,6158.377536635,238.517068,1.58151658,4.8555775832,48.4, 6.5, 11.4,0,0,1024,1024,1684,1172,43,0,96,4.053,4.04,4.047,4.043,0,0,78.71,6,GPS_Atti,
0.0670663505927999,36.9658193754773,6160.017956635,240.157488,0.31540854,3.3496064064,22900,2017-11-03 05:09:31,16,16.114,6160.017956635,240.157488,1.58151658,4.8555775832,49.9, 5.7, 11.9,0,0,1024,1024,1684,1173,44.6,0,96,4.053,4.04,4.047,4.043,0,0,78.71,6,GPS_Atti,
0.0670663861612737,36.9658192683836,6161.658376635,241.797908,0.31540854,3.3536090312,23000,2017-11-03 05:09:31,16,16.06,6161.658376635,241.797908,1.58151658,4.8555775832,51.5, 5.7, 12.6,0,0,1024,1024,1684,1174,46.3,0,96,4.053,4.04,4.047,4.043,0,0,78.71,6,GPS_Atti,
0.0670664100016938,36.9658191691309,6163.626880635,243.766412,0.31540854,3.3545276664,23100,2017-11-03 05:09:31,16,16.06,6163.626880635,243.766412,1.58151658,4.8555775832,53.1, 5.6, 12.9,0,0,1024,1024,1684,1173,47.9,0,96,4.053,4.04,4.047,4.043,0,0,78.71,6,GPS_Atti,
0.067066479813088,36.9658190980363,6165.267300635,245.406832,0.223694,3.3743111316,23200,2017-11-03 05:09:31,16,16.06,6165.267300635,245.406832,1.58151658,4.8555775832,54.8, 5.8, 13.3,0,0,1024,1024,1684,1172,49.7,0,96,4.053,4.04,4.047,4.043,0,0,78.71,6,GPS_Atti,
0.0670665563825247,36.9658190285133,6166.907720635,247.047252,0.223694,3.3968833108,23300,2017-11-03 05:09:31,16,16.06,6166.907720635,247.047252,1.58151658,4.8555775832,56.7, 6.5, 13.8,0,0,1024,1024,1684,1172,51.4,0,96,4.053,4.04,4.047,4.043,0,0,78.71,6,GPS_Atti,
0.0670666296722752,36.9658189608467,6168.548140635,248.687672,0.223694,3.4187008968,23400,2017-11-03 05:09:31,16,16.06,6168.548140635,248.687672,1.58151658,4.8555775832,58.5, 6.7, 14,0,0,1024,1024,1684,1172,53.1,0,96,4.053,4.04,4.047,4.043,0,0,78.71,6,GPS_Atti,
0.0670667017586056,36.9658188824209,6170.516644635,250.656176,0.31540854,3.439632656,23500,2017-11-03 05:09:31,16,16.06,6170.516644635,250.656176,1.58151658,4.8555775832,60.2, 6.6, 14,0,0,1024,1024,1684,1172,54.9,0,96,4.053,4.04,4.047,4.043,0,0,78.71,6,GPS_Atti,
0.067066744041154,36.9658187704133,6172.157064635,252.296596,0.223694,3.4481956484,23600,2017-11-03 05:09:31,16,16.06,6172.157064635,252.296596,1.58151658,4.8555775832,61.8, 5.2, 14.1,0,0,1024,1024,1684,1170,56.8,0,96,4.053,4.04,4.047,4.043,0,0,78.71,6,GPS_Atti,
0.0670667063833866,36.965818547154,6173.797484635,253.937016,0.223694,3.4228019468,23700,2017-11-03 05:09:31,16,16.06,6173.797484635,253.937016,1.58151658,4.8555775832,63.1, 3.3, 14.1,0,0,1024,1024,1684,1172,58.6,0,96,4.053,4.04,4.047,4.043,0,0,78.71,6,GPS_Atti,
