latitude,longitude,altitude(feet),ascent(feet),speed(mph),distance(feet),time(millisecond),datetime(utc),satellites,gpslevel,voltage(v),max_altitude(feet),max_ascent(feet),max_speed(mph),max_distance(feet), xSpeed(mph), ySpeed(mph), zSpeed(mph), compass_heading(degrees), pitch(degrees), roll(degrees),isPhoto,isVideo,rc_elevator,rc_aileron,rc_throttle,rc_rudder,gimbal_heading(degrees),gimbal_pitch(degrees),battery_percent,voltageCell1,voltageCell2,voltageCell3,voltageCell4,voltageCell5,voltageCell6,current(A),battery_temperature(f),flycStateRaw,flycState,message
0.307541905614578,36.8794045357607,5808.71680727,0,0,0,100,2018-03-31 04:39:38,16,0,0,5808.71680727,0,0,0,0,0,0,42.1, -2.8, 0,0,0,364,364,364,1684,46.6,0,99,4.305,4.299,4.306,4.298,0,0,0,73.31,41,Motors_Started,
0.30754189966516,36.8794045279172,5808.71680727,0,0,0.0035917323984,200,2018-03-31 04:39:38,16,0,0,5808.71680727,0,0,0.0035917323984,0,0,0,42.1, -2.8, 0,0,0,364,364,364,1684,46.6,0,99,4.305,4.299,4.306,4.298,0,0,0,73.31,41,Motors_Started,
0.307541885315922,36.8794045257307,5808.71680727,0,0,0.0082606958024,300,2018-03-31 04:39:38,16,0,0,5808.71680727,0,0,0.0082606958024,0,0,0,42.1, -2.8, 0,0,0,364,364,364,1684,46.6,0,99,4.305,4.299,4.306,4.298,0,0,0,73.31,41,Motors_Started,
0.307541855501657,36.8794045227053,5808.71680727,0,0,0.0188939310508,400,2018-03-31 04:39:38,16,0,0,5808.71680727,0,0,0.0188939310508,0,0,0,42.1, -2.7, 0,0,0,364,364,364,1684,46.6,0,99,4.305,4.299,4.306,4.298,0,0,0,73.31,41,Motors_Started,
0.307541830166834,36.8794045094103,5808.71680727,0,0,0.0291575796732,500,2018-03-31 04:39:38,16,0,0,5808.71680727,0,0,0.0291575796732,0,0,0,42.1, -2.8, 0,0,0,364,364,364,1684,46.6,0,99,4.305,4.299,4.306,4.298,0,0,0,73.31,41,Motors_Started,
0.307541815135787,36.8794044796423,5808.71680727,0,0,0.0388451456,600,2018-03-31 04:39:38,16,0,0,5808.71680727,0,0,0.0388451456,0,0,0,42.1, -2.8, 0,0,0,364,364,364,1684,46.6,0,99,4.305,4.299,4.306,4.298,0,0,0,73.31,41,Motors_Started,
0.307541806512769,36.8794044520345,5808.71680727,0,0,0.047333662932,700,2018-03-31 04:39:38,16,0,0,5808.71680727,0,0,0.047333662932,0,0,0,42.1, -2.8, 0,0,0,364,364,364,1684,46.6,0,99,4.305,4.299,4.306,4.298,0,0,0,73.31,41,Motors_Started,
0.30754180000571,36.8794044348351,5808.71680727,0,0,0.053296589632,800,2018-03-31 04:39:38,16,0,0,5808.71680727,0,0,0.053296589632,0,0,0,42.1, -2.7, 0,0,0,364,364,364,1684,46.6,0,99,4.305,4.299,4.306,4.298,0,0,0,73.31,41,Motors_Started,
0.307541784147719,36.879404423622,5808.71680727,0,0,0.06031496256,900,2018-03-31 04:39:38,16,0,17.151,5808.71680727,0,0,0.06031496256,0,0,0,42.1, -2.8, 0,0,0,364,364,364,1684,46.6,0,99,4.305,4.299,4.306,4.298,0,0,1.476,73.31,41,Motors_Started,Setting new Return-To-Home altitude to 30m (98 ft). Setting new Maximum Flight Altitude to 120m (394 ft)
0.307541753750064,36.8794044151908,5808.71680727,0,0,0.07074639334,1000,2018-03-31 04:39:38,16,0,17.151,5808.71680727,0,0,0.07074639334,0,0,0,42.1, -2.8, 0,0,0,364,364,364,1684,46.6,0,99,4.305,4.299,4.306,4.298,0,0,1.476,73.31,41,Motors_Started,
0.307541728947844,36.879404425782,5808.71680727,0,0,0.075925527364,1100,2018-03-31 04:39:39,17,0,17.151,5808.71680727,0,0,0.075925527364,0,0,0,42.1, -2.8, 0,0,0,364,364,364,1684,46.6,0,99,4.305,4.299,4.306,4.298,0,0,1.476,73.31,41,Motors_Started,
0.307541714602168,36.8794044556735,5808.71680727,0,0,0.075568243888,1200,2018-03-31 04:39:39,17,0,17.151,5808.71680727,0,0,0.075925527364,0,0,0,42.1, -2.7, 0,0,0,364,364,364,1684,46.6,0,99,4.305,4.299,4.306,4.298,0,0,1.476,73.31,41,Motors_Started,
0.307541707952621,36.879404482377,5808.71680727,0,0,0.074700461708,1300,2018-03-31 04:39:39,17,0,17.151,5808.71680727,0,0,0.075925527364,0,0,0,42.1, -2.8, 0,0,0,364,364,364,1684,46.6,0,99,4.305,4.299,4.306,4.298,0,0,1.476,73.31,41,Motors_Started,
0.307541702027833,36.8794044730353,5808.71680727,0,0,0.077724083852,1400,2018-03-31 04:39:39,17,0,17.151,5808.71680727,0,0,0.077724083852,0,0,0,42, -2.8, 0,0,0,364,364,364,1684,46.6,0,99,4.305,4.299,4.306,4.298,0,0,1.476,73.31,41,Motors_Started,
0.307541704408313,36.8794044822632,5808.71680727,0,0,0.075960304268,1500,2018-03-31 04:39:39,17,0,17.151,5808.71680727,0,0,0.077724083852,0,0,0,42.1, -2.8, 0,0,0,701,607,625,1538,46.6,0,99,4.305,4.299,4.306,4.298,0,0,1.476,73.31,41,Motors_Started,
0.307541706174462,36.8794045077864,5808.71680727,0,0,0.073478020724,1600,2018-03-31 04:39:39,17,0,17.151,5808.71680727,0,0,0.077724083852,0,0,0,42.1, -2.7, 0,0,0,973,909,1024,1150,46,0,99,4.305,4.299,4.306,4.298,0,0,1.476,73.31,10,Assisted_Takeoff,
0.307541711173683,36.8794045223003,5808.71680727,0,0,0.071111550832,1700,2018-03-31 04:39:39,17,0,17.151,5808.71680727,0,0,0.077724083852,0,0,0,42.1, -2.8, 0,0,0,1024,1024,1024,1024,44.6,0,99,4.305,4.299,4.306,4.298,0,0,1.476,73.31,10,Assisted_Takeoff,
0.307541714193124,36.8794045083909,5808.71680727,0,0,0.070550199108,1800,2018-03-31 04:39:39,17,0,17.151,5808.71680727,0,0,0.077724083852,0,0,0,42, -2.8, 0,0,0,1024,1024,1024,1024,43.7,0,99,4.305,4.299,4.306,4.298,0,0,1.476,73.31,10,Assisted_Takeoff,
0.307541723234143,36.8794045093771,5808.71680727,0,0,0.067233926036,1900,2018-03-31 04:39:39,17,0,17.072,5808.71680727,0,0,0.077724083852,0,0,0,42, -2.8, 0,0,0,1024,1024,1024,1024,43.7,0,99,4.277,4.269,4.277,4.291,0,0,3.662,73.31,10,Assisted_Takeoff,
0.307541727011217,36.8794045294091,5808.71680727,0,0,0.065204398412,2000,2018-03-31 04:39:39,17,0,17.072,5808.71680727,0,0,0.077724083852,0,0,0,42, -2.7, 0,0,0,1024,1024,1024,1024,43.1,0,99,4.277,4.269,4.277,4.291,0,0,3.662,73.31,10,Assisted_Takeoff,
0.307541718849354,36.8794045533659,5808.71680727,0,0,0.06844324366,2100,2018-03-31 04:39:40,17,0,17.072,5808.71680727,0,0,0.077724083852,0,0,0,42, -2.8, 0,0,0,1024,1024,1024,1024,43.1,0,99,4.277,4.269,4.277,4.291,0,0,3.662,73.31,10,Assisted_Takeoff,
0.307541692802901,36.8794045659781,5808.71680727,0,0,0.078422902772,2200,2018-03-31 04:39:40,17,0,17.072,5808.71680727,0,0,0.078422902772,0,0,0,42, -2.8, 0,0,0,1024,1024,1024,1024,42.9,0,99,4.277,4.269,4.277,4.291,0,0,3.662,73.31,10,Assisted_Takeoff,
0.307541666543936,36.8794045793376,5808.71680727,0,0,0.088661748244,2300,2018-03-31 04:39:40,17,0,17.072,5808.71680727,0,0,0.088661748244,0,0,0,42, -2.8, 0,0,0,1024,1024,1024,1024,42.8,0,99,4.277,4.269,4.277,4.291,0,0,3.662,73.31,10,Assisted_Takeoff,
0.307541650467123,36.8794045862459,5808.71680727,0,0,0.09489501616,2400,2018-03-31 04:39:40,17,0,17.072,5808.71680727,0,0,0.09489501616,0,0,0,42, -2.8, 0,0,0,1024,1024,1024,1024,42.7,0,99,4.277,4.269,4.277,4.291,0,0,3.662,73.31,10,Assisted_Takeoff,
0.307541638537498,36.8794045929807,5808.71680727,0,0,0.099654202664,2500,2018-03-31 04:39:40,17,0,17.072,5808.71680727,0,0,0.099654202664,0,0,0,42, -2.8, 0,0,0,1024,1024,1024,1024,42.6,0,99,4.277,4.269,4.277,4.291,0,0,3.662,73.31,10,Assisted_Takeoff,
0.307541630988592,36.8794045958301,5808.71680727,0,0,0.102565948164,2600,2018-03-31 04:39:40,17,0,17.072,5808.71680727,0,0,0.102565948164,0,0,0,42, -2.8, 0,0,0,1024,1024,1024,1024,42.6,0,99,4.277,4.269,4.277,4.291,0,0,3.662,73.31,10,Assisted_Takeoff,
0.307541628604957,36.8794045815685,5808.71680727,0,0,0.10243930774,2700,2018-03-31 04:39:40,17,0,17.072,5808.71680727,0,0,0.102565948164,0,0,0,42, -2.8, 0,0,0,1024,1024,1024,1024,42.5,0,99,4.277,4.269,4.277,4.291,0,0,3.662,73.31,10,Assisted_Takeoff,
0.30754162677998,36.8794045523487,5808.71680727,0,0,0.101912404836,2800,2018-03-31 04:39:40,17,0,17.072,5808.71680727,0,0,0.102565948164,0,0,0,42, -2.8, 0,0,0,1024,1024,1024,1024,42.5,0,99,4.277,4.269,4.277,4.291,0,0,3.662,73.31,10,Assisted_Takeoff,
0.307541630020685,36.8794045185777,5808.71680727,0,0,0.100745410048,2900,2018-03-31 04:39:40,17,0,17.072,5808.71680727,0,0,0.102565948164,0,0,0,42, -2.8, 0,0,0,1024,1024,1024,1024,42.5,0,99,4.277,4.269,4.277,4.291,0,0,3.662,73.31,10,Assisted_Takeoff,
0.307541631237998,36.8794044988664,5808.71680727,0,0,0.10100722108,3000,2018-03-31 04:39:40,17,0,17.072,5808.71680727,0,0,0.102565948164,0,0,0,42, -2.8, 0,0,0,1024,1024,1024,1024,42.4,0,99,4.277,4.269,4.277,4.291,0,0,3.662,73.31,10,Assisted_Takeoff,
0.307541636341542,36.879404479633,5808.71680727,0,0,0.100355646256,3100,2018-03-31 04:39:40,17,0,17.072,5808.71680727,0,0,0.102565948164,0,0,0,42, -2.8, 0,0,0,1024,1024,1024,1024,42.4,0,99,4.277,4.269,4.277,4.291,0,0,3.662,73.31,10,Assisted_Takeoff,
0.307541638985473,36.8794044682885,5808.71680727,0,0,0.100345803736,3200,2018-03-31 04:39:41,17,0,17.072,5808.71680727,0,0,0.102565948164,0,0,0,42, -2.8, 0,0,0,1024,1024,1024,1024,42.4,0,99,4.277,4.269,4.277,4.291,0,0,3.662,73.31,10,Assisted_Takeoff,
0.307541645520063,36.8794044592253,5808.71680727,0,0,0.098918310252,3300,2018-03-31 04:39:41,17,0,17.072,5808.71680727,0,0,0.102565948164,0,0,0,42, -2.8, 0,0,0,1024,1024,1024,1024,42.4,0,99,4.277,4.269,4.277,4.291,0,0,3.662,73.31,10,Assisted_Takeoff,
0.307541648449175,36.8794044534885,5808.71680727,0,0,0.098511158008,3400,2018-03-31 04:39:41,17,0,17.072,5808.71680727,0,0,0.102565948164,0,0,0,42, -2.8, 0,0,0,1024,1024,1024,1024,42.4,0,99,4.277,4.269,4.277,4.291,0,0,3.662,73.31,10,Assisted_Takeoff,
0.307541654931604,36.879404451257,5808.71680727,0,0,0.096518047708,3500,2018-03-31 04:39:41,17,0,17.072,5808.71680727,0,0,0.102565948164,0,0,0,41.9, -2.8, 0,0,0,1024,1024,1024,1024,42.4,0,99,4.277,4.269,4.277,4.291,0,0,3.662,73.31,10,Assisted_Takeoff,
0.307541659056758,36.8794044495012,5808.71680727,0,0,0.095302824572,3600,2018-03-31 04:39:41,17,0,17.072,5808.71680727,0,0,0.102565948164,0,0,0,41.9, -2.8, 0,0,0,1024,1024,1053,1024,42.4,0,99,4.277,4.269,4.277,4.291,0,0,3.662,73.31,10,Assisted_Takeoff,
0.307541665040882,36.8794044510219,5808.71680727,0,0,0.093058730012,3700,2018-03-31 04:39:41,17,0,17.072,5808.71680727,0,0,0.102565948164,0,0,0,41.9, -2.8, 0,0,0,1024,1024,1090,1024,42.4,0,99,4.277,4.269,4.277,4.291,0,0,3.662,73.31,10,Assisted_Takeoff,
0.307541669004108,36.8794044518995,5808.71680727,0,0,0.091588913692,3800,2018-03-31 04:39:41,17,0,17.072,5808.71680727,0,0,0.102565948164,0,0,0,41.9, -2.8, 0,0,0,1024,1024,1140,1024,42.3,0,99,4.277,4.269,4.277,4.291,0,0,3.662,73.31,10,Assisted_Takeoff,
0.307541672641136,36.8794044518691,5808.71680727,0,0,0.09034285066,3900,2018-03-31 04:39:41,17,0,17.151,5808.71680727,0,0,0.102565948164,0,0,0,41.9, -2.8, 0,0,0,1024,1024,1173,1024,42.3,0,99,4.277,4.269,4.277,4.291,0,0,3.662,73.31,10,Assisted_Takeoff,
0.307541677568807,36.8794044576027,5808.71680727,0,0,0.087953086804,4000,2018-03-31 04:39:41,17,0,17.151,5808.71680727,0,0,0.102565948164,0,0,0,41.9, -2.8, 0,0,0,1024,1024,1181,1024,42.3,0,99,4.277,4.269,4.277,4.291,0,0,3.662,73.31,10,Assisted_Takeoff,
0.307541682291702,36.8794044628118,5808.71680727,0,0,0.085715882008,4100,2018-03-31 04:39:42,17,0,17.151,5808.71680727,0,0,0.102565948164,0,0,0,41.9, -2.8, 0,0,0,1024,1024,1212,1024,42.3,0,99,4.277,4.269,4.277,4.291,0,0,3.662,73.31,10,Assisted_Takeoff,
0.307541685349004,36.8794044646939,5808.71680727,0,0,0.084442916088,4200,2018-03-31 04:39:42,17,0,17.151,5808.71680727,0,0,0.102565948164,0,0,0,41.9, -2.8, 0,0,0,1024,1024,1276,1024,42.3,0,99,4.277,4.269,4.277,4.291,0,0,3.662,73.31,10,Assisted_Takeoff,
0.307541690640327,36.8794044671963,5808.71680727,0,0,0.082325790036,4300,2018-03-31 04:39:42,17,0,17.151,5808.71680727,0,0,0.102565948164,0,0,0,41.9, -2.8, 0,0,0,1024,1024,1346,1024,42.3,0,99,4.277,4.269,4.277,4.291,0,0,3.662,73.31,10,Assisted_Takeoff,
0.307541696226705,36.8794044317048,5808.71680727,0,0,0.085308073596,4400,2018-03-31 04:39:42,17,0,17.151,5808.71680727,0,0,0.102565948164,0,0,0,41.7, -2.6, 0,0,0,1024,1024,1424,1024,42.3,0,99,4.277,4.269,4.277,4.291,0,0,3.662,73.31,10,Assisted_Takeoff,
0.307541723039035,36.8794044087806,5808.71680727,0,0,0.081138782124,4500,2018-03-31 04:39:42,17,0,17.151,5808.71680727,0,0,0.102565948164,0,0,0,41.8, -0.8, -0.2,0,0,1024,1024,1511,1024,42.3,0,99,4.277,4.269,4.277,4.291,0,0,3.662,73.31,10,Assisted_Takeoff,
0.3075417924709,36.879404412341,5808.71680727,0,0,0.06108760038,4600,2018-03-31 04:39:42,17,0,17.151,5808.71680727,0,0,0.102565948164,0,0,-0.223694,42, 1.7, -0.5,0,0,1024,1024,1582,1024,42.3,0,99,4.277,4.269,4.277,4.291,0,0,3.662,73.31,10,Assisted_Takeoff,
0.307541872393201,36.8794044017588,5808.71680727,0,0,0.050369752268,4700,2018-03-31 04:39:42,17,0,17.151,5808.71680727,0,0,0.102565948164,0,0,-0.671082,42, 2, -0.3,0,0,1024,1024,1669,1024,42.3,0,99,4.277,4.269,4.277,4.291,0,0,3.662,73.31,6,P-GPS,Obstacle Avoided. Revise Flight Route
0.307541947157813,36.87940436838,5808.71680727,0,0.223694,0.062920605688,4800,2018-03-31 04:39:42,17,0,17.151,5808.71680727,0,0.223694,0.102565948164,0.223694,0,-1.342164,42.1, 1.5, -0.4,0,0,1024,1024,1684,1024,42.3,0,99,4.277,4.269,4.277,4.291,0,0,3.662,73.31,6,P-GPS,
0.307542049532693,36.8794043014804,5809.04489127,0.328084,0.3131716,0.100315620008,4900,2018-03-31 04:39:42,17,0,17.125,5809.04489127,0.328084,0.3131716,0.102565948164,0.223694,-0.223694,-2.460634,42.1, 0.2, -0.1,0,0,1024,1024,1684,1040,42.3,0,99,4.299,4.293,4.299,4.292,0,0,1.898,73.31,6,P-GPS,Home Point Recorded. RTH Altitude:  30m.
0.307542270221561,36.8794042332222,5809.37297527,0.656168,0.3131716,0.172857288996,5000,2018-03-31 04:39:42,17,0,17.125,5809.37297527,0.656168,0.3131716,0.172857288996,0.447388,0,-3.35541,42, -0.1, 0.7,0,0,1024,1024,1684,1040,42.3,0,99,4.299,4.293,4.299,4.292,0,0,1.898,73.31,6,P-GPS,
0.30754256528859,36.879404206744,5810.02914327,1.312336,0.671082,0.268955717268,5100,2018-03-31 04:39:43,17,0,17.125,5810.02914327,1.312336,0.671082,0.268955717268,0.671082,0,-4.250186,42, 0.8, 1.5,0,0,1024,1024,1684,1033,42.3,0,99,4.299,4.293,4.299,4.292,0,0,1.898,73.31,6,P-GPS,
0.307542893976373,36.8794042078122,5810.68531127,1.968504,0.671082,0.37993439536,5200,2018-03-31 04:39:43,17,0,17.125,5810.68531127,1.968504,0.671082,0.37993439536,0.671082,0,-5.144962,42, 1.8, 2.5,0,0,1024,1024,1684,1033,42.3,0,99,4.299,4.293,4.299,4.292,0,0,1.898,73.31,6,P-GPS,
0.307543263541967,36.8794042378585,5811.66956327,2.952756,0.671082,0.50722114484,5300,2018-03-31 04:39:43,17,0,17.125,5811.66956327,2.952756,0.671082,0.50722114484,0.671082,0,-6.263432,41.9, 2.3, 3.8,0,0,1024,1024,1684,1024,42.3,0,99,4.299,4.293,4.299,4.292,0,0,1.898,73.31,6,P-GPS,
0.30754363076077,36.8794042885698,5812.65381527,3.937008,0.671082,0.63584647704,5400,2018-03-31 04:39:43,17,0,17.125,5812.65381527,3.937008,0.671082,0.63584647704,0.447388,0,-7.605596,42.1, 4, 4,0,0,1024,1024,1684,1024,42.3,0,99,4.299,4.293,4.299,4.292,0,0,1.898,73.31,6,P-GPS,
0.307543953103117,36.8794043616967,5813.96615127,5.249344,0.447388,0.7497211526,5500,2018-03-31 04:39:43,17,0,17.125,5813.96615127,5.249344,0.671082,0.7497211526,0.447388,0,-8.724066,42.1, 4, 2.7,0,0,1024,1024,1684,1024,42.3,0,99,4.299,4.293,4.299,4.292,0,0,1.898,73.31,6,P-GPS,
0.307544207796644,36.8794043999381,5815.27848727,6.56168,0.223694,0.84141078808,5600,2018-03-31 04:39:43,17,0,17.125,5815.27848727,6.56168,0.671082,0.84141078808,0.223694,0,-9.842536,42.1, 2.9, 2.2,0,0,1024,1024,1684,1024,42.3,0,99,4.299,4.293,4.299,4.292,0,0,1.898,73.31,6,P-GPS,
0.307544461562771,36.8794044443074,5816.59082327,7.874016,0.447388,0.93313323196,5700,2018-03-31 04:39:43,17,0,17.125,5816.59082327,7.874016,0.671082,0.93313323196,0.447388,0,-10.513618,42, 1.9, 2.1,0,0,1024,1024,1684,1024,42.3,0,99,4.299,4.293,4.299,4.292,0,0,1.898,73.31,6,P-GPS,
0.307544734189537,36.8794044950651,5818.23124327,9.514436,0.447388,1.03210961308,5800,2018-03-31 04:39:43,17,0,17.125,5818.23124327,9.514436,0.671082,1.03210961308,0.447388,0,-11.1847,42, 1.5, 3.2,0,0,1024,1024,1684,1024,42.3,0,99,4.299,4.293,4.299,4.292,0,0,1.898,73.31,6,P-GPS,
0.307545045097765,36.8794045761186,5819.87166327,11.154856,0.447388,1.14553481356,5900,2018-03-31 04:39:43,17,0,16.992,5819.87166327,11.154856,0.671082,1.14553481356,0.447388,0,-11.408394,42, 2.6, 3.9,0,0,1024,1024,1684,1024,42.3,0,99,4.276,4.267,4.268,4.254,0,0,5.51,73.31,6,P-GPS,
0.307545350869473,36.8794046525895,5821.84016727,13.12336,0.447388,1.25772313736,6000,2018-03-31 04:39:43,17,0,16.992,5821.84016727,13.12336,0.671082,1.25772313736,0.447388,0,-11.632088,42.2, 3.6, 3.7,0,0,1024,1024,1684,1024,42.3,0,99,4.276,4.267,4.268,4.254,0,0,5.51,73.31,6,P-GPS,
0.307545664686915,36.8794047495288,5823.48058727,14.76378,0.447388,1.37371067388,6100,2018-03-31 04:39:43,17,0,16.992,5823.48058727,14.76378,0.671082,1.37371067388,0.447388,0,-11.632088,42.2, 4.6, 2.4,0,0,1024,1024,1684,1024,42.3,0,99,4.276,4.267,4.268,4.254,0,0,5.51,73.31,6,P-GPS,
0.307545994323063,36.8794048432419,5825.12100727,16.4042,0.447388,1.49597445732,6200,2018-03-31 04:39:44,17,0,16.992,5825.12100727,16.4042,0.671082,1.49597445732,0.447388,0,-11.408394,42.1, 5.1, 2.1,0,0,1024,1024,1684,1024,42.3,0,99,4.276,4.267,4.268,4.254,0,0,5.51,73.31,6,P-GPS,
0.307546344648184,36.8794049197798,5826.76142727,18.04462,0.447388,1.62562669244,6300,2018-03-31 04:39:44,17,0,16.992,5826.76142727,18.04462,0.671082,1.62562669244,0.447388,0,-11.408394,42, 4.3, 3.2,0,0,1024,1024,1684,1024,42.3,0,99,4.276,4.267,4.268,4.254,0,0,5.51,73.31,6,P-GPS,
0.307546692439854,36.8794050063008,5828.40184727,19.68504,0.447388,1.7548885076,6400,2018-03-31 04:39:44,17,0,16.992,5828.40184727,19.68504,0.671082,1.7548885076,0.447388,0,-11.1847,42, 4.6, 4.4,0,0,1024,1024,1684,1024,42.3,0,99,4.276,4.267,4.268,4.254,0,0,5.51,73.31,6,P-GPS,
0.307547055436713,36.8794051124813,5830.04226727,21.32546,0.447388,1.89065622848,6500,2018-03-31 04:39:44,17,0,16.992,5830.04226727,21.32546,0.671082,1.89065622848,0.447388,0,-11.1847,42, 5.4, 4.2,0,0,1024,1024,1684,1024,42.3,0,99,4.276,4.267,4.268,4.254,0,0,5.51,73.31,6,P-GPS,
0.307547402401947,36.8794051995523,5831.68268727,22.96588,0.447388,2.02006896228,6600,2018-03-31 04:39:44,17,0,16.992,5831.68268727,22.96588,0.671082,2.02006896228,0.447388,0,-10.961006,42.1, 6.1, 4.1,0,0,1024,1024,1684,1024,42.3,0,99,4.276,4.267,4.268,4.254,0,0,5.51,73.31,6,P-GPS,
0.307547722919215,36.8794052719144,5833.32310727,24.6063,0.447388,2.13936686636,6700,2018-03-31 04:39:44,17,0,16.992,5833.32310727,24.6063,0.671082,2.13936686636,0.223694,0,-10.961006,42.1, 6, 3.8,0,0,1024,1024,1684,1024,42.2,0,99,4.276,4.267,4.268,4.254,0,0,5.51,73.31,6,P-GPS,
0.307547995158412,36.8794053228075,5834.96352727,26.24672,0.223694,2.24024613468,6800,2018-03-31 04:39:44,17,0,16.992,5834.96352727,26.24672,0.671082,2.24024613468,0.223694,0,-10.961006,42.1, 5.8, 3.8,0,0,1024,1024,1684,1024,42.2,0,99,4.276,4.267,4.268,4.254,0,0,5.51,73.31,6,P-GPS,
0.307548256894958,36.8794053561441,5836.60394727,27.88714,0.223694,2.33651254196,6900,2018-03-31 04:39:44,17,0,16.355,5836.60394727,27.88714,0.671082,2.33651254196,0.223694,0,-10.961006,42.1, 5.3, 3.8,0,0,1024,1024,1684,1024,42.2,0,99,4.276,4.267,4.268,4.254,0,0,22.774,73.31,6,P-GPS,
0.307548518654303,36.8794053872163,5838.24436727,29.52756,0.223694,2.43268052404,7000,2018-03-31 04:39:44,17,0,16.355,5838.24436727,29.52756,0.671082,2.43268052404,0.223694,0,-10.961006,42.1, 5.3, 3.7,0,0,1024,1024,1684,1024,42.2,0,99,4.276,4.267,4.268,4.254,0,0,22.774,73.31,6,P-GPS,
0.307548774386777,36.8794054182376,5839.88478727,31.16798,0.223694,2.52666674752,7100,2018-03-31 04:39:44,17,0,16.355,5839.88478727,31.16798,0.671082,2.52666674752,0.223694,0,-10.961006,42.1, 5.3, 3.6,0,0,1024,1024,1684,1024,42.2,0,99,4.276,4.267,4.268,4.254,0,0,22.774,73.31,6,P-GPS,
0.307549003784054,36.8794054436569,5841.52520727,32.8084,0.223694,2.6108596636,7200,2018-03-31 04:39:45,17,0,16.355,5841.52520727,32.8084,0.671082,2.6108596636,0.223694,0,-10.961006,42.1, 5.4, 3.7,0,0,1024,1024,1684,1024,42.2,0,99,4.276,4.267,4.268,4.254,0,0,22.774,73.31,6,P-GPS,
0.307549231861478,36.8794054668507,5843.16562727,34.44882,0,2.69447515184,7300,2018-03-31 04:39:45,17,0,16.355,5843.16562727,34.44882,0.671082,2.69447515184,0,0,-10.961006,42.1, 5.4, 3.6,0,0,1024,1024,1684,1024,42.2,0,99,4.276,4.267,4.268,4.254,0,0,22.774,73.31,6,P-GPS,
0.307549458491215,36.8794054948735,5844.80604727,36.08924,0,2.77779208364,7400,2018-03-31 04:39:45,17,0,16.355,5844.80604727,36.08924,0.671082,2.77779208364,0,0,-10.961006,42.1, 5.5, 3.6,0,0,1024,1024,1684,1024,42.2,0,99,4.276,4.267,4.268,4.254,0,0,22.774,73.31,6,P-GPS,
0.30754967085334,36.8794055076718,5846.44646727,37.72966,0,2.85524615436,7500,2018-03-31 04:39:45,17,0,16.355,5846.44646727,37.72966,0.671082,2.85524615436,0,0,-10.961006,42.1, 5.4, 3.9,0,0,1024,1024,1684,1024,42.2,0,99,4.276,4.267,4.268,4.254,0,0,22.774,73.31,6,P-GPS,
0.30754985581608,36.8794055108879,5848.08688727,39.37008,0,2.92236229824,7600,2018-03-31 04:39:45,17,0,16.355,5848.08688727,39.37008,0.671082,2.92236229824,0,0,-10.961006,42.1, 5.4, 3.7,0,0,1024,1024,1684,1024,42.2,0,99,4.276,4.267,4.268,4.254,0,0,22.774,73.31,6,P-GPS,
0.307550020714762,36.8794055195803,5849.72730727,41.0105,0,2.98246728704,7700,2018-03-31 04:39:45,17,0,16.355,5849.72730727,41.0105,0.671082,2.98246728704,0,0,-10.961006,42.1, 5.3, 3.6,0,0,1024,1024,1684,1024,42.2,0,99,4.276,4.267,4.268,4.254,0,0,22.774,73.31,6,P-GPS,
0.307550169708431,36.8794055444766,5851.36772727,42.65092,0,3.03752634392,7800,2018-03-31 04:39:45,17,0,16.355,5851.36772727,42.65092,0.671082,3.03752634392,0,0,-10.961006,42.1, 5, 3.4,0,0,1024,1024,1684,1024,42.2,0,99,4.276,4.267,4.268,4.254,0,0,22.774,73.31,6,P-GPS,
0.307550314994947,36.8794055626234,5853.00814727,44.29134,0,3.0909449808,7900,2018-03-31 04:39:45,17,0,16.62,5853.00814727,44.29134,0.671082,3.0909449808,0,0,-10.961006,42.1, 4.8, 3.2,0,0,1024,1024,1684,1024,42.2,0,99,4.145,4.146,4.156,4.144,0,0,22.774,73.31,6,P-GPS,
0.307550469750052,36.8794055715634,5854.64856727,45.93176,0,3.14738855216,8000,2018-03-31 04:39:45,17,0,16.62,5854.64856727,45.93176,0.671082,3.14738855216,0,0,-10.961006,42.1, 4.8, 3,0,0,1024,1024,1684,1024,42.2,0,99,4.145,4.146,4.156,4.144,0,0,22.774,73.31,6,P-GPS,
0.307550626271203,36.8794055678562,5856.28898727,47.57218,0,3.20393054872,8100,2018-03-31 04:39:46,17,0,16.62,5856.28898727,47.57218,0.671082,3.20393054872,0,0,-10.961006,42.1, 5, 3.4,0,0,1024,1024,1684,1024,42.2,0,99,4.145,4.146,4.156,4.144,0,0,22.774,73.31,6,P-GPS,
0.307550774516603,36.8794055602042,5857.92940727,49.2126,0,3.25732950056,8200,2018-03-31 04:39:46,17,0,16.62,5857.92940727,49.2126,0.671082,3.25732950056,0,0,-10.961006,42.1, 5.1, 3.3,0,0,1024,1024,1684,1024,42.2,0,99,4.145,4.146,4.156,4.144,0,0,22.774,73.31,6,P-GPS,
0.307550917573779,36.8794055603099,5859.56982727,50.85302,0,3.3091864576,8300,2018-03-31 04:39:46,17,0,16.62,5859.56982727,50.85302,0.671082,3.3091864576,0,0,-11.1847,42.1, 4.9, 3.5,0,0,1024,1024,1684,1024,42.2,0,99,4.145,4.146,4.156,4.144,0,0,22.774,73.31,6,P-GPS,
0.307551057027209,36.8794055753188,5861.21024727,52.49344,0,3.3603675616,8400,2018-03-31 04:39:46,17,0,16.62,5861.21024727,52.49344,0.671082,3.3603675616,0,0,-11.1847,42.1, 5, 3.6,0,0,1024,1024,1684,1024,42.2,0,99,4.145,4.146,4.156,4.144,0,0,22.774,73.31,6,P-GPS,
0.307551192166077,36.8794055799143,5862.85066727,54.13386,0,3.4095473532,8500,2018-03-31 04:39:46,17,0,16.62,5862.85066727,54.13386,0.671082,3.4095473532,0,0,-11.1847,42.1, 5.2, 3.6,0,0,1024,1024,1684,1024,42.2,0,99,4.145,4.146,4.156,4.144,0,0,22.774,73.31,6,P-GPS,
0.307551322829981,36.8794055630642,5864.49108727,55.77428,0,3.4562337064,8600,2018-03-31 04:39:46,17,0,16.62,5864.49108727,55.77428,0.671082,3.4562337064,0,0,-10.961006,42.1, 5.3, 3.8,0,0,1024,1024,1684,1024,42.2,0,99,4.145,4.146,4.156,4.144,0,0,22.774,73.31,6,P-GPS,
0.307551432072518,36.8794055454916,5866.13150727,57.4147,0,3.4951772772,8700,2018-03-31 04:39:46,17,0,16.62,5866.13150727,57.4147,0.671082,3.4951772772,0,0,-11.1847,42.1, 5.1, 4,0,0,1024,1024,1684,1024,42.2,0,99,4.145,4.146,4.156,4.144,0,0,22.774,73.31,6,P-GPS,
0.307551515202955,36.8794055497849,5867.77192727,59.05512,0,3.5255250472,8800,2018-03-31 04:39:46,17,0,16.62,5867.77192727,59.05512,0.671082,3.5255250472,0,0,-11.1847,42.1, 5.2, 3.9,0,0,1024,1024,1684,1024,42.2,0,99,4.145,4.146,4.156,4.144,0,0,22.774,73.31,6,P-GPS,
0.307551571718104,36.8794055779273,5869.41234727,60.69554,0,3.5471129744,8900,2018-03-31 04:39:46,17,0,16.594,5869.41234727,60.69554,0.671082,3.5471129744,0,0,-11.1847,42.1, 5.3, 3.5,0,0,1024,1024,1684,1024,42.2,0,99,4.165,4.164,4.17,4.158,0,0,16.858,75.11,6,P-GPS,
0.307551613353346,36.879405633946,5871.05276727,62.33596,0,3.564468618,9000,2018-03-31 04:39:46,17,0,16.594,5871.05276727,62.33596,0.671082,3.564468618,0,0,-10.961006,42.1, 5.5, 3,0,0,1024,1024,1684,1024,42.2,0,99,4.165,4.164,4.17,4.158,0,0,16.858,75.11,6,P-GPS,
0.307551639059963,36.8794056831185,5872.69318727,63.97638,0,3.5758203244,9100,2018-03-31 04:39:47,17,0,16.594,5872.69318727,63.97638,0.671082,3.5758203244,0,0,-11.1847,42.2, 5.8, 3,0,0,1024,1024,1684,1024,42.2,0,99,4.165,4.164,4.17,4.158,0,0,16.858,75.11,6,P-GPS,
0.307551662818147,36.8794057006896,5874.33360727,65.6168,0,3.5852035268,9200,2018-03-31 04:39:47,17,0,16.594,5874.33360727,65.6168,0.671082,3.5852035268,0,0,-11.1847,42.2, 5.9, 3.4,0,0,1024,1024,1684,1024,42.2,0,99,4.165,4.164,4.17,4.158,0,0,16.858,75.11,6,P-GPS,
0.307551648061187,36.8794056985719,5876.30211127,67.585304,0,3.5797573324,9300,2018-03-31 04:39:47,17,0,16.594,5876.30211127,67.585304,0.671082,3.5852035268,0,0,-11.1847,42.1, 5.6, 3.2,0,0,1024,1024,1684,1024,42.2,0,99,4.165,4.164,4.17,4.158,0,0,16.858,75.11,6,P-GPS,
0.307551618944609,36.8794056811422,5877.94253127,69.225724,0,3.5684712428,9400,2018-03-31 04:39:47,17,0,16.594,5877.94253127,69.225724,0.671082,3.5852035268,0,0,-11.1847,42, 5.1, 2.9,0,0,1024,1024,1684,1024,42.2,0,99,4.165,4.164,4.17,4.158,0,0,16.858,75.11,6,P-GPS,
0.307551576665317,36.8794056487429,5879.58295127,70.866144,0,3.5517717672,9500,2018-03-31 04:39:47,17,0,16.594,5879.58295127,70.866144,0.671082,3.5852035268,0,0,-11.408394,42, 4.8, 3.1,0,0,1024,1024,1684,1024,42.2,0,99,4.165,4.164,4.17,4.158,0,0,16.858,75.11,6,P-GPS,
0.307551559400554,36.879405621249,5881.22337127,72.506564,0,3.5443570688,9600,2018-03-31 04:39:47,17,0,16.594,5881.22337127,72.506564,0.671082,3.5852035268,0,0,-11.408394,42, 4.6, 3.5,0,0,1024,1024,1684,1024,42.2,0,99,4.165,4.164,4.17,4.158,0,0,16.858,75.11,6,P-GPS,
0.307551547553624,36.8794056048061,5883.19187527,74.475068,0,3.5394030004,9700,2018-03-31 04:39:47,17,0,16.594,5883.19187527,74.475068,0.671082,3.5852035268,0,0,-11.1847,42, 5.1, 3.6,0,0,1024,1024,1684,1024,42.2,0,99,4.165,4.164,4.17,4.158,0,0,16.858,75.11,6,P-GPS,
0.307551559736828,36.8794056044051,5884.83229527,76.115488,0,3.543799326,9800,2018-03-31 04:39:47,17,0,16.594,5884.83229527,76.115488,0.671082,3.5852035268,0,0,-11.1847,42.1, 5.6, 3.9,0,0,1024,1024,1684,1024,42.2,0,99,4.165,4.164,4.17,4.158,0,0,16.858,75.11,6,P-GPS,
0.307551557025468,36.8794056100458,5886.47271527,77.755908,0,3.5430447328,9900,2018-03-31 04:39:47,17,0,16.541,5886.47271527,77.755908,0.671082,3.5852035268,0,0,-11.1847,42.1, 6, 3.7,0,0,1024,1024,1684,1024,42.2,0,99,4.159,4.159,4.165,4.153,0,0,17.16,75.11,6,P-GPS,
0.307551550681865,36.8794056153367,5888.11313527,79.396328,0,3.5409778036,10000,2018-03-31 04:39:48,17,0,16.541,5888.11313527,79.396328,0.671082,3.5852035268,0,0,-11.1847,42.1, 6, 3.6,0,0,1024,1024,1684,1024,42.1,0,99,4.159,4.159,4.165,4.153,0,0,17.16,75.11,6,P-GPS,
0.307551520308127,36.8794056071616,5890.08163927,81.364832,0,3.5296260972,10100,2018-03-31 04:39:48,17,0,16.541,5890.08163927,81.364832,0.671082,3.5852035268,0,0,-11.1847,42.1, 5.8, 3.8,0,0,1024,1024,1684,1024,42.1,0,99,4.159,4.159,4.165,4.153,0,0,17.16,75.11,6,P-GPS,
0.307551479502578,36.8794055867109,5891.72205927,83.005252,0,3.5140092988,10200,2018-03-31 04:39:48,17,0,16.541,5891.72205927,83.005252,0.671082,3.5852035268,0,0,-11.1847,42.1, 5.6, 4,0,0,1024,1024,1684,1024,42.1,0,99,4.159,4.159,4.165,4.153,0,0,17.16,75.11,6,P-GPS,
0.307551422123539,36.8794055634304,5893.36247927,84.645672,0,3.492290138,10300,2018-03-31 04:39:48,17,0,16.541,5893.36247927,84.645672,0.671082,3.5852035268,0,0,-10.961006,42, 5.3, 4.1,0,0,1024,1024,1684,1024,42.1,0,99,4.159,4.159,4.165,4.153,0,0,17.16,75.11,6,P-GPS,
0.307551377071822,36.8794055424358,5895.00289927,86.286092,0,3.4751313448,10400,2018-03-31 04:39:48,17,0,16.541,5895.00289927,86.286092,0.671082,3.5852035268,0,0,-11.1847,42, 5.3, 4.3,0,0,1024,1024,1684,1024,42.1,0,99,4.159,4.159,4.165,4.153,0,0,17.16,75.11,6,P-GPS,
0.307551323798905,36.8794055286565,5896.64331927,87.926512,0,3.4552494544,10500,2018-03-31 04:39:48,17,0,16.541,5896.64331927,87.926512,0.671082,3.5852035268,0,0,-11.1847,42.1, 5.6, 4.8,0,0,1024,1024,1684,1024,42.1,0,99,4.159,4.159,4.165,4.153,0,0,17.16,75.11,6,P-GPS,
0.307551289773382,36.8794055269454,5898.61182327,89.895016,0,3.4428478792,10600,2018-03-31 04:39:48,17,0,16.541,5898.61182327,89.895016,0.671082,3.5852035268,0,0,-11.1847,42.1, 5.7, 4.6,0,0,1024,1024,1684,1024,42.1,0,99,4.159,4.159,4.165,4.153,0,0,17.16,75.11,6,P-GPS,
0.307551234924945,36.8794055185359,5900.25224327,91.535436,0,3.4226379048,10700,2018-03-31 04:39:48,17,0,16.541,5900.25224327,91.535436,0.671082,3.5852035268,0,0,-11.1847,42.1, 5.9, 4.8,0,0,1024,1024,1684,1024,42.1,0,99,4.159,4.159,4.165,4.153,0,0,17.16,75.11,6,P-GPS,
0.307551192282511,36.8794054976586,5901.89266327,93.175856,0,3.4063649384,10800,2018-03-31 04:39:48,17,0,16.541,5901.89266327,93.175856,0.671082,3.5852035268,0,0,-11.1847,42.1, 6, 4.8,0,0,1024,1024,1684,1024,42.1,0,99,4.159,4.159,4.165,4.153,0,0,17.16,75.11,6,P-GPS,
0.307551148377218,36.8794054758587,5903.53308327,94.816276,0,3.389599846,10900,2018-03-31 04:39:48,17,0,16.567,5903.53308327,94.816276,0.671082,3.5852035268,0,0,-10.961006,42.1, 5.9, 4.7,0,0,1024,1024,1684,1024,42.1,0,99,4.159,4.159,4.165,4.153,0,0,16.564,75.11,6,P-GPS,
0.307551062361992,36.8794054548395,5905.50158727,96.78478,0,3.357611656,11000,2018-03-31 04:39:48,17,0,16.567,5905.50158727,96.78478,0.671082,3.5852035268,0,0,-11.1847,42.1, 5.7, 4.8,0,0,1024,1024,1684,1024,42.1,0,99,4.159,4.159,4.165,4.153,0,0,16.564,75.11,6,P-GPS,
0.307550970948474,36.8794054175392,5907.14200727,98.4252,0,3.3230972192,11100,2018-03-31 04:39:49,17,0,16.567,5907.14200727,98.4252,0.671082,3.5852035268,0,0,-10.961006,42.1, 5.5, 4.9,0,0,1024,1024,1684,1024,42.1,0,99,4.159,4.159,4.165,4.153,0,0,16.564,75.11,6,P-GPS,
0.307550905371848,36.8794053637264,5908.78242727,100.06562,0,3.297408242,11200,2018-03-31 04:39:49,17,0,16.567,5908.78242727,100.06562,0.671082,3.5852035268,0,0,-10.961006,42.1, 5.2, 5,0,0,1024,1024,1684,1024,42.1,0,99,4.159,4.159,4.165,4.153,0,0,16.564,75.11,6,P-GPS,
0.307550829650831,36.8794053160149,5910.42284727,101.70604,0,3.26834984212,11300,2018-03-31 04:39:49,17,0,16.567,5910.42284727,101.70604,0.671082,3.5852035268,0,0,-10.961006,42.1, 5.1, 5,0,0,1024,1024,1684,1024,42.1,0,99,4.159,4.159,4.165,4.153,0,0,16.564,75.11,6,P-GPS,
0.307550778571428,36.8794052888652,5912.06326727,103.34646,0,3.248933831,11400,2018-03-31 04:39:49,17,0,16.567,5912.06326727,103.34646,0.671082,3.5852035268,0,0,-10.961006,42.2, 5.2, 5.3,0,0,1024,1024,1684,1024,42.1,0,99,4.159,4.159,4.165,4.153,0,0,16.564,75.11,6,P-GPS,
0.307550715232285,36.8794052588358,5913.70368727,104.98688,0,3.22499354152,11500,2018-03-31 04:39:49,17,0,16.567,5913.70368727,104.98688,0.671082,3.5852035268,0,0,-10.737312,42.2, 5.2, 5.5,0,0,1024,1024,1684,1024,42.1,0,99,4.159,4.159,4.165,4.153,0,0,16.564,75.11,6,P-GPS,
0.307550653384796,36.8794052290245,5915.34410727,106.6273,0,3.2016241182,11600,2018-03-31 04:39:49,17,0,16.567,5915.34410727,106.6273,0.671082,3.5852035268,0,0,-10.737312,42.2, 5.2, 5.5,0,0,1024,1024,1684,1024,42.1,0,99,4.159,4.159,4.165,4.153,0,0,16.564,75.11,6,P-GPS,
0.307550571049039,36.8794051839379,5916.98452727,108.26772,0,3.17041020644,11700,2018-03-31 04:39:49,17,0,16.567,5916.98452727,108.26772,0.671082,3.5852035268,0,0,-10.961006,42.2, 4.8, 5,0,0,1024,1024,1684,1024,42.1,0,99,4.159,4.159,4.165,4.153,0,0,16.564,75.11,6,P-GPS,
0.30755049750118,36.8794051213017,5918.62494727,109.90814,0,3.14201453624,11800,2018-03-31 04:39:49,17,0,16.567,5918.62494727,109.90814,0.671082,3.5852035268,0,0,-10.737312,42.2, 4.7, 4.9,0,0,1024,1024,1684,1024,42.1,0,99,4.159,4.159,4.165,4.153,0,0,16.564,75.11,6,P-GPS,
0.307550414022255,36.8794050563376,5920.59345127,111.876644,0,3.11009196304,11900,2018-03-31 04:39:49,17,0,16.62,5920.59345127,111.876644,0.671082,3.5852035268,0,0,-10.961006,42.2, 4.5, 4.8,0,0,1024,1024,1684,1024,42.1,0,99,4.157,4.159,4.165,4.153,0,0,16.564,75.11,6,P-GPS,
0.307550342715135,36.879405019361,5922.23387127,113.517064,0,3.08332358948,12000,2018-03-31 04:39:49,17,0,16.62,5922.23387127,113.517064,0.671082,3.5852035268,0,0,-10.961006,42.1, 4.3, 5,0,0,1024,1024,1684,1024,42.1,0,99,4.157,4.159,4.165,4.153,0,0,16.564,75.11,6,P-GPS,
0.307550264760707,36.8794049860668,5923.87429127,115.157484,0,3.05425206624,12100,2018-03-31 04:39:50,17,0,16.62,5923.87429127,115.157484,0.671082,3.5852035268,0,0,-11.1847,42.1, 4.2, 5,0,0,1024,1024,1684,1024,42.1,0,99,4.157,4.159,4.165,4.153,0,0,16.564,75.11,6,P-GPS,
0.307550205541527,36.8794049646598,5925.51471127,116.797904,0,3.03226387656,12200,2018-03-31 04:39:50,17,0,16.62,5925.51471127,116.797904,0.671082,3.5852035268,0,0,-10.961006,42.1, 4.4, 4.9,0,0,1024,1024,1684,1024,42.1,0,99,4.157,4.159,4.165,4.153,0,0,16.564,75.11,6,P-GPS,
0.307550131271453,36.879404940733,5927.48321527,118.766408,0,3.00476059484,12300,2018-03-31 04:39:50,17,0,16.62,5927.48321527,118.766408,0.671082,3.5852035268,0,0,-10.961006,42.1, 4.7, 5.1,0,0,1024,1024,1684,1024,42.1,0,99,4.157,4.159,4.165,4.153,0,0,16.564,75.11,6,P-GPS,
0.307550065486387,36.879404923787,5929.12363527,120.406828,0,2.98048894052,12400,2018-03-31 04:39:50,17,0,16.62,5929.12363527,120.406828,0.671082,3.5852035268,0,0,-10.961006,42.1, 4.9, 5,0,0,1024,1024,1684,1024,42.1,0,99,4.157,4.159,4.165,4.153,0,0,16.564,75.11,6,P-GPS,
0.307549988715837,36.8794049081925,5930.76405527,122.047248,0,2.95224418896,12500,2018-03-31 04:39:50,17,0,16.62,5930.76405527,122.047248,0.671082,3.5852035268,0,0,-10.961006,42.2, 5, 5.3,0,0,1024,1024,1684,1024,42.1,0,99,4.157,4.159,4.165,4.153,0,0,16.564,75.11,6,P-GPS,
0.307549930252255,36.8794049057726,5932.40447527,123.687668,0,2.93089576308,12600,2018-03-31 04:39:50,17,0,16.62,5932.40447527,123.687668,0.671082,3.5852035268,0,0,-10.961006,42.2, 4.9, 5.2,0,0,1024,1024,1684,1024,42.1,0,99,4.157,4.159,4.165,4.153,0,0,16.564,75.11,6,P-GPS,
0.307549848921248,36.8794048914277,5934.04489527,125.328088,0,2.90101387236,12700,2018-03-31 04:39:50,17,0,16.62,5934.04489527,125.328088,0.671082,3.5852035268,0,0,-10.961006,42.1, 4.7, 5.1,0,0,1024,1024,1684,1024,42.1,0,99,4.157,4.159,4.165,4.153,0,0,16.564,75.11,6,P-GPS,
0.307549785503939,36.8794048700195,5936.01339927,127.296592,0,2.8775591472,12800,2018-03-31 04:39:50,17,0,16.62,5936.01339927,127.296592,0.671082,3.5852035268,0,0,-11.1847,42.1, 4.4, 4.9,0,0,1024,1024,1684,1023,42.1,0,99,4.157,4.159,4.165,4.153,0,0,16.564,75.11,6,P-GPS,
0.307549704944,36.879404848635,5937.65381927,128.937012,0,2.84787082604,12900,2018-03-31 04:39:50,17,0,16.461,5937.65381927,128.937012,0.671082,3.5852035268,0,0,-10.961006,42.1, 4.4, 4.7,0,0,1024,1024,1684,946,42.1,0,99,4.15,4.15,4.157,4.146,0,0,16.718,75.11,6,P-GPS,
0.307549635760371,36.8794048413408,5939.29423927,130.577432,0,2.82254274124,13000,2018-03-31 04:39:50,17,0,16.461,5939.29423927,130.577432,0.671082,3.5852035268,0,0,-11.1847,42.1, 4.3, 4.6,0,0,1024,1024,1684,988,41.9,0,99,4.15,4.15,4.157,4.146,0,0,16.718,75.11,6,P-GPS,
0.307549575286475,36.8794048290816,5941.26274327,132.545936,0,2.80032161192,13100,2018-03-31 04:39:50,17,0,16.461,5941.26274327,132.545936,0.671082,3.5852035268,0,0,-11.1847,41.6, 4.3, 5.1,0,0,1024,1024,1684,959,41.8,0,99,4.15,4.15,4.157,4.146,0,0,16.718,75.11,6,P-GPS,
0.307549554142758,36.8794048353619,5942.90316327,134.186356,0,2.7927002206,13200,2018-03-31 04:39:51,17,0,16.461,5942.90316327,134.186356,0.671082,3.5852035268,0,0,-11.1847,41.2, 4.8, 5.2,0,0,1024,1024,1684,935,41.6,0,99,4.15,4.15,4.157,4.146,0,0,16.718,75.11,6,P-GPS,
0.30754952003337,36.8794048359772,5944.54358327,135.826776,0,2.78027567952,13300,2018-03-31 04:39:51,17,0,16.461,5944.54358327,135.826776,0.671082,3.5852035268,0,0,-11.1847,40.5, 4.7, 5,0,0,1024,1024,1684,931,41.2,0,99,4.15,4.15,4.157,4.146,0,0,16.718,75.11,6,P-GPS,
0.307549497368687,36.8794048366897,5946.51208727,137.79528,0,2.77202108608,13400,2018-03-31 04:39:51,17,0,16.461,5946.51208727,137.79528,0.671082,3.5852035268,0,0,-11.1847,39.5, 5, 4.8,0,0,1024,1024,1684,934,40.6,0,99,4.15,4.15,4.157,4.146,0,0,16.718,75.11,6,P-GPS,
0.307549454609819,36.8794048383727,5948.15250727,139.4357,0,2.75645678112,13500,2018-03-31 04:39:51,17,0,16.461,5948.15250727,139.4357,0.671082,3.5852035268,0,0,-11.1847,38.5, 5.2, 4.4,0,0,1024,1024,1684,933,40.1,0,99,4.15,4.15,4.157,4.146,0,0,16.718,75.11,6,P-GPS,
0.307549415808883,36.8794048538639,5949.79292727,141.07612,0,2.74254601952,13600,2018-03-31 04:39:51,17,0,16.461,5949.79292727,141.07612,0.671082,3.5852035268,0,0,-11.1847,37.5, 5.1, 4.2,0,0,1024,1024,1684,935,39.5,0,99,4.15,4.15,4.157,4.146,0,0,16.718,75.11,6,P-GPS,
0.307549359613724,36.8794048692355,5951.76143127,143.044624,0,2.72230651756,13700,2018-03-31 04:39:51,17,0,16.461,5951.76143127,143.044624,0.671082,3.5852035268,0,0,-11.1847,36.6, 5.1, 4.2,0,0,1024,1024,1684,936,38.9,0,99,4.15,4.15,4.157,4.146,0,0,16.718,75.11,6,P-GPS,
0.307549323836809,36.8794049064217,5953.40185127,144.685044,0,2.70991150404,13800,2018-03-31 04:39:51,17,0,16.461,5953.40185127,144.685044,0.671082,3.5852035268,0,0,-11.1847,35.6, 5.4, 4.2,0,0,1024,1024,1684,943,38.2,0,99,4.15,4.15,4.157,4.146,0,0,16.718,75.11,6,P-GPS,
0.307549267170215,36.8794049374911,5955.04227127,146.325464,0,2.68985572912,13900,2018-03-31 04:39:51,17,0,16.514,5955.04227127,146.325464,0.671082,3.5852035268,0,0,-11.1847,34.7, 5.5, 3.7,0,0,1024,1024,1684,954,38.2,0,99,4.147,4.146,4.154,4.141,0,0,16.414,75.11,6,P-GPS,
0.307549233951586,36.879404951852,5956.68269127,147.965884,0,2.67804470512,14000,2018-03-31 04:39:51,17,0,16.514,5956.68269127,147.965884,0.671082,3.5852035268,0,0,-10.961006,33.9, 5.5, 3.8,0,0,1024,1024,1684,949,37.6,0,99,4.147,4.146,4.154,4.141,0,0,16.414,75.11,6,P-GPS,
0.307549217018211,36.8794049625427,5958.65119527,149.934388,0,2.67210310388,14100,2018-03-31 04:39:52,17,0,16.514,5958.65119527,149.934388,0.671082,3.5852035268,0,0,-11.1847,33.1, 5.8, 3.9,0,0,1024,1024,1684,959,36.9,0,99,4.147,4.146,4.154,4.141,0,0,16.414,75.11,6,P-GPS,
0.307549159017921,36.8794049784306,5960.29161527,151.574808,0,2.65132226332,14200,2018-03-31 04:39:52,17,0,16.514,5960.29161527,151.574808,0.671082,3.5852035268,0,0,-11.1847,32.4, 6, 4,0,0,1024,1024,1684,980,36.3,0,99,4.147,4.146,4.154,4.141,0,0,16.414,75.11,6,P-GPS,
0.307549130017776,36.8794049901978,5961.93203527,153.215228,0,2.64103026824,14300,2018-03-31 04:39:52,17,0,16.514,5961.93203527,153.215228,0.671082,3.5852035268,0,0,-10.961006,31.8, 5.9, 4.1,0,0,1024,1024,1684,989,35.7,0,99,4.147,4.146,4.154,4.141,0,0,16.414,75.11,6,P-GPS,
0.30754910098262,36.8794049759859,5963.57245527,154.855648,0,2.6301345986,14400,2018-03-31 04:39:52,17,0,16.514,5963.57245527,154.855648,0.671082,3.5852035268,0,0,-10.961006,31.4, 5.8, 4.1,0,0,1024,1024,1684,987,35.3,0,99,4.147,4.146,4.154,4.141,0,0,16.414,75.11,6,P-GPS,
0.307549065389719,36.8794049746841,5965.21287527,156.496068,0,2.6171424722,14500,2018-03-31 04:39:52,17,0,16.514,5965.21287527,156.496068,0.671082,3.5852035268,0,0,-10.961006,31.2, 5.8, 4.1,0,0,1024,1024,1684,1007,35,0,99,4.147,4.146,4.154,4.141,0,0,16.414,75.11,6,P-GPS,
0.307549032298923,36.8794049938683,5966.85329527,158.136488,0,2.60553157944,14600,2018-03-31 04:39:52,17,0,16.514,5966.85329527,158.136488,0.671082,3.5852035268,0,0,-10.961006,31, 5.7, 4,0,0,1024,1024,1684,1016,34.7,0,99,4.147,4.146,4.154,4.141,0,0,16.414,75.11,6,P-GPS,
0.307548977689868,36.8794050138845,5968.82179927,160.104992,0,2.58613197252,14700,2018-03-31 04:39:52,17,0,16.514,5968.82179927,160.104992,0.671082,3.5852035268,0,0,-10.961006,31, 5.9, 3.9,0,0,1024,1024,1684,1022,34.5,0,99,4.147,4.146,4.154,4.141,0,0,16.414,75.11,6,P-GPS,
0.307548941410578,36.879405015874,5970.46221927,161.745412,0,2.57297580412,14800,2018-03-31 04:39:52,17,0,16.514,5970.46221927,161.745412,0.671082,3.5852035268,0,0,-11.1847,31, 5.7, 4.1,0,0,1024,1024,1684,1023,34.2,0,99,4.147,4.146,4.154,4.141,0,0,16.414,75.11,6,P-GPS,
0.307548918480458,36.8794050171998,5972.10263927,163.385832,0,2.56466215556,14900,2018-03-31 04:39:52,17,0,16.488,5972.10263927,163.385832,0.671082,3.5852035268,0,0,-11.1847,31, 5.7, 4.4,0,0,1024,1024,1684,1022,34,0,99,4.147,4.146,4.154,4.141,0,0,16.414,75.11,6,P-GPS,
0.307548899280289,36.8794050141386,5974.07114327,165.354336,0,2.5575952262,15000,2018-03-31 04:39:52,17,0,16.488,5974.07114327,165.354336,0.671082,3.5852035268,0,0,-11.1847,31, 5.6, 4.6,0,0,1024,1024,1684,1023,33.8,0,99,4.147,4.146,4.154,4.141,0,0,16.414,75.11,6,P-GPS,
0.307548891432818,36.8794050265679,5975.71156327,166.994756,0,2.55505585604,15100,2018-03-31 04:39:52,17,0,16.488,5975.71156327,166.994756,0.671082,3.5852035268,0,0,-11.1847,31, 5.7, 4.3,0,0,1024,1024,1684,1022,33.7,0,99,4.147,4.146,4.154,4.141,0,0,16.414,75.11,6,P-GPS,
0.307548905964238,36.8794050563602,5977.35198327,168.635176,0,2.56112541004,15200,2018-03-31 04:39:53,17,0,16.488,5977.35198327,168.635176,0.671082,3.5852035268,0,0,-11.1847,31, 6.1, 4.1,0,0,1024,1024,1684,1024,33.5,0,99,4.147,4.146,4.154,4.141,0,0,16.414,75.11,6,P-GPS,
0.307548911097093,36.8794050824486,5978.99240327,170.275596,0,2.56371727364,15300,2018-03-31 04:39:53,17,0,16.488,5978.99240327,170.275596,0.671082,3.5852035268,0,0,-10.961006,31, 6.3, 4,0,0,1024,1024,1684,1024,33.4,0,99,4.147,4.146,4.154,4.141,0,0,16.414,75.11,6,P-GPS,
0.307548915296036,36.8794051043171,5980.63282327,171.916016,0,2.56587606636,15400,2018-03-31 04:39:53,17,0,16.488,5980.63282327,171.916016,0.671082,3.5852035268,0,0,-10.961006,31, 6.1, 4,0,0,1024,1024,1684,1024,33.4,0,99,4.147,4.146,4.154,4.141,0,0,16.414,75.11,6,P-GPS,
0.307548886514103,36.8794051161032,5982.60132727,173.88452,0,2.55576123664,15500,2018-03-31 04:39:53,17,0,16.488,5982.60132727,173.88452,0.671082,3.5852035268,0,0,-10.961006,31, 6.1, 4.3,0,0,1024,1024,1684,1024,33.2,0,99,4.147,4.146,4.154,4.141,0,0,16.414,75.11,6,P-GPS,
0.30754884067829,36.8794051276549,5984.24174727,175.52494,0,2.539452181,15600,2018-03-31 04:39:53,17,0,16.488,5984.24174727,175.52494,0.671082,3.5852035268,0,0,-10.961006,31, 6.3, 3.9,0,0,1024,1024,1684,1024,33.1,0,99,4.147,4.146,4.154,4.141,0,0,16.414,75.11,6,P-GPS,
0.307548775345931,36.8794051402278,5985.88216727,177.16536,0,2.51610244272,15700,2018-03-31 04:39:53,17,0,16.488,5985.88216727,177.16536,0.671082,3.5852035268,0,0,-10.961006,31, 6.1, 3.5,0,0,1024,1024,1684,1024,32.9,0,99,4.147,4.146,4.154,4.141,0,0,16.414,75.11,6,P-GPS,
0.307548686110456,36.8794051699736,5989.16300727,180.4462,0,2.48465887216,15900,2018-03-31 04:39:53,17,0,16.514,5989.16300727,180.4462,0.671082,3.5852035268,0,0,-10.961006,31, 5.6, 4.1,0,0,1024,1024,1684,1024,32.8,0,99,4.145,4.143,4.15,4.138,0,0,16.378,75.11,6,P-GPS,
0.307548650537097,36.8794051906194,5991.13151127,182.414704,0,2.47245086652,16000,2018-03-31 04:39:53,17,0,16.514,5991.13151127,182.414704,0.671082,3.5852035268,0,0,-10.961006,31, 6, 3.6,0,0,1024,1024,1684,1024,32.8,0,99,4.145,4.143,4.15,4.138,0,0,16.378,75.11,6,P-GPS,
0.307548620248853,36.8794052022024,5992.77193127,184.055124,0,2.46186687668,16100,2018-03-31 04:39:54,17,0,16.514,5992.77193127,184.055124,0.671082,3.5852035268,0,0,-11.1847,31, 6.2, 3.3,0,0,1024,1024,1684,1024,32.7,0,99,4.145,4.143,4.15,4.138,0,0,16.378,75.11,6,P-GPS,
0.307548631905255,36.8794052017743,5994.41235127,185.695544,0,2.46608275608,16200,2018-03-31 04:39:54,17,0,16.514,5994.41235127,185.695544,0.671082,3.5852035268,0,0,-10.961006,31, 6.3, 3.6,0,0,1024,1024,1684,1024,32.6,0,99,4.145,4.143,4.15,4.138,0,0,16.378,75.11,6,P-GPS,
0.307548635969852,36.8794051996832,5996.05277127,187.335964,0,2.46748367476,16300,2018-03-31 04:39:54,17,0,16.514,5996.05277127,187.335964,0.671082,3.5852035268,0,0,-10.961006,31, 6.3, 3.7,0,0,1024,1024,1684,1024,32.6,0,99,4.145,4.143,4.15,4.138,0,0,16.378,75.11,6,P-GPS,
0.30754863931549,36.8794052059344,5997.69319127,188.976384,0,2.46892396352,16400,2018-03-31 04:39:54,17,0,16.514,5997.69319127,188.976384,0.671082,3.5852035268,0,0,-10.961006,31, 6.7, 3.8,0,0,1024,1024,1684,1024,32.5,0,99,4.145,4.143,4.15,4.138,0,0,16.378,75.11,6,P-GPS,
0.30754863746232,36.8794051960708,5999.66169527,190.944888,0,2.4678970606,16500,2018-03-31 04:39:54,17,0,16.514,5999.66169527,190.944888,0.671082,3.5852035268,0,0,-11.1847,31, 6.7, 4.4,0,0,1024,1024,1684,1024,32.4,0,99,4.145,4.143,4.15,4.138,0,0,16.378,75.11,6,P-GPS,
0.307548642110714,36.8794051764123,6001.30211527,192.585308,0,2.46889443596,16600,2018-03-31 04:39:54,17,0,16.514,6001.30211527,192.585308,0.671082,3.5852035268,0,0,-10.961006,31.1, 6.5, 4.7,0,0,1024,1024,1684,1024,32.4,0,99,4.145,4.143,4.15,4.138,0,0,16.378,75.11,6,P-GPS,
0.307548639432738,36.8794051652614,6002.94253527,194.225728,0,2.46754272988,16700,2018-03-31 04:39:54,17,0,16.514,6002.94253527,194.225728,0.671082,3.5852035268,0,0,-11.1847,31.1, 6.5, 4.5,0,0,1024,1024,1684,1024,32.3,0,99,4.145,4.143,4.15,4.138,0,0,16.378,75.11,6,P-GPS,
0.307548652612549,36.8794051559635,6004.58295527,195.866148,0,2.47201779564,16800,2018-03-31 04:39:54,17,0,16.514,6004.58295527,195.866148,0.671082,3.5852035268,0,0,-10.961006,31, 6.4, 4.4,0,0,1024,1024,1684,1024,32.3,0,99,4.145,4.143,4.15,4.138,0,0,16.378,75.11,6,P-GPS,
0.307548662380771,36.8794051398576,6006.22337527,197.506568,0,2.47503616844,16900,2018-03-31 04:39:54,17,0,16.435,6006.22337527,197.506568,0.671082,3.5852035268,0,0,-10.961006,31.1, 6.5, 4.4,0,0,1024,1024,1684,1024,32.3,0,99,4.142,4.141,4.149,4.136,0,0,16.344,75.11,6,P-GPS,
0.307548606388352,36.8794050815157,6008.19187927,199.475072,0,2.45286753256,17000,2018-03-31 04:39:54,17,0,16.435,6008.19187927,199.475072,0.671082,3.5852035268,0,0,-10.961006,31.1, 6.4, 4.6,0,0,1024,1024,1684,1024,32.2,0,99,4.142,4.141,4.149,4.136,0,0,16.344,75.11,6,P-GPS,
0.307548540128594,36.8794049935094,6009.83229927,201.115492,0,2.42635178368,17100,2018-03-31 04:39:55,17,0,16.435,6009.83229927,201.115492,0.671082,3.5852035268,0,0,-10.961006,31, 5.8, 5,0,0,1024,1024,1684,1024,32.2,0,99,4.142,4.141,4.149,4.136,0,0,16.344,75.11,6,P-GPS,
0.307548499290476,36.8794049010523,6011.47271927,202.755912,0,2.40938656004,17200,2018-03-31 04:39:55,17,0,16.435,6011.47271927,202.755912,0.671082,3.5852035268,0,0,-10.961006,31, 5.3, 5.3,0,0,1024,1024,1684,1024,32.1,0,99,4.142,4.141,4.149,4.136,0,0,16.344,75.11,6,P-GPS,
0.307548461219898,36.8794048229499,6013.11313927,204.396332,0,2.39410112648,17300,2018-03-31 04:39:55,17,0,16.435,6013.11313927,204.396332,0.671082,3.5852035268,0,0,-10.961006,31, 5, 5,0,0,1024,1024,1684,1024,32.1,0,99,4.142,4.141,4.149,4.136,0,0,16.344,75.11,6,P-GPS,
0.307548400618169,36.8794047597185,6014.75355927,206.036752,0,2.37110571892,17400,2018-03-31 04:39:55,17,0,16.435,6014.75355927,206.036752,0.671082,3.5852035268,0,0,-10.961006,31.1, 5.1, 5,0,0,1024,1024,1684,1024,32.1,0,99,4.142,4.141,4.149,4.136,0,0,16.344,75.11,6,P-GPS,
0.307548349400348,36.8794046902615,6016.72206327,208.005256,0,2.35168642696,17500,2018-03-31 04:39:55,17,0,16.435,6016.72206327,208.005256,0.671082,3.5852035268,0,0,-10.961006,31, 5.3, 5,0,0,1024,1024,1684,1024,32,0,99,4.142,4.141,4.149,4.136,0,0,16.344,75.11,6,P-GPS,
0.30754831567283,36.8794046163133,6018.36248327,209.645676,0,2.33889115096,17600,2018-03-31 04:39:55,17,0,16.435,6018.36248327,209.645676,0.671082,3.5852035268,0,0,-10.961006,31, 5.2, 5.4,0,0,1024,1024,1684,1024,32,0,99,4.142,4.141,4.149,4.136,0,0,16.344,75.11,6,P-GPS,
0.307548269192967,36.8794045482866,6020.00290327,211.286096,0,2.3217520428,17700,2018-03-31 04:39:55,17,0,16.435,6020.00290327,211.286096,0.671082,3.5852035268,0,0,-10.961006,31, 5.4, 5.6,0,0,1024,1024,1684,1024,32,0,99,4.142,4.141,4.149,4.136,0,0,16.344,75.11,6,P-GPS,
0.307548222344262,36.8794045089667,6021.64332327,212.926516,0,2.3046752706,17800,2018-03-31 04:39:55,17,0,16.435,6021.64332327,212.926516,0.671082,3.5852035268,0,0,-10.961006,31, 5.2, 5.4,0,0,1024,1024,1684,1024,31.9,0,99,4.142,4.141,4.149,4.136,0,0,16.344,75.11,6,P-GPS,
0.307548160476418,36.8794044644464,6023.28374327,214.566936,0,2.28223104416,17900,2018-03-31 04:39:55,17,0,16.461,6023.28374327,214.566936,0.671082,3.5852035268,0,0,-10.961006,31, 5.1, 5,0,0,1024,1024,1684,1024,31.9,0,99,4.137,4.138,4.146,4.134,0,0,16.204,75.11,6,P-GPS,
0.307548114365398,36.8794044206468,6024.92416327,216.207356,0,2.2656496788,18000,2018-03-31 04:39:55,17,0,16.461,6024.92416327,216.207356,0.671082,3.5852035268,0,0,-11.1847,31, 5.2, 4.6,0,0,1024,1024,1684,1024,31.9,0,99,4.137,4.138,4.146,4.134,0,0,16.204,75.11,6,P-GPS,
0.307548075611687,36.8794043615462,6026.89266727,218.17586,0,2.2520177886,18100,2018-03-31 04:39:55,17,0,16.461,6026.89266727,218.17586,0.671082,3.5852035268,0,0,-11.1847,31, 5.3, 4.8,0,0,1024,1024,1684,1024,31.8,0,99,4.137,4.138,4.146,4.134,0,0,16.204,75.11,6,P-GPS,
0.30754806968578,36.8794043089987,6028.53308727,219.81628,0,2.25047907464,18200,2018-03-31 04:39:56,17,0,16.461,6028.53308727,219.81628,0.671082,3.5852035268,0,0,-11.1847,31, 5.6, 4.9,0,0,1024,1024,1684,1024,31.8,0,99,4.137,4.138,4.146,4.134,0,0,16.204,75.11,6,P-GPS,
0.30754806774956,36.8794042361002,6030.17350727,221.4567,0,2.25090886468,18300,2018-03-31 04:39:56,17,0,16.461,6030.17350727,221.4567,0.671082,3.5852035268,0,0,-11.1847,31.1, 6.1, 5.6,0,0,1024,1024,975,1024,31.8,0,99,4.137,4.138,4.146,4.134,0,0,16.204,75.11,6,P-GPS,
0.30754807483492,36.8794041610496,6031.81392727,223.09712,0,2.25498366796,18400,2018-03-31 04:39:56,17,0,16.461,6031.81392727,223.09712,0.671082,3.5852035268,0,0,-10.961006,31.2, 6.2, 6.1,0,0,1024,1024,1024,1024,31.8,0,99,4.137,4.138,4.146,4.134,0,0,16.204,75.11,6,P-GPS,
0.307548084015273,36.8794040665096,6033.45434727,224.73754,0,2.2606792062,18500,2018-03-31 04:39:56,17,0,16.461,6033.45434727,224.73754,0.671082,3.5852035268,0,0,-10.06623,31.3, 6.9, 7.8,0,0,1024,1024,1024,1024,31.7,0,99,4.137,4.138,4.146,4.134,0,0,16.204,75.11,6,P-GPS,
0.307548139305017,36.8794039815171,6035.09476727,226.37796,0,2.28333012556,18600,2018-03-31 04:39:56,17,0,16.461,6035.09476727,226.37796,0.671082,3.5852035268,0.223694,0,-8.724066,31.4, 7.7, 8.9,0,0,1024,1024,1024,1024,31.7,0,99,4.137,4.138,4.146,4.134,0,0,16.204,75.11,6,P-GPS,
0.307548189960211,36.8794038976251,6036.07901927,227.362212,0.223694,2.30462933884,18700,2018-03-31 04:39:56,17,0,16.461,6036.07901927,227.362212,0.671082,3.5852035268,0.223694,0,-7.158208,31.3, 7.4, 8.5,0,0,1024,1024,1024,1024,31.7,0,99,4.137,4.138,4.146,4.134,0,0,16.204,75.11,6,P-GPS,
0.307548267291759,36.8794038229431,6037.06327127,228.346464,0.223694,2.33557750256,18800,2018-03-31 04:39:56,17,0,16.461,6037.06327127,228.346464,0.671082,3.5852035268,0.223694,0,-5.59235,31.3, 7.2, 8.3,0,0,1024,1024,889,1024,31.6,0,99,4.137,4.138,4.146,4.134,0,0,16.204,75.11,6,P-GPS,
0.307548365424237,36.8794037271383,6037.71943927,229.002632,0.223694,2.37524941984,18900,2018-03-31 04:39:56,17,0,16.461,6037.71943927,229.002632,0.671082,3.5852035268,0.223694,0,-4.026492,31.4, 7.7, 9,0,0,1024,1024,669,1024,31.6,0,99,4.137,4.138,4.146,4.134,0,0,16.204,75.11,6,P-GPS,
0.307548503182457,36.8794036194349,6038.37560727,229.6588,0.223694,2.43022317488,19000,2018-03-31 04:39:56,17,0,16.461,6038.37560727,229.6588,0.671082,3.5852035268,0.447388,0,-2.23694,31.5, 8, 9.4,0,0,1024,1024,630,1024,31.6,0,99,4.137,4.138,4.146,4.134,0,0,16.204,75.11,6,P-GPS,
0.307548649400443,36.8794034994552,6038.37560727,229.6588,0.4921268,2.48934719252,19100,2018-03-31 04:39:57,17,0,16.461,6038.37560727,229.6588,0.671082,3.5852035268,0.447388,-0.223694,-0.447388,31.6, 8.5, 9.9,0,0,1024,1024,632,1024,31.5,0,99,4.137,4.138,4.146,4.134,0,0,16.204,75.11,6,P-GPS,
0.307548827274567,36.8794033811102,6038.37560727,229.6588,0.4921268,2.56025926828,19200,2018-03-31 04:39:57,17,0,16.461,6038.37560727,229.6588,0.671082,3.5852035268,0.447388,-0.223694,0.894776,31.5, 8.4, 10.3,0,0,1024,1024,631,1024,31.5,0,99,4.137,4.138,4.146,4.134,0,0,16.204,75.11,6,P-GPS,
0.307548990557018,36.8794032565796,6038.04752327,229.330716,0.4921268,2.62672908668,19300,2018-03-31 04:39:57,17,0,16.461,6038.37560727,229.6588,0.671082,3.5852035268,0.447388,-0.223694,1.565858,31.3, 7.5, 9.6,0,0,1024,1024,631,1024,31.5,0,99,4.137,4.138,4.146,4.134,0,0,16.204,75.11,6,P-GPS,
0.307549161393007,36.879403150922,6037.71943927,229.002632,0.4921268,2.69504929884,19400,2018-03-31 04:39:57,17,0,16.461,6038.37560727,229.6588,0.671082,3.5852035268,0.447388,0,2.23694,31.3, 7.3, 9.4,0,0,1024,1024,599,1024,31.4,0,99,4.137,4.138,4.146,4.134,0,0,16.204,75.11,6,P-GPS,
0.307549279930702,36.8794030785145,6037.39135527,228.674548,0.223694,2.74254273868,19500,2018-03-31 04:39:57,17,0,16.461,6038.37560727,229.6588,0.671082,3.5852035268,0.223694,0,2.684328,31.4, 7.2, 9.3,0,0,1024,1024,622,1024,31.4,0,99,4.137,4.138,4.146,4.134,0,0,16.204,75.11,6,P-GPS,
0.307549343616704,36.8794030728212,6036.73518727,228.01838,0.223694,2.76574155832,19600,2018-03-31 04:39:57,17,0,16.461,6038.37560727,229.6588,0.671082,3.5852035268,0.223694,0,3.131716,31.4, 7.3, 9.3,0,0,1024,1024,629,1024,31.4,0,99,4.137,4.138,4.146,4.134,0,0,16.204,75.11,6,P-GPS,
0.307549349024767,36.8794030830825,6036.40710327,227.690296,0,2.76695874996,19700,2018-03-31 04:39:57,17,0,16.461,6038.37560727,229.6588,0.671082,3.5852035268,0,0,3.131716,31.4, 6.9, 8.8,0,0,1024,1024,629,1024,31.4,0,99,4.137,4.138,4.146,4.134,0,0,16.204,75.11,6,P-GPS,
0.307549324758508,36.8794031128952,6035.75093527,227.034128,0,2.7562008756,19800,2018-03-31 04:39:57,17,0,16.461,6038.37560727,229.6588,0.671082,3.5852035268,0,0,3.131716,31.4, 6.6, 8.4,0,0,1024,1024,634,1024,31.4,0,99,4.137,4.138,4.146,4.134,0,0,16.204,75.11,6,P-GPS,
0.3075492275632,36.8794031912537,6035.42285127,226.706044,0,2.71607292156,19900,2018-03-31 04:39:57,17,0,16.461,6038.37560727,229.6588,0.671082,3.5852035268,0,0,3.131716,31.3, 6.6, 8.6,0,0,1024,1024,639,1024,31.3,0,98,4.133,4.132,4.139,4.125,0,0,16.598,75.11,6,P-GPS,
0.307549088551893,36.8794033408712,6035.09476727,226.37796,0,2.65670284092,20000,2018-03-31 04:39:57,17,0,16.461,6038.37560727,229.6588,0.671082,3.5852035268,0,0,2.908022,31.3, 6.2, 8.3,0,0,1024,1024,644,1024,31.3,0,98,4.133,4.132,4.139,4.125,0,0,16.598,75.11,6,P-GPS,
0.307548878075506,36.8794035236665,6034.76668327,226.049876,0,2.57055782504,20100,2018-03-31 04:39:58,17,0,16.461,6038.37560727,229.6588,0.671082,3.5852035268,0,0,2.908022,31.3, 6.1, 7.7,0,0,1024,1024,648,1024,31.3,0,98,4.133,4.132,4.139,4.125,0,0,16.598,75.11,6,P-GPS,
0.307548669739709,36.8794037069622,6034.43859927,225.721792,0,2.48634194308,20200,2018-03-31 04:39:58,17,0,16.461,6038.37560727,229.6588,0.671082,3.5852035268,-0.223694,0,2.684328,31.2, 5.8, 7.2,0,0,1024,1024,651,1024,31.3,0,98,4.133,4.132,4.139,4.125,0,0,16.598,75.11,6,P-GPS,
0.307548425463339,36.8794038984402,6034.11051527,225.393708,0.223694,2.39010178252,20300,2018-03-31 04:39:58,17,0,16.461,6038.37560727,229.6588,0.671082,3.5852035268,-0.223694,0,2.684328,31.2, 5.4, 6.8,0,0,1024,1024,653,1024,31.3,0,98,4.133,4.132,4.139,4.125,0,0,16.598,75.11,6,P-GPS,
0.30754822070849,36.8794040943824,6033.45434727,224.73754,0.223694,2.3096785516,20400,2018-03-31 04:39:58,17,0,16.461,6038.37560727,229.6588,0.671082,3.5852035268,-0.223694,0.223694,2.684328,31.1, 5.3, 6.4,0,0,1024,1024,653,1024,31.3,0,98,4.133,4.132,4.139,4.125,0,0,16.598,75.11,6,P-GPS,
0.307547967824979,36.8794043064692,6033.12626327,224.409456,0.3131716,2.21337605508,20500,2018-03-31 04:39:58,17,0,16.461,6038.37560727,229.6588,0.671082,3.5852035268,-0.223694,0.223694,2.684328,31.1, 5.1, 6,0,0,1024,1024,653,1024,31.3,0,98,4.133,4.132,4.139,4.125,0,0,16.598,75.11,6,P-GPS,
0.307547712316417,36.8794045426605,6032.79817927,224.081372,0.3131716,2.11857290244,20600,2018-03-31 04:39:58,17,0,16.461,6038.37560727,229.6588,0.671082,3.5852035268,-0.223694,0.223694,2.908022,31.1, 4.8, 5.8,0,0,1024,1024,657,1024,31.3,0,98,4.133,4.132,4.139,4.125,0,0,16.598,75.11,6,P-GPS,
0.307547414896591,36.8794047822836,6032.14201127,223.425204,0.3131716,2.01207027436,20700,2018-03-31 04:39:58,17,0,16.461,6038.37560727,229.6588,0.671082,3.5852035268,-0.223694,0.223694,2.684328,31, 4.8, 5.5,0,0,1024,1024,659,1024,31.3,0,98,4.133,4.132,4.139,4.125,0,0,16.598,75.11,6,P-GPS,
0.307547129212147,36.8794050240765,6031.81392727,223.09712,0.3131716,1.91413720036,20800,2018-03-31 04:39:58,17,0,16.461,6038.37560727,229.6588,0.671082,3.5852035268,-0.223694,0.223694,2.908022,31, 4.6, 4.9,0,0,1024,1024,661,1024,31.3,0,98,4.133,4.132,4.139,4.125,0,0,16.598,75.11,6,P-GPS,
0.307546821324683,36.8794052550344,6031.48584327,222.769036,0.3131716,1.81259192152,20900,2018-03-31 04:39:58,17,0,16.7,6038.37560727,229.6588,0.671082,3.5852035268,-0.223694,0.223694,2.908022,30.9, 4.5, 4.4,0,0,1024,1024,662,1024,31.2,0,98,4.185,4.193,4.206,4.193,0,0,6.952,75.11,6,P-GPS,
0.307546572518796,36.8794054801119,6030.82967527,222.112868,0.3131716,1.73722774588,21000,2018-03-31 04:39:58,17,0,16.7,6038.37560727,229.6588,0.671082,3.5852035268,-0.223694,0.223694,2.908022,31, 4.4, 4.3,0,0,1024,1024,663,1024,31.2,0,98,4.185,4.193,4.206,4.193,0,0,6.952,75.11,6,P-GPS,
0.307546283724838,36.8794056843199,6030.50159127,221.784784,0.3131716,1.65140097148,21100,2018-03-31 04:39:59,17,0,16.7,6038.37560727,229.6588,0.671082,3.5852035268,-0.223694,0.223694,2.684328,30.9, 4.5, 3.9,0,0,1024,1024,663,1024,31.2,0,98,4.185,4.193,4.206,4.193,0,0,6.952,75.11,6,P-GPS,
0.307546013103093,36.8794058850748,6030.17350727,221.4567,0.3131716,1.57740162528,21200,2018-03-31 04:39:59,17,0,16.7,6038.37560727,229.6588,0.671082,3.5852035268,-0.223694,0.223694,2.684328,30.9, 4.6, 3.7,0,0,1024,1024,667,1024,31.2,0,98,4.185,4.193,4.206,4.193,0,0,6.952,75.11,6,P-GPS,
0.307545730089297,36.8794060678261,6029.51733927,220.800532,0.3131716,1.50315293524,21300,2018-03-31 04:39:59,17,0,16.7,6038.37560727,229.6588,0.671082,3.5852035268,-0.223694,0.223694,2.908022,30.9, 4.5, 3.6,0,0,1024,1024,672,1024,31.2,0,98,4.185,4.193,4.206,4.193,0,0,6.952,75.11,6,P-GPS,
0.307545508635977,36.8794062613606,6029.18925527,220.472448,0.3131716,1.45754269756,21400,2018-03-31 04:39:59,17,0,16.7,6038.37560727,229.6588,0.671082,3.5852035268,-0.223694,0.223694,2.684328,31, 4.6, 3.4,0,0,1024,1024,672,1024,31.2,0,98,4.185,4.193,4.206,4.193,0,0,6.952,75.11,6,P-GPS,
0.307545236694786,36.879406446536,6028.86117127,220.144364,0.3131716,1.40108928368,21500,2018-03-31 04:39:59,17,0,16.7,6038.37560727,229.6588,0.671082,3.5852035268,-0.223694,0.223694,2.684328,31, 4.6, 3.3,0,0,1024,1024,673,1024,31.2,0,98,4.185,4.193,4.206,4.193,0,0,6.952,75.11,6,P-GPS,
0.307544988648568,36.879406638348,6028.20500327,219.488196,0.3131716,1.36152235328,21600,2018-03-31 04:39:59,17,0,16.7,6038.37560727,229.6588,0.671082,3.5852035268,0,0.223694,2.684328,30.9, 4.6, 3.3,0,0,1024,1024,672,1024,31.2,0,98,4.185,4.193,4.206,4.193,0,0,6.952,75.11,6,P-GPS,
0.307544699295646,36.8794068352166,6027.87691927,219.160112,0.223694,1.32013127584,21700,2018-03-31 04:39:59,17,0,16.7,6038.37560727,229.6588,0.671082,3.5852035268,0,0.223694,2.460634,30.9, 4.4, 2.9,0,0,1024,1024,674,1024,31.2,0,98,4.185,4.193,4.206,4.193,0,0,6.952,75.11,6,P-GPS,
0.307544483147796,36.8794070301871,6027.54883527,218.832028,0.223694,1.30866802088,21800,2018-03-31 04:39:59,17,0,16.7,6038.37560727,229.6588,0.671082,3.5852035268,0,0.223694,2.460634,30.9, 4.5, 2.7,0,0,1024,1024,673,1024,31.2,0,98,4.185,4.193,4.206,4.193,0,0,6.952,75.11,6,P-GPS,
0.307544242374209,36.8794072144527,6026.89266727,218.17586,0.223694,1.296916052,21900,2018-03-31 04:39:59,17,0,16.7,6038.37560727,229.6588,0.671082,3.5852035268,0,0.223694,2.684328,30.9, 4.7, 2.9,0,0,1024,1024,673,1024,31.2,0,98,4.185,4.193,4.206,4.193,0,0,9.702,75.11,6,P-GPS,
0.307544043608981,36.8794073669718,6026.56458327,217.847776,0.223694,1.29439636688,22000,2018-03-31 04:39:59,17,0,16.7,6038.37560727,229.6588,0.671082,3.5852035268,0,0,2.684328,30.9, 4.4, 3.1,0,0,1024,1024,673,1024,31.2,0,98,4.185,4.193,4.206,4.193,0,0,9.702,75.11,6,P-GPS,
0.30754378827914,36.8794075210216,6026.23649927,217.519692,0,1.2876640832,22100,2018-03-31 04:40:00,17,0,16.7,6038.37560727,229.6588,0.671082,3.5852035268,0,0,2.460634,30.9, 4.3, 3,0,0,1024,1024,677,1024,31.2,0,98,4.185,4.193,4.206,4.193,0,0,9.702,75.11,6,P-GPS,
