latitude,longitude,altitude(feet),ascent(feet),speed(mph),distance(feet),time(millisecond),datetime(utc),satellites,voltage(v),max_altitude(feet),max_ascent(feet),max_speed(mph),max_distance(feet),compass_heading(degrees), pitch(degrees), roll(degrees),isPhoto,isVideo,rc_elevator,rc_aileron,rc_throttle,rc_rudder,gimbal_heading(degrees),gimbal_pitch(degrees),battery_percent,voltageCell1,voltageCell2,voltageCell3,voltageCell4,voltageCell5,voltageCell6,battery_temperature(f),flycStateRaw,flycState,message
0.307985358990954,36.8793943399502,5801.7382138708,0,0,0,0,,19,0,5801.7382138708,0,0,0,17.5, -1, 1,0,0,1024,1024,1024,1024,22,0,98,4.261,4.262,4.261,4.262,0,0,85.91,41,Motors_Started,
0.307985387531064,36.8793943392388,5801.7382138708,0,0,0.0104160764488,100,2017-11-14 13:39:40,19,17.039,5801.7382138708,0,0,0.0104160764488,17.5, -0.9, 1,0,0,1024,1024,1024,1024,22,0,98,4.261,4.262,4.261,4.262,0,0,85.91,41,Motors_Started,Setting new Return-To-Home altitude to 30m (98 ft). Setting new Maximum Flight Altitude to 120m (394 ft)
0.307985409820798,36.8793943340973,5801.7382138708,0,0,0.0186677827496,200,2017-11-14 13:39:40,19,17.039,5801.7382138708,0,0,0.0186677827496,17.5, -0.9, 1,0,0,1024,1024,1024,1024,22.1,0,98,4.261,4.262,4.261,4.262,0,0,85.91,41,Motors_Started,
0.307985427937441,36.879394334422,5801.7382138708,0,0,0.0252358275792,300,2017-11-14 13:39:40,19,17.039,5801.7382138708,0,0,0.0252358275792,17.5, -0.9, 1,0,0,1024,1024,1024,1024,22,0,98,4.261,4.262,4.261,4.262,0,0,85.91,41,Motors_Started,
0.307985438336684,36.8793943319759,5801.7382138708,0,0,0.0290950796712,400,2017-11-14 13:39:40,19,17.039,5801.7382138708,0,0,0.0290950796712,17.5, -0.9, 1,0,0,1024,1024,1024,1024,22.1,0,98,4.261,4.262,4.261,4.262,0,0,85.91,41,Motors_Started,
0.307985447699728,36.8793943329172,5801.7382138708,0,0,0.0324668973644,500,2017-11-14 13:39:40,19,17.039,5801.7382138708,0,0,0.0324668973644,17.5, -0.8, 0.9,0,0,1024,1024,1024,1024,22.1,0,98,4.261,4.262,4.261,4.262,0,0,85.91,41,Motors_Started,
0.30798544727847,36.8793943289389,5801.7382138708,0,0,0.0324612215112,600,2017-11-14 13:39:40,19,17.039,5801.7382138708,0,0,0.0324668973644,17.5, -0.6, 0.8,0,0,1024,1024,1024,1024,22,0,98,4.261,4.262,4.261,4.262,0,0,85.91,41,Motors_Started,
0.307985450934022,36.8793943294897,5801.7382138708,0,0,0.033761812104,700,2017-11-14 13:39:40,19,17.039,5801.7382138708,0,0,0.033761812104,17.5, -0.6, 0.8,0,0,1024,1024,1024,1024,22,0,98,4.261,4.262,4.261,4.262,0,0,85.91,41,Motors_Started,
0.307985448156202,36.8793943283795,5801.7382138708,0,0,0.0328046598424,800,2017-11-14 13:39:41,19,17.039,5801.7382138708,0,0,0.033761812104,17.5, -0.6, 0.8,0,0,1024,1024,1024,1024,22,0,98,4.261,4.262,4.261,4.262,0,0,85.91,41,Motors_Started,
0.307985449535087,36.8793943313188,5801.7382138708,0,0,0.033184712348,900,2017-11-14 13:39:41,19,17.039,5801.7382138708,0,0,0.033761812104,17.5, -0.6, 0.8,0,0,389,364,364,1683,22,0,98,4.261,4.262,4.261,4.262,0,0,85.91,41,Motors_Started,
0.307985444597034,36.8793943630795,5801.7382138708,0,0,0.0323532162584,1000,2017-11-14 13:39:41,19,17.039,5801.7382138708,0,0,0.033761812104,17.5, -0.5, 0.8,0,0,958,804,774,1163,22,0,98,4.261,4.262,4.261,4.262,0,0,85.91,41,Motors_Started,
0.30798544152243,36.8793943920173,5801.7382138708,0,0,0.035603019512,1100,2017-11-14 13:39:41,19,17.039,5801.7382138708,0,0,0.035603019512,17.5, -0.4, 0.6,0,0,1024,1024,1024,1024,21.2,0,98,4.261,4.262,4.261,4.262,0,0,85.91,41,Motors_Started,
0.307985438836006,36.8793944205344,5801.7382138708,0,0,0.041388780852,1200,2017-11-14 13:39:41,19,17.039,5801.7382138708,0,0,0.041388780852,17.5, -0.7, 0.8,0,0,1024,1024,1024,1024,19.6,0,98,4.261,4.262,4.261,4.262,0,0,85.91,41,Motors_Started,
0.307985442057272,36.8793944474788,5801.7382138708,0,0,0.049573820484,1300,2017-11-14 13:39:41,19,17.039,5801.7382138708,0,0,0.049573820484,17.5, -0.8, 0.9,0,0,1024,1024,1024,1024,19,0,98,4.261,4.262,4.261,4.262,0,0,85.91,41,Motors_Started,
0.307985438091298,36.8793944613196,5801.7382138708,0,0,0.052855316652,1400,2017-11-14 13:39:41,19,17.039,5801.7382138708,0,0,0.052855316652,17.5, -0.5, 0.7,0,0,1024,1024,1024,1024,18.7,0,98,4.261,4.262,4.261,4.262,0,0,85.91,41,Motors_Started,
0.307985432558863,36.8793944686735,5801.7382138708,0,0,0.054093177584,1500,2017-11-14 13:39:41,19,17.039,5801.7382138708,0,0,0.054093177584,17.5, -0.3, 0.6,0,0,1024,1024,1024,1024,18.5,0,98,4.261,4.262,4.261,4.262,0,0,85.91,41,Motors_Started,
0.307985428837665,36.8793944726633,5801.7382138708,0,0,0.0547162091,1600,2017-11-14 13:39:41,19,17.039,5801.7382138708,0,0,0.0547162091,17.5, -0.6, 0.8,0,0,1024,1024,1024,1024,18.3,0,98,4.261,4.262,4.261,4.262,0,0,85.91,10,Assisted_Takeoff,
0.30798543066712,36.8793944822767,5801.7382138708,0,0,0.058140093724,1700,2017-11-14 13:39:41,19,17.039,5801.7382138708,0,0,0.058140093724,17.5, -0.8, 1,0,0,1024,1024,1024,1024,18.2,0,98,4.261,4.262,4.261,4.262,0,0,85.91,10,Assisted_Takeoff,
0.307985430111312,36.8793944826367,5801.7382138708,0,0,0.058166668528,1800,2017-11-14 13:39:42,19,17.039,5801.7382138708,0,0,0.058166668528,17.5, -0.9, 1,0,0,1024,1024,1024,1024,18.1,0,98,4.261,4.262,4.261,4.262,0,0,85.91,10,Assisted_Takeoff,
0.307985430457763,36.879394486194,5801.7382138708,0,0,0.05938648484,1900,2017-11-14 13:39:42,19,17.039,5801.7382138708,0,0,0.05938648484,17.5, -0.7, 0.9,0,0,1024,1024,1024,1024,18.1,0,98,4.261,4.262,4.261,4.262,0,0,85.91,10,Assisted_Takeoff,
0.307985423934827,36.8793944760542,5801.7382138708,0,0,0.055020342968,2000,2017-11-14 13:39:42,19,17.039,5801.7382138708,0,0,0.05938648484,17.5, -0.7, 0.8,0,0,1024,1024,1024,1024,18,0,98,4.261,4.262,4.261,4.262,0,0,85.91,10,Assisted_Takeoff,
0.307985422276054,36.87939447609,5801.7382138708,0,0,0.054774279968,2100,2017-11-14 13:39:42,19,17.039,5801.7382138708,0,0,0.05938648484,17.5, -0.7, 0.9,0,0,1024,1024,1024,1024,18,0,98,4.258,4.26,4.258,4.26,0,0,85.91,10,Assisted_Takeoff,
0.307985419774153,36.8793945044112,5801.7382138708,0,0,0.06396981832,2200,2017-11-14 13:39:42,19,17.039,5801.7382138708,0,0,0.06396981832,17.5, -0.8, 0.9,0,0,1024,1024,1024,1024,18,0,98,4.258,4.26,4.258,4.26,0,0,85.91,10,Assisted_Takeoff,
0.307985419027104,36.8793945349953,5801.7382138708,0,0,0.074456039128,2300,2017-11-14 13:39:42,19,17.039,5801.7382138708,0,0,0.074456039128,17.5, -0.8, 1,0,0,1024,1024,1024,1024,18,0,98,4.258,4.26,4.258,4.26,0,0,85.91,10,Assisted_Takeoff,
0.307985415422849,36.8793945549674,5801.7382138708,0,0,0.081104661388,2400,2017-11-14 13:39:42,19,17.039,5801.7382138708,0,0,0.081104661388,17.5, -0.8, 1,0,0,1024,1024,1024,1024,18,0,98,4.258,4.26,4.258,4.26,0,0,85.91,10,Assisted_Takeoff,
0.307985415356693,36.8793945747932,5801.7382138708,0,0,0.088114504132,2500,2017-11-14 13:39:42,19,17.039,5801.7382138708,0,0,0.088114504132,17.5, -0.9, 1,0,0,1024,1024,1024,1024,17.9,0,98,4.258,4.26,4.258,4.26,0,0,85.91,10,Assisted_Takeoff,
0.307985413980149,36.8793945827177,5801.7382138708,0,0,0.090815947788,2600,2017-11-14 13:39:42,19,17.039,5801.7382138708,0,0,0.090815947788,17.5, -0.9, 1,0,0,1024,1024,1024,1024,17.9,0,98,4.258,4.26,4.258,4.26,0,0,85.91,10,Assisted_Takeoff,
0.307985414357745,36.879394594635,5801.7382138708,0,0,0.095090554224,2700,2017-11-14 13:39:43,19,17.039,5801.7382138708,0,0,0.095090554224,17.5, -1, 1,0,0,1024,1024,1024,1024,17.9,0,98,4.258,4.26,4.258,4.26,0,0,85.91,10,Assisted_Takeoff,
0.307985412154969,36.8793945933476,5801.7382138708,0,0,0.0944635857,2800,2017-11-14 13:39:43,19,17.039,5801.7382138708,0,0,0.095090554224,17.5, -0.9, 1,0,0,1024,1024,1024,1024,17.9,0,98,4.258,4.26,4.258,4.26,0,0,85.91,10,Assisted_Takeoff,
0.307985411391636,36.8793945987404,5801.7382138708,0,0,0.096334320668,2900,2017-11-14 13:39:43,19,17.039,5801.7382138708,0,0,0.096334320668,17.5, -0.9, 1,0,0,1024,1024,1076,1024,17.9,0,98,4.258,4.26,4.258,4.26,0,0,85.91,10,Assisted_Takeoff,
0.307985408395299,36.8793945915538,5801.7382138708,0,0,0.093549215592,3000,2017-11-14 13:39:43,19,17.039,5801.7382138708,0,0,0.096334320668,17.5, -0.8, 0.9,0,0,1024,1024,1140,1024,17.9,0,98,4.258,4.26,4.258,4.26,0,0,85.91,10,Assisted_Takeoff,
0.30798540781486,36.8793945922933,5801.7382138708,0,0,0.093773296964,3100,2017-11-14 13:39:43,19,17.039,5801.7382138708,0,0,0.096334320668,17.5, -0.8, 0.9,0,0,1024,1024,1200,1024,17.9,0,98,4.258,4.26,4.258,4.26,0,0,85.91,10,Assisted_Takeoff,
0.307985408225228,36.8793945848281,5801.7382138708,0,0,0.09113025226,3200,2017-11-14 13:39:43,19,17.039,5801.7382138708,0,0,0.096334320668,17.5, -0.9, 1,0,0,1024,1024,1251,1024,17.8,0,98,4.258,4.26,4.258,4.26,0,0,85.91,10,Assisted_Takeoff,
0.307985411586031,36.8793945877329,5801.7382138708,0,0,0.09241634154,3300,2017-11-14 13:39:43,19,17.039,5801.7382138708,0,0,0.096334320668,17.5, -0.9, 1,0,0,1024,1024,1300,1024,17.8,0,98,4.258,4.26,4.258,4.26,0,0,85.91,10,Assisted_Takeoff,
0.307985446575186,36.8793945797877,5801.7382138708,0,0,0.093155514792,3400,2017-11-14 13:39:43,19,17.039,5801.7382138708,0,0,0.096334320668,17.5, -0.8, 0.9,0,0,1024,1024,1344,1024,17.8,0,98,4.258,4.26,4.258,4.26,0,0,85.91,10,Assisted_Takeoff,
0.307985476798903,36.8793945776647,5801.7382138708,0,0,0.096795278688,3500,2017-11-14 13:39:43,19,17.039,5801.7382138708,0,0,0.096795278688,17.4, -0.7, 0.8,0,0,1024,1024,1436,1024,17.8,0,98,4.258,4.26,4.258,4.26,0,0,85.91,10,Assisted_Takeoff,
0.307985466145928,36.8793945663216,5801.7382138708,0,0,0.09137631526,3600,2017-11-14 13:39:43,19,17.039,5801.7382138708,0,0,0.096795278688,17.6, -0.2, 0.7,0,0,1024,1024,1529,1024,17.8,0,98,4.258,4.26,4.258,4.26,0,0,85.91,10,Assisted_Takeoff,
0.30798545949923,36.879394564887,5801.7382138708,0,0,0.089887141984,3700,2017-11-14 13:39:43,19,17.039,5801.7382138708,0,0,0.096795278688,18, 0.7, 1.3,0,0,1024,1024,1583,1024,17.8,0,98,4.258,4.26,4.258,4.26,0,0,85.91,10,Assisted_Takeoff,
0.307985437139982,36.8793945704982,5801.7382138708,0,0,0.088815291556,3800,2017-11-14 13:39:44,19,17.039,5801.7382138708,0,0,0.096795278688,18, 0.8, 1.7,0,0,1024,1024,1670,1024,17.8,0,98,4.258,4.26,4.258,4.26,0,0,85.91,6,GPS_Atti,
0.307985395762848,36.8793946180373,5801.7382138708,0,0,0.102341538708,3900,2017-11-14 13:39:44,19,17.039,5801.7382138708,0,0,0.102341538708,18, 0.7, 0.1,0,0,1024,1024,1684,1024,17.8,0,98,4.258,4.26,4.258,4.26,0,0,85.91,6,GPS_Atti,
0.307985333232736,36.8793946617581,5802.0662978708,0.328084,0,0.117785108756,4000,2017-11-14 13:39:44,19,17.039,5802.0662978708,0.328084,0,0.117785108756,18, 0.8, -0.6,0,0,1024,1024,1684,1024,17.8,0,98,4.258,4.26,4.258,4.26,0,0,85.91,6,GPS_Atti,
0.307985258601046,36.8793946885737,5802.3943818708,0.656168,0,0.132361880876,4100,2017-11-14 13:39:44,19,17.012,5802.3943818708,0.656168,0,0.132361880876,17.8, 1.1, -0.8,0,0,1024,1024,1684,1024,17.8,0,98,4.255,4.257,4.253,4.254,0,0,85.91,6,GPS_Atti,
0.307985142578024,36.8793946529594,5802.7224658708,0.984252,0.223694,0.138837930952,4200,2017-11-14 13:39:44,19,17.012,5802.7224658708,0.984252,0.223694,0.138837930952,17.9, 1.3, -1.2,0,0,1024,1024,1684,1024,17.8,0,98,4.255,4.257,4.253,4.254,0,0,85.91,6,GPS_Atti,Home Point Recorded. RTH Altitude:  30m.
0.307984996174599,36.8793945763632,5803.3786338708,1.64042,0.223694,0.157995083796,4300,2017-11-14 13:39:44,19,17.012,5803.3786338708,1.64042,0.223694,0.157995083796,18.3, -0.4, -1,0,0,1024,1024,1684,1024,17.8,0,98,4.255,4.257,4.253,4.254,0,0,85.91,6,GPS_Atti,
0.30798482269534,36.8793944713492,5804.3628858708,2.624672,0.31540854,0.201454402772,4400,2017-11-14 13:39:44,19,17.012,5804.3628858708,2.624672,0.31540854,0.201454402772,18.8, -2, -0.2,0,0,1024,1024,1684,1024,17.9,0,98,4.255,4.257,4.253,4.254,0,0,85.91,6,GPS_Atti,
0.307984683215575,36.8793943415457,5805.3471378708,3.608924,0.31540854,0.24655676642,4500,2017-11-14 13:39:44,19,17.012,5805.3471378708,3.608924,0.31540854,0.24655676642,19.1, -0.6, 1.5,0,0,1024,1024,1684,1024,17.9,0,98,4.255,4.257,4.253,4.254,0,0,85.91,6,GPS_Atti,
0.307984482848569,36.8793941980239,5806.3313898708,4.593176,0.50107456,0.323826782016,4600,2017-11-14 13:39:44,19,17.012,5806.3313898708,4.593176,0.50107456,0.323826782016,18.8, -0.1, 2.6,0,0,1024,1024,1684,1024,17.9,0,98,4.255,4.257,4.253,4.254,0,0,85.91,6,GPS_Atti,
0.307984174303468,36.8793940503005,5807.6437258708,5.905512,0.70687304,0.444963925,4700,2017-11-14 13:39:44,19,17.012,5807.6437258708,5.905512,0.70687304,0.444963925,18.3, -3.1, 0.9,0,0,1024,1024,1684,1024,17.9,0,98,4.255,4.257,4.253,4.254,0,0,85.91,6,GPS_Atti,
0.307983794935277,36.8793939289108,5809.2841458708,7.545932,0.70687304,0.59001970392,4800,2017-11-14 13:39:45,19,17.012,5809.2841458708,7.545932,0.70687304,0.59001970392,18.1, -6.2, 0.2,0,0,1024,1024,1684,1024,17.9,0,98,4.255,4.257,4.253,4.254,0,0,85.91,6,GPS_Atti,
0.30798348087545,36.8793937782939,5810.5964818708,8.858268,0.50107456,0.71521327748,4900,2017-11-14 13:39:45,19,17.012,5810.5964818708,8.858268,0.70687304,0.71521327748,18, -7.6, 1,0,0,1024,1024,1684,1024,17.9,0,98,4.255,4.257,4.253,4.254,0,0,85.91,6,GPS_Atti,
0.307983231865397,36.8793935638596,5812.2369018708,10.498688,0.31540854,0.82612207368,5000,2017-11-14 13:39:45,19,17.012,5812.2369018708,10.498688,0.70687304,0.82612207368,18, -6.8, 2.2,0,0,1024,1024,1684,1024,17.9,0,98,4.255,4.257,4.253,4.254,0,0,85.91,6,GPS_Atti,
0.307983053904864,36.8793933849984,5813.8773218708,12.139108,0.31540854,0.91032155144,5100,2017-11-14 13:39:45,19,16.656,5813.8773218708,12.139108,0.70687304,0.91032155144,18, -5.5, 2.3,0,0,1024,1024,1684,1024,17.9,0,98,4.231,4.226,4.222,4.223,0,0,85.91,6,GPS_Atti,
0.307982938154759,36.8793931950051,5815.5177418708,13.779528,0.31540854,0.97704071368,5200,2017-11-14 13:39:45,19,16.656,5815.5177418708,13.779528,0.70687304,0.97704071368,17.9, -5.8, 0.9,0,0,1024,1024,1684,1024,17.9,0,98,4.231,4.226,4.222,4.223,0,0,85.91,6,GPS_Atti,
0.3079828428859,36.8793929980283,5817.4862458708,15.748032,0.31540854,1.04039701492,5300,2017-11-14 13:39:45,19,16.656,5817.4862458708,15.748032,0.70687304,1.04039701492,17.9, -6.5, 0.8,0,0,1024,1024,1684,1024,17.9,0,98,4.231,4.226,4.222,4.223,0,0,85.91,6,GPS_Atti,
0.307982758505123,36.879392754137,5819.1266658708,17.388452,0.447388,1.11127956312,5400,2017-11-14 13:39:45,19,16.656,5819.1266658708,17.388452,0.70687304,1.11127956312,17.9, -6.3, 2.3,0,0,1024,1024,1684,1024,17.9,0,98,4.231,4.226,4.222,4.223,0,0,85.91,6,GPS_Atti,
0.307982695297273,36.879392514558,5820.7670858708,19.028872,0.447388,1.17814308232,5500,2017-11-14 13:39:45,19,16.656,5820.7670858708,19.028872,0.70687304,1.17814308232,17.9, -4.9, 3.4,0,0,1024,1024,1684,1024,17.9,0,98,4.231,4.226,4.222,4.223,0,0,85.91,6,GPS_Atti,
0.307982613472237,36.8793922573397,5822.4075058708,20.669292,0.31540854,1.25727694312,5600,2017-11-14 13:39:45,19,16.656,5822.4075058708,20.669292,0.70687304,1.25727694312,17.8, -6, 3.9,0,0,1024,1024,1684,1024,17.9,0,98,4.231,4.226,4.222,4.223,0,0,85.91,6,GPS_Atti,
0.307982517530219,36.8793920253795,5824.0479258708,22.309712,0.31540854,1.33710962284,5700,2017-11-14 13:39:45,19,16.656,5824.0479258708,22.309712,0.70687304,1.33710962284,17.8, -7.1, 4,0,0,1024,1024,1684,1024,17.9,0,98,4.231,4.226,4.222,4.223,0,0,85.91,6,GPS_Atti,
0.307982439956236,36.8793917898756,5825.3602618708,23.622048,0.31540854,1.41416015024,5800,2017-11-14 13:39:46,19,16.656,5825.3602618708,23.622048,0.70687304,1.41416015024,17.7, -7.6, 3.9,0,0,1024,1024,1684,1024,18,0,98,4.231,4.226,4.222,4.223,0,0,85.91,6,GPS_Atti,
0.307982375110986,36.8793916030904,5827.0006818708,25.262468,0.31540854,1.47724414176,5900,2017-11-14 13:39:46,19,16.656,5827.0006818708,25.262468,0.70687304,1.47724414176,17.7, -7.3, 3.2,0,0,1024,1024,1684,1024,17.9,0,98,4.231,4.226,4.222,4.223,0,0,85.91,6,GPS_Atti,
0.30798231687966,36.8793914075858,5828.6411018708,26.902888,0.31540854,1.54158797584,6000,2017-11-14 13:39:46,19,16.656,5828.6411018708,26.902888,0.70687304,1.54158797584,17.8, -7, 3,0,0,1024,1024,1684,1024,17.9,0,98,4.231,4.226,4.222,4.223,0,0,85.91,6,GPS_Atti,
0.307982262821019,36.8793912338716,5830.2815218708,28.543308,0.31540854,1.60009191472,6100,2017-11-14 13:39:46,19,16.272,5830.2815218708,28.543308,0.70687304,1.60009191472,17.7, -7, 3,0,0,1024,1024,1684,1024,18,0,98,4.108,4.109,4.093,4.108,0,0,85.91,6,GPS_Atti,
0.30798220206988,36.8793910724224,5831.9219418708,30.183728,0.31540854,1.6576608142,6200,2017-11-14 13:39:46,19,16.272,5831.9219418708,30.183728,0.70687304,1.6576608142,17.8, -7.5, 2.9,0,0,1024,1024,1684,1024,17.9,0,98,4.108,4.109,4.093,4.108,0,0,85.91,6,GPS_Atti,
0.307982162017486,36.8793909168535,5833.5623618708,31.824148,0.31540854,1.70887800744,6300,2017-11-14 13:39:46,19,16.272,5833.5623618708,31.824148,0.70687304,1.70887800744,17.8, -7.8, 3.9,0,0,1024,1024,1684,1024,18,0,98,4.108,4.109,4.093,4.108,0,0,85.91,6,GPS_Atti,
0.307982140324373,36.8793907447634,5835.2027818708,33.464568,0,1.76055779912,6400,2017-11-14 13:39:46,19,16.272,5835.2027818708,33.464568,0.70687304,1.76055779912,17.7, -7.8, 3.8,0,0,1024,1024,1684,1024,18,0,98,4.108,4.109,4.093,4.108,0,0,85.91,6,GPS_Atti,
0.307982128485789,36.8793905966691,5836.8432018708,35.104988,0,1.80399283988,6500,2017-11-14 13:39:46,19,16.272,5836.8432018708,35.104988,0.70687304,1.80399283988,17.7, -8, 3.3,0,0,1024,1024,1684,1024,18,0,98,4.108,4.109,4.093,4.108,0,0,85.91,6,GPS_Atti,
0.307982144146942,36.8793904426342,5838.4836218708,36.745408,0,1.84326121384,6600,2017-11-14 13:39:46,19,16.272,5838.4836218708,36.745408,0.70687304,1.84326121384,17.7, -8.2, 3.4,0,0,1024,1024,1684,1024,18,0,98,4.108,4.109,4.093,4.108,0,0,85.91,6,GPS_Atti,
0.307982176444279,36.8793902905192,5840.4521258708,38.713912,0.223694,1.87909782916,6700,2017-11-14 13:39:46,19,16.272,5840.4521258708,38.713912,0.70687304,1.87909782916,17.7, -8.4, 4.1,0,0,1024,1024,1684,1024,18,0,98,4.108,4.109,4.093,4.108,0,0,85.91,6,GPS_Atti,
0.307982229093909,36.8793901601905,5842.0925458708,40.354332,0,1.9051345754,6800,2017-11-14 13:39:47,19,16.272,5842.0925458708,40.354332,0.70687304,1.9051345754,17.6, -8.2, 4.3,0,0,1024,1024,1684,1024,18,0,98,4.108,4.109,4.093,4.108,0,0,85.91,6,GPS_Atti,
0.307982290755144,36.8793900502875,5843.7329658708,41.994752,0,1.92420281748,6900,2017-11-14 13:39:47,19,16.272,5843.7329658708,41.994752,0.70687304,1.92420281748,17.6, -7.3, 4.4,0,0,1024,1024,1684,1024,18,0,98,4.108,4.109,4.093,4.108,0,0,85.91,6,GPS_Atti,
0.307982335786302,36.8793899408229,5845.3733858708,43.635172,0,1.9474738156,7000,2017-11-14 13:39:47,19,16.272,5845.3733858708,43.635172,0.70687304,1.9474738156,17.6, -7.3, 4.3,0,0,1024,1024,1684,1024,18,0,98,4.108,4.109,4.093,4.108,0,0,85.91,6,GPS_Atti,
0.307982370768333,36.8793898414055,5847.0138058708,45.275592,0,1.97038392132,7100,2017-11-14 13:39:47,19,16.464,5847.0138058708,45.275592,0.70687304,1.97038392132,17.6, -8.3, 3.8,0,0,1024,1024,1684,1024,18,0,98,4.128,4.13,4.116,4.13,0,0,85.91,6,GPS_Atti,
0.307982414876774,36.8793897486501,5848.9823098708,47.244096,0,1.98992460436,7200,2017-11-14 13:39:47,19,16.464,5848.9823098708,47.244096,0.70687304,1.98992460436,17.6, -8.5, 4.2,0,0,1024,1024,1684,1024,18,0,98,4.128,4.13,4.116,4.13,0,0,85.91,6,GPS_Atti,
0.30798248096066,36.8793896669054,5850.6227298708,48.884516,0,2.00234914544,7300,2017-11-14 13:39:47,19,16.464,5850.6227298708,48.884516,0.70687304,2.00234914544,17.6, -8, 4.5,0,0,1024,1024,1684,1044,18,0,98,4.128,4.13,4.116,4.13,0,0,85.91,6,GPS_Atti,
0.307982527129897,36.8793896304931,5852.2631498708,50.524936,0,2.0049377282,7400,2017-11-14 13:39:47,19,16.464,5852.2631498708,50.524936,0.70687304,2.0049377282,17.6, -7.2, 3.9,0,0,1024,1024,1684,1058,18,0,98,4.128,4.13,4.116,4.13,0,0,85.91,6,GPS_Atti,
0.307982577880965,36.8793895906825,5853.9035698708,52.165356,0,2.00797906688,7500,2017-11-14 13:39:47,19,16.464,5853.9035698708,52.165356,0.70687304,2.00797906688,17.7, -7.2, 4,0,0,1024,1024,1684,1024,18,0,98,4.128,4.13,4.116,4.13,0,0,85.91,6,GPS_Atti,
0.307982617544364,36.8793895246022,5855.5439898708,53.805776,0,2.02162408044,7600,2017-11-14 13:39:47,19,16.464,5855.5439898708,53.805776,0.70687304,2.02162408044,17.9, -7.6, 4.8,0,0,1024,1024,1684,1045,18,0,98,4.128,4.13,4.116,4.13,0,0,85.91,6,GPS_Atti,
0.307982671371767,36.879389472557,5857.1844098708,55.446196,0,2.02857946124,7700,2017-11-14 13:39:47,19,16.464,5857.1844098708,55.446196,0.70687304,2.02857946124,18, -7.1, 4.8,0,0,1024,1024,1684,1045,18.1,0,98,4.128,4.13,4.116,4.13,0,0,85.91,6,GPS_Atti,
0.307982701931961,36.8793894565851,5858.8248298708,57.086616,0,2.0283301174,7800,2017-11-14 13:39:48,19,16.464,5858.8248298708,57.086616,0.70687304,2.02857946124,18, -7, 5,0,0,1024,1024,1684,1038,18.1,0,98,4.128,4.13,4.116,4.13,0,0,85.91,6,GPS_Atti,
0.307982711591585,36.8793894561273,5860.4652498708,58.727036,0,2.02679468428,7900,2017-11-14 13:39:48,19,16.464,5860.4652498708,58.727036,0.70687304,2.02857946124,18, -7.8, 4.6,0,0,1024,1024,1684,1029,18.1,0,98,4.128,4.13,4.116,4.13,0,0,85.91,6,GPS_Atti,
0.307982703331303,36.8793894743915,5862.1056698708,60.367456,0,2.02238195448,8000,2017-11-14 13:39:48,19,16.464,5862.1056698708,60.367456,0.70687304,2.02857946124,18.1, -7.7, 3.8,0,0,1024,1024,1684,1024,18.1,0,98,4.128,4.13,4.116,4.13,0,0,85.91,6,GPS_Atti,
0.307982703086731,36.879389495327,5864.0741738708,62.33596,0,2.01572513012,8100,2017-11-14 13:39:48,19,16.437,5864.0741738708,62.33596,0.70687304,2.02857946124,18.1, -7.5, 3.1,0,0,1024,1024,1684,1026,18.1,0,98,4.128,4.13,4.116,4.13,0,0,85.91,6,GPS_Atti,
0.307982711158419,36.8793894758733,5865.7145938708,63.97638,0,2.02054140324,8200,2017-11-14 13:39:48,19,16.437,5865.7145938708,63.97638,0.70687304,2.02857946124,18.1, -7.6, 2.7,0,0,1024,1024,1684,1028,18.1,0,98,4.128,4.13,4.116,4.13,0,0,85.91,6,GPS_Atti,
0.307982727339249,36.8793894353331,5867.3550138708,65.6168,0,2.03074481564,8300,2017-11-14 13:39:48,19,16.437,5867.3550138708,65.6168,0.70687304,2.03074481564,18, -8, 3.2,0,0,1024,1024,1684,1028,18.1,0,98,4.128,4.13,4.116,4.13,0,0,85.91,6,GPS_Atti,
0.307982738439131,36.8793893745118,5868.9954338708,67.25722,0,2.04843182408,8400,2017-11-14 13:39:48,19,16.437,5868.9954338708,67.25722,0.70687304,2.04843182408,17.9, -8.1, 3.9,0,0,1024,1024,1684,1026,18.1,0,98,4.128,4.13,4.116,4.13,0,0,85.91,6,GPS_Atti,
0.307982753606763,36.8793893258704,5870.6358538708,68.89764,0,2.06158471164,8500,2017-11-14 13:39:48,19,16.437,5870.6358538708,68.89764,0.70687304,2.06158471164,17.9, -8, 4.3,0,0,1024,1024,1684,1024,18.1,0,98,4.128,4.13,4.116,4.13,0,0,85.91,6,GPS_Atti,
0.307982760538846,36.8793893005315,5872.2762738708,70.53806,0,2.0686352368,8600,2017-11-14 13:39:48,19,16.437,5872.2762738708,70.53806,0.70687304,2.0686352368,17.9, -8, 4.4,0,0,1024,1024,1684,1024,18.1,0,98,4.128,4.13,4.116,4.13,0,0,85.91,6,GPS_Atti,
0.307982764504412,36.8793892927954,5873.9166938708,72.17848,0,2.07048234972,8700,2017-11-14 13:39:48,19,16.437,5873.9166938708,72.17848,0.70687304,2.07048234972,18, -7.9, 4.5,0,0,1024,1024,1684,1024,18.1,0,98,4.128,4.13,4.116,4.13,0,0,85.91,6,GPS_Atti,
0.307982785006421,36.8793892841639,5875.5571138708,73.8189,0,2.06987867516,8800,2017-11-14 13:39:49,19,16.437,5875.5571138708,73.8189,0.70687304,2.07048234972,18, -8, 4.5,0,0,1024,1024,1684,1026,18.1,0,98,4.128,4.13,4.116,4.13,0,0,85.91,6,GPS_Atti,
0.307982805022236,36.8793892916328,5877.1975338708,75.45932,0,2.06414376684,8900,2017-11-14 13:39:49,19,16.437,5877.1975338708,75.45932,0.70687304,2.07048234972,18, -8.1, 4.3,0,0,1024,1024,1684,1024,18.1,0,98,4.128,4.13,4.116,4.13,0,0,85.91,6,GPS_Atti,
0.307982811586189,36.8793893190549,5878.8379538708,77.09974,0,2.05413720484,9000,2017-11-14 13:39:49,19,16.437,5878.8379538708,77.09974,0.70687304,2.07048234972,18, -8.1, 4.2,0,0,1024,1024,1684,1026,18.1,0,98,4.128,4.13,4.116,4.13,0,0,85.91,6,GPS_Atti,
0.307982815206016,36.8793893595548,5880.4783738708,78.74016,0,2.04036751936,9100,2017-11-14 13:39:49,19,16.382,5880.4783738708,78.74016,0.70687304,2.07048234972,18, -8.2, 3.9,0,0,1024,1024,1684,1024,18.1,0,98,4.115,4.118,4.101,4.113,0,0,85.91,6,GPS_Atti,
0.30798281731536,36.8793893971625,5882.1187938708,80.38058,0,2.027805183,9200,2017-11-14 13:39:49,19,16.382,5882.1187938708,80.38058,0.70687304,2.07048234972,18, -8.3, 3.7,0,0,1024,1024,1684,1024,18.1,0,98,4.115,4.118,4.101,4.113,0,0,85.91,6,GPS_Atti,
0.307982829421518,36.8793894429281,5884.0872978708,82.349084,0,2.0109416654,9300,2017-11-14 13:39:49,19,16.382,5884.0872978708,82.349084,0.70687304,2.07048234972,18, -8.1, 3.6,0,0,1024,1024,1684,1024,18.1,0,98,4.115,4.118,4.101,4.113,0,0,85.91,6,GPS_Atti,
0.307982842523877,36.8793894996123,5885.7277178708,83.989504,0,1.99038064112,9400,2017-11-14 13:39:49,19,16.382,5885.7277178708,83.989504,0.70687304,2.07048234972,18.1, -7.9, 3.5,0,0,1024,1024,1684,1024,18.2,0,98,4.115,4.118,4.101,4.113,0,0,85.91,6,GPS_Atti,
0.307982861455556,36.8793895608501,5887.3681378708,85.629924,0,1.96737539104,9500,2017-11-14 13:39:49,19,16.382,5887.3681378708,85.629924,0.70687304,2.07048234972,18, -7.7, 3.4,0,0,1024,1024,1684,1024,18.1,0,98,4.115,4.118,4.101,4.113,0,0,85.91,6,GPS_Atti,
0.307982871540612,36.8793896184017,5889.0085578708,87.270344,0,1.94707355312,9600,2017-11-14 13:39:49,19,16.382,5889.0085578708,87.270344,0.70687304,2.07048234972,18.1, -7.7, 3.4,0,0,1024,1024,1684,1024,18.2,0,98,4.115,4.118,4.101,4.113,0,0,85.91,6,GPS_Atti,
0.307982886353243,36.879389674281,5890.6489778708,88.910764,0,1.92652237136,9700,2017-11-14 13:39:50,19,16.382,5890.6489778708,88.910764,0.70687304,2.07048234972,18.1, -7.8, 3.5,0,0,1024,1024,1684,1025,18.2,0,98,4.115,4.118,4.101,4.113,0,0,85.91,6,GPS_Atti,
0.307982919667849,36.8793897565327,5892.2893978708,90.551184,0,1.89431764592,9800,2017-11-14 13:39:50,19,16.382,5892.2893978708,90.551184,0.70687304,2.07048234972,18.1, -7.8, 3.6,0,0,1024,1024,1684,1024,18.2,0,98,4.115,4.118,4.101,4.113,0,0,85.91,6,GPS_Atti,
0.30798295686039,36.8793898402779,5893.9298178708,92.191604,0,1.86097118816,9900,2017-11-14 13:39:50,19,16.382,5893.9298178708,92.191604,0.70687304,2.07048234972,18.1, -7.7, 3.5,0,0,1024,1024,1684,1024,18.2,0,98,4.115,4.118,4.101,4.113,0,0,85.91,6,GPS_Atti,
0.307982979003158,36.879389922737,5895.5702378708,93.832024,0,1.83063982236,10000,2017-11-14 13:39:50,19,16.382,5895.5702378708,93.832024,0.70687304,2.07048234972,18.1, -7.6, 3.4,0,0,1024,1024,1684,1024,18.2,0,98,4.115,4.118,4.101,4.113,0,0,85.91,6,GPS_Atti,
0.307983001192234,36.8793899980227,5897.2106578708,95.472444,0,1.80262801044,10100,2017-11-14 13:39:50,19,16.272,5897.2106578708,95.472444,0.70687304,2.07048234972,18.1, -7.7, 3.2,0,0,1024,1024,1684,1024,18.2,0,98,4.108,4.108,4.094,4.106,0,0,85.91,6,GPS_Atti,
0.307983005611525,36.8793900910804,5899.1791618708,97.440948,0,1.77208667088,10200,2017-11-14 13:39:50,19,16.272,5899.1791618708,97.440948,0.70687304,2.07048234972,18.1, -7.6, 3.3,0,0,1024,1024,1684,1024,18.2,0,98,4.108,4.108,4.094,4.106,0,0,85.91,6,GPS_Atti,
0.30798301370876,36.8793901767649,5900.8195818708,99.081368,0,1.74335307416,10300,2017-11-14 13:39:50,19,16.272,5900.8195818708,99.081368,0.70687304,2.07048234972,18.1, -7.5, 3.3,0,0,1024,1024,1684,1024,18.2,0,98,4.108,4.108,4.094,4.106,0,0,85.91,6,GPS_Atti,
0.307983001295233,36.8793902428548,5902.4600018708,100.721788,0,1.7246391628,10400,2017-11-14 13:39:50,19,16.272,5902.4600018708,100.721788,0.70687304,2.07048234972,18.1, -7.5, 3.3,0,0,1024,1024,1684,1024,18.2,0,98,4.108,4.108,4.094,4.106,0,0,85.91,6,GPS_Atti,
0.307982995487489,36.8793903001076,5904.1004218708,102.362208,0,1.70763456908,10500,2017-11-14 13:39:50,19,16.272,5904.1004218708,102.362208,0.70687304,2.07048234972,18.1, -7.7, 3.2,0,0,1024,1024,1684,1026,18.2,0,98,4.108,4.108,4.094,4.106,0,0,85.91,6,GPS_Atti,
0.307982975598081,36.8793903751907,5905.7408418708,104.002628,0,1.68777564456,10600,2017-11-14 13:39:50,19,16.272,5905.7408418708,104.002628,0.70687304,2.07048234972,18.1, -7.9, 3.2,0,0,1024,1024,1684,1027,18.2,0,98,4.108,4.108,4.094,4.106,0,0,85.91,6,GPS_Atti,
0.307982968577554,36.8793904428215,5907.3812618708,105.643048,0,1.66801514524,10700,2017-11-14 13:39:50,19,16.272,5907.3812618708,105.643048,0.70687304,2.07048234972,18.1, -8, 3.3,0,0,1024,1024,1684,1030,18.2,0,98,4.108,4.108,4.094,4.106,0,0,85.91,6,GPS_Atti,
0.307982958113783,36.8793904999109,5909.3497658708,107.611552,0,1.65231632584,10800,2017-11-14 13:39:51,19,16.272,5909.3497658708,107.611552,0.70687304,2.07048234972,18.1, -7.9, 3.3,0,0,1024,1024,1684,1030,18.2,0,98,4.108,4.108,4.094,4.106,0,0,85.91,6,GPS_Atti,
0.307982960950736,36.8793905533877,5910.9901858708,109.251972,0,1.635252677,10900,2017-11-14 13:39:51,19,16.272,5910.9901858708,109.251972,0.70687304,2.07048234972,18.1, -7.9, 3.2,0,0,1024,1024,1684,1028,18.2,0,98,4.108,4.108,4.094,4.106,0,0,85.91,6,GPS_Atti,
0.307982961532701,36.8793906353254,5912.6306058708,110.892392,0,1.60996068144,11000,2017-11-14 13:39:51,19,16.272,5912.6306058708,110.892392,0.70687304,2.07048234972,18.1, -7.9, 3.2,0,0,1024,1024,1684,1027,18.2,0,98,4.108,4.108,4.094,4.106,0,0,85.91,6,GPS_Atti,
0.307982973157145,36.8793907093532,5914.2710258708,112.532812,0,1.58501973576,11100,2017-11-14 13:39:51,19,16.354,5914.2710258708,112.532812,0.70687304,2.07048234972,18.1, -7.7, 3.2,0,0,1024,1024,1684,1024,18.2,0,97,4.103,4.104,4.089,4.1,0,0,85.91,6,GPS_Atti,
0.307982978066497,36.8793908094678,5915.9114458708,114.173232,0,1.55362209696,11200,2017-11-14 13:39:51,19,16.354,5915.9114458708,114.173232,0.70687304,2.07048234972,18.1, -7.7, 3.3,0,0,1024,1024,1684,1024,18.2,0,97,4.103,4.104,4.089,4.1,0,0,85.91,6,GPS_Atti,
0.307982989788546,36.8793908993044,5917.5518658708,115.813652,0,1.52412734536,11300,2017-11-14 13:39:51,19,16.354,5917.5518658708,115.813652,0.70687304,2.07048234972,18.1, -7.6, 3.1,0,0,1024,1024,1684,1024,18.2,0,97,4.103,4.104,4.089,4.1,0,0,85.91,6,GPS_Atti,
0.307983023353321,36.8793909802531,5919.1922858708,117.454072,0,1.49287406352,11400,2017-11-14 13:39:51,19,16.354,5919.1922858708,117.454072,0.70687304,2.07048234972,18.1, -7.5, 3.1,0,0,1024,1024,1684,1026,18.2,0,97,4.103,4.104,4.089,4.1,0,0,85.91,6,GPS_Atti,
0.307983064747553,36.8793910437941,5920.8327058708,119.094492,0,1.46521986316,11500,2017-11-14 13:39:51,19,16.354,5920.8327058708,119.094492,0.70687304,2.07048234972,18.1, -7.5, 3.1,0,0,1024,1024,1684,1027,18.2,0,97,4.103,4.104,4.089,4.1,0,0,85.91,6,GPS_Atti,
0.307983092727274,36.8793911284928,5922.8012098708,121.062996,0,1.434055164,11600,2017-11-14 13:39:51,19,16.354,5922.8012098708,121.062996,0.70687304,2.07048234972,18.1, -7.4, 3.3,0,0,1024,1024,1684,1025,18.2,0,97,4.103,4.104,4.089,4.1,0,0,85.91,6,GPS_Atti,
0.307983120447971,36.8793912021595,5924.4416298708,122.703416,0,1.4062828534,11700,2017-11-14 13:39:51,19,16.354,5924.4416298708,122.703416,0.70687304,2.07048234972,18.1, -7.4, 3.3,0,0,1024,1024,1684,1026,18.2,0,97,4.103,4.104,4.089,4.1,0,0,85.91,6,GPS_Atti,
0.307983160749212,36.879391267478,5926.0820498708,124.343836,0,1.37834321996,11800,2017-11-14 13:39:52,19,16.354,5926.0820498708,124.343836,0.70687304,2.07048234972,18.1, -7.5, 3.2,0,0,1024,1024,1684,1028,18.2,0,97,4.103,4.104,4.089,4.1,0,0,85.91,6,GPS_Atti,
0.307983205813855,36.8793913202875,5927.7224698708,125.984256,0,1.35310699868,11900,2017-11-14 13:39:52,19,16.354,5927.7224698708,125.984256,0.70687304,2.07048234972,18.1, -7.4, 3.2,0,0,1024,1024,1684,1027,18.2,0,97,4.103,4.104,4.089,4.1,0,0,85.91,6,GPS_Atti,
0.307983261701035,36.879391368632,5929.3628898708,127.624676,0,1.32692261464,12000,2017-11-14 13:39:52,19,16.354,5929.3628898708,127.624676,0.70687304,2.07048234972,18.1, -7.3, 3.3,0,0,1024,1024,1684,1028,18.2,0,97,4.103,4.104,4.089,4.1,0,0,85.91,6,GPS_Atti,
0.307983315993867,36.8793914107018,5931.3313938708,129.59318,0,1.30298232516,12100,2017-11-14 13:39:52,19,16.3,5931.3313938708,129.59318,0.70687304,2.07048234972,18.1, -7.2, 3.3,0,0,1024,1024,1684,1025,18.2,0,97,4.103,4.104,4.089,4.1,0,0,85.91,6,GPS_Atti,
0.30798334029992,36.8793914513236,5932.9718138708,131.2336,0,1.28575463432,12200,2017-11-14 13:39:52,19,16.3,5932.9718138708,131.2336,0.70687304,2.07048234972,18.1, -7.2, 3.3,0,0,1024,1024,1684,1025,18.2,0,97,4.103,4.104,4.089,4.1,0,0,85.91,6,GPS_Atti,
0.307983363346474,36.879391486902,5934.6122338708,132.87402,0,1.27029531624,12300,2017-11-14 13:39:52,19,16.3,5934.6122338708,132.87402,0.70687304,2.07048234972,18.1, -7.3, 3.4,0,0,1024,1024,1684,1024,18.2,0,97,4.103,4.104,4.089,4.1,0,0,85.91,6,GPS_Atti,
0.307983389099705,36.8793915291012,5936.2526538708,134.51444,0,1.252296628,12400,2017-11-14 13:39:52,19,16.3,5936.2526538708,134.51444,0.70687304,2.07048234972,18.1, -7.2, 3.4,0,0,1024,1024,1684,1024,18.2,0,97,4.103,4.104,4.089,4.1,0,0,85.91,6,GPS_Atti,
0.307983416753432,36.8793915678905,5937.8930738708,136.15486,0,1.23491473768,12500,2017-11-14 13:39:52,19,16.3,5937.8930738708,136.15486,0.70687304,2.07048234972,18.1, -7.2, 3.3,0,0,1024,1024,1684,1024,18.2,0,97,4.103,4.104,4.089,4.1,0,0,85.91,6,GPS_Atti,
0.30798341655924,36.8793916142117,5939.5334938708,137.79528,0,1.22115489472,12600,2017-11-14 13:39:52,19,16.3,5939.5334938708,137.79528,0.70687304,2.07048234972,18.1, -7.3, 3.4,0,0,1024,1024,1684,1024,18.2,0,97,4.103,4.104,4.089,4.1,0,0,85.91,6,GPS_Atti,
0.307983420942808,36.8793916543997,5941.5019978708,139.763784,0,1.20830712528,12700,2017-11-14 13:39:52,19,16.3,5941.5019978708,139.763784,0.70687304,2.07048234972,18.1, -7.3, 3.2,0,0,1024,1024,1684,1024,18.2,0,97,4.103,4.104,4.089,4.1,0,0,85.91,6,GPS_Atti,
0.307983438657938,36.8793916688698,5943.1424178708,141.404204,0,1.2002461014,12800,2017-11-14 13:39:53,19,16.3,5943.1424178708,141.404204,0.70687304,2.07048234972,18.1, -7.3, 3.3,0,0,1024,1024,1684,1024,18.2,0,97,4.103,4.104,4.089,4.1,0,0,85.91,6,GPS_Atti,
0.307983460653026,36.8793916769627,5944.7828378708,143.044624,0,1.19317261036,12900,2017-11-14 13:39:53,19,16.3,5944.7828378708,143.044624,0.70687304,2.07048234972,18.1, -7.3, 3.3,0,0,1024,1024,1684,1024,18.2,0,97,4.103,4.104,4.089,4.1,0,0,85.91,6,GPS_Atti,
0.307983497083252,36.8793917020551,5946.4232578708,144.685044,0,1.1780184104,13000,2017-11-14 13:39:53,19,16.3,5946.4232578708,144.685044,0.70687304,2.07048234972,18.1, -7.4, 3.2,0,0,1024,1024,1684,1024,18.3,0,97,4.103,4.104,4.089,4.1,0,0,85.91,6,GPS_Atti,
0.307983530322949,36.8793917267793,5948.0636778708,146.325464,0,1.1636647354,13100,2017-11-14 13:39:53,19,16.3,5948.0636778708,146.325464,0.70687304,2.07048234972,18.1, -7.6, 3.2,0,0,1024,1024,1684,1024,18.2,0,97,4.096,4.095,4.08,4.092,0,0,85.91,6,GPS_Atti,
0.30798355108505,36.8793917336301,5949.7040978708,147.965884,0,1.1572835016,13200,2017-11-14 13:39:53,19,16.3,5949.7040978708,147.965884,0.70687304,2.07048234972,18.1, -7.5, 3.1,0,0,1024,1024,1684,1024,18.3,0,97,4.096,4.095,4.08,4.092,0,0,85.91,6,GPS_Atti,
0.307983575934291,36.8793917327202,5951.3445178708,149.606304,0,1.1524114542,13300,2017-11-14 13:39:53,19,16.3,5951.3445178708,149.606304,0.70687304,2.07048234972,18.1, -7.5, 3.4,0,0,1024,1024,1684,1024,18.3,0,97,4.096,4.095,4.08,4.092,0,0,85.91,6,GPS_Atti,
0.307983593158343,36.8793917520067,5953.3130218708,151.574808,0,1.14305777936,13400,2017-11-14 13:39:53,19,16.3,5953.3130218708,151.574808,0.70687304,2.07048234972,18.1, -7.2, 3.6,0,0,1024,1024,1684,1024,18.3,0,97,4.096,4.095,4.08,4.092,0,0,85.91,6,GPS_Atti,
0.307983614166747,36.8793917700027,5954.9534418708,153.215228,0,1.1333169654,13500,2017-11-14 13:39:53,19,16.3,5954.9534418708,153.215228,0.70687304,2.07048234972,18.1, -7.2, 3.6,0,0,1024,1024,1684,1024,18.3,0,97,4.096,4.095,4.08,4.092,0,0,85.91,6,GPS_Atti,
0.307983614515946,36.8793917826454,5956.5938618708,154.855648,0,1.12943245084,13600,2017-11-14 13:39:53,19,16.3,5956.5938618708,154.855648,0.70687304,2.07048234972,18.1, -7.3, 3.6,0,0,1024,1024,1684,1026,18.3,0,97,4.096,4.095,4.08,4.092,0,0,85.91,6,GPS_Atti,
0.307983625399855,36.8793917938882,5958.2342818708,156.496068,0,1.12380581024,13700,2017-11-14 13:39:54,19,16.3,5958.2342818708,156.496068,0.70687304,2.07048234972,18.1, -7.4, 3.7,0,0,1024,1024,1684,1024,18.3,0,97,4.096,4.095,4.08,4.092,0,0,85.91,6,GPS_Atti,
0.307983643002571,36.8793918330621,5963.1555418708,161.417328,0,1.1083825814,14000,2017-11-14 13:39:54,19,16.3,5963.1555418708,161.417328,0.70687304,2.07048234972,18.1, -6.9, 3.2,0,0,1024,1024,1684,1024,18.3,0,97,4.096,4.095,4.08,4.092,0,0,85.91,6,GPS_Atti,
0.307983661212137,36.8793918307785,5965.1240458708,163.385832,0,1.1053314002,14100,2017-11-14 13:39:54,19,16.3,5965.1240458708,163.385832,0.70687304,2.07048234972,18.1, -7.3, 3.4,0,0,1024,1024,1684,1024,18.3,0,97,4.09,4.09,4.076,4.089,0,0,85.91,6,GPS_Atti,
0.307983659096789,36.8793918442914,5966.7644658708,165.026252,0,1.10168638696,14200,2017-11-14 13:39:54,19,16.3,5966.7644658708,165.026252,0.70687304,2.07048234972,18.1, -7.6, 3.6,0,0,1024,1024,1684,1024,18.3,0,97,4.09,4.09,4.076,4.089,0,0,85.91,6,GPS_Atti,
0.307983661352743,36.8793918596528,5968.4048858708,166.666672,0,1.09659452328,14300,2017-11-14 13:39:54,19,16.3,5968.4048858708,166.666672,0.70687304,2.07048234972,18.1, -7.4, 3.7,0,0,1024,1024,1684,1024,18.3,0,97,4.09,4.09,4.076,4.089,0,0,85.91,6,GPS_Atti,
0.307983652663773,36.8793918737469,5970.0453058708,168.307092,0,1.09415357832,14400,2017-11-14 13:39:54,19,16.3,5970.0453058708,168.307092,0.70687304,2.07048234972,18, -7.6, 3.8,0,0,1024,1024,1684,1024,18.3,0,97,4.09,4.09,4.076,4.089,0,0,85.91,6,GPS_Atti,
0.307983652301139,36.8793918900923,5972.0138098708,170.275596,0,1.08933074352,14500,2017-11-14 13:39:54,19,16.3,5972.0138098708,170.275596,0.70687304,2.07048234972,18.1, -7.5, 3.8,0,0,1024,1024,1684,1024,18.3,0,97,4.09,4.09,4.076,4.089,0,0,85.91,6,GPS_Atti,
0.307983646623976,36.8793919135261,5973.6542298708,171.916016,0,1.08352037588,14600,2017-11-14 13:39:54,19,16.3,5973.6542298708,171.916016,0.70687304,2.07048234972,18.1, -7.3, 3.7,0,0,1024,1024,1684,1024,18.3,0,97,4.09,4.09,4.076,4.089,0,0,85.91,6,GPS_Atti,
0.307983644252453,36.8793919446398,5975.2946498708,173.556436,0,1.0747703756,14700,2017-11-14 13:39:54,19,16.3,5975.2946498708,173.556436,0.70687304,2.07048234972,18.1, -7.3, 3.6,0,0,1024,1024,1684,1024,18.3,0,97,4.09,4.09,4.076,4.089,0,0,85.91,6,GPS_Atti,
0.307983630752652,36.8793919732031,5976.9350698708,175.196856,0,1.0692093518,14800,2017-11-14 13:39:55,19,16.3,5976.9350698708,175.196856,0.70687304,2.07048234972,18.1, -7.2, 3.3,0,0,1024,1024,1684,1024,18.3,0,97,4.09,4.09,4.076,4.089,0,0,85.91,6,GPS_Atti,
0.30798362040043,36.8793920022965,5978.5754898708,176.837276,0,1.06290685816,14900,2017-11-14 13:39:55,19,16.3,5978.5754898708,176.837276,0.70687304,2.07048234972,18.1, -7.4, 3.2,0,0,1024,1024,1684,1024,18.3,0,97,4.09,4.09,4.076,4.089,0,0,85.91,6,GPS_Atti,
0.307983608484088,36.8793920046421,5980.2159098708,178.477696,0,1.06482286872,15000,2017-11-14 13:39:55,19,16.3,5980.2159098708,178.477696,0.70687304,2.07048234972,18.1, -7.5, 3.4,0,0,1024,1024,1684,1024,18.3,0,97,4.09,4.09,4.076,4.089,0,0,85.91,6,GPS_Atti,
0.30798360476233,36.8793920100717,5981.8563298708,180.118116,0,1.06405187132,15100,2017-11-14 13:39:55,19,16.3,5981.8563298708,180.118116,0.70687304,2.07048234972,18.1, -7.3, 3.5,0,0,1024,1024,1684,1024,18.3,0,97,4.087,4.085,4.071,4.085,0,0,85.91,6,GPS_Atti,
0.307983600544558,36.8793919973625,5983.4967498708,181.758536,0,1.0686844174,15200,2017-11-14 13:39:55,19,16.3,5983.4967498708,181.758536,0.70687304,2.07048234972,18.1, -7.3, 3.7,0,0,1024,1024,1684,1024,18.3,0,97,4.087,4.085,4.071,4.085,0,0,85.91,6,GPS_Atti,
0.307983595092833,36.879391995606,5985.4652538708,183.72704,0,1.0703904542,15300,2017-11-14 13:39:55,19,16.3,5985.4652538708,183.72704,0.70687304,2.07048234972,18.1, -7.4, 3.6,0,0,1024,1024,1684,1024,18.3,0,97,4.087,4.085,4.071,4.085,0,0,85.91,6,GPS_Atti,
0.307983585964946,36.8793919508293,5987.1056738708,185.36746,0,1.08547247568,15400,2017-11-14 13:39:55,19,16.3,5987.1056738708,185.36746,0.70687304,2.07048234972,18.1, -7.4, 3.4,0,0,1024,1024,1684,1024,18.3,0,97,4.087,4.085,4.071,4.085,0,0,85.91,6,GPS_Atti,
0.307983580649196,36.8793919148822,5988.7460938708,187.00788,0,1.0971785128,15500,2017-11-14 13:39:55,19,16.3,5988.7460938708,187.00788,0.70687304,2.07048234972,18.1, -7.6, 3.5,0,0,1024,1024,1684,1024,18.3,0,97,4.087,4.085,4.071,4.085,0,0,85.91,6,GPS_Atti,
0.307983579578545,36.8793918670119,5990.3865138708,188.6483,0,1.11153874948,15600,2017-11-14 13:39:55,19,16.3,5990.3865138708,188.6483,0.70687304,2.07048234972,18.1, -7.5, 3.7,0,0,1024,1024,1684,1024,18.3,0,97,4.087,4.085,4.071,4.085,0,0,85.91,6,GPS_Atti,
0.30798357933265,36.8793918386807,5992.0269338708,190.28872,0,1.119996755,15700,2017-11-14 13:39:55,19,16.3,5992.0269338708,190.28872,0.70687304,2.07048234972,18, -7.5, 3.8,0,0,1024,1024,1684,1024,18.3,0,97,4.087,4.085,4.071,4.085,0,0,85.91,6,GPS_Atti,
0.307983575936174,36.8793918122459,5993.9954378708,192.257224,0,1.12858271328,15800,2017-11-14 13:39:56,19,16.3,5993.9954378708,192.257224,0.70687304,2.07048234972,18, -7.7, 3.7,0,0,1024,1024,1684,1024,18.3,0,97,4.087,4.085,4.071,4.085,0,0,85.91,6,GPS_Atti,
0.307983572593844,36.8793917946768,5995.6358578708,193.897644,0,1.13452431452,15900,2017-11-14 13:39:56,19,16.3,5995.6358578708,193.897644,0.70687304,2.07048234972,18, -7.8, 3.8,0,0,1024,1024,1684,1024,18.3,0,97,4.087,4.085,4.071,4.085,0,0,85.91,6,GPS_Atti,
0.307983570271021,36.8793917804103,5997.2762778708,195.538064,0,1.13927497084,16000,2017-11-14 13:39:56,19,16.3,5997.2762778708,195.538064,0.70687304,2.07048234972,18, -7.8, 4,0,0,1024,1024,1684,1024,18.3,0,97,4.087,4.085,4.071,4.085,0,0,85.91,6,GPS_Atti,
0.307983569180625,36.8793917788568,5998.9166978708,197.178484,0,1.13996722808,16100,2017-11-14 13:39:56,19,16.217,5998.9166978708,197.178484,0.70687304,2.07048234972,18, -7.8, 3.9,0,0,1024,1024,1684,1024,18.3,0,97,4.087,4.085,4.071,4.085,0,0,85.91,6,GPS_Atti,
0.307983536965474,36.8793917867674,6000.5571178708,198.818904,0,1.1443898004,16200,2017-11-14 13:39:56,19,16.217,6000.5571178708,198.818904,0.70687304,2.07048234972,18, -7.9, 3.8,0,0,1024,1024,1684,1024,18.3,0,97,4.087,4.085,4.071,4.085,0,0,85.91,6,GPS_Atti,
0.307983510410743,36.8793917988109,6002.1975378708,200.459324,0,1.146489538,16300,2017-11-14 13:39:56,19,16.217,6002.1975378708,200.459324,0.70687304,2.07048234972,18, -7.9, 3.8,0,0,1024,1024,1684,1024,18.3,0,97,4.087,4.085,4.071,4.085,0,0,85.91,6,GPS_Atti,
0.307983492326261,36.879391778153,6004.1660418708,202.427828,0,1.15646657244,16400,2017-11-14 13:39:56,19,16.217,6004.1660418708,202.427828,0.70687304,2.07048234972,18.1, -7.8, 3.7,0,0,1024,1024,1684,1024,18.3,0,97,4.087,4.085,4.071,4.085,0,0,85.91,6,GPS_Atti,
0.307983484827887,36.8793917636516,6005.8064618708,204.068248,0,1.1623523994,16500,2017-11-14 13:39:56,19,16.217,6005.8064618708,204.068248,0.70687304,2.07048234972,18.1, -7.8, 3.8,0,0,1024,1024,1684,1024,18.3,0,97,4.087,4.085,4.071,4.085,0,0,85.91,6,GPS_Atti,
0.30798348132083,36.8793917458189,6007.4468818708,205.708668,0,1.16836945996,16600,2017-11-14 13:39:56,19,16.217,6007.4468818708,205.708668,0.70687304,2.07048234972,18.1, -7.8, 3.8,0,0,1024,1024,1684,1024,18.3,0,97,4.087,4.085,4.071,4.085,0,0,85.91,6,GPS_Atti,
0.307983480454905,36.8793917425911,6009.0873018708,207.349088,0,1.16951119228,16700,2017-11-14 13:39:56,19,16.217,6009.0873018708,207.349088,0.70687304,2.07048234972,18.1, -7.7, 3.9,0,0,1024,1024,1684,1024,18.3,0,97,4.087,4.085,4.071,4.085,0,0,85.91,6,GPS_Atti,
0.307983442764263,36.8793917404316,6010.7277218708,208.989508,0,1.17825463088,16800,2017-11-14 13:39:57,19,16.217,6010.7277218708,208.989508,0.70687304,2.07048234972,18.1, -7.7, 3.6,0,0,1024,1024,1684,1024,18.3,0,97,4.087,4.085,4.071,4.085,0,0,85.91,6,GPS_Atti,
0.307983402200741,36.879391746056,6012.3681418708,210.629928,0,1.18545935552,16900,2017-11-14 13:39:57,19,16.217,6012.3681418708,210.629928,0.70687304,2.07048234972,18.1, -7.8, 3.4,0,0,1024,1024,1684,1024,18.3,0,97,4.087,4.085,4.071,4.085,0,0,85.91,6,GPS_Atti,
0.307983363166836,36.8793917396829,6014.3366458708,212.598432,0,1.1959317968,17000,2017-11-14 13:39:57,19,16.217,6014.3366458708,212.598432,0.70687304,2.07048234972,18.1, -8.2, 3.4,0,0,1024,1024,1684,1024,18.3,0,97,4.087,4.085,4.071,4.085,0,0,85.91,6,GPS_Atti,
0.307983336025662,36.8793917309366,6015.9770658708,214.238852,0,1.20450791256,17100,2017-11-14 13:39:57,19,16.217,6015.9770658708,214.238852,0.70687304,2.07048234972,18, -8.4, 3.7,0,0,1024,1024,1684,1024,18.3,0,97,4.085,4.084,4.067,4.08,0,0,85.91,6,GPS_Atti,
0.307983330240411,36.8793917144601,6017.6174858708,215.879272,0,1.21055450068,17200,2017-11-14 13:39:57,19,16.217,6017.6174858708,215.879272,0.70687304,2.07048234972,18, -8.4, 3.8,0,0,1024,1024,1684,1024,18.3,0,97,4.085,4.084,4.067,4.08,0,0,85.91,6,GPS_Atti,
0.30798333798468,36.8793917077169,6019.2579058708,217.519692,0,1.2107775978,17300,2017-11-14 13:39:57,19,16.217,6019.2579058708,217.519692,0.70687304,2.07048234972,18, -8.4, 4.2,0,0,1024,1024,1684,1024,18.3,0,97,4.085,4.084,4.067,4.08,0,0,85.91,6,GPS_Atti,
0.30798333242334,36.8793917116944,6021.2264098708,219.488196,0,1.21086618048,17400,2017-11-14 13:39:57,19,16.217,6021.2264098708,219.488196,0.70687304,2.07048234972,18, -8.1, 4.3,0,0,1024,1024,1684,1024,18.3,0,97,4.085,4.084,4.067,4.08,0,0,85.91,6,GPS_Atti,
0.307983331516806,36.8793917366123,6022.8668298708,221.128616,0,1.20388127212,17500,2017-11-14 13:39:57,19,16.217,6022.8668298708,221.128616,0.70687304,2.07048234972,18.1, -7.7, 3.9,0,0,1024,1024,1684,1024,18.3,0,97,4.085,4.084,4.067,4.08,0,0,85.91,6,GPS_Atti,
0.307983325710894,36.8793917657589,6024.5072498708,222.769036,0,1.19682418528,17600,2017-11-14 13:39:57,19,16.217,6024.5072498708,222.769036,0.70687304,2.07048234972,18.1, -8, 3.5,0,0,1024,1024,1684,1024,18.3,0,97,4.085,4.084,4.067,4.08,0,0,85.91,6,GPS_Atti,
0.307983326603689,36.8793917954096,6026.1476698708,224.409456,0,1.18814964432,17700,2017-11-14 13:39:58,19,16.217,6026.1476698708,224.409456,0.70687304,2.07048234972,18, -8.1, 3.3,0,0,1024,1024,1684,1024,18.3,0,97,4.085,4.084,4.067,4.08,0,0,85.91,6,GPS_Atti,
0.307983331484848,36.8793918325355,6027.7880898708,226.049876,0,1.1764764156,17800,2017-11-14 13:39:58,19,16.217,6027.7880898708,226.049876,0.70687304,2.07048234972,18, -7.9, 3.5,0,0,1024,1024,1684,1024,18.3,0,97,4.085,4.084,4.067,4.08,0,0,85.91,6,GPS_Atti,
0.307983346841584,36.8793918687283,6029.4285098708,227.690296,0,1.16269032592,17900,2017-11-14 13:39:58,19,16.217,6029.4285098708,227.690296,0.70687304,2.07048234972,18, -7.6, 3.9,0,0,1024,1024,1684,1024,18.3,0,97,4.085,4.084,4.067,4.08,0,0,85.91,6,GPS_Atti,
0.307983350866486,36.8793918892605,6031.0689298708,229.330716,0,1.15596132308,18000,2017-11-14 13:39:58,19,16.217,6031.0689298708,229.330716,0.70687304,2.07048234972,18.1, -7.5, 3.9,0,0,1024,1024,1684,1024,18.3,0,97,4.085,4.084,4.067,4.08,0,0,85.91,6,GPS_Atti,
0.307983349583374,36.8793919130834,6032.7093498708,230.971136,0,1.14955056172,18100,2017-11-14 13:39:58,19,16.245,6032.7093498708,230.971136,0.70687304,2.07048234972,18, -8, 3.7,0,0,1024,1024,1684,1024,18.3,0,97,4.079,4.078,4.064,4.077,0,0,85.91,6,GPS_Atti,
0.307983337389382,36.879391918768,6034.6778538708,232.93964,0,1.15080056176,18200,2017-11-14 13:39:58,19,16.245,6034.6778538708,232.93964,0.70687304,2.07048234972,18, -8.1, 3.7,0,0,1024,1024,1684,1024,18.3,0,97,4.079,4.078,4.064,4.077,0,0,85.91,6,GPS_Atti,
0.307983337012805,36.8793919334095,6036.3182738708,234.58006,0,1.14679137528,18300,2017-11-14 13:39:58,19,16.245,6036.3182738708,234.58006,0.70687304,2.07048234972,18, -8, 3.7,0,0,1024,1024,1684,1024,18.3,0,97,4.079,4.078,4.064,4.077,0,0,85.91,6,GPS_Atti,
0.307983302472897,36.8793919645258,6037.9586938708,236.22048,0,1.14633205768,18400,2017-11-14 13:39:58,19,16.245,6037.9586938708,236.22048,0.70687304,2.07048234972,18, -7.9, 3.5,0,0,1024,1024,1684,1024,18.4,0,97,4.079,4.078,4.064,4.077,0,0,85.91,6,GPS_Atti,
0.307983278286941,36.8793919978765,6039.5991138708,237.8609,0,1.14300200508,18500,2017-11-14 13:39:58,19,16.245,6039.5991138708,237.8609,0.70687304,2.07048234972,18.1, -7.9, 3.5,0,0,1024,1024,1684,1024,18.4,0,97,4.079,4.078,4.064,4.077,0,0,85.91,6,GPS_Atti,
0.307983287519099,36.8793920011573,6041.2395338708,239.50132,0,1.13987208372,18600,2017-11-14 13:39:58,19,16.245,6041.2395338708,239.50132,0.70687304,2.07048234972,18.1, -7.8, 3.8,0,0,1024,1024,1684,1024,18.4,0,97,4.079,4.078,4.064,4.077,0,0,85.91,6,GPS_Atti,
0.307983306133842,36.8793920097946,6042.8799538708,241.14174,0,1.13301512812,18700,2017-11-14 13:39:59,19,16.245,6042.8799538708,241.14174,0.70687304,2.07048234972,18.1, -8, 3.8,0,0,1024,1024,1684,1024,18.4,0,97,4.079,4.078,4.064,4.077,0,0,85.91,6,GPS_Atti,
0.30798331756786,36.8793920376943,6044.8484578708,243.110244,0,1.12262470784,18800,2017-11-14 13:39:59,19,16.245,6044.8484578708,243.110244,0.70687304,2.07048234972,18.1, -8.1, 3.6,0,0,1024,1024,1684,1024,18.4,0,97,4.079,4.078,4.064,4.077,0,0,85.91,6,GPS_Atti,
0.307983330281835,36.879392073464,6046.4888778708,244.750664,0,1.1097933426,18900,2017-11-14 13:39:59,19,16.245,6046.4888778708,244.750664,0.70687304,2.07048234972,18, -8, 3.6,0,0,1024,1024,1684,1024,18.4,0,97,4.079,4.078,4.064,4.077,0,0,85.91,6,GPS_Atti,
0.307983335025289,36.8793920914237,6048.1292978708,246.391084,0,1.10376315868,19000,2017-11-14 13:39:59,19,16.245,6048.1292978708,246.391084,0.70687304,2.07048234972,18, -8.3, 3.7,0,0,1024,1024,1684,1024,18.4,0,97,4.079,4.078,4.064,4.077,0,0,85.91,6,GPS_Atti,
0.307983349156824,36.8793921130344,6049.7697178708,248.031504,0,1.09445213476,19100,2017-11-14 13:39:59,19,16.245,6049.7697178708,248.031504,0.70687304,2.07048234972,18, -8.1, 3.6,0,0,1024,1024,1684,1024,18.4,0,97,4.079,4.078,4.064,4.077,0,0,85.91,6,GPS_Atti,
0.307983361622054,36.8793921466955,6051.4101378708,249.671924,0,1.0822999034,19200,2017-11-14 13:39:59,19,16.245,6051.4101378708,249.671924,0.70687304,2.07048234972,18, -8, 3.8,0,0,1024,1024,1684,1024,18.4,0,97,4.079,4.078,4.064,4.077,0,0,85.91,6,GPS_Atti,
0.307983383966443,36.879392185354,6053.0505578708,251.312344,0,1.0663878294,19300,2017-11-14 13:39:59,19,16.245,6053.0505578708,251.312344,0.70687304,2.07048234972,18, -7.7, 3.8,0,0,1024,1024,1684,1024,18.4,0,97,4.079,4.078,4.064,4.077,0,0,85.91,6,GPS_Atti,
0.307983395462952,36.8793922031749,6055.0190618708,253.280848,0,1.05876315724,19400,2017-11-14 13:39:59,19,16.245,6055.0190618708,253.280848,0.70687304,2.07048234972,18, -7.7, 3.8,0,0,1024,1024,1684,1024,18.4,0,97,4.079,4.078,4.064,4.077,0,0,85.91,6,GPS_Atti,
0.307983411665054,36.8793922255496,6056.6594818708,254.921268,0,1.0487533144,19500,2017-11-14 13:39:59,19,16.245,6056.6594818708,254.921268,0.70687304,2.07048234972,18.1, -7.5, 3.8,0,0,1024,1024,1684,1024,18.4,0,97,4.079,4.078,4.064,4.077,0,0,85.91,6,GPS_Atti,
0.307983406104019,36.8793922612292,6058.2999018708,256.561688,0,1.04060370784,19600,2017-11-14 13:39:59,19,16.245,6058.2999018708,256.561688,0.70687304,2.07048234972,18.1, -7.6, 3.8,0,0,1024,1024,1684,1024,18.4,0,97,4.079,4.078,4.064,4.077,0,0,85.91,6,GPS_Atti,
0.30798340374359,36.8793923051354,6059.9403218708,258.202108,0,1.02958336628,19700,2017-11-14 13:39:59,19,16.245,6059.9403218708,258.202108,0.70687304,2.07048234972,18.1, -7.6, 3.6,0,0,1024,1024,1684,1024,18.4,0,97,4.079,4.078,4.064,4.077,0,0,85.91,6,GPS_Atti,
0.307983416017274,36.8793923296265,6061.5807418708,259.842528,0,1.02004268356,19800,2017-11-14 13:40:00,19,16.245,6061.5807418708,259.842528,0.70687304,2.07048234972,18.1, -7.7, 3.4,0,0,1024,1024,1684,1024,18.4,0,97,4.079,4.078,4.064,4.077,0,0,85.91,6,GPS_Atti,
0.30798343244919,36.8793923546062,6063.2211618708,261.482948,0,1.00932417928,19900,2017-11-14 13:40:00,19,16.245,6063.2211618708,261.482948,0.70687304,2.07048234972,18.1, -7.9, 3.5,0,0,1024,1024,1684,1024,18.4,0,97,4.079,4.078,4.064,4.077,0,0,85.91,6,GPS_Atti,
0.307983438066507,36.8793923837157,6065.1896658708,263.451452,0,1.00029202676,20000,2017-11-14 13:40:00,19,16.245,6065.1896658708,263.451452,0.70687304,2.07048234972,18.1, -7.9, 3.4,0,0,1024,1024,1684,1024,18.4,0,97,4.079,4.078,4.064,4.077,0,0,85.91,6,GPS_Atti,
0.307983446614922,36.8793924177625,6066.8300858708,265.091872,0,0.98926512352,20100,2017-11-14 13:40:00,19,16.245,6066.8300858708,265.091872,0.70687304,2.07048234972,18.1, -7.7, 3.3,0,0,1024,1024,1684,1024,18.4,0,97,4.075,4.075,4.057,4.07,0,0,85.91,6,GPS_Atti,
0.307983441052667,36.8793924192501,6068.4705058708,266.732292,0,0.99031499232,20200,2017-11-14 13:40:00,19,16.245,6068.4705058708,266.732292,0.70687304,2.07048234972,18.1, -7.9, 3.4,0,0,1024,1024,1684,1024,18.4,0,97,4.075,4.075,4.057,4.07,0,0,85.91,6,GPS_Atti,
0.3079834372073,36.8793924121094,6070.1109258708,268.372712,0,0.99314963808,20300,2017-11-14 13:40:00,19,16.245,6070.1109258708,268.372712,0.70687304,2.07048234972,18, -8.2, 3.9,0,0,1024,1024,1684,1024,18.4,0,97,4.075,4.075,4.057,4.07,0,0,85.91,6,GPS_Atti,
0.307983428493089,36.8793924242444,6071.7513458708,270.013132,0,0.9922736538,20400,2017-11-14 13:40:00,19,16.245,6071.7513458708,270.013132,0.70687304,2.07048234972,18, -8.1, 3.9,0,0,1024,1024,1684,1024,18.4,0,97,4.075,4.075,4.057,4.07,0,0,85.91,6,GPS_Atti,
0.30798343140607,36.8793924573565,6073.3917658708,271.653552,0,0.98304137004,20500,2017-11-14 13:40:00,19,16.245,6073.3917658708,271.653552,0.70687304,2.07048234972,18.1, -8, 3.8,0,0,1024,1024,1451,1024,18.4,0,97,4.075,4.075,4.057,4.07,0,0,85.91,6,GPS_Atti,
0.307983436304124,36.8793924916294,6075.0321858708,273.293972,0,0.97305449308,20600,2017-11-14 13:40:00,19,16.245,6075.0321858708,273.293972,0.70687304,2.07048234972,18.1, -7.7, 3.4,0,0,1024,1024,1012,1024,18.4,0,97,4.075,4.075,4.057,4.07,0,0,85.91,6,GPS_Atti,
0.307983446999642,36.8793925283401,6076.6726058708,274.934392,0,0.96098428272,20700,2017-11-14 13:40:00,19,16.245,6076.6726058708,274.934392,0.70687304,2.07048234972,18, -8.5, 3.6,0,0,1024,1024,1024,1024,18.4,0,97,4.075,4.075,4.057,4.07,0,0,85.91,6,GPS_Atti,
0.307983429146197,36.879392556274,6078.3130258708,276.574812,0,0.9587762774,20800,2017-11-14 13:40:01,19,16.245,6078.3130258708,276.574812,0.70687304,2.07048234972,17.8, -11.2, 4.4,0,0,1024,1024,1024,1024,18.4,0,97,4.075,4.075,4.057,4.07,0,0,85.91,6,GPS_Atti,
0.307983405776091,36.8793925783821,6079.6253618708,277.887148,0,0.95963585748,20900,2017-11-14 13:40:01,19,16.245,6079.6253618708,277.887148,0.70687304,2.07048234972,17.7, -11.9, 4.7,0,0,1024,1024,1024,1024,18.4,0,97,4.075,4.075,4.057,4.07,0,0,85.91,6,GPS_Atti,
0.307983401113449,36.8793926058566,6080.9376978708,279.199484,0,0.95422575232,21000,2017-11-14 13:40:01,19,16.245,6080.9376978708,279.199484,0.70687304,2.07048234972,17.8, -11.2, 4.2,0,0,1024,1024,1024,1024,18.4,0,97,4.075,4.075,4.057,4.07,0,0,85.91,6,GPS_Atti,
0.307983381302919,36.879392616863,6081.5938658708,279.855652,0,0.9570046238,21100,2017-11-14 13:40:01,19,16.19,6081.5938658708,279.855652,0.70687304,2.07048234972,17.8, -11.1, 4.1,0,0,1024,1024,1024,1024,18.4,0,97,4.071,4.071,4.054,4.068,0,0,85.91,6,GPS_Atti,
0.307983312334652,36.8793925884186,6082.2500338708,280.51182,0,0.98283139628,21200,2017-11-14 13:40:01,19,16.19,6082.2500338708,280.51182,0.70687304,2.07048234972,17.7, -11, 4.2,0,0,1024,1024,1024,1024,18.4,0,97,4.071,4.071,4.054,4.068,0,0,85.91,6,GPS_Atti,
0.307983232045544,36.8793925461664,6082.5781178708,280.839904,0,1.01513782776,21300,2017-11-14 13:40:01,19,16.19,6082.5781178708,280.839904,0.70687304,2.07048234972,18, -9.6, 3.7,0,0,1024,1024,1024,1024,18.4,0,97,4.071,4.071,4.054,4.068,0,0,85.91,6,GPS_Atti,
0.307983143947741,36.8793924593148,6082.9062018708,281.167988,0,1.06014439088,21400,2017-11-14 13:40:01,19,16.19,6082.9062018708,281.167988,0.70687304,2.07048234972,18.2, -8.6, 3.6,0,0,1024,1024,1024,1024,18.4,0,97,4.071,4.071,4.054,4.068,0,0,85.91,6,GPS_Atti,
0.30798306183101,36.8793923677092,6082.9062018708,281.167988,0,1.10462930044,21500,2017-11-14 13:40:01,19,16.19,6082.9062018708,281.167988,0.70687304,2.07048234972,18.2, -8.1, 3.9,0,0,1024,1024,1024,1024,18.4,0,97,4.071,4.071,4.054,4.068,0,0,85.91,6,GPS_Atti,
0.307982969543425,36.8793922423069,6082.9062018708,281.167988,0,1.16005253056,21600,2017-11-14 13:40:01,19,16.19,6082.9062018708,281.167988,0.70687304,2.07048234972,18.3, -7.9, 4,0,0,1024,1024,1024,1024,18.4,0,97,4.071,4.071,4.054,4.068,0,0,85.91,6,GPS_Atti,
0.307982891218525,36.8793921401158,6082.9062018708,281.167988,0,1.20615817508,21700,2017-11-14 13:40:01,19,16.19,6082.9062018708,281.167988,0.70687304,2.07048234972,18.4, -7.9, 4.2,0,0,1024,1024,1024,1024,18.4,0,97,4.071,4.071,4.054,4.068,0,0,85.91,6,GPS_Atti,
0.307982807198957,36.8793920990947,6082.9062018708,281.167988,0,1.23903547272,21800,2017-11-14 13:40:02,19,16.19,6082.9062018708,281.167988,0.70687304,2.07048234972,18.4, -8, 4.3,0,0,1024,1024,1024,1024,18.4,0,97,4.071,4.071,4.054,4.068,0,0,85.91,6,GPS_Atti,
0.30798274566413,36.8793920876081,6082.9062018708,281.167988,0,1.25872379356,21900,2017-11-14 13:40:02,19,16.19,6082.9062018708,281.167988,0.70687304,2.07048234972,18.4, -7.9, 4,0,0,1024,1024,1024,1024,18.4,0,97,4.071,4.071,4.054,4.068,0,0,85.91,6,GPS_Atti,
0.307982742002472,36.8793920955145,6082.9062018708,281.167988,0,1.2578576518,22000,2017-11-14 13:40:02,19,16.19,6082.9062018708,281.167988,0.70687304,2.07048234972,18.4, -7.8, 3.9,0,0,1024,1024,1024,1024,18.4,0,97,4.071,4.071,4.054,4.068,0,0,85.91,6,GPS_Atti,
0.307982757563475,36.8793921103155,6082.9062018708,281.167988,0,1.2500328484,22100,2017-11-14 13:40:02,19,16.464,6082.9062018708,281.167988,0.70687304,2.07048234972,18.4, -7.7, 3.9,0,0,1024,1024,1024,1024,18.4,0,96,4.136,4.137,4.121,4.125,0,0,85.91,6,GPS_Atti,
0.307982775844082,36.8793921159802,6082.9062018708,281.167988,0,1.24362536788,22200,2017-11-14 13:40:02,19,16.464,6082.9062018708,281.167988,0.70687304,2.07048234972,18.4, -7.6, 3.9,0,0,1024,1024,1024,1024,18.4,0,96,4.136,4.137,4.121,4.125,0,0,85.91,6,GPS_Atti,
0.307982799331028,36.8793921326301,6082.9062018708,281.167988,0,1.2331693308,22300,2017-11-14 13:40:02,19,16.464,6082.9062018708,281.167988,0.70687304,2.07048234972,18.4, -7.3, 3.7,0,0,1024,1024,1024,1024,18.4,0,96,4.136,4.137,4.121,4.125,0,0,85.91,6,GPS_Atti,
0.307982833397568,36.8793921537016,6082.9062018708,281.167988,0,1.21873691564,22400,2017-11-14 13:40:02,19,16.464,6082.9062018708,281.167988,0.70687304,2.07048234972,18.4, -7.3, 3.7,0,0,1024,1024,1024,1024,18.4,0,96,4.136,4.137,4.121,4.125,0,0,85.91,6,GPS_Atti,
0.307982874434967,36.8793921826225,6083.2342858708,281.496072,0,1.20051184944,22500,2017-11-14 13:40:02,19,16.464,6083.2342858708,281.496072,0.70687304,2.07048234972,18.4, -7.1, 3.6,0,0,1024,1024,1024,1024,18.4,0,96,4.136,4.137,4.121,4.125,0,0,85.91,6,GPS_Atti,
0.307982909196547,36.8793922000087,6083.2342858708,281.496072,0.223694,1.18678153404,22600,2017-11-14 13:40:02,19,16.464,6083.2342858708,281.496072,0.70687304,2.07048234972,18.4, -6.7, 3.7,0,0,1024,1024,1024,1024,18.4,0,96,4.136,4.137,4.121,4.125,0,0,85.91,6,GPS_Atti,
0.307982947145195,36.8793922247603,6083.2342858708,281.496072,0.223694,1.17041670412,22700,2017-11-14 13:40:02,19,16.464,6083.2342858708,281.496072,0.70687304,2.07048234972,18.4, -6.6, 3.7,0,0,1024,1024,1024,1024,18.4,-0.3,96,4.136,4.137,4.121,4.125,0,0,85.91,6,GPS_Atti,
0.307982955324666,36.8793922609663,6083.2342858708,281.496072,0,1.15949150692,22800,2017-11-14 13:40:03,19,16.464,6083.2342858708,281.496072,0.70687304,2.07048234972,18.4, -6.8, 3.7,0,0,1024,1024,1024,1024,18.5,-1.3,96,4.136,4.137,4.121,4.125,0,0,85.91,6,GPS_Atti,
0.307982970482528,36.8793923013956,6083.2342858708,281.496072,0,1.14568245136,22900,2017-11-14 13:40:03,19,16.464,6083.2342858708,281.496072,0.70687304,2.07048234972,18.4, -6.6, 3.6,0,0,1024,1024,1024,1024,18.4,-2.5,96,4.136,4.137,4.121,4.125,0,0,85.91,6,GPS_Atti,
0.307982991878145,36.8793923501776,6083.2342858708,281.496072,0,1.12822182088,23000,2017-11-14 13:40:03,19,16.464,6083.2342858708,281.496072,0.70687304,2.07048234972,18.4, -6.4, 3.7,0,0,1024,1024,1024,1024,18.5,-4.1,96,4.136,4.137,4.121,4.125,0,0,85.91,6,GPS_Atti,
0.307983014928566,36.8793923956368,6083.2342858708,281.496072,0,1.111138487,23100,2017-11-14 13:40:03,19,16.437,6083.2342858708,281.496072,0.70687304,2.07048234972,18.4, -6.5, 3.7,0,0,1024,1024,1024,1024,18.4,-5.9,96,4.136,4.137,4.121,4.125,0,0,85.91,6,GPS_Atti,
0.307983043502364,36.8793924457158,6083.2342858708,281.496072,0,1.09147313204,23200,2017-11-14 13:40:03,19,16.437,6083.2342858708,281.496072,0.70687304,2.07048234972,18.3, -6.5, 3.7,0,0,1024,1024,1024,1024,18.5,-7.9,96,4.136,4.137,4.121,4.125,0,0,85.91,6,GPS_Atti,
0.307983070631325,36.8793924915135,6083.2342858708,281.496072,0,1.07325462752,23300,2017-11-14 13:40:03,19,16.437,6083.2342858708,281.496072,0.70687304,2.07048234972,18.3, -6.4, 3.8,0,0,1024,1024,1024,1024,18.5,-9.8,96,4.136,4.137,4.121,4.125,0,0,85.91,6,GPS_Atti,
