latitude,longitude,altitude(feet),ascent(feet),speed(mph),distance(feet),time(millisecond),datetime(utc),satellites,voltage(v),max_altitude(feet),max_ascent(feet),max_speed(mph),max_distance(feet),compass_heading(degrees), pitch(degrees), roll(degrees),isPhoto,isVideo,rc_elevator,rc_aileron,rc_throttle,rc_rudder,gimbal_heading(degrees),gimbal_pitch(degrees),battery_percent,voltageCell1,voltageCell2,voltageCell3,voltageCell4,voltageCell5,voltageCell6,battery_temperature(f),flycStateRaw,flycState,message
0.0606052534420595,36.9419011656779,5888.2455381614,0,0,0,100,2017-11-03 06:45:21,12,0,5888.2455381614,0,0,0,319.2, 1.3, -1.5,0,0,1024,1024,1024,1024,323.8,0,100,4.307,4.309,4.306,4.307,0,0,78.71,41,Motors_Started,
0.0606052624632322,36.9419011578529,5888.2455381614,0,0,0.0043570211368,200,2017-11-03 06:45:21,12,0,5888.2455381614,0,0,0.0043570211368,319.2, 1.3, -1.5,0,0,1024,1024,1024,1024,323.8,0,100,4.307,4.309,4.306,4.307,0,0,78.71,41,Motors_Started,
0.0606052635781056,36.9419011498252,5888.2455381614,0,0,0.0068650264664,300,2017-11-03 06:45:21,12,0,5888.2455381614,0,0,0.0068650264664,319.2, 1.4, -1.5,0,0,1024,1024,1024,1024,323.8,0,100,4.307,4.309,4.306,4.307,0,0,78.71,41,Motors_Started,
0.0606052675919148,36.9419011546325,5888.2455381614,0,0,0.006549212808,400,2017-11-03 06:45:21,12,0,5888.2455381614,0,0,0.0068650264664,319.3, 1.2, -1.6,0,0,1024,1024,1024,1024,323.8,0,100,4.307,4.309,4.306,4.307,0,0,78.71,41,Motors_Started,
0.0606052660159881,36.9419011476716,5888.2455381614,0,0,0.008012795532,500,2017-11-03 06:45:21,12,0,5888.2455381614,0,0,0.008012795532,319.2, 1.1, -1.6,0,0,1024,1024,1024,1024,323.8,0,100,4.307,4.309,4.306,4.307,0,0,78.71,41,Motors_Started,
0.0606052438233497,36.9419011375506,5888.2455381614,0,0,0.0108456696384,600,2017-11-03 06:45:21,12,17.189,5888.2455381614,0,0,0.0108456696384,319.3, 1.2, -1.5,0,0,1024,1024,1024,1024,323.8,0,100,4.307,4.309,4.306,4.307,0,0,78.71,41,Motors_Started,Setting new Return-To-Home altitude to 30m (98 ft). Setting new Maximum Flight Altitude to 100m (328 ft)
0.0606052088604536,36.9419011081167,5888.2455381614,0,0,0.0265634522936,700,2017-11-03 06:45:21,12,17.189,5888.2455381614,0,0,0.0265634522936,319.3, 1.2, -1.6,0,0,1024,1024,1024,1024,323.8,0,100,4.307,4.309,4.306,4.307,0,0,78.71,41,Motors_Started,
0.0606052004500492,36.9419010879856,5888.2455381614,0,0,0.034311680888,800,2017-11-03 06:45:21,12,17.189,5888.2455381614,0,0,0.034311680888,319.3, 1.1, -1.6,0,0,1024,1024,1024,1024,323.8,0,100,4.307,4.309,4.306,4.307,0,0,78.71,41,Motors_Started,
0.0606052046725027,36.9419010722194,5888.2455381614,0,0,0.038461615404,900,2017-11-03 06:45:21,12,17.189,5888.2455381614,0,0,0.038461615404,319.3, 1.1, -1.6,0,0,1024,1024,1024,1024,323.9,0,100,4.307,4.309,4.306,4.307,0,0,78.71,41,Motors_Started,
0.0606051951670715,36.9419010663576,5888.2455381614,0,0,0.042013780872,1000,2017-11-03 06:45:21,12,17.189,5888.2455381614,0,0,0.042013780872,319.3, 1, -1.7,0,0,1024,1024,1024,1024,323.9,0,100,4.307,4.309,4.306,4.307,0,0,78.71,41,Motors_Started,
0.0606051694875275,36.9419010574012,5888.2455381614,0,0,0.04998851866,1100,2017-11-03 06:45:21,12,17.189,5888.2455381614,0,0,0.04998851866,319.4, 0.9, -1.7,0,0,1024,1024,1024,1024,323.9,0,100,4.307,4.309,4.306,4.307,0,0,78.71,41,Motors_Started,
0.0606051480347116,36.9419010652609,5888.2455381614,0,0,0.053115815348,1200,2017-11-03 06:45:22,12,17.189,5888.2455381614,0,0,0.053115815348,319.3, 1.1, -1.6,0,0,557,493,519,1586,323.9,0,100,4.307,4.309,4.306,4.307,0,0,78.71,41,Motors_Started,
0.060605128492773,36.9419010689485,5888.2455381614,0,0,0.057651904732,1300,2017-11-03 06:45:22,12,17.189,5888.2455381614,0,0,0.057651904732,319.3, 1.4, -1.5,0,0,752,679,806,1311,323.6,0,100,4.307,4.309,4.306,4.307,0,0,78.71,41,Motors_Started,
0.0606051185139735,36.9419010818599,5888.2455381614,0,0,0.057953742012,1400,2017-11-03 06:45:22,12,17.189,5888.2455381614,0,0,0.057953742012,319.4, 1.3, -1.5,0,0,977,887,1024,1032,322.6,0,100,4.307,4.309,4.306,4.307,0,0,78.71,41,Motors_Started,
0.0606051075880303,36.9419010799923,5888.2455381614,0,0,0.061718177828,1500,2017-11-03 06:45:22,12,17.189,5888.2455381614,0,0,0.061718177828,319.4, 1.1, -1.5,0,0,1024,1024,1024,1024,321.5,0,100,4.307,4.309,4.306,4.307,0,0,78.71,41,Motors_Started,
0.0606051068880029,36.9419010875443,5888.2455381614,0,0,0.060594490128,1600,2017-11-03 06:45:22,12,17.162,5888.2455381614,0,0,0.061718177828,319.4, 1, -1.6,0,0,1024,1024,1024,1024,320.9,0,100,4.306,4.308,4.305,4.307,0,0,78.71,10,Assisted_Takeoff,
0.0606050999789221,36.9419010833476,5888.2455381614,0,0,0.063539700196,1700,2017-11-03 06:45:22,12,17.162,5888.2455381614,0,0,0.063539700196,319.4, 1.2, -1.6,0,0,1024,1024,1024,1024,320.6,0,100,4.306,4.308,4.305,4.307,0,0,78.71,10,Assisted_Takeoff,
0.0606051021195118,36.9419010954547,5888.2455381614,0,0.223694,0.060865159428,1800,2017-11-03 06:45:22,12,17.162,5888.2455381614,0,0.223694,0.063539700196,319.4, 1.4, -1.5,0,0,1024,1024,1024,1024,320.4,0,100,4.306,4.308,4.305,4.307,0,0,78.71,10,Assisted_Takeoff,
0.0606050973287313,36.9419010979256,5888.2455381614,0,0,0.062090553168,1900,2017-11-03 06:45:22,12,17.162,5888.2455381614,0,0.223694,0.063539700196,319.4, 1.4, -1.4,0,0,1024,1024,1024,1024,320.4,0,100,4.306,4.308,4.305,4.307,0,0,78.71,10,Assisted_Takeoff,
0.0606051031267044,36.9419011062493,5888.2455381614,0,0,0.058973099,2000,2017-11-03 06:45:22,12,17.162,5888.2455381614,0,0.223694,0.063539700196,319.4, 1.4, -1.4,0,0,1024,1024,1024,1024,320.2,0,100,4.306,4.308,4.305,4.307,0,0,78.71,10,Assisted_Takeoff,
0.0606051013243222,36.9419011067557,5888.2455381614,0,0,0.059518046524,2100,2017-11-03 06:45:22,12,17.162,5888.2455381614,0,0.223694,0.063539700196,319.4, 1.5, -1.4,0,0,1024,1024,1024,1024,320.2,0,100,4.306,4.308,4.305,4.307,0,0,78.71,10,Assisted_Takeoff,
0.0606051096648053,36.9419011125904,5888.2455381614,0,0,0.05591863696,2200,2017-11-03 06:45:23,12,17.162,5888.2455381614,0,0.223694,0.063539700196,319.4, 1.4, -1.4,0,0,1024,1024,1024,1024,320.1,0,100,4.306,4.308,4.305,4.307,0,0,78.71,10,Assisted_Takeoff,
0.0606051099331932,36.9419011079296,5888.2455381614,0,0,0.056439306268,2300,2017-11-03 06:45:23,12,17.162,5888.2455381614,0,0.223694,0.063539700196,319.4, 1.3, -1.5,0,0,1024,1024,1024,1024,320,0,100,4.306,4.308,4.305,4.307,0,0,78.71,10,Assisted_Takeoff,
0.0606051193708404,36.9419011102522,5888.2455381614,0,0,0.052931104056,2400,2017-11-03 06:45:23,12,17.162,5888.2455381614,0,0.223694,0.063539700196,319.4, 1.3, -1.5,0,0,1024,1024,1024,1024,320,0,100,4.306,4.308,4.305,4.307,0,0,78.71,10,Assisted_Takeoff,
0.0606051201802788,36.9419011062125,5888.2455381614,0,0,0.05324147152,2500,2017-11-03 06:45:23,12,17.162,5888.2455381614,0,0.223694,0.063539700196,319.4, 1.4, -1.5,0,0,1024,1024,1024,1024,320,0,100,4.306,4.308,4.305,4.307,0,0,78.71,10,Assisted_Takeoff,
0.0606051287018245,36.9419011113241,5888.2455381614,0,0,0.049644358544,2600,2017-11-03 06:45:23,12,17.162,5888.2455381614,0,0.223694,0.063539700196,319.4, 1.4, -1.4,0,0,1024,1024,1024,1024,319.9,0,100,4.306,4.308,4.305,4.307,0,0,78.71,10,Assisted_Takeoff,
0.0606051278897398,36.9419011054116,5888.2455381614,0,0,0.050811681416,2700,2017-11-03 06:45:23,12,17.162,5888.2455381614,0,0.223694,0.063539700196,319.4, 1.3, -1.6,0,0,1024,1024,1024,1024,319.9,0,100,4.306,4.308,4.305,4.307,0,0,78.71,10,Assisted_Takeoff,
0.0606051332421299,36.9419011048326,5888.2455381614,0,0,0.04915354488,2800,2017-11-03 06:45:23,12,17.162,5888.2455381614,0,0.223694,0.063539700196,319.5, 1.2, -1.6,0,0,1024,1024,1024,1024,319.9,0,100,4.306,4.308,4.305,4.307,0,0,78.71,10,Assisted_Takeoff,
0.0606051311517167,36.9419010985405,5888.2455381614,0,0,0.050899279844,2900,2017-11-03 06:45:23,12,17.162,5888.2455381614,0,0.223694,0.063539700196,319.5, 1.1, -1.6,0,0,1024,1024,1024,1024,319.9,0,100,4.306,4.308,4.305,4.307,0,0,78.71,10,Assisted_Takeoff,
0.0606051346560264,36.9419011018501,5888.2455381614,0,0,0.04919947664,3000,2017-11-03 06:45:23,12,17.162,5888.2455381614,0,0.223694,0.063539700196,319.5, 1.1, -1.7,0,0,1024,1024,1024,1024,319.9,0,100,4.306,4.308,4.305,4.307,0,0,78.71,10,Assisted_Takeoff,
0.0606051305227302,36.941901097969,5888.2455381614,0,0,0.05120078904,3100,2017-11-03 06:45:23,12,17.162,5888.2455381614,0,0.223694,0.063539700196,319.5, 1.2, -1.7,0,1,1024,1024,1024,1024,319.9,0,100,4.306,4.308,4.305,4.307,0,0,78.71,10,Assisted_Takeoff,
0.060605133012214,36.9419010782513,5888.2455381614,0,0,0.054295933496,3200,2017-11-03 06:45:24,12,17.162,5888.2455381614,0,0.223694,0.063539700196,319.5, 1.2, -1.6,0,1,1024,1024,1024,1024,319.8,0,100,4.306,4.308,4.305,4.307,0,0,78.71,10,Assisted_Takeoff,
0.0606051286528694,36.9419010433804,5888.2455381614,0,0,0.06374836162,3300,2017-11-03 06:45:24,12,17.162,5888.2455381614,0,0.223694,0.06374836162,319.5, 1.2, -1.6,0,1,1024,1024,1024,1024,319.8,0,100,4.306,4.308,4.305,4.307,0,0,78.71,10,Assisted_Takeoff,
0.0606051307539692,36.9419010175732,5888.2455381614,0,0,0.070168309332,3400,2017-11-03 06:45:24,12,17.162,5888.2455381614,0,0.223694,0.070168309332,319.5, 1.3, -1.6,0,1,1024,1024,1024,1024,319.8,0,100,4.306,4.308,4.305,4.307,0,0,78.71,10,Assisted_Takeoff,
0.060605124717938,36.9419009957707,5888.2455381614,0,0,0.0777723122,3500,2017-11-03 06:45:24,12,17.162,5888.2455381614,0,0.223694,0.0777723122,319.5, 1.3, -1.6,0,1,1024,1024,1024,1024,319.8,0,100,4.306,4.308,4.305,4.307,0,0,78.71,10,Assisted_Takeoff,
0.0606051253266707,36.9419009834321,5888.2455381614,0,0,0.08127788974,3600,2017-11-03 06:45:24,12,17.189,5888.2455381614,0,0.223694,0.08127788974,319.5, 1.3, -1.6,0,1,1024,1024,1024,1024,319.8,0,99,4.3,4.302,4.299,4.301,0,0,78.71,10,Assisted_Takeoff,
0.0606051190130916,36.9419009661287,5888.2455381614,0,0,0.087784779712,3700,2017-11-03 06:45:24,12,17.189,5888.2455381614,0,0.223694,0.087784779712,319.5, 1.1, -1.7,0,1,1024,1024,1024,1024,319.8,0,99,4.3,4.302,4.299,4.301,0,0,78.71,10,Assisted_Takeoff,
0.0606051211657928,36.9419009597024,5888.2455381614,0,0,0.089312010732,3800,2017-11-03 06:45:24,12,17.189,5888.2455381614,0,0.223694,0.089312010732,319.5, 1, -1.7,0,1,1024,1024,1024,1024,319.8,0,99,4.3,4.302,4.299,4.301,0,0,78.71,10,Assisted_Takeoff,
0.0606051166021802,36.9419009482393,5888.2455381614,0,0,0.093734911136,3900,2017-11-03 06:45:24,12,17.189,5888.2455381614,0,0.223694,0.093734911136,319.5, 1.1, -1.7,0,1,1024,1024,1024,1024,319.8,0,99,4.3,4.302,4.299,4.301,0,0,78.71,10,Assisted_Takeoff,
0.0606051199129087,36.941900928636,5888.2455381614,0,0,0.099262470368,4000,2017-11-03 06:45:24,12,17.189,5888.2455381614,0,0.223694,0.099262470368,319.5, 1.3, -1.6,0,1,1024,1024,1024,1024,319.8,0,99,4.3,4.302,4.299,4.301,0,0,78.71,10,Assisted_Takeoff,
0.0606051162004635,36.9419008931763,5888.2455381614,0,0.223694,0.111319229284,4100,2017-11-03 06:45:24,12,17.189,5888.2455381614,0,0.223694,0.111319229284,319.5, 1.3, -1.5,0,1,1024,1024,1024,1024,319.8,0,99,4.3,4.302,4.299,4.301,0,0,78.71,10,Assisted_Takeoff,
0.0606051201732562,36.9419008663514,5888.2455381614,0,0,0.119544295164,4200,2017-11-03 06:45:25,12,17.189,5888.2455381614,0,0.223694,0.119544295164,319.6, 1.3, -1.6,0,1,1024,1024,1024,1024,319.8,0,99,4.3,4.302,4.299,4.301,0,0,78.71,10,Assisted_Takeoff,
0.0606051178229026,36.9419008391049,5888.2455381614,0,0,0.129015424076,4300,2017-11-03 06:45:25,12,17.189,5888.2455381614,0,0.223694,0.129015424076,319.6, 1.1, -1.7,0,1,1024,1024,1024,1024,319.8,0,99,4.3,4.302,4.299,4.301,0,0,78.71,10,Assisted_Takeoff,
0.0606051226473715,36.9419008291481,5888.2455381614,0,0,0.131729991092,4400,2017-11-03 06:45:25,12,17.189,5888.2455381614,0,0.223694,0.131729991092,319.6, 1.1, -1.7,0,1,1024,1024,1024,1024,319.8,0,99,4.3,4.302,4.299,4.301,0,0,78.71,10,Assisted_Takeoff,
0.0606051175555324,36.9419008148003,5888.2455381614,0,0,0.137282484708,4500,2017-11-03 06:45:25,12,17.189,5888.2455381614,0,0.223694,0.137282484708,319.6, 1.2, -1.6,0,1,1024,1024,1024,1024,319.8,0,99,4.3,4.302,4.299,4.301,0,0,78.71,10,Assisted_Takeoff,
0.0606051200839971,36.9419007960479,5888.2455381614,0,0,0.14336778674,4600,2017-11-03 06:45:25,12,17.189,5888.2455381614,0,0.223694,0.14336778674,319.6, 1.3, -1.5,0,1,1024,1024,1024,1024,319.8,0,99,4.3,4.302,4.299,4.301,0,0,78.71,10,Assisted_Takeoff,
0.0606051155683219,36.9419007595264,5888.2455381614,0,0,0.15648950632,4700,2017-11-03 06:45:25,12,17.189,5888.2455381614,0,0.223694,0.15648950632,319.6, 1.2, -1.5,0,1,1024,1024,1024,1024,319.8,0,99,4.3,4.302,4.299,4.301,0,0,78.71,10,Assisted_Takeoff,
0.0606051418322738,36.941900734682,5888.2455381614,0,0,0.162435372652,4800,2017-11-03 06:45:25,12,17.189,5888.2455381614,0,0.223694,0.162435372652,319.6, 1.2, -1.6,0,1,1024,1024,1024,1024,319.8,0,99,4.3,4.302,4.299,4.301,0,0,78.71,10,Assisted_Takeoff,
0.0606051709065129,36.9419007075897,5888.2455381614,0,0,0.169824152416,4900,2017-11-03 06:45:25,12,17.189,5888.2455381614,0,0.223694,0.169824152416,319.6, 1.1, -1.6,0,1,1024,1024,1024,1024,319.8,0,99,4.3,4.302,4.299,4.301,0,0,78.71,10,Assisted_Takeoff,
0.0606052099461168,36.9419006974573,5888.2455381614,0,0,0.171565294204,5000,2017-11-03 06:45:25,12,17.189,5888.2455381614,0,0.223694,0.171565294204,319.6, 1.1, -1.6,0,1,1024,1024,1024,1024,319.8,0,99,4.3,4.302,4.299,4.301,0,0,78.71,10,Assisted_Takeoff,
0.0606052310171644,36.941900679478,5888.2455381614,0,0,0.177578089672,5100,2017-11-03 06:45:25,12,17.189,5888.2455381614,0,0.223694,0.177578089672,319.6, 1.1, -1.5,0,1,1024,1024,1024,1024,319.8,0,99,4.3,4.302,4.299,4.301,0,0,78.71,10,Assisted_Takeoff,
0.0606052583887635,36.9419006824004,5888.2455381614,0,0,0.176332682808,5200,2017-11-03 06:45:26,12,17.189,5888.2455381614,0,0.223694,0.177578089672,319.6, 1.2, -1.5,0,1,1024,1024,1024,1024,319.8,0,99,4.3,4.302,4.299,4.301,0,0,78.71,10,Assisted_Takeoff,
0.06060527339803,36.9419006680113,5888.2455381614,0,0,0.18171916592,5300,2017-11-03 06:45:26,12,17.189,5888.2455381614,0,0.223694,0.18171916592,319.6, 1, -1.6,0,1,1024,1024,1024,1024,319.8,0,99,4.3,4.302,4.299,4.301,0,0,78.71,10,Assisted_Takeoff,
0.0606052911858292,36.9419006688005,5888.2455381614,0,0,0.1818077486,5400,2017-11-03 06:45:26,12,17.189,5888.2455381614,0,0.223694,0.1818077486,319.7, 0.9, -1.7,0,1,1024,1024,1024,1024,319.8,0,99,4.3,4.302,4.299,4.301,0,0,78.71,10,Assisted_Takeoff,
0.0606053013572939,36.9419006562183,5888.2455381614,0,0,0.1866962002,5500,2017-11-03 06:45:26,12,17.189,5888.2455381614,0,0.223694,0.1866962002,319.7, 1, -1.6,0,1,1024,1024,1024,1024,319.8,0,99,4.3,4.302,4.299,4.301,0,0,78.71,10,Assisted_Takeoff,
0.0606053099278965,36.9419006651509,5888.2455381614,0,0,0.183775924516,5600,2017-11-03 06:45:26,12,17.162,5888.2455381614,0,0.223694,0.1866962002,319.7, 1.1, -1.6,0,1,1024,1024,1024,1024,319.8,0,99,4.3,4.302,4.299,4.301,0,0,78.71,10,Assisted_Takeoff,
0.0606053138186563,36.9419006594915,5888.2455381614,0,0,0.1859908196,5700,2017-11-03 06:45:26,12,17.162,5888.2455381614,0,0.223694,0.1866962002,319.7, 1.2, -1.5,0,1,1024,1024,1024,1024,319.8,0,99,4.3,4.302,4.299,4.301,0,0,78.71,10,Assisted_Takeoff,
0.0606053171670425,36.9419006688123,5888.2455381614,0,0,0.18276575388,5800,2017-11-03 06:45:26,12,17.162,5888.2455381614,0,0.223694,0.1866962002,319.7, 1.1, -1.6,0,1,1024,1024,1024,1024,319.8,0,99,4.3,4.302,4.299,4.301,0,0,78.71,10,Assisted_Takeoff,
0.0606053184111737,36.9419006566253,5888.2455381614,0,0,0.187233929876,5900,2017-11-03 06:45:26,12,17.162,5888.2455381614,0,0.223694,0.187233929876,319.7, 0.9, -1.7,0,1,1024,1024,1024,1024,319.8,0,99,4.3,4.302,4.299,4.301,0,0,78.71,10,Assisted_Takeoff,
0.0606053182961648,36.9419006419222,5888.2455381614,0,0,0.192551187264,6000,2017-11-03 06:45:26,12,17.162,5888.2455381614,0,0.223694,0.192551187264,319.7, 1, -1.7,0,1,1024,1024,1024,1024,319.8,0,99,4.3,4.302,4.299,4.301,0,0,78.71,10,Assisted_Takeoff,
0.0606053154575834,36.9419006066799,5888.2455381614,0,0,0.205201122052,6100,2017-11-03 06:45:26,12,17.162,5888.2455381614,0,0.223694,0.205201122052,319.7, 1.1, -1.6,0,1,1024,1024,1024,1024,319.8,0,99,4.3,4.302,4.299,4.301,0,0,78.71,10,Assisted_Takeoff,
0.0606053114184316,36.9419005882621,5888.2455381614,0,0,0.2117290094,6200,2017-11-03 06:45:27,12,17.162,5888.2455381614,0,0.223694,0.2117290094,319.7, 1.1, -1.6,0,1,1024,1024,1024,1024,319.8,0,99,4.3,4.302,4.299,4.301,0,0,78.71,10,Assisted_Takeoff,
0.0606053065624116,36.9419005656969,5888.2455381614,0,0,0.2197588653,6300,2017-11-03 06:45:27,12,17.162,5888.2455381614,0,0.223694,0.2197588653,319.7, 1, -1.7,0,1,1024,1024,1024,1024,319.8,0,99,4.3,4.302,4.299,4.301,0,0,78.71,10,Assisted_Takeoff,
0.0606053026188291,36.9419005601516,5888.2455381614,0,0,0.221653222316,6400,2017-11-03 06:45:27,12,17.162,5888.2455381614,0,0.223694,0.221653222316,319.7, 0.9, -1.7,0,1,1024,1024,1024,1024,319.8,0,99,4.3,4.302,4.299,4.301,0,0,78.71,10,Assisted_Takeoff,
0.060605297766982,36.9419005456459,5888.2455381614,0,0,0.226795610932,6500,2017-11-03 06:45:27,12,17.162,5888.2455381614,0,0.223694,0.226795610932,319.7, 1, -1.7,0,1,1024,1024,1024,1024,319.8,0,99,4.3,4.302,4.299,4.301,0,0,78.71,10,Assisted_Takeoff,
0.0606053145381232,36.9419005533812,5888.2455381614,0,0,0.224505256528,6600,2017-11-03 06:45:27,12,17.189,5888.2455381614,0,0.223694,0.226795610932,319.7, 1.1, -1.6,0,1,1024,1024,1024,1024,319.8,0,99,4.3,4.302,4.299,4.301,0,0,78.71,10,Assisted_Takeoff,
0.0606053399812375,36.9419005452096,5888.2455381614,0,0,0.228568576868,6700,2017-11-03 06:45:27,12,17.189,5888.2455381614,0,0.223694,0.228568576868,319.7, 1, -1.7,0,1,1024,1024,1024,1024,319.8,0,99,4.3,4.302,4.299,4.301,0,0,78.71,10,Assisted_Takeoff,
0.0606053686865323,36.9419005550624,5888.2455381614,0,0,0.22671588652,6800,2017-11-03 06:45:27,12,17.189,5888.2455381614,0,0.223694,0.228568576868,319.8, 1, -1.8,0,1,1024,1024,1024,1024,319.8,0,99,4.3,4.302,4.299,4.301,0,0,78.71,10,Assisted_Takeoff,
0.0606053823134534,36.9419005498273,5888.2455381614,0,0,0.229559390548,6900,2017-11-03 06:45:27,12,17.189,5888.2455381614,0,0.223694,0.229559390548,319.8, 1, -1.7,0,1,1024,1024,1024,1024,319.8,0,99,4.3,4.302,4.299,4.301,0,0,78.71,10,Assisted_Takeoff,
0.0606053954366765,36.9419005894689,5888.2455381614,0,0,0.216518707716,7000,2017-11-03 06:45:27,12,17.189,5888.2455381614,0,0.223694,0.229559390548,319.8, 1, -1.7,0,1,1024,1024,1024,1024,319.8,0,99,4.3,4.302,4.299,4.301,0,0,78.71,10,Assisted_Takeoff,
0.0606054000099579,36.9419006149253,5888.2455381614,0,0,0.207935374108,7100,2017-11-03 06:45:27,12,17.189,5888.2455381614,0,0.223694,0.229559390548,319.8, 1, -1.7,0,1,1024,1024,1024,1024,319.8,0,99,4.3,4.302,4.299,4.301,0,0,78.71,10,Assisted_Takeoff,
0.0606054023766977,36.9419006615593,5888.2455381614,0,0,0.191786095376,7200,2017-11-03 06:45:28,12,17.189,5888.2455381614,0,0.223694,0.229559390548,319.8, 1.1, -1.7,0,1,1024,1024,1024,1024,319.8,0,99,4.3,4.302,4.299,4.301,0,0,78.71,10,Assisted_Takeoff,
0.0606054002259303,36.9419006792643,5888.2455381614,0,0,0.185372053176,7300,2017-11-03 06:45:28,12,17.189,5888.2455381614,0,0.223694,0.229559390548,319.8, 1, -1.7,0,1,1024,1024,1024,1024,319.8,0,99,4.3,4.302,4.299,4.301,0,0,78.71,10,Assisted_Takeoff,
0.0606053971906125,36.9419007118534,5888.2455381614,0,0,0.173685373012,7400,2017-11-03 06:45:28,12,17.189,5888.2455381614,0,0.223694,0.229559390548,319.8, 1.1, -1.7,0,1,1024,1024,1024,1024,319.8,0,99,4.3,4.302,4.299,4.301,0,0,78.71,10,Assisted_Takeoff,
0.0606053909218155,36.9419007235421,5888.2455381614,0,0,0.168931435852,7500,2017-11-03 06:45:28,12,17.189,5888.2455381614,0,0.223694,0.229559390548,319.8, 1.2, -1.6,0,1,1024,1024,1024,1024,319.8,0,99,4.3,4.302,4.299,4.301,0,0,78.71,10,Assisted_Takeoff,
0.0606053858824938,36.9419007445303,5888.2455381614,0,0,0.161074152136,7600,2017-11-03 06:45:28,12,17.162,5888.2455381614,0,0.223694,0.229559390548,319.8, 1.2, -1.6,0,1,1024,1024,1024,1024,319.8,0,99,4.3,4.302,4.299,4.301,0,0,78.71,10,Assisted_Takeoff,
0.0606053793653591,36.9419007453823,5888.2455381614,0,0,0.160079073364,7700,2017-11-03 06:45:28,12,17.162,5888.2455381614,0,0.223694,0.229559390548,319.8, 1.1, -1.7,0,1,1024,1024,1024,1024,319.8,0,99,4.3,4.302,4.299,4.301,0,0,78.71,10,Assisted_Takeoff,
0.0606053753895131,36.9419007575672,5888.2455381614,0,0,0.155404204448,7800,2017-11-03 06:45:28,12,17.162,5888.2455381614,0,0.223694,0.229559390548,319.8, 1.1, -1.7,0,1,1024,1024,1024,1024,319.8,0,99,4.3,4.302,4.299,4.301,0,0,78.71,10,Assisted_Takeoff,
0.0606053686295368,36.9419007494561,5888.2455381614,0,0,0.157566278008,7900,2017-11-03 06:45:28,12,17.162,5888.2455381614,0,0.223694,0.229559390548,319.8, 1, -1.7,0,1,1024,1024,1024,1024,319.8,0,99,4.3,4.302,4.299,4.301,0,0,78.71,10,Assisted_Takeoff,
0.0606053643363477,36.941900749674,5888.2455381614,0,0,0.157078745184,8000,2017-11-03 06:45:28,12,17.162,5888.2455381614,0,0.223694,0.229559390548,319.8, 1, -1.7,0,1,1024,1024,1024,1024,319.8,0,99,4.3,4.302,4.299,4.301,0,0,78.71,10,Assisted_Takeoff,
0.060605357317347,36.9419007430348,5888.2455381614,0,0,0.158790031328,8100,2017-11-03 06:45:28,12,17.162,5888.2455381614,0,0.223694,0.229559390548,319.9, 1, -1.7,0,1,1024,1024,1024,1024,319.8,0,99,4.3,4.302,4.299,4.301,0,0,78.71,10,Assisted_Takeoff,
0.0606053554373084,36.9419007453967,5888.2455381614,0,0,0.157790031296,8200,2017-11-03 06:45:29,12,17.162,5888.2455381614,0,0.223694,0.229559390548,319.9, 1, -1.8,0,1,1024,1024,1024,1024,319.8,0,99,4.3,4.302,4.299,4.301,0,0,78.71,10,Assisted_Takeoff,
0.0606053502213005,36.9419007362156,5888.2455381614,0,0,0.160618115376,8300,2017-11-03 06:45:29,12,17.162,5888.2455381614,0,0.223694,0.229559390548,319.9, 1, -1.7,0,1,1024,1024,1024,1024,319.8,0,99,4.3,4.302,4.299,4.301,0,0,78.71,10,Assisted_Takeoff,
0.0606053491600639,36.9419007403363,5888.2455381614,0,0,0.15906660614,8400,2017-11-03 06:45:29,12,17.162,5888.2455381614,0,0.223694,0.229559390548,319.9, 1.1, -1.7,0,1,1024,1024,1024,1024,319.8,0,99,4.3,4.302,4.299,4.301,0,0,78.71,10,Assisted_Takeoff,
0.0606053439356084,36.9419007300633,5888.2455381614,0,0,0.162326776848,8500,2017-11-03 06:45:29,12,17.162,5888.2455381614,0,0.223694,0.229559390548,319.9, 1.1, -1.8,0,1,1024,1024,1024,1024,319.8,0,99,4.3,4.302,4.299,4.301,0,0,78.71,10,Assisted_Takeoff,
0.0606053430810824,36.9419007333666,5888.2455381614,0,0,0.161083338488,8600,2017-11-03 06:45:29,12,17.162,5888.2455381614,0,0.223694,0.229559390548,319.9, 1.1, -1.7,0,1,1024,1024,1024,1024,319.8,0,99,4.3,4.302,4.299,4.301,0,0,78.71,10,Assisted_Takeoff,
0.0606053360327697,36.9419007262655,5888.2455381614,0,0,0.16312664564,8700,2017-11-03 06:45:29,12,17.162,5888.2455381614,0,0.223694,0.229559390548,319.9, 1.1, -1.8,0,1,1024,1024,1024,1024,319.8,0,99,4.3,4.302,4.299,4.301,0,0,78.71,10,Assisted_Takeoff,
0.0606053544798851,36.9419007320554,5888.2455381614,0,0,0.162444887088,8800,2017-11-03 06:45:29,12,17.162,5888.2455381614,0,0.223694,0.229559390548,319.9, 1.1, -1.8,0,1,1024,1024,1024,1024,319.8,0,99,4.3,4.302,4.299,4.301,0,0,78.71,10,Assisted_Takeoff,
0.0606053752391874,36.9419007287822,5888.2455381614,0,0,0.165479336004,8900,2017-11-03 06:45:29,12,17.162,5888.2455381614,0,0.223694,0.229559390548,319.9, 1.1, -1.8,0,1,1024,1024,1024,1024,319.8,0,99,4.3,4.302,4.299,4.301,0,0,78.71,10,Assisted_Takeoff,
0.0606053831894545,36.9419007376673,5888.2455381614,0,0,0.163176842492,9000,2017-11-03 06:45:29,12,17.162,5888.2455381614,0,0.223694,0.229559390548,319.9, 1.1, -1.8,0,1,1024,1024,1024,1024,319.8,0,99,4.3,4.302,4.299,4.301,0,0,78.71,10,Assisted_Takeoff,
0.0606053633045249,36.9419007358838,5888.2455381614,0,0,0.1618520393,9100,2017-11-03 06:45:29,12,17.162,5888.2455381614,0,0.223694,0.229559390548,319.9, 1.1, -1.8,0,1,1024,1024,1024,1024,319.8,0,99,4.3,4.302,4.299,4.301,0,0,78.71,10,Assisted_Takeoff,
0.0606053680718965,36.9419007451371,5888.2455381614,0,0,0.159031829236,9200,2017-11-03 06:45:30,12,17.162,5888.2455381614,0,0.223694,0.229559390548,319.9, 1.1, -1.8,0,1,1024,1024,1024,1024,319.8,0,99,4.3,4.302,4.299,4.301,0,0,78.71,10,Assisted_Takeoff,
0.0606053812529293,36.9419007424969,5888.2455381614,0,0,0.161285438232,9300,2017-11-03 06:45:30,12,17.162,5888.2455381614,0,0.223694,0.229559390548,320, 1, -1.8,0,1,1024,1024,1024,1024,319.8,0,99,4.3,4.302,4.299,4.301,0,0,78.71,10,Assisted_Takeoff,
0.0606054027480847,36.9419007510307,5888.2455381614,0,0,0.16079232798,9400,2017-11-03 06:45:30,12,17.162,5888.2455381614,0,0.223694,0.229559390548,320, 1.1, -1.8,0,1,1024,1024,1025,1024,319.8,0,99,4.3,4.302,4.299,4.301,0,0,78.71,10,Assisted_Takeoff,
0.0606054088624848,36.9419007478055,5888.2455381614,0,0,0.1626640472,9500,2017-11-03 06:45:30,12,17.162,5888.2455381614,0,0.223694,0.229559390548,320, 1.1, -1.8,0,1,1024,1024,1057,1024,319.8,0,99,4.3,4.302,4.299,4.301,0,0,78.71,10,Assisted_Takeoff,
0.0606054223189282,36.9419007753746,5888.2455381614,0,0,0.155160109952,9600,2017-11-03 06:45:30,12,17.189,5888.2455381614,0,0.223694,0.229559390548,320, 1.1, -1.8,0,1,1024,1024,1149,1024,319.8,0,99,4.3,4.302,4.298,4.301,0,0,78.71,10,Assisted_Takeoff,
0.0606054240195326,36.941900801556,5888.2455381614,0,0,0.14670440102,9700,2017-11-03 06:45:30,12,17.189,5888.2455381614,0,0.223694,0.229559390548,320, 1.1, -1.8,0,1,1024,1024,1248,1024,319.8,0,99,4.3,4.302,4.298,4.301,0,0,78.71,10,Assisted_Takeoff,
0.0606054315942399,36.9419008178694,5888.2455381614,0,0,0.142575791964,9800,2017-11-03 06:45:30,12,17.189,5888.2455381614,0,0.223694,0.229559390548,320, 1, -1.8,0,1,1024,1024,1475,1024,319.8,0,99,4.3,4.302,4.298,4.301,0,0,78.71,10,Assisted_Takeoff,
0.0606054306766117,36.9419007995106,5888.2455381614,0,0,0.148422576928,9900,2017-11-03 06:45:30,12,17.189,5888.2455381614,0,0.223694,0.229559390548,320, 0.9, -1.8,0,1,1024,1024,1578,1024,319.8,0,99,4.3,4.302,4.298,4.301,0,0,78.71,10,Assisted_Takeoff,
0.0606054351378358,36.9419008092423,5888.2455381614,0,0,0.145966868188,10000,2017-11-03 06:45:30,12,17.189,5888.2455381614,0,0.223694,0.229559390548,320.1, 0.7, -1.9,0,1,1024,1024,1636,1024,319.8,0,99,4.3,4.302,4.298,4.301,0,0,78.71,10,Assisted_Takeoff,
0.0606054309384859,36.9419008211002,5888.2455381614,0,0,0.141417983528,10100,2017-11-03 06:45:30,12,17.189,5888.2455381614,0,0.223694,0.229559390548,320.2, 0.7, -1.9,0,1,1024,1024,1684,1024,319.8,0,99,4.3,4.302,4.298,4.301,0,0,78.71,10,Assisted_Takeoff,
0.0606054531994171,36.9419008399886,5888.2455381614,0,0,0.139397642256,10200,2017-11-03 06:45:31,12,17.189,5888.2455381614,0,0.223694,0.229559390548,320.6, -0.1, -1.1,0,1,1024,1024,1684,1022,319.8,0,99,4.3,4.302,4.298,4.301,0,0,78.71,10,Assisted_Takeoff,
0.0606054931370061,36.9419008030337,5888.2455381614,0,0.223694,0.158600070692,10300,2017-11-03 06:45:31,12,17.189,5888.2455381614,0,0.223694,0.229559390548,320.9, -1.4, 0.9,0,1,1024,1024,1684,1023,319.9,0,99,4.3,4.302,4.298,4.301,0,0,78.71,10,Assisted_Takeoff,
0.0606056073613605,36.9419007162399,5888.2455381614,0,0.31540854,0.208715885944,10400,2017-11-03 06:45:31,12,17.189,5888.2455381614,0,0.31540854,0.229559390548,321, -0.9, 1.8,0,1,1024,1024,1684,1023,319.9,0,99,4.3,4.302,4.298,4.301,0,0,78.71,6,GPS_Atti,
0.0606057917070732,36.9419005919192,5888.2455381614,0,0.50107456,0.28703412992,10500,2017-11-03 06:45:31,12,17.189,5888.2455381614,0,0.50107456,0.28703412992,321.1, 0.4, 0.6,0,1,1024,1024,1684,1022,319.9,0,99,4.3,4.302,4.298,4.301,0,0,78.71,6,GPS_Atti,
0.0606060748110442,36.9419004609797,5888.5736221614,0.328084,0.70687304,0.39485565568,10600,2017-11-03 06:45:31,12,17.189,5888.5736221614,0.328084,0.70687304,0.39485565568,321.2, 1, -0.2,0,1,1024,1024,1684,1024,320,0,99,4.299,4.301,4.283,4.291,0,0,78.71,6,GPS_Atti,
0.0606063998515448,36.9419002963646,5888.9017061614,0.656168,0.80753534,0.52492127664,10700,2017-11-03 06:45:31,12,17.189,5888.9017061614,0.656168,0.80753534,0.52492127664,321.1, 1.9, -0.7,0,1,1024,1024,1684,1024,320,0,99,4.299,4.301,4.283,4.291,0,0,78.71,6,GPS_Atti,Home Point Recorded. RTH Altitude:  30m.
0.0606067623430513,36.9419000885557,5889.2297901614,0.984252,1.11847,0.67639765944,10800,2017-11-03 06:45:31,12,17.189,5889.2297901614,0.984252,1.11847,0.67639765944,321.2, 2.5, 0.8,0,1,1024,1024,1684,1024,320,0,99,4.299,4.301,4.283,4.291,0,0,78.71,6,GPS_Atti,
0.0606071513778641,36.9418998536881,5889.8859581614,1.64042,1.11847,0.84180448888,10900,2017-11-03 06:45:31,12,17.189,5889.8859581614,1.64042,1.11847,0.84180448888,321.4, 4.9, 2.1,0,1,1024,1024,1684,1024,320,0,99,4.299,4.301,4.283,4.291,0,0,78.71,6,GPS_Atti,
0.0606076227985595,36.9418996761659,5890.8702101614,2.624672,0.92161928,1.02108927152,11000,2017-11-03 06:45:31,12,17.189,5890.8702101614,2.624672,1.11847,1.02108927152,321.4, 7.2, 1.8,0,1,1024,1024,1684,1024,320,0,99,4.299,4.301,4.283,4.291,0,0,78.71,6,GPS_Atti,
0.0606080931093685,36.9418996041539,5891.8544621614,3.608924,0.894776,1.18236224256,11100,2017-11-03 06:45:31,12,17.189,5891.8544621614,3.608924,1.11847,1.18236224256,321.2, 6.9, 0,0,1,1024,1024,1684,1024,320.1,0,99,4.299,4.301,4.283,4.291,0,0,78.71,6,GPS_Atti,
0.0606085441546672,36.9418996722684,5893.1667981614,4.92126,0.894776,1.31846788996,11200,2017-11-03 06:45:32,12,17.189,5893.1667981614,4.92126,1.11847,1.31846788996,321, 6.3, -2.9,0,1,1024,1024,1684,1024,320.1,0,99,4.299,4.301,4.283,4.291,0,0,78.71,6,GPS_Atti,
0.0606088988574532,36.9418997554369,5894.4791341614,6.233596,0.671082,1.4260827228,11300,2017-11-03 06:45:32,12,17.189,5894.4791341614,6.233596,1.11847,1.4260827228,320.9, 6.2, -5.1,0,1,1024,1024,1684,1024,320.2,0,99,4.299,4.301,4.283,4.291,0,0,78.71,6,GPS_Atti,
0.0606091176374793,36.9418998285554,5895.7914701614,7.545932,0.31540854,1.49186684564,11400,2017-11-03 06:45:32,12,17.189,5895.7914701614,7.545932,1.11847,1.49186684564,321.1, 4.4, -3.3,0,1,1024,1024,1684,1024,320.2,0,99,4.299,4.301,4.283,4.291,0,0,78.71,6,GPS_Atti,
0.0606092568216055,36.9418998247823,5897.4318901614,9.186352,0.50107456,1.54038390756,11500,2017-11-03 06:45:32,12,17.189,5897.4318901614,9.186352,1.11847,1.54038390756,321, 3.6, -1,0,1,1024,1024,1684,1024,320.2,0,99,4.299,4.301,4.283,4.291,0,0,78.71,6,GPS_Atti,
0.0606094049845648,36.9418997963296,5899.0723101614,10.826772,0.50107456,1.59495740012,11600,2017-11-03 06:45:32,12,16.622,5899.0723101614,10.826772,1.11847,1.59495740012,320.9, 4.4, -0.6,0,1,1024,1024,1684,1024,320.2,0,99,4.141,4.15,4.125,4.138,0,0,78.71,6,GPS_Atti,
0.0606095835196331,36.9418997197328,5900.7127301614,12.467192,0.50107456,1.66558076196,11700,2017-11-03 06:45:32,12,16.622,5900.7127301614,12.467192,1.11847,1.66558076196,320.9, 5.5, -0.3,0,1,1024,1024,1684,1024,320.2,0,99,4.141,4.15,4.125,4.138,0,0,78.71,6,GPS_Atti,
0.0606098093778946,36.9418996477468,5902.3531501614,14.107612,0.50107456,1.75206370436,11800,2017-11-03 06:45:32,12,16.622,5902.3531501614,14.107612,1.11847,1.75206370436,321, 6.2, -0.5,0,1,1024,1024,1684,1024,320.3,0,99,4.141,4.15,4.125,4.138,0,0,78.71,6,GPS_Atti,
0.060610072193489,36.9418995669867,5903.9935701614,15.748032,0.447388,1.85234914064,11900,2017-11-03 06:45:32,12,16.622,5903.9935701614,15.748032,1.11847,1.85234914064,320.9, 5.9, -0.8,0,1,1024,1024,1684,1024,320.3,0,99,4.141,4.15,4.125,4.138,0,0,78.71,6,GPS_Atti,
0.0606103735439715,36.9418994886892,5905.6339901614,17.388452,0.447388,1.96571200516,12000,2017-11-03 06:45:32,12,16.622,5905.6339901614,17.388452,1.11847,1.96571200516,320.9, 5.6, -0.9,0,1,1024,1024,1684,1024,320.3,0,99,4.141,4.15,4.125,4.138,0,0,78.71,6,GPS_Atti,
0.0606106845531625,36.9418994023104,5907.2744101614,19.028872,0.447388,2.08336292756,12100,2017-11-03 06:45:32,12,16.622,5907.2744101614,19.028872,1.11847,2.08336292756,320.9, 5.8, -1.4,0,1,1024,1024,1684,1024,320.3,0,99,4.141,4.15,4.125,4.138,0,0,78.71,6,GPS_Atti,
0.0606110266395787,36.9418993209075,5908.9148301614,20.669292,0.447388,2.2112697558,12200,2017-11-03 06:45:33,12,16.622,5908.9148301614,20.669292,1.11847,2.2112697558,320.8, 6, -1.7,0,1,1024,1024,1684,1023,320.3,0,99,4.141,4.15,4.125,4.138,0,0,78.71,6,GPS_Atti,
0.0606113558905993,36.9418992225029,5910.5552501614,22.309712,0.447388,2.33662737136,12300,2017-11-03 06:45:33,12,16.622,5910.5552501614,22.309712,1.11847,2.33662737136,320.8, 6.1, -1.6,0,1,1024,1024,1684,1024,320.3,0,99,4.141,4.15,4.125,4.138,0,0,78.71,6,GPS_Atti,
0.0606116886073559,36.9418991239581,5912.1956701614,23.950132,0.447388,2.4632054594,12400,2017-11-03 06:45:33,12,16.622,5912.1956701614,23.950132,1.11847,2.4632054594,320.8, 5.8, -1.9,0,1,1024,1024,1684,1024,320.3,0,99,4.141,4.15,4.125,4.138,0,0,78.71,6,GPS_Atti,
0.0606119935929325,36.94189898166,5913.8360901614,25.590552,0.50107456,2.58501976776,12500,2017-11-03 06:45:33,12,16.622,5913.8360901614,25.590552,1.11847,2.58501976776,320.9, 6.3, -0.7,0,1,1024,1024,1684,1024,320.3,0,99,4.141,4.15,4.125,4.138,0,0,78.71,6,GPS_Atti,
0.0606123248672948,36.9418988370958,5915.4765101614,27.230972,0.70687304,2.71628617616,12600,2017-11-03 06:45:33,12,16.541,5915.4765101614,27.230972,1.11847,2.71628617616,320.9, 6.8, 0,0,1,1024,1024,1684,1024,320.3,0,99,4.141,4.15,4.125,4.138,0,0,78.71,6,GPS_Atti,
0.0606126652112759,36.9418986964015,5917.1169301614,28.871392,0.671082,2.85030520932,12700,2017-11-03 06:45:33,12,16.541,5917.1169301614,28.871392,1.11847,2.85030520932,320.9, 7.2, -0.8,0,1,1024,1024,1684,1024,320.4,0,99,4.141,4.15,4.125,4.138,0,0,78.71,6,GPS_Atti,
0.0606130286331583,36.9418985788473,5918.7573501614,30.511812,0.447388,2.98965560748,12800,2017-11-03 06:45:33,12,16.541,5918.7573501614,30.511812,1.11847,2.98965560748,320.8, 6.8, -1.6,0,1,1024,1024,1684,1024,320.4,0,99,4.141,4.15,4.125,4.138,0,0,78.71,6,GPS_Atti,
0.0606133648140223,36.9418984432912,5920.3977701614,32.152232,0.447388,3.12166348572,12900,2017-11-03 06:45:33,12,16.541,5920.3977701614,32.152232,1.11847,3.12166348572,320.9, 6.4, -1.5,0,1,1024,1024,1684,1024,320.4,0,99,4.141,4.15,4.125,4.138,0,0,78.71,6,GPS_Atti,
0.0606137013189467,36.9418982960827,5922.0381901614,33.792652,0.50107456,3.255167427,13000,2017-11-03 06:45:33,12,16.541,5922.0381901614,33.792652,1.11847,3.255167427,320.9, 6.2, -0.9,0,1,1024,1024,1684,1024,320.4,0,99,4.141,4.15,4.125,4.138,0,0,78.71,6,GPS_Atti,
0.0606140178290215,36.9418981303856,5923.6786101614,35.433072,0.671082,3.384022418,13100,2017-11-03 06:45:33,12,16.541,5923.6786101614,35.433072,1.11847,3.384022418,320.8, 6.9, -0.9,0,1,1024,1024,1684,1024,320.4,0,99,4.141,4.15,4.125,4.138,0,0,78.71,6,GPS_Atti,
0.060614330802116,36.9418979814741,5925.3190301614,37.073492,0.671082,3.5097113984,13200,2017-11-03 06:45:34,12,16.541,5925.3190301614,37.073492,1.11847,3.5097113984,320.8, 7, -1.4,0,1,1024,1024,1684,1024,320.4,0,99,4.141,4.15,4.125,4.138,0,0,78.71,6,GPS_Atti,
0.060614617740462,36.9418978346315,5926.9594501614,38.713912,0.447388,3.6262796436,13300,2017-11-03 06:45:34,12,16.541,5926.9594501614,38.713912,1.11847,3.6262796436,320.9, 6.5, -1.5,0,1,1024,1024,1684,1024,320.4,0,99,4.141,4.15,4.125,4.138,0,0,78.71,6,GPS_Atti,
0.0606149209860462,36.9418977120159,5928.5998701614,40.354332,0.447388,3.7455053692,13400,2017-11-03 06:45:34,12,16.541,5928.5998701614,40.354332,1.11847,3.7455053692,320.8, 6.4, -1.4,0,1,1024,1024,1684,1026,320.4,0,99,4.141,4.15,4.125,4.138,0,0,78.71,6,GPS_Atti,
0.0606152297219294,36.9418975893205,5930.2402901614,41.994752,0.447388,3.8666667904,13500,2017-11-03 06:45:34,12,16.541,5930.2402901614,41.994752,1.11847,3.8666667904,320.9, 6.3, -1.3,0,1,1024,1024,1684,1024,320.4,0,99,4.141,4.15,4.125,4.138,0,0,78.71,6,GPS_Atti,
0.0606155537505301,36.9418974732857,5931.8807101614,43.635172,0.671082,3.9922245372,13600,2017-11-03 06:45:34,12,16.487,5931.8807101614,43.635172,1.11847,3.9922245372,320.9, 6.4, -1.5,0,1,1024,1024,1684,1024,320.4,0,99,4.152,4.165,4.145,4.158,0,0,78.71,6,GPS_Atti,
0.0606158688715422,36.9418973327156,5933.5211301614,45.275592,0.671082,4.117782284,13700,2017-11-03 06:45:34,12,16.487,5933.5211301614,45.275592,1.11847,4.117782284,320.8, 6.8, -1.7,0,1,1024,1024,1684,1024,320.5,0,99,4.152,4.165,4.145,4.158,0,0,78.71,6,GPS_Atti,
0.0606161854500116,36.941897198863,5935.1615501614,46.916012,0.671082,4.2430119468,13800,2017-11-03 06:45:34,12,16.487,5935.1615501614,46.916012,1.11847,4.2430119468,320.8, 7, -2,0,1,1024,1024,1684,1024,320.5,0,99,4.152,4.165,4.145,4.158,0,0,78.71,6,GPS_Atti,
0.0606164740395998,36.94189705192,5936.8019701614,48.556432,0.447388,4.3603019768,13900,2017-11-03 06:45:34,12,16.487,5936.8019701614,48.556432,1.11847,4.3603019768,320.8, 6.9, -2,0,1,1024,1024,1684,1024,320.5,0,99,4.152,4.165,4.145,4.158,0,0,78.71,6,GPS_Atti,
0.0606167465043356,36.9418969076604,5938.4423901614,50.196852,0.50107456,4.4717521116,14000,2017-11-03 06:45:34,12,16.487,5938.4423901614,50.196852,1.11847,4.4717521116,320.8, 6.5, -1.7,0,1,1024,1024,1684,1024,320.5,0,99,4.152,4.165,4.145,4.158,0,0,78.71,6,GPS_Atti,
0.060617001061887,36.941896754849,5940.4108941614,52.165356,0.50107456,4.5782809864,14100,2017-11-03 06:45:34,12,16.487,5940.4108941614,52.165356,1.11847,4.5782809864,320.8, 6.5, -1.6,0,1,1024,1024,1684,1024,320.5,0,99,4.152,4.165,4.145,4.158,0,0,78.71,6,GPS_Atti,
0.0606172414405765,36.9418966103127,5942.0513141614,53.805776,0.50107456,4.6789371576,14200,2017-11-03 06:45:35,13,16.487,5942.0513141614,53.805776,1.11847,4.6789371576,320.8, 6.8, -1.6,0,1,1024,1024,1684,1024,320.5,0,99,4.152,4.165,4.145,4.158,0,0,78.71,6,GPS_Atti,
0.0606176760747219,36.9418963430089,5945.3321541614,57.086616,0.50107456,4.8619424128,14400,2017-11-03 06:45:35,13,16.487,5945.3321541614,57.086616,1.11847,4.8619424128,320.8, 7.3, -1.6,0,1,1024,1024,1684,1024,320.5,0,99,4.152,4.165,4.145,4.158,0,0,78.71,6,GPS_Atti,
0.0606178868743547,36.9418962208197,5947.3006581614,59.05512,0.447388,4.949803308,14500,2017-11-03 06:45:35,13,16.487,5947.3006581614,59.05512,1.11847,4.949803308,320.8, 7.3, -1.5,0,1,1024,1024,1684,1024,320.5,0,99,4.152,4.165,4.145,4.158,0,0,78.71,6,GPS_Atti,
0.0606184569095473,36.9418959413661,5952.2219181614,63.97638,0.223694,5.1806760188,14800,2017-11-03 06:45:35,13,16.487,5952.2219181614,63.97638,1.11847,5.1806760188,320.8, 7.1, -1.7,0,1,1024,1024,1684,1024,320.5,0,99,4.152,4.165,4.145,4.158,0,0,78.71,6,GPS_Atti,
0.0606186124764308,36.9418958635478,5953.8623381614,65.6168,0.223694,5.2438978056,14900,2017-11-03 06:45:35,13,16.487,5953.8623381614,65.6168,1.11847,5.2438978056,320.8, 6.7, -1.3,0,1,1024,1024,1684,1024,320.5,0,99,4.152,4.165,4.145,4.158,0,0,78.71,6,GPS_Atti,
0.0606187756294206,36.9418957950756,5955.8308421614,67.585304,0.223694,5.3084319284,15000,2017-11-03 06:45:35,13,16.487,5955.8308421614,67.585304,1.11847,5.3084319284,320.8, 6.9, -1.7,0,1,1024,1024,1684,1024,320.5,0,99,4.152,4.165,4.145,4.158,0,0,78.71,6,GPS_Atti,
0.0606189275876722,36.9418957207142,5957.4712621614,69.225724,0.223694,5.3699804868,15100,2017-11-03 06:45:35,13,16.487,5957.4712621614,69.225724,1.11847,5.3699804868,320.7, 7.5, -1.6,0,1,1024,1024,1684,1024,320.5,0,99,4.152,4.165,4.145,4.158,0,0,78.71,6,GPS_Atti,
0.060619229804894,36.941895640994,5960.7521021614,72.506564,0.223694,5.4832022752,15300,2017-11-03 06:45:36,13,16.487,5960.7521021614,72.506564,1.11847,5.4832022752,320.7, 7.4, -2.1,0,1,1024,1024,1684,1024,320.5,0,99,4.152,4.165,4.145,4.158,0,0,78.71,6,GPS_Atti,
0.0606193731942733,36.9418956271242,5962.7206061614,74.475068,0.223694,5.5337272112,15400,2017-11-03 06:45:36,13,16.487,5962.7206061614,74.475068,1.11847,5.5337272112,320.7, 7.6, -2.1,0,1,1024,1024,1684,1024,320.5,0,99,4.152,4.165,4.145,4.158,0,0,78.71,6,GPS_Atti,
0.0606195052040859,36.9418956120323,5964.3610261614,76.115488,0.223694,5.5806104148,15500,2017-11-03 06:45:36,13,16.487,5964.3610261614,76.115488,1.11847,5.5806104148,320.7, 7.7, -2.5,0,1,1024,1024,1684,1024,320.6,0,99,4.152,4.165,4.145,4.158,0,0,78.71,6,GPS_Atti,
0.0606196129378696,36.9418956009428,5966.3295301614,78.083992,0,5.6187009672,15600,2017-11-03 06:45:36,13,16.46,5966.3295301614,78.083992,1.11847,5.6187009672,320.7, 7.7, -2.5,0,1,1024,1024,1684,1024,320.5,0,99,4.152,4.165,4.146,4.161,0,0,78.71,6,GPS_Atti,
0.0606196884968569,36.941895579602,5967.9699501614,79.724412,0,5.6472114668,15700,2017-11-03 06:45:36,13,16.46,5967.9699501614,79.724412,1.11847,5.6472114668,320.8, 7.8, -2.2,0,1,1024,1024,1684,1024,320.6,0,99,4.152,4.165,4.146,4.161,0,0,78.71,6,GPS_Atti,
0.0606197369430658,36.9418955796679,5969.9384541614,81.692916,0,5.6636812836,15800,2017-11-03 06:45:36,13,16.46,5969.9384541614,81.692916,1.11847,5.6636812836,320.7, 7.8, -2,0,1,1024,1024,1684,1024,320.6,0,99,4.152,4.165,4.146,4.161,0,0,78.71,6,GPS_Atti,
0.0606197666931092,36.9418955938192,5971.5788741614,83.333336,0,5.6719818088,15900,2017-11-03 06:45:36,13,16.46,5971.5788741614,83.333336,1.11847,5.6719818088,320.7, 7.5, -1.9,0,1,1024,1024,1684,1024,320.6,0,99,4.152,4.165,4.146,4.161,0,0,78.71,6,GPS_Atti,
0.0606197645020378,36.9418956274561,5973.2192941614,84.973756,0,5.66683089,16000,2017-11-03 06:45:36,13,16.46,5973.2192941614,84.973756,1.11847,5.6719818088,320.7, 6.9, -2.2,0,1,1024,1024,1684,1024,320.6,0,99,4.152,4.165,4.146,4.161,0,0,78.71,6,GPS_Atti,
0.0606197398498383,36.9418956554173,5974.8597141614,86.614176,0,5.6547902072,16100,2017-11-03 06:45:36,13,16.46,5974.8597141614,86.614176,1.11847,5.6719818088,320.8, 6.5, -2.1,0,1,1024,1024,1684,1024,320.6,0,99,4.152,4.165,4.146,4.161,0,0,78.71,6,GPS_Atti,
0.0606196716310624,36.9418956969207,5976.8282181614,88.58268,0,5.626148474,16200,2017-11-03 06:45:37,13,16.46,5976.8282181614,88.58268,1.11847,5.6719818088,320.8, 6.3, -1.7,0,1,1024,1024,1684,1024,320.6,0,99,4.152,4.165,4.146,4.161,0,0,78.71,6,GPS_Atti,
0.0606196023350708,36.9418957320157,5978.4686381614,90.2231,0,5.5979660584,16300,2017-11-03 06:45:37,13,16.46,5978.4686381614,90.2231,1.11847,5.6719818088,320.8, 6.4, -1.5,0,1,1024,1024,1684,1024,320.6,0,99,4.152,4.165,4.146,4.161,0,0,78.71,6,GPS_Atti,
0.0606195408100139,36.9418957867749,5980.1090581614,91.86352,0,5.5699148764,16400,2017-11-03 06:45:37,13,16.46,5980.1090581614,91.86352,1.11847,5.6719818088,320.8, 6.5, -1.6,0,1,1024,1024,1684,1024,320.6,0,99,4.152,4.165,4.146,4.161,0,0,78.71,6,GPS_Atti,
0.0606195067551788,36.9418958365041,5982.0775621614,93.832024,0,5.5519030648,16500,2017-11-03 06:45:37,13,16.46,5982.0775621614,93.832024,1.11847,5.6719818088,320.8, 6.6, -1.8,0,1,1024,1024,1684,1024,320.6,0,99,4.152,4.165,4.146,4.161,0,0,78.71,6,GPS_Atti,
0.0606194557140444,36.9418959014621,5983.7179821614,95.472444,0,5.5261812792,16600,2017-11-03 06:45:37,13,16.487,5983.7179821614,95.472444,1.11847,5.6719818088,320.8, 6.4, -1.9,0,1,1024,1024,1684,1024,320.6,0,99,4.139,4.15,4.13,4.144,0,0,78.71,6,GPS_Atti,
0.0606193970526063,36.9418959574091,5985.3584021614,97.112864,0,5.4990487324,16700,2017-11-03 06:45:37,13,16.487,5985.3584021614,97.112864,1.11847,5.6719818088,320.8, 6.1, -1.8,0,1,1024,1024,1684,1024,320.6,0,99,4.139,4.15,4.13,4.144,0,0,78.71,6,GPS_Atti,
0.0606193063034935,36.9418960247037,5987.3269061614,99.081368,0,5.4595146104,16800,2017-11-03 06:45:37,13,16.487,5987.3269061614,99.081368,1.11847,5.6719818088,320.9, 5.5, -0.9,0,1,1024,1024,1684,1024,320.6,-0.4,99,4.139,4.15,4.13,4.144,0,0,78.71,6,GPS_Atti,
0.0606192387458658,36.9418960797434,5988.9673261614,100.721788,0,5.429462116,16900,2017-11-03 06:45:37,13,16.487,5988.9673261614,100.721788,1.11847,5.6719818088,320.8, 5.8, -1.5,0,1,1024,1024,1684,1024,320.6,-0.4,99,4.139,4.15,4.13,4.144,0,0,78.71,6,GPS_Atti,
0.0606191904006204,36.941896165461,5990.9358301614,102.690292,0,5.4022639524,17000,2017-11-03 06:45:37,13,16.487,5990.9358301614,102.690292,1.11847,5.6719818088,320.8, 6.6, -2.8,0,1,1024,1024,1684,1024,320.6,-1.5,99,4.139,4.15,4.13,4.144,0,0,78.71,6,GPS_Atti,
0.0606191539218465,36.941896228932,5992.5762501614,104.330712,0,5.3819227444,17100,2017-11-03 06:45:37,13,16.487,5992.5762501614,104.330712,1.11847,5.6719818088,320.8, 6.6, -2.9,0,1,1024,1024,1684,1024,320.6,-2.7,99,4.139,4.15,4.13,4.144,0,0,78.71,6,GPS_Atti,
0.0606190888573666,36.9418962780011,5994.2166701614,105.971132,0,5.3535762868,17200,2017-11-03 06:45:38,13,16.487,5994.2166701614,105.971132,1.11847,5.6719818088,320.8, 6.2, -1.7,0,1,1024,1024,1684,1024,320.6,-3.9,99,4.139,4.15,4.13,4.144,0,0,78.71,6,GPS_Atti,
0.0606190493553863,36.9418962856156,5996.1851741614,107.939636,0,5.339074974,17300,2017-11-03 06:45:38,13,16.487,5996.1851741614,107.939636,1.11847,5.6719818088,320.8, 6.3, -1.5,0,1,1024,1024,1684,1024,320.6,-5.1,99,4.139,4.15,4.13,4.144,0,0,78.71,6,GPS_Atti,
0.0606190047156652,36.9418962974609,5997.8255941614,109.580056,0,5.3222770732,17400,2017-11-03 06:45:38,13,16.487,5997.8255941614,109.580056,1.11847,5.6719818088,320.8, 6.7, -1.9,0,1,1024,1024,1684,1024,320.6,-5.9,99,4.139,4.15,4.13,4.144,0,0,78.71,6,GPS_Atti,
0.0606189753686617,36.9418962737574,5999.7940981614,111.54856,0,5.3150592252,17500,2017-11-03 06:45:38,13,16.487,5999.7940981614,111.54856,1.11847,5.6719818088,320.8, 7.4, -1.8,0,1,1024,1024,1684,1024,320.6,-5.9,99,4.139,4.15,4.13,4.144,0,0,78.71,6,GPS_Atti,
0.0606189264037934,36.9418962614378,6001.4345181614,113.18898,0.223694,5.2997705108,17600,2017-11-03 06:45:38,13,16.406,6001.4345181614,113.18898,1.11847,5.6719818088,320.8, 7.8, -1.8,0,1,1024,1024,1684,1024,320.6,-5.9,99,4.131,4.144,4.128,4.146,0,0,78.71,6,GPS_Atti,
0.0606188924556214,36.9418962140617,6003.4030221614,115.157484,0.223694,5.293963424,17700,2017-11-03 06:45:38,13,16.406,6003.4030221614,115.157484,1.11847,5.6719818088,320.8, 8.7, -0.9,0,1,1024,1024,1684,1024,320.6,-5.9,99,4.131,4.144,4.128,4.146,0,0,78.71,6,GPS_Atti,
0.0606188645074513,36.9418962030771,6005.0434421614,116.797904,0,5.285761324,17800,2017-11-03 06:45:38,13,16.406,6005.0434421614,116.797904,1.11847,5.6719818088,320.8, 8.9, -0.3,0,1,1024,1024,1684,1024,320.6,-5.9,99,4.131,4.144,4.128,4.146,0,0,78.71,6,GPS_Atti,
0.0606188763584525,36.9418962010296,6007.0119461614,118.766408,0,5.2900920328,17900,2017-11-03 06:45:38,13,16.406,6007.0119461614,118.766408,1.11847,5.6719818088,320.8, 9.1, -0.7,0,1,1024,1024,1684,1024,320.6,-5.9,99,4.131,4.144,4.128,4.146,0,0,78.71,6,GPS_Atti,
0.0606188974028343,36.9418962666536,6008.6523661614,120.406828,0,5.2891733976,18000,2017-11-03 06:45:38,13,16.406,6008.6523661614,120.406828,1.11847,5.6719818088,320.8, 8.9, -1.9,0,1,1024,1024,1684,1024,320.6,-6.1,99,4.131,4.144,4.128,4.146,0,0,78.71,6,GPS_Atti,
0.0606189296924361,36.9418963306058,6010.2927861614,122.047248,0,5.2924214292,18100,2017-11-03 06:45:38,13,16.406,6010.2927861614,122.047248,1.11847,5.6719818088,320.8, 8.6, -2.2,0,1,1024,1024,1684,1024,320.7,-6.4,99,4.131,4.144,4.128,4.146,0,0,78.71,6,GPS_Atti,
0.0606189402480101,36.9418964407629,6012.2612901614,124.015752,0,5.282808568,18200,2017-11-03 06:45:39,13,16.406,6012.2612901614,124.015752,1.11847,5.6719818088,320.8, 8.6, -2.5,0,1,1024,1024,1684,1024,320.7,-6.8,99,4.131,4.144,4.128,4.146,0,0,78.71,6,GPS_Atti,
0.0606189459907178,36.9418965333133,6013.9017101614,125.656172,0,5.2738846832,18300,2017-11-03 06:45:39,13,16.406,6013.9017101614,125.656172,1.11847,5.6719818088,320.7, 8.3, -2.5,0,1,1024,1024,1684,1024,320.7,-6.8,99,4.131,4.144,4.128,4.146,0,0,78.71,6,GPS_Atti,
0.0606189279076615,36.9418966485326,6015.5421301614,127.296592,0,5.2542980684,18400,2017-11-03 06:45:39,13,16.406,6015.5421301614,127.296592,1.11847,5.6719818088,320.7, 8.1, -2.6,0,1,1024,1024,1684,1024,320.7,-7.2,99,4.131,4.144,4.128,4.146,0,0,78.71,6,GPS_Atti,
0.0606189171477177,36.941896737494,6017.1825501614,128.937012,0,5.2404529236,18500,2017-11-03 06:45:39,13,16.406,6017.1825501614,128.937012,1.11847,5.6719818088,320.8, 7.7, -2.8,0,1,1024,1024,1684,1024,320.7,-7.6,99,4.131,4.144,4.128,4.146,0,0,78.71,6,GPS_Atti,
0.0606188999668194,36.9418968528492,6018.8229701614,130.577432,0,5.2216537104,18600,2017-11-03 06:45:39,13,16.406,6018.8229701614,130.577432,1.11847,5.6719818088,320.8, 7.6, -2.5,0,1,1024,1024,1684,1024,320.7,-8,99,4.136,4.148,4.129,4.144,0,0,78.71,6,GPS_Atti,
0.060618917141204,36.9418969559667,6020.7914741614,132.545936,0,5.2164371748,18700,2017-11-03 06:45:39,13,16.406,6020.7914741614,132.545936,1.11847,5.6719818088,320.8, 7.7, -3,0,1,1024,1024,1684,1024,320.7,-8.4,99,4.136,4.148,4.129,4.144,0,0,78.71,6,GPS_Atti,
0.0606189471811104,36.9418970657282,6022.4318941614,134.186356,0,5.2152888808,18800,2017-11-03 06:45:39,13,16.406,6022.4318941614,134.186356,1.11847,5.6719818088,320.8, 8, -4,0,1,1024,1024,1684,1024,320.7,-8.7,99,4.136,4.148,4.129,4.144,0,0,78.71,6,GPS_Atti,
0.0606189916604297,36.9418971267503,6024.0723141614,135.826776,0,5.2245080412,18900,2017-11-03 06:45:39,13,16.406,6024.0723141614,135.826776,1.11847,5.6719818088,320.8, 8, -4.5,0,1,1024,1024,1684,1024,320.7,-9.1,99,4.136,4.148,4.129,4.144,0,0,78.71,6,GPS_Atti,
0.060619004744163,36.9418971757943,6025.7127341614,137.467196,0,5.224081532,19000,2017-11-03 06:45:39,13,16.406,6025.7127341614,137.467196,1.11847,5.6719818088,320.8, 8.4, -4,0,1,1024,1024,1684,1024,320.7,-9.5,99,4.136,4.148,4.129,4.144,0,0,78.71,6,GPS_Atti,
0.0606190150570988,36.9418971947905,6027.3531541614,139.107616,0,5.2257547604,19100,2017-11-03 06:45:39,13,16.406,6027.3531541614,139.107616,1.11847,5.6719818088,320.8, 8.4, -3.4,0,1,1024,1024,1684,1024,320.7,-9.9,99,4.136,4.148,4.129,4.144,0,0,78.71,6,GPS_Atti,
0.0606190285300302,36.9418972190165,6029.3216581614,141.07612,0,5.2280513484,19200,2017-11-03 06:45:40,13,16.406,6029.3216581614,141.07612,1.11847,5.6719818088,320.8, 8.5, -3.2,0,1,1024,1024,1684,1024,320.7,-10.2,99,4.136,4.148,4.129,4.144,0,0,78.71,6,GPS_Atti,
0.0606190771757235,36.9418972191327,6030.9620781614,142.71654,0,5.245078908,19300,2017-11-03 06:45:40,13,16.406,6030.9620781614,142.71654,1.11847,5.6719818088,320.7, 9.2, -3.4,0,1,1024,1024,1684,1024,320.7,-10.6,99,4.136,4.148,4.129,4.144,0,0,78.71,6,GPS_Atti,
0.0606191228543919,36.9418972458397,6032.6024981614,144.35696,0,5.2584647352,19400,2017-11-03 06:45:40,13,16.406,6032.6024981614,144.35696,1.11847,5.6719818088,320.7, 9.9, -3.2,0,1,1024,1024,1684,1024,320.7,-11,99,4.136,4.148,4.129,4.144,0,0,78.71,6,GPS_Atti,
0.0606191701655753,36.9418972823521,6034.2429181614,145.99738,0,5.27148967,19500,2017-11-03 06:45:40,13,16.406,6034.2429181614,145.99738,1.11847,5.6719818088,320.7, 9.8, -3.4,0,1,1024,1024,1684,1024,320.7,-11.3,99,4.136,4.148,4.129,4.144,0,0,78.71,6,GPS_Atti,
0.0606191823504075,36.9418973602333,6035.8833381614,147.6378,0,5.26820883,19600,2017-11-03 06:45:40,13,16.487,6035.8833381614,147.6378,1.11847,5.6719818088,320.7, 8.9, -4.1,0,1,1024,1024,1684,1024,320.8,-11.3,99,4.136,4.148,4.129,4.144,0,0,78.71,6,GPS_Atti,
0.0606191904266755,36.9418974103406,6037.5237581614,149.27822,0,5.2662731344,19700,2017-11-03 06:45:40,13,16.487,6037.5237581614,149.27822,1.11847,5.6719818088,320.8, 8.6, -4.4,0,1,1024,1024,1684,1024,320.8,-11.3,99,4.136,4.148,4.129,4.144,0,0,78.71,6,GPS_Atti,
0.0606192049011,36.9418974545933,6039.1641781614,150.91864,0,5.2671917696,19800,2017-11-03 06:45:40,13,16.487,6039.1641781614,150.91864,1.11847,5.6719818088,320.6, 9, -4.4,0,1,1024,1024,1684,1024,320.8,-11.3,99,4.136,4.148,4.129,4.144,0,0,78.71,6,GPS_Atti,
0.0606192328614834,36.9418974678181,6040.8045981614,152.55906,0,5.2758203788,19900,2017-11-03 06:45:40,13,16.487,6040.8045981614,152.55906,1.11847,5.6719818088,320.7, 8.9, -4.5,0,1,1024,1024,1684,1024,320.8,-11.3,99,4.136,4.148,4.129,4.144,0,0,78.71,6,GPS_Atti,
0.0606192529817232,36.9418974988582,6042.7731021614,154.527564,0,5.280019854,20000,2017-11-03 06:45:40,13,16.487,6042.7731021614,154.527564,1.11847,5.6719818088,320.7, 8.8, -4.2,0,1,1024,1024,1684,1024,320.8,-11.3,99,4.136,4.148,4.129,4.144,0,0,78.71,6,GPS_Atti,
0.0606192823303552,36.9418974963504,6044.4135221614,156.167984,0,5.2906169672,20100,2017-11-03 06:45:40,13,16.487,6044.4135221614,156.167984,1.11847,5.6719818088,320.7, 9.5, -3.6,0,1,1024,1024,1684,1024,320.8,-11.2,99,4.136,4.148,4.129,4.144,0,0,78.71,6,GPS_Atti,
0.0606192942017119,36.9418975096753,6046.0539421614,157.808404,0,5.2935697232,20200,2017-11-03 06:45:41,13,16.487,6046.0539421614,157.808404,1.11847,5.6719818088,320.6, 9.9, -3.2,0,1,1024,1024,1684,1024,320.8,-11.3,99,4.136,4.148,4.129,4.144,0,0,78.71,6,GPS_Atti,
0.0606192969562249,36.9418975133634,6047.6943621614,159.448824,0,5.2942258912,20300,2017-11-03 06:45:41,13,16.487,6047.6943621614,159.448824,1.11847,5.6719818088,320.7, 9.5, -3.8,0,1,1024,1024,1684,1024,320.8,-11.3,99,4.136,4.148,4.129,4.144,0,0,78.71,6,GPS_Atti,
0.0606193055153266,36.9418975455266,6049.3347821614,161.089244,0,5.294291508,20400,2017-11-03 06:45:41,13,16.487,6049.3347821614,161.089244,1.11847,5.6719818088,320.8, 9.8, -3.7,0,1,1024,1024,1684,1024,320.8,-11.2,99,4.136,4.148,4.129,4.144,0,0,78.71,6,GPS_Atti,
0.060619322135226,36.941897559208,6050.9752021614,162.729664,0,5.2989174924,20500,2017-11-03 06:45:41,13,16.487,6050.9752021614,162.729664,1.11847,5.6719818088,320.6, 10.2, -4.1,0,1,1024,1024,1684,1024,320.8,-11.3,99,4.136,4.148,4.129,4.144,0,0,78.71,6,GPS_Atti,
0.0606193127195628,36.9418975762553,6052.6156221614,164.370084,0,5.2940618492,20600,2017-11-03 06:45:41,13,16.433,6052.6156221614,164.370084,1.11847,5.6719818088,320.6, 9.4, -3.9,0,1,1024,1024,1684,1024,320.8,-11.3,99,4.139,4.147,4.126,4.143,0,0,78.71,6,GPS_Atti,
0.0606192742003485,36.9418975540869,6054.2560421614,166.010504,0,5.2824476756,20700,2017-11-03 06:45:41,13,16.433,6054.2560421614,166.010504,1.11847,5.6719818088,320.7, 7.9, -3.8,0,1,1024,1024,1684,1024,320.8,-11.3,99,4.139,4.147,4.126,4.143,0,0,78.71,6,GPS_Atti,
0.0606192013804041,36.9418974760973,6055.8964621614,167.650924,0.223694,5.263943738,20800,2017-11-03 06:45:41,13,16.433,6055.8964621614,167.650924,1.11847,5.6719818088,320.7, 8.7, -2.7,0,1,1024,1024,1684,1024,320.8,-11.3,99,4.139,4.147,4.126,4.143,0,0,78.71,6,GPS_Atti,
0.0606191041525268,36.9418973302993,6057.5368821614,169.291344,0.223694,5.24360253,20900,2017-11-03 06:45:41,13,16.433,6057.5368821614,169.291344,1.11847,5.6719818088,320.7, 9.5, -0.7,0,1,1024,1024,1684,1024,320.8,-11.3,99,4.139,4.147,4.126,4.143,0,0,78.71,6,GPS_Atti,
0.0606190175844439,36.9418971974686,6059.1773021614,170.931764,0.223694,5.22637812,21000,2017-11-03 06:45:41,13,16.433,6059.1773021614,170.931764,1.11847,5.6719818088,320.7, 9.6, -0.2,0,1,1024,1024,1684,1024,320.8,-11.3,99,4.139,4.147,4.126,4.143,0,0,78.71,6,GPS_Atti,
0.0606189644906558,36.9418971098476,6060.8177221614,172.572184,0,5.2167324504,21100,2017-11-03 06:45:41,13,16.433,6060.8177221614,172.572184,1.11847,5.6719818088,320.8, 9.8, -1.5,0,1,1024,1024,1684,1024,320.8,-11.3,99,4.139,4.147,4.126,4.143,0,0,78.71,6,GPS_Atti,
0.0606189193762434,36.9418970947557,6062.4581421614,174.212604,0,5.2025264132,21200,2017-11-03 06:45:42,13,16.433,6062.4581421614,174.212604,1.11847,5.6719818088,320.8, 9.6, -2.3,0,1,1024,1024,1684,1024,320.8,-11.3,99,4.139,4.147,4.126,4.143,0,0,78.71,6,GPS_Atti,
0.060618859114859,36.9418971233411,6064.0985621614,175.853024,0,5.178477856,21300,2017-11-03 06:45:42,13,16.433,6064.0985621614,175.853024,1.11847,5.6719818088,320.8, 9, -2.6,0,1,1024,1024,1684,1024,320.8,-11.3,99,4.139,4.147,4.126,4.143,0,0,78.71,6,GPS_Atti,
0.0606187791134766,36.9418971770758,6065.7389821614,177.493444,0,5.1449148628,21400,2017-11-03 06:45:42,13,16.433,6065.7389821614,177.493444,1.11847,5.6719818088,320.8, 8.1, -2.5,0,1,1024,1024,1684,1024,320.8,-11.3,99,4.139,4.147,4.126,4.143,0,0,78.71,6,GPS_Atti,
0.0606186904878547,36.9418972164589,6067.3794021614,179.133864,0,5.1098426832,21500,2017-11-03 06:45:42,13,16.433,6067.3794021614,179.133864,1.11847,5.6719818088,320.8, 7.6, -2.8,0,1,1024,1024,1684,1024,320.8,-11.3,99,4.139,4.147,4.126,4.143,0,0,78.71,6,GPS_Atti,
0.0606186007394207,36.9418972757933,6069.0198221614,180.774284,0,5.072342682,21600,2017-11-03 06:45:42,13,16.406,6069.0198221614,180.774284,1.11847,5.6719818088,320.8, 7.5, -2.6,0,1,1024,1024,1684,1024,320.8,-11.3,99,4.134,4.147,4.125,4.139,0,0,78.71,6,GPS_Atti,
0.0606185136526784,36.9418973235871,6070.6602421614,182.414704,0,5.0369752268,21700,2017-11-03 06:45:42,13,16.406,6070.6602421614,182.414704,1.11847,5.6719818088,320.8, 7.5, -2.5,0,1,1024,1024,1684,1024,320.8,-11.3,99,4.134,4.147,4.125,4.139,0,0,78.71,6,GPS_Atti,
0.0606184388362616,36.9418973688859,6072.3006621614,184.055124,0,5.0061681392,21800,2017-11-03 06:45:42,13,16.406,6072.3006621614,184.055124,1.11847,5.6719818088,320.7, 7.7, -2.7,0,1,1024,1024,1684,1024,320.8,-11.3,99,4.134,4.147,4.125,4.139,0,0,78.71,6,GPS_Atti,
0.0606183765401365,36.9418973913407,6073.9410821614,185.695544,0,4.9820539652,21900,2017-11-03 06:45:42,13,16.406,6073.9410821614,185.695544,1.11847,5.6719818088,320.7, 8, -2.9,0,1,1024,1024,1684,1024,320.8,-11.3,99,4.134,4.147,4.125,4.139,0,0,78.71,6,GPS_Atti,
0.0606183259639229,36.9418974286092,6075.5815021614,187.335964,0,4.9605644632,22000,2017-11-03 06:45:42,13,16.406,6075.5815021614,187.335964,1.11847,5.6719818088,320.7, 7.8, -3,0,1,1024,1024,1684,1024,320.8,-11.3,99,4.134,4.147,4.125,4.139,0,0,78.71,6,GPS_Atti,
0.06061829202715,36.9418974692012,6077.5500061614,189.304468,0,4.9445867724,22100,2017-11-03 06:45:42,13,16.406,6077.5500061614,189.304468,1.11847,5.6719818088,320.7, 7.2, -3.2,0,1,1024,1024,1684,1024,320.9,-11.3,99,4.134,4.147,4.125,4.139,0,0,78.71,6,GPS_Atti,
0.060618260558284,36.9418975123105,6079.1904261614,190.944888,0,4.9292652496,22200,2017-11-03 06:45:43,13,16.406,6079.1904261614,190.944888,1.11847,5.6719818088,320.7, 7.8, -3.3,0,1,1024,1024,1684,1024,320.8,-11.3,99,4.134,4.147,4.125,4.139,0,0,78.71,6,GPS_Atti,
0.060618231451476,36.9418975371216,6080.8308461614,192.585308,0,4.9166012072,22300,2017-11-03 06:45:43,13,16.406,6080.8308461614,192.585308,1.11847,5.6719818088,320.7, 8.3, -3.5,0,1,1024,1024,1684,1024,320.9,-11.3,99,4.134,4.147,4.125,4.139,0,0,78.71,6,GPS_Atti,
0.0606182130476161,36.9418975662925,6082.4712661614,194.225728,0,4.9072836216,22400,2017-11-03 06:45:43,13,16.406,6082.4712661614,194.225728,1.11847,5.6719818088,320.7, 8.8, -3.3,0,1,1024,1024,1684,1024,320.9,-11.3,99,4.134,4.147,4.125,4.139,0,0,78.71,6,GPS_Atti,
0.0606181976588204,36.9418975854341,6084.1116861614,195.866148,0,4.9000001568,22500,2017-11-03 06:45:43,13,16.406,6084.1116861614,195.866148,1.11847,5.6719818088,320.7, 8.6, -3.2,0,1,1024,1024,1684,1024,320.9,-11.3,99,4.134,4.147,4.125,4.139,0,0,78.71,6,GPS_Atti,
0.0606181608160892,36.9418976072242,6085.7521061614,197.506568,0,4.8849411012,22600,2017-11-03 06:45:43,13,16.406,6085.7521061614,197.506568,1.11847,5.6719818088,320.7, 8.1, -3,0,1,1024,1024,1684,1024,320.9,-11.3,99,4.134,4.147,4.125,4.139,0,0,78.71,6,GPS_Atti,
0.0606181209224681,36.9418976084471,6087.3925261614,199.146988,0,4.8708006808,22700,2017-11-03 06:45:43,13,16.406,6087.3925261614,199.146988,1.11847,5.6719818088,320.6, 8.2, -3.2,0,1,1024,1024,1684,1024,320.9,-11.3,99,4.134,4.147,4.125,4.139,0,0,78.71,6,GPS_Atti,
0.0606180783394718,36.9418976284877,6089.0329461614,200.787408,0,4.8538715464,22800,2017-11-03 06:45:43,13,16.406,6089.0329461614,200.787408,1.11847,5.6719818088,320.6, 8.4, -2.8,0,1,1024,1024,1684,1024,320.9,-11.3,99,4.134,4.147,4.125,4.139,0,0,78.71,6,GPS_Atti,
0.0606180525669029,36.9418976493237,6091.0014501614,202.755912,0,4.8427823072,22900,2017-11-03 06:45:43,13,16.406,6091.0014501614,202.755912,1.11847,5.6719818088,320.6, 8.6, -3,0,1,1024,1024,1684,1024,320.9,-11.3,99,4.134,4.147,4.125,4.139,0,0,78.71,6,GPS_Atti,
0.0606180347965078,36.9418977069614,6092.6418701614,204.396332,0,4.8310040916,23000,2017-11-03 06:45:43,13,16.406,6092.6418701614,204.396332,1.11847,5.6719818088,320.7, 8.7, -3.4,0,1,1024,1024,1684,1024,320.9,-11.2,99,4.134,4.147,4.125,4.139,0,0,78.71,6,GPS_Atti,
0.0606180261649404,36.9418977608656,6094.2822901614,206.036752,0,4.8228348,23100,2017-11-03 06:45:43,13,16.406,6094.2822901614,206.036752,1.11847,5.6719818088,320.7, 8.7, -3.6,0,1,1024,1024,1684,1024,320.9,-11.3,99,4.134,4.147,4.125,4.139,0,0,78.71,6,GPS_Atti,
0.0606180178053231,36.9418978471829,6095.9227101614,207.677172,0,4.8118767944,23200,2017-11-03 06:45:44,13,16.406,6095.9227101614,207.677172,1.11847,5.6719818088,320.7, 8.8, -3.8,0,1,1024,1024,1684,1024,320.9,-11.3,99,4.134,4.147,4.125,4.139,0,0,78.71,6,GPS_Atti,
0.0606180232076861,36.9418979167904,6097.5631301614,209.317592,0,4.8074804688,23300,2017-11-03 06:45:44,13,16.406,6097.5631301614,209.317592,1.11847,5.6719818088,320.6, 8.8, -3.8,0,1,1024,1024,1684,1024,320.9,-11.3,99,4.134,4.147,4.125,4.139,0,0,78.71,6,GPS_Atti,
0.0606180004705368,36.9418980116369,6099.2035501614,210.958012,0,4.791010652,23400,2017-11-03 06:45:44,13,16.406,6099.2035501614,210.958012,1.11847,5.6719818088,320.6, 8.5, -4,0,1,1024,1024,1684,1024,320.9,-11.3,99,4.134,4.147,4.125,4.139,0,0,78.71,6,GPS_Atti,
