latitude,longitude,altitude(feet),ascent(feet),speed(mph),distance(feet),time(millisecond),datetime(utc),satellites,voltage(v),max_altitude(feet),max_ascent(feet),max_speed(mph),max_distance(feet),compass_heading(degrees), pitch(degrees), roll(degrees),isPhoto,isVideo,rc_elevator,rc_aileron,rc_throttle,rc_rudder,gimbal_heading(degrees),gimbal_pitch(degrees),battery_percent,voltageCell1,voltageCell2,voltageCell3,voltageCell4,voltageCell5,voltageCell6,battery_temperature(f),flycStateRaw,flycState,message
0.357680384798382,36.8938345807028,5810.6636045764,0,0,0,100,2017-11-07 07:28:56,9,0,5810.6636045764,0,0,0,108.5, 0.3, 0.3,0,0,1024,1024,1024,1024,113,0,99,4.286,4.287,4.283,4.285,0,0,84.11,41,Motors_Started,
0.357680425783315,36.8938345047596,5810.6636045764,0,0,0.0314848763356,200,2017-11-07 07:28:56,9,0,5810.6636045764,0,0,0.0314848763356,108.5, 0.3, 0.3,0,0,1024,1024,1024,1024,113,0,99,4.286,4.287,4.283,4.285,0,0,84.11,41,Motors_Started,
0.357680449609334,36.8938344414804,5810.6636045764,0,0,0.0560285451,300,2017-11-07 07:28:56,9,0,5810.6636045764,0,0,0.0560285451,108.5, 0.3, 0.4,0,0,1024,1024,1024,1024,113,0,99,4.286,4.287,4.283,4.285,0,0,84.11,41,Motors_Started,
0.357680463029086,36.8938343803333,5810.6636045764,0,0,0.0784776928,400,2017-11-07 07:28:57,9,0,5810.6636045764,0,0,0.0784776928,108.5, 0.4, 0.4,0,0,1024,1024,1024,1024,113,0,99,4.286,4.287,4.283,4.285,0,0,84.11,41,Motors_Started,
0.35768047134555,36.8938343273164,5810.6636045764,0,0,0.09769029184,500,2017-11-07 07:28:57,9,0,5810.6636045764,0,0,0.09769029184,108.5, 0.4, 0.4,0,0,1024,1024,1024,1024,113,0,99,4.286,4.287,4.283,4.285,0,0,84.11,41,Motors_Started,
0.357680490706222,36.8938342793323,5810.6636045764,0,0,0.116544623152,600,2017-11-07 07:28:57,9,0,5810.6636045764,0,0,0.116544623152,108.5, 0.4, 0.4,0,0,1024,1024,1024,1024,113,0,99,4.286,4.287,4.283,4.285,0,0,84.11,41,Motors_Started,
0.357680521926445,36.893834227455,5810.6636045764,0,0,0.138250004424,700,2017-11-07 07:28:57,9,17.125,5810.6636045764,0,0,0.138250004424,108.5, 0.4, 0.4,0,0,1024,1024,1024,1024,113,0,99,4.286,4.287,4.283,4.285,0,0,84.11,41,Motors_Started,Setting new Return-To-Home altitude to 30m (98 ft). Setting new Maximum Flight Altitude to 100m (328 ft)
0.357680562482334,36.8938341686975,5810.6636045764,0,0,0.163700464556,800,2017-11-07 07:28:57,9,17.125,5810.6636045764,0,0,0.163700464556,108.5, 0.4, 0.4,0,0,1024,1024,1024,1024,113,0,99,4.286,4.287,4.283,4.285,0,0,84.11,41,Motors_Started,
0.357680603998089,36.8938340936718,5810.6636045764,0,0,0.194857617784,900,2017-11-07 07:28:57,9,17.125,5810.6636045764,0,0,0.194857617784,108.5, 0.5, 0.5,0,0,711,623,511,1589,113,0,99,4.286,4.287,4.283,4.285,0,0,84.11,41,Motors_Started,
0.35768065788839,36.8938340389948,5810.6636045764,0,0,0.221333012332,1000,2017-11-07 07:28:57,9,17.125,5810.6636045764,0,0,0.221333012332,108.5, 0.5, 0.5,0,0,1024,1024,873,1083,113,0,99,4.286,4.287,4.283,4.285,0,0,84.11,41,Motors_Started,
0.35768070802187,36.893834008727,5810.6636045764,0,0,0.239697186148,1100,2017-11-07 07:28:57,9,17.125,5810.6636045764,0,0,0.239697186148,108.5, 0.5, 0.5,0,0,1024,1024,1024,1024,112.1,0,99,4.286,4.287,4.283,4.285,0,0,84.11,41,Motors_Started,
0.357680775015547,36.8938339837767,5810.6636045764,0,0,0.260190625124,1200,2017-11-07 07:28:57,9,17.125,5810.6636045764,0,0,0.260190625124,108.4, 0.4, 0.4,0,0,1024,1024,1024,1024,110.6,0,99,4.286,4.287,4.283,4.285,0,0,84.11,41,Motors_Started,
0.357680831285514,36.8938339544504,5810.6636045764,0,0,0.28060860478,1300,2017-11-07 07:28:57,9,17.125,5810.6636045764,0,0,0.28060860478,108.4, 0.4, 0.4,0,0,1024,1024,1024,1024,109.9,0,99,4.286,4.287,4.283,4.285,0,0,84.11,41,Motors_Started,
0.357680874753569,36.8938339194173,5810.6636045764,0,0,0.300272975488,1400,2017-11-07 07:28:58,9,17.125,5810.6636045764,0,0,0.300272975488,108.4, 0.5, 0.5,0,0,1024,1024,1024,1024,109.6,0,99,4.286,4.287,4.283,4.285,0,0,84.11,41,Motors_Started,
0.357680902199771,36.8938338845829,5810.6636045764,0,0,0.316446204352,1500,2017-11-07 07:28:58,9,17.125,5810.6636045764,0,0,0.316446204352,108.4, 0.5, 0.5,0,0,1024,1024,1024,1024,109.4,0,99,4.286,4.287,4.283,4.285,0,0,84.11,41,Motors_Started,
0.357680934784325,36.8938338446309,5810.6636045764,0,0,0.33523951204,1600,2017-11-07 07:28:58,9,17.125,5810.6636045764,0,0,0.33523951204,108.4, 0.5, 0.4,0,0,1024,1024,1024,1024,109.2,0,99,4.286,4.287,4.283,4.285,0,0,84.11,10,Assisted_Takeoff,
0.35768097506348,36.8938338110303,5810.6636045764,0,0,0.35388124492,1700,2017-11-07 07:28:58,9,17.097,5810.6636045764,0,0,0.35388124492,108.4, 0.2, 0.3,0,0,1024,1024,1024,1024,109.1,0,99,4.283,4.284,4.281,4.283,0,0,84.11,10,Assisted_Takeoff,
0.357681023631415,36.8938337923398,5810.6636045764,0,0,0.3702099856,1800,2017-11-07 07:28:58,9,17.097,5810.6636045764,0,0,0.3702099856,108.4, 0.1, 0.2,0,0,1024,1024,1024,1024,109.1,0,99,4.283,4.284,4.281,4.283,0,0,84.11,10,Assisted_Takeoff,
0.357681069976728,36.8938337819861,5810.6636045764,0,0,0.383940301,1900,2017-11-07 07:28:58,9,17.097,5810.6636045764,0,0,0.383940301,108.4, 0.2, 0.2,0,0,1024,1024,1024,1024,109,0,99,4.283,4.284,4.281,4.283,0,0,84.11,10,Assisted_Takeoff,
0.357681100571628,36.8938337616533,5810.6636045764,0,0,0.39685696808,2000,2017-11-07 07:28:58,9,17.097,5810.6636045764,0,0,0.39685696808,108.4, 0.4, 0.4,0,0,1024,1024,1024,1024,108.9,0,99,4.283,4.284,4.281,4.283,0,0,84.11,10,Assisted_Takeoff,
0.357681118667509,36.8938337298861,5810.6636045764,0,0,0.40993767716,2100,2017-11-07 07:28:58,9,17.097,5810.6636045764,0,0,0.40993767716,108.3, 0.4, 0.4,0,0,1024,1024,1024,1024,108.9,0,99,4.283,4.284,4.281,4.283,0,0,84.11,10,Assisted_Takeoff,
0.357681145037208,36.8938336952148,5810.6636045764,0,0,0.42580053856,2200,2017-11-07 07:28:58,9,17.097,5810.6636045764,0,0,0.42580053856,108.3, 0.3, 0.3,0,0,1024,1024,1024,1024,108.9,0,99,4.283,4.284,4.281,4.283,0,0,84.11,10,Assisted_Takeoff,
0.357681178709359,36.8938336586417,5810.6636045764,0,0,0.44392717956,2300,2017-11-07 07:28:58,9,17.097,5810.6636045764,0,0,0.44392717956,108.3, 0.4, 0.4,0,0,1024,1024,1024,1024,108.9,0,99,4.283,4.284,4.281,4.283,0,0,84.11,10,Assisted_Takeoff,
0.357681198371497,36.8938336110104,5810.6636045764,0,0,0.46181431924,2400,2017-11-07 07:28:59,9,17.097,5810.6636045764,0,0,0.46181431924,108.3, 0.4, 0.4,0,0,1024,1024,1024,1024,108.8,0,99,4.283,4.284,4.281,4.283,0,0,84.11,10,Assisted_Takeoff,
0.357681212433823,36.893833570575,5810.6636045764,0,0,0.47644686564,2500,2017-11-07 07:28:59,9,17.097,5810.6636045764,0,0,0.47644686564,108.3, 0.4, 0.3,0,0,1024,1024,1024,1024,108.8,0,99,4.283,4.284,4.281,4.283,0,0,84.11,10,Assisted_Takeoff,
0.357681233876156,36.8938335399721,5810.6636045764,0,0,0.4900426666,2600,2017-11-07 07:28:59,9,17.097,5810.6636045764,0,0,0.4900426666,108.3, 0.4, 0.4,0,0,1024,1024,1024,1024,108.8,0,99,4.283,4.284,4.281,4.283,0,0,84.11,10,Assisted_Takeoff,
0.357681265266348,36.8938335259093,5810.6636045764,0,0,0.50128938612,2700,2017-11-07 07:28:59,9,17.097,5810.6636045764,0,0,0.50128938612,108.3, 0.4, 0.3,0,0,1024,1024,1025,1024,108.8,0,99,4.281,4.281,4.274,4.275,0,0,84.11,10,Assisted_Takeoff,
0.357681307077767,36.8938335238361,5810.6636045764,0,0,0.51176838908,2800,2017-11-07 07:28:59,9,17.097,5810.6636045764,0,0,0.51176838908,108.3, 0.4, 0.4,0,0,1024,1024,1053,1024,108.7,0,99,4.281,4.281,4.274,4.275,0,0,84.11,10,Assisted_Takeoff,
0.357681350269394,36.8938335248494,5810.6636045764,0,0,0.52199148652,2900,2017-11-07 07:28:59,9,17.097,5810.6636045764,0,0,0.52199148652,108.3, 0.4, 0.4,0,0,1024,1024,1130,1024,108.7,0,99,4.281,4.281,4.274,4.275,0,0,84.11,10,Assisted_Takeoff,
0.357681381426922,36.8938335144678,5810.6636045764,0,0,0.53249017452,3000,2017-11-07 07:28:59,9,17.097,5810.6636045764,0,0,0.53249017452,108.3, 0.4, 0.4,0,0,1024,1024,1267,1024,108.7,0,99,4.281,4.281,4.274,4.275,0,0,84.11,10,Assisted_Takeoff,
0.357681401671941,36.8938334942919,5810.6636045764,0,0,0.5429134032,3100,2017-11-07 07:28:59,9,17.097,5810.6636045764,0,0,0.5429134032,108.3, 0.4, 0.4,0,0,1024,1024,1379,1024,108.7,0,99,4.281,4.281,4.274,4.275,0,0,84.11,10,Assisted_Takeoff,
0.357681407105041,36.8938334795755,5810.6636045764,0,0,0.54819227476,3200,2017-11-07 07:28:59,9,17.097,5810.6636045764,0,0,0.54819227476,108.3, 0.5, 0.5,0,0,1024,1024,1464,1024,108.7,0,99,4.281,4.281,4.274,4.275,0,0,84.11,10,Assisted_Takeoff,
0.357681410919162,36.893833473198,5810.6636045764,0,0,0.55084319348,3300,2017-11-07 07:28:59,9,17.097,5810.6636045764,0,0,0.55084319348,108.3, 0.6, 0.5,0,0,1024,1024,1528,1024,108.7,0,99,4.281,4.281,4.274,4.275,0,0,84.11,10,Assisted_Takeoff,
0.357681423989054,36.8938334514617,5810.6636045764,0,0,0.55990487356,3400,2017-11-07 07:29:00,9,17.097,5810.6636045764,0,0,0.55990487356,108.3, 0.6, 0.5,0,0,1024,1024,1528,1024,108.7,0,99,4.281,4.281,4.274,4.275,0,0,84.11,10,Assisted_Takeoff,
0.357681450139015,36.8938334242535,5810.6636045764,0,0,0.5736712782,3500,2017-11-07 07:29:00,9,17.097,5810.6636045764,0,0,0.5736712782,108.5, 1.3, 0.6,0,0,1024,1024,1639,1024,108.7,0,99,4.281,4.281,4.274,4.275,0,0,84.11,10,Assisted_Takeoff,
0.357681466253689,36.8938333851281,5810.6636045764,0,0,0.58817587184,3600,2017-11-07 07:29:00,9,17.097,5810.6636045764,0,0,0.58817587184,108.5, 2.6, 0.6,0,0,1024,1024,1666,1024,108.7,0,99,4.281,4.281,4.274,4.275,0,0,84.11,10,Assisted_Takeoff,
0.357681479235645,36.8938333131857,5810.6636045764,0,0,0.61098099068,3700,2017-11-07 07:29:00,9,17.097,5810.6636045764,0,0,0.61098099068,108.5, 3.1, 0.4,0,0,1024,1024,1684,1024,108.7,0,99,4.281,4.281,4.274,4.275,0,0,84.11,6,GPS_Atti,
0.357681495983784,36.8938331566785,5810.6636045764,0,0.223694,0.6590059266,3800,2017-11-07 07:29:00,9,17.097,5810.6636045764,0,0.223694,0.6590059266,108.5, 1.7, 0.2,0,0,1024,1024,1684,1024,108.7,0,99,4.281,4.281,4.274,4.275,0,0,84.11,6,GPS_Atti,Home Point Recorded. RTH Altitude:  30m.
0.357681524984743,36.8938329441145,5810.9916885764,0.328084,0.223694,0.72771983956,3900,2017-11-07 07:29:00,9,17.097,5810.9916885764,0.328084,0.223694,0.72771983956,108.6, 0, 0.5,0,0,1024,1024,1684,1024,108.7,0,99,4.281,4.281,4.274,4.275,0,0,84.11,6,GPS_Atti,
0.357681546352371,36.8938327166086,5811.3197725764,0.656168,0.223694,0.80133532748,4000,2017-11-07 07:29:00,9,17.097,5811.3197725764,0.656168,0.223694,0.80133532748,108.6, -0.4, 0.6,0,0,1024,1024,1684,1024,108.7,0,99,4.281,4.281,4.274,4.275,0,0,84.11,6,GPS_Atti,
0.357681547820617,36.8938324879685,5811.6478565764,0.984252,0.223694,0.8735072458,4100,2017-11-07 07:29:00,9,17.097,5811.6478565764,0.984252,0.223694,0.8735072458,108.5, -0.3, 0.5,0,0,1024,1024,1684,1024,108.7,0,99,4.281,4.281,4.274,4.275,0,0,84.11,6,GPS_Atti,
0.357681511354871,36.8938322337305,5812.3040245764,1.64042,0.50107456,0.94981302252,4200,2017-11-07 07:29:00,9,17.097,5812.3040245764,1.64042,0.50107456,0.94981302252,108.3, -0.9, -0.3,0,0,1024,1024,1684,1024,108.7,0,99,4.281,4.281,4.274,4.275,0,0,84.11,6,GPS_Atti,
0.357681379920102,36.893831710388,5814.2725285764,3.608924,0.223694,1.1083661772,4400,2017-11-07 07:29:01,9,17.097,5814.2725285764,3.608924,0.50107456,1.1083661772,108.4, -1.8, -2.3,0,0,1024,1024,1684,1024,108.7,0,99,4.281,4.281,4.274,4.275,0,0,84.11,6,GPS_Atti,
0.357681437866043,36.8938314999175,5815.2567805764,4.593176,0.447388,1.18785436872,4500,2017-11-07 07:29:01,16,17.097,5815.2567805764,4.593176,0.50107456,1.18785436872,108.5, -1.9, -2.5,0,0,1024,1024,1684,1024,108.7,0,99,4.281,4.281,4.274,4.275,0,0,84.11,6,GPS_Atti,
0.357681552588905,36.8938312964091,5816.5691165764,5.905512,0.447388,1.27174544752,4600,2017-11-07 07:29:01,15,17.097,5816.5691165764,5.905512,0.50107456,1.27174544752,108.6, -2.4, -1.9,0,0,1024,1024,1684,1024,108.7,0,99,4.281,4.281,4.274,4.275,0,0,84.11,6,GPS_Atti,
0.357681653102778,36.8938310949573,5817.8814525764,7.217848,0.447388,1.35331697244,4700,2017-11-07 07:29:01,15,16.606,5817.8814525764,7.217848,0.50107456,1.35331697244,108.6, -3.2, -2.3,0,0,1024,1024,1684,1024,108.7,0,99,4.246,4.238,4.232,4.228,0,0,84.11,6,GPS_Atti,
0.357681775945266,36.8938309441757,5819.5218725764,8.858268,0.447388,1.42053154152,4800,2017-11-07 07:29:01,15,16.606,5819.5218725764,8.858268,0.50107456,1.42053154152,108.6, -3, -2.5,0,0,1024,1024,1684,1024,108.7,0,99,4.246,4.238,4.232,4.228,0,0,84.11,6,GPS_Atti,
0.357681909408668,36.8938308380443,5821.1622925764,10.498688,0.447388,1.47443246188,4900,2017-11-07 07:29:01,15,16.606,5821.1622925764,10.498688,0.50107456,1.47443246188,108.7, -4.1, -1.6,0,0,1024,1024,1684,1024,108.7,0,99,4.246,4.238,4.232,4.228,0,0,84.11,6,GPS_Atti,
0.357682048315144,36.8938307503786,5822.8027125764,12.139108,0.223694,1.5235728834,5000,2017-11-07 07:29:01,16,16.606,5822.8027125764,12.139108,0.50107456,1.5235728834,108.7, -4.7, -1.9,0,0,1024,1024,1684,1024,108.7,0,99,4.246,4.238,4.232,4.228,0,0,84.11,6,GPS_Atti,
0.357682126873115,36.8938306555721,5824.4431325764,13.779528,0.223694,1.56676842284,5100,2017-11-07 07:29:01,16,16.606,5824.4431325764,13.779528,0.50107456,1.56676842284,108.8, -5.3, -2.8,0,0,1024,1024,1684,1024,108.7,0,99,4.246,4.238,4.232,4.228,0,0,84.11,6,GPS_Atti,
0.357682172274948,36.8938306046342,5826.0835525764,15.419948,0,1.59049217688,5200,2017-11-07 07:29:01,16,16.606,5826.0835525764,15.419948,0.50107456,1.59049217688,108.9, -4.4, -4,0,0,1024,1024,1684,1024,108.7,0,99,4.246,4.238,4.232,4.228,0,0,84.11,6,GPS_Atti,
0.357682182091208,36.8938305439325,5828.0520565764,17.388452,0.223694,1.61216868676,5300,2017-11-07 07:29:01,16,16.606,5828.0520565764,17.388452,0.50107456,1.61216868676,108.7, -3.3, -3.2,0,0,1024,1024,1684,1024,108.7,0,99,4.246,4.238,4.232,4.228,0,0,84.11,6,GPS_Atti,
0.357682222894519,36.8938304787814,5829.6924765764,19.028872,0.223694,1.6399442782,5400,2017-11-07 07:29:02,16,16.606,5829.6924765764,19.028872,0.50107456,1.6399442782,108.6, -3.9, -2.8,0,0,1024,1024,1684,1024,108.7,0,99,4.246,4.238,4.232,4.228,0,0,84.11,6,GPS_Atti,
0.357682279568441,36.8938304234359,5831.3328965764,20.669292,0.223694,1.66686028956,5500,2017-11-07 07:29:02,16,16.606,5831.3328965764,20.669292,0.50107456,1.66686028956,108.6, -4.7, -3.3,0,0,1024,1024,1684,1024,108.7,0,99,4.246,4.238,4.232,4.228,0,0,84.11,6,GPS_Atti,
0.357682355732599,36.8938303674491,5832.9733165764,22.309712,0.223694,1.69705714092,5600,2017-11-07 07:29:02,16,16.606,5832.9733165764,22.309712,0.50107456,1.69705714092,108.6, -5.1, -3.2,0,0,1024,1024,1684,1024,108.7,0,99,4.246,4.238,4.232,4.228,0,0,84.11,6,GPS_Atti,
0.357682466830137,36.8938303653796,5834.6137365764,23.950132,0,1.71530189216,5700,2017-11-07 07:29:02,16,16.278,5834.6137365764,23.950132,0.50107456,1.71530189216,108.6, -4.6, -2.4,0,0,1024,1024,1684,1024,108.7,0,99,4.114,4.111,4.12,4.117,0,0,84.11,6,GPS_Atti,
0.357682567675399,36.893830364854,5836.2541565764,25.590552,0,1.73208010792,5800,2017-11-07 07:29:02,16,16.278,5836.2541565764,25.590552,0.50107456,1.73208010792,108.6, -4.4, -2.7,0,0,1024,1024,1684,1024,108.7,0,99,4.114,4.111,4.12,4.117,0,0,84.11,6,GPS_Atti,
0.357682678074335,36.8938304190614,5837.8945765764,27.230972,0,1.73361882188,5900,2017-11-07 07:29:02,16,16.278,5837.8945765764,27.230972,0.50107456,1.73361882188,108.4, -4, -2.6,0,0,1024,1024,1684,1024,108.7,0,99,4.114,4.111,4.12,4.117,0,0,84.11,6,GPS_Atti,
0.357682819138907,36.8938304783403,5839.5349965764,28.871392,0,1.74040031816,6000,2017-11-07 07:29:02,16,16.278,5839.5349965764,28.871392,0.50107456,1.74040031816,108.4, -3.9, -2,0,0,1024,1024,1684,1024,108.6,0,99,4.114,4.111,4.12,4.117,0,0,84.11,6,GPS_Atti,
0.357683012604975,36.8938305821763,5841.1754165764,30.511812,0,1.74567918972,6100,2017-11-07 07:29:02,16,16.278,5841.1754165764,30.511812,0.50107456,1.74567918972,108.5, -4, -0.7,0,0,1024,1024,1684,1024,108.6,0,99,4.114,4.111,4.12,4.117,0,0,84.11,6,GPS_Atti,
0.357683202258041,36.8938306949785,5842.8158365764,32.152232,0,1.75113850748,6200,2017-11-07 07:29:02,16,16.278,5842.8158365764,32.152232,0.50107456,1.75113850748,108.5, -4, -0.2,0,0,1024,1024,1684,1024,108.6,0,99,4.114,4.111,4.12,4.117,0,0,84.11,6,GPS_Atti,
0.357683322863453,36.8938307797301,5844.4562565764,33.792652,0,1.75275924244,6300,2017-11-07 07:29:02,16,16.278,5844.4562565764,33.792652,0.50107456,1.75275924244,108.5, -4.9, -0.6,0,0,1024,1024,1684,1024,108.6,0,99,4.114,4.111,4.12,4.117,0,0,84.11,6,GPS_Atti,
0.357683439091608,36.8938308689257,5846.0966765764,35.433072,0,1.75376317948,6400,2017-11-07 07:29:03,16,16.278,5846.0966765764,35.433072,0.50107456,1.75376317948,108.5, -4.7, -1.4,0,0,1024,1024,1684,1024,108.6,0,99,4.114,4.111,4.12,4.117,0,0,84.11,6,GPS_Atti,
0.357683583848066,36.893830988372,5847.7370965764,37.073492,0,1.75500661784,6500,2017-11-07 07:29:03,16,16.278,5847.7370965764,37.073492,0.50107456,1.75500661784,108.5, -4.2, -1.5,0,0,1024,1024,1684,1024,108.6,0,99,4.114,4.111,4.12,4.117,0,0,84.11,6,GPS_Atti,
0.357683728604931,36.8938310972698,5849.3775165764,38.713912,0.223694,1.76169296976,6600,2017-11-07 07:29:03,16,16.278,5849.3775165764,38.713912,0.50107456,1.76169296976,108.6, -4.3, -1,0,0,1024,1024,1684,1024,108.6,0,99,4.114,4.111,4.12,4.117,0,0,84.11,6,GPS_Atti,
0.357683861206683,36.8938312309486,5851.0179365764,40.354332,0.223694,1.7613517624,6700,2017-11-07 07:29:03,16,16.497,5851.0179365764,40.354332,0.50107456,1.76169296976,108.5, -4.6, -0.6,0,0,1024,1024,1684,1024,108.6,0,99,4.138,4.136,4.146,4.145,0,0,84.11,6,GPS_Atti,
0.35768397822504,36.8938313681979,5852.6583565764,41.994752,0,1.7585794526,6800,2017-11-07 07:29:03,16,16.497,5852.6583565764,41.994752,0.50107456,1.76169296976,108.5, -5.3, -0.6,0,0,1024,1024,1684,1024,108.6,0,99,4.138,4.136,4.146,4.145,0,0,84.11,6,GPS_Atti,
0.35768409299248,36.893831538671,5854.2987765764,43.635172,0.223694,1.74992131584,6900,2017-11-07 07:29:03,16,16.497,5854.2987765764,43.635172,0.50107456,1.76169296976,108.6, -4.9, -0.4,0,0,1024,1024,1684,1024,108.6,0,99,4.138,4.136,4.146,4.145,0,0,84.11,6,GPS_Atti,
0.357684185403827,36.8938317342452,5855.9391965764,45.275592,0.223694,1.73242459612,7000,2017-11-07 07:29:03,16,16.497,5855.9391965764,45.275592,0.50107456,1.76169296976,108.6, -4, -0.2,0,0,1024,1024,1684,1024,108.6,0,99,4.138,4.136,4.146,4.145,0,0,84.11,6,GPS_Atti,
0.357684314957946,36.8938321277586,5859.2200365764,48.556432,0.223694,1.69027564464,7200,2017-11-07 07:29:03,16,16.497,5859.2200365764,48.556432,0.50107456,1.76169296976,108.5, -3.6, -0.1,0,0,1024,1024,1684,1024,108.7,0,99,4.138,4.136,4.146,4.145,0,0,84.11,6,GPS_Atti,
0.357684315425717,36.8938323134342,5860.8604565764,50.196852,0.223694,1.65555451492,7300,2017-11-07 07:29:03,16,16.497,5860.8604565764,50.196852,0.50107456,1.76169296976,108.4, -3.4, -0.4,0,0,1024,1024,1684,1024,108.6,0,99,4.138,4.136,4.146,4.145,0,0,84.11,6,GPS_Atti,
0.357684274521239,36.8938324813014,5862.5008765764,51.837272,0,1.61267065528,7400,2017-11-07 07:29:04,16,16.497,5862.5008765764,51.837272,0.50107456,1.76169296976,108.4, -2.8, -1.9,0,0,1024,1024,1684,1024,108.6,0,99,4.138,4.136,4.146,4.145,0,0,84.11,6,GPS_Atti,
0.357684228708631,36.8938326153469,5864.4693805764,53.805776,0,1.57512472232,7500,2017-11-07 07:29:04,16,16.497,5864.4693805764,53.805776,0.50107456,1.76169296976,108.4, -3.4, -3,0,0,1024,1024,1684,1024,108.6,0,99,4.138,4.136,4.146,4.145,0,0,84.11,6,GPS_Atti,
0.35768419234507,36.8938327432194,5866.1098005764,55.446196,0,1.54248036432,7600,2017-11-07 07:29:04,16,16.497,5866.1098005764,55.446196,0.50107456,1.76169296976,108.5, -4.3, -1.8,0,0,1024,1024,1684,1024,108.6,0,99,4.138,4.136,4.146,4.145,0,0,84.11,6,GPS_Atti,
0.357684145980012,36.8938328778093,5867.7502205764,57.086616,0,1.50635503508,7700,2017-11-07 07:29:04,16,16.469,5867.7502205764,57.086616,0.50107456,1.76169296976,108.5, -3.9, -1.9,0,0,1024,1024,1684,1024,108.6,0,99,4.138,4.136,4.146,4.145,0,0,84.11,6,GPS_Atti,
0.357684074181102,36.8938330210866,5869.3906405764,58.727036,0.223694,1.46139768456,7800,2017-11-07 07:29:04,16,16.469,5869.3906405764,58.727036,0.50107456,1.76169296976,108.5, -2.8, -2.2,0,0,1024,1024,1684,1024,108.6,0,99,4.138,4.136,4.146,4.145,0,0,84.11,6,GPS_Atti,
0.357683999728643,36.8938331330575,5871.0310605764,60.367456,0.223694,1.42072839192,7900,2017-11-07 07:29:04,16,16.469,5871.0310605764,60.367456,0.50107456,1.76169296976,108.5, -3.1, -3.6,0,0,1024,1024,1684,1024,108.6,0,99,4.138,4.136,4.146,4.145,0,0,84.11,6,GPS_Atti,
0.357683931740292,36.8938332549298,5872.6714805764,62.007876,0,1.38154203896,8000,2017-11-07 07:29:04,16,16.469,5872.6714805764,62.007876,0.50107456,1.76169296976,108.6, -3.2, -4,0,0,1024,1024,1684,1024,108.6,0,99,4.138,4.136,4.146,4.145,0,0,84.11,6,GPS_Atti,
0.357683892590463,36.8938333803639,5874.3119005764,63.648296,0,1.35267064696,8100,2017-11-07 07:29:04,16,16.469,5874.3119005764,63.648296,0.50107456,1.76169296976,108.6, -3.5, -3.7,0,0,1024,1024,1684,1024,108.6,0,99,4.138,4.136,4.146,4.145,0,0,84.11,6,GPS_Atti,
0.357683862242373,36.8938334959122,5876.2804045764,65.6168,0,1.32904203728,8200,2017-11-07 07:29:04,16,16.469,5876.2804045764,65.6168,0.50107456,1.76169296976,108.6, -3.7, -3.6,0,0,1024,1024,1684,1024,108.6,0,99,4.138,4.136,4.146,4.145,0,0,84.11,6,GPS_Atti,
0.357683835290404,36.8938335662862,5877.9208245764,67.25722,0,1.31218508136,8300,2017-11-07 07:29:04,16,16.469,5877.9208245764,67.25722,0.50107456,1.76169296976,108.6, -3.5, -3.2,0,0,1024,1024,1684,1024,108.6,0,99,4.138,4.136,4.146,4.145,0,0,84.11,6,GPS_Atti,
0.357683811711349,36.8938336289064,5879.5612445764,68.89764,0,1.29763455596,8400,2017-11-07 07:29:05,16,16.469,5879.5612445764,68.89764,0.50107456,1.76169296976,108.5, -3.4, -2.9,0,0,1024,1024,1684,1024,108.6,0,99,4.138,4.136,4.146,4.145,0,0,84.11,6,GPS_Atti,
0.357683796016405,36.8938336731879,5881.2016645764,70.53806,0,1.28787077612,8500,2017-11-07 07:29:05,16,16.469,5881.2016645764,70.53806,0.50107456,1.76169296976,108.5, -3.8, -2.8,0,0,1024,1024,1684,1051,108.6,0,99,4.138,4.136,4.146,4.145,0,0,84.11,6,GPS_Atti,
0.3576837650548,36.8938336981231,5882.8420845764,72.17848,0,1.27462930588,8600,2017-11-07 07:29:05,16,16.469,5882.8420845764,72.17848,0.50107456,1.76169296976,108.5, -4, -2.9,0,0,1024,1024,1684,1059,108.6,0,99,4.138,4.136,4.146,4.145,0,0,84.11,6,GPS_Atti,
0.357683731177872,36.8938337017535,5884.4825045764,73.8189,0,1.2623359984,8700,2017-11-07 07:29:05,16,16.415,5884.4825045764,73.8189,0.50107456,1.76169296976,108.6, -4.3, -3.2,0,0,1024,1024,1684,1055,108.6,0,99,4.141,4.137,4.143,4.143,0,0,84.11,6,GPS_Atti,
0.357683680234444,36.8938336925202,5886.1229245764,75.45932,0,1.24523954116,8800,2017-11-07 07:29:05,16,16.415,5886.1229245764,75.45932,0.50107456,1.76169296976,108.7, -4.5, -3.3,0,0,1024,1024,1684,1047,108.6,0,99,4.141,4.137,4.143,4.143,0,0,84.11,6,GPS_Atti,
0.357683643357923,36.8938336755234,5887.7633445764,77.09974,0,1.23390095812,8900,2017-11-07 07:29:05,16,16.415,5887.7633445764,77.09974,0.50107456,1.76169296976,108.9, -4.5, -3,0,0,1024,1024,1684,1046,108.6,0,99,4.141,4.137,4.143,4.143,0,0,84.11,6,GPS_Atti,
0.357683591745205,36.8938336402499,5889.7318485764,79.068244,0,1.219324186,9000,2017-11-07 07:29:05,16,16.415,5889.7318485764,79.068244,0.50107456,1.76169296976,109, -4.4, -2.9,0,0,1024,1024,1684,1054,108.6,0,99,4.141,4.137,4.143,4.143,0,0,84.11,6,GPS_Atti,
0.357683545692809,36.8938335864894,5891.3722685764,80.708664,0,1.20895016992,9100,2017-11-07 07:29:05,16,16.415,5891.3722685764,80.708664,0.50107456,1.76169296976,109, -4.5, -2.9,0,0,1024,1024,1684,1052,108.6,0,99,4.141,4.137,4.143,4.143,0,0,84.11,6,GPS_Atti,
0.357683476962294,36.8938334879716,5893.0126885764,82.349084,0,1.19654531388,9200,2017-11-07 07:29:05,16,16.415,5893.0126885764,82.349084,0.50107456,1.76169296976,109.1, -4.7, -3.5,0,0,1024,1024,1684,1056,108.6,0,99,4.141,4.137,4.143,4.143,0,0,84.11,6,GPS_Atti,
0.357683427289053,36.8938333782645,5894.6531085764,83.989504,0,1.19359583872,9300,2017-11-07 07:29:05,16,16.415,5894.6531085764,83.989504,0.50107456,1.76169296976,109.2, -4.9, -3.7,0,0,1024,1024,1684,1060,108.6,0,99,4.141,4.137,4.143,4.143,0,0,84.11,6,GPS_Atti,
0.357683380186717,36.8938332641803,5896.2935285764,85.629924,0,1.19375988072,9400,2017-11-07 07:29:06,16,16.415,5896.2935285764,85.629924,0.50107456,1.76169296976,109.3, -5.4, -3.9,0,0,1024,1024,1684,1062,108.7,0,99,4.141,4.137,4.143,4.143,0,0,84.11,6,GPS_Atti,
0.357683361297174,36.8938331897958,5898.2620325764,87.598428,0,1.19869098324,9500,2017-11-07 07:29:06,16,16.415,5898.2620325764,87.598428,0.50107456,1.76169296976,109.5, -5.4, -3.8,0,0,1024,1024,1684,1074,108.7,0,99,4.141,4.137,4.143,4.143,0,0,84.11,6,GPS_Atti,
0.357683343383069,36.8938331196215,5899.9024525764,89.238848,0,1.2038878338,9600,2017-11-07 07:29:06,16,16.415,5899.9024525764,89.238848,0.50107456,1.76169296976,109.8, -5.4, -3.1,0,0,1024,1024,1684,1081,108.7,0,99,4.141,4.137,4.143,4.143,0,0,84.11,6,GPS_Atti,
0.35768333528156,36.893833071381,5901.5428725764,90.879268,0,1.20915030116,9700,2017-11-07 07:29:06,16,16.415,5901.5428725764,90.879268,0.50107456,1.76169296976,110.1, -5.4, -2.6,0,0,1024,1024,1684,1091,108.8,0,99,4.132,4.128,4.134,4.132,0,0,84.11,6,GPS_Atti,
0.357683277579682,36.893833029783,5903.1832925764,92.519688,0,1.19754268924,9800,2017-11-07 07:29:06,16,16.415,5903.1832925764,92.519688,0.50107456,1.76169296976,110.5, -4.9, -2.8,0,0,1024,1024,1684,1106,109,0,99,4.132,4.128,4.134,4.132,0,0,84.11,6,GPS_Atti,
0.35768321603712,36.8938330191033,5904.8237125764,94.160108,0,1.17967851544,9900,2017-11-07 07:29:06,16,16.415,5904.8237125764,94.160108,0.50107456,1.76169296976,111, -4.3, -2.9,0,0,1024,1024,1684,1090,109.4,0,99,4.132,4.128,4.134,4.132,0,0,84.11,6,GPS_Atti,
0.357683134117837,36.8938329950636,5906.7922165764,96.128612,0,1.15795279296,10000,2017-11-07 07:29:06,16,16.415,5906.7922165764,96.128612,0.50107456,1.76169296976,111.6, -4.1, -3.2,0,0,1024,1024,1684,1093,109.8,0,99,4.132,4.128,4.134,4.132,0,0,84.11,6,GPS_Atti,
0.357683058990591,36.8938329652266,5908.4326365764,97.769032,0,1.13988192624,10100,2017-11-07 07:29:06,16,16.415,5908.4326365764,97.769032,0.50107456,1.76169296976,112.3, -4.2, -3.9,0,0,1024,1024,1684,1099,110.1,0,99,4.132,4.128,4.134,4.132,0,0,84.11,6,GPS_Atti,
0.357683005670246,36.8938329468167,5910.0730565764,99.409452,0,1.12681434052,10200,2017-11-07 07:29:06,16,16.415,5910.0730565764,99.409452,0.50107456,1.76169296976,113, -4.3, -4.1,0,0,1024,1024,1684,1116,110.6,0,99,4.132,4.128,4.134,4.132,0,0,84.11,6,GPS_Atti,
0.357682958557733,36.8938329029774,5911.7134765764,101.049872,0,1.12091867104,10300,2017-11-07 07:29:06,16,16.415,5911.7134765764,101.049872,0.50107456,1.76169296976,113.6, -4.2, -3.8,0,0,1024,1024,1684,1116,111.1,0,99,4.132,4.128,4.134,4.132,0,0,84.11,6,GPS_Atti,
0.357682919761276,36.8938328582447,5913.3538965764,102.690292,0,1.11817916964,10400,2017-11-07 07:29:07,16,16.415,5913.3538965764,102.690292,0.50107456,1.76169296976,114.4, -4.3, -3.3,0,0,1024,1024,1684,1120,111.7,0,99,4.132,4.128,4.134,4.132,0,0,84.11,6,GPS_Atti,
0.357682906816571,36.8938328367819,5914.9943165764,104.330712,0,1.11871066572,10500,2017-11-07 07:29:07,16,16.415,5914.9943165764,104.330712,0.50107456,1.76169296976,115.4, -4.1, -3.2,0,0,1024,1024,1684,1122,112.5,0,99,4.132,4.128,4.134,4.132,0,0,84.11,6,GPS_Atti,
0.357682887468824,36.8938327933339,5916.9628205764,106.299216,0,1.12204728,10600,2017-11-07 07:29:07,16,16.415,5916.9628205764,106.299216,0.50107456,1.76169296976,116.4, -4.3, -3,0,0,1024,1024,1684,1122,113.3,0,99,4.132,4.128,4.134,4.132,0,0,84.11,6,GPS_Atti,
0.357682879818394,36.8938327589941,5918.6032405764,107.939636,0,1.12711945864,10700,2017-11-07 07:29:07,16,16.469,5918.6032405764,107.939636,0.50107456,1.76169296976,117.4, -4.2, -3.3,0,0,1024,1024,1684,1126,114.3,0,99,4.127,4.123,4.129,4.126,0,0,85.91,6,GPS_Atti,
0.357682842780046,36.8938327025576,5919.9155765764,109.251972,0,1.12861552168,10800,2017-11-07 07:29:07,16,16.469,5919.9155765764,109.251972,0.50107456,1.76169296976,118.5, -4.1, -3.7,0,0,1024,1024,1684,1128,115.2,0,99,4.127,4.123,4.129,4.126,0,0,85.91,6,GPS_Atti,
0.357682800442131,36.8938326661627,5921.5559965764,110.892392,0,1.12458008848,10900,2017-11-07 07:29:07,16,16.469,5921.5559965764,110.892392,0.50107456,1.76169296976,119.6, -4, -3.9,0,0,1024,1024,1684,1135,115.2,0,99,4.127,4.123,4.129,4.126,0,0,85.91,6,GPS_Atti,
0.357682755989477,36.8938326157896,5923.5245005764,112.860896,0,1.12354990472,11000,2017-11-07 07:29:07,16,16.469,5923.5245005764,112.860896,0.50107456,1.76169296976,120.7, -4, -4,0,0,1024,1024,1684,1162,116.3,0,99,4.127,4.123,4.129,4.126,0,0,85.91,6,GPS_Atti,
0.357682739969049,36.8938325962775,5925.1649205764,114.501316,0,1.12363192572,11100,2017-11-07 07:29:07,16,16.469,5925.1649205764,114.501316,0.50107456,1.76169296976,122, -4.1, -4.2,0,0,1024,1024,1684,1142,117.6,0,99,4.127,4.123,4.129,4.126,0,0,85.91,6,GPS_Atti,
0.357682711735901,36.8938325674576,5926.8053405764,116.141736,0,1.12262470784,11200,2017-11-07 07:29:07,16,16.469,5926.8053405764,116.141736,0.50107456,1.76169296976,123.5, -3.7, -4.4,0,0,1024,1024,1684,1136,119,0,99,4.127,4.123,4.129,4.126,0,0,85.91,6,GPS_Atti,
0.357682692668654,36.8938325726275,5928.4457605764,117.782156,0,1.11613520632,11300,2017-11-07 07:29:07,16,16.469,5928.4457605764,117.782156,0.50107456,1.76169296976,124.9, -3.2, -4.1,0,0,1024,1024,1684,1179,120.2,0,99,4.127,4.123,4.129,4.126,0,0,85.91,6,GPS_Atti,
0.357682681654062,36.8938325593435,5930.0861805764,119.422576,0,1.11629924832,11400,2017-11-07 07:29:08,16,16.469,5930.0861805764,119.422576,0.50107456,1.76169296976,126.3, -2.8, -3.5,0,0,1024,1024,1684,1147,121.9,0,99,4.127,4.123,4.129,4.126,0,0,85.91,6,GPS_Atti,
0.357682695401997,36.8938325459188,5931.7266005764,121.062996,0,1.12330056088,11500,2017-11-07 07:29:08,16,16.469,5931.7266005764,121.062996,0.50107456,1.76169296976,128, -2.9, -3.2,0,0,1024,1024,1684,1136,123.5,0,99,4.127,4.123,4.129,4.126,0,0,85.91,6,GPS_Atti,
0.357682705270164,36.893832529582,5933.3670205764,122.703416,0,1.12994426188,11600,2017-11-07 07:29:08,16,16.469,5933.3670205764,122.703416,0.50107456,1.76169296976,129.5, -3.2, -3.6,0,0,1024,1024,1684,1126,125,0,99,4.127,4.123,4.129,4.126,0,0,85.91,6,GPS_Atti,
0.357682688495766,36.8938324720242,5935.0074405764,124.343836,0,1.13943901284,11700,2017-11-07 07:29:08,16,16.415,5935.0074405764,124.343836,0.50107456,1.76169296976,130.7, -3.1, -4.3,0,0,1024,1024,1684,1062,126.2,0,99,4.127,4.123,4.129,4.126,0,0,85.91,6,GPS_Atti,
0.357682679689344,36.8938324615585,5936.9759445764,126.31234,0,1.13965882912,11800,2017-11-07 07:29:08,16,16.415,5936.9759445764,126.31234,0.50107456,1.76169296976,131.7, -2.8, -4.5,0,0,1024,1024,1684,1024,127,0,99,4.127,4.123,4.129,4.126,0,0,85.91,6,GPS_Atti,
0.357682659660094,36.8938324412654,5938.6163645764,127.95276,0,1.13936027268,11900,2017-11-07 07:29:08,16,16.415,5938.6163645764,127.95276,0.50107456,1.76169296976,132, -2.2, -4.4,0,0,1024,1024,1684,1024,127.7,0,99,4.127,4.123,4.129,4.126,0,0,85.91,6,GPS_Atti,
0.357682657535381,36.8938324258151,5940.2567845764,129.59318,0,1.1426673594,12000,2017-11-07 07:29:08,16,16.415,5940.2567845764,129.59318,0.50107456,1.76169296976,132.1, -2.5, -4,0,0,1024,1024,1684,1024,128.1,0,99,4.127,4.123,4.129,4.126,0,0,85.91,6,GPS_Atti,
0.357682674372271,36.8938324232366,5941.8972045764,131.2336,0,1.14777562728,12100,2017-11-07 07:29:08,16,16.415,5941.8972045764,131.2336,0.50107456,1.76169296976,132.1, -2.8, -4,0,0,1024,1024,1684,1003,128.5,0,99,4.127,4.123,4.129,4.126,0,0,85.91,6,GPS_Atti,
0.357682689141037,36.8938324216981,5943.5376245764,132.87402,0,1.15208665104,12200,2017-11-07 07:29:08,16,16.415,5943.5376245764,132.87402,0.50107456,1.76169296976,132.1, -2.9, -4.1,0,0,1024,1024,1684,942,128.7,0,99,4.127,4.123,4.129,4.126,0,0,85.91,6,GPS_Atti,
0.35768272807184,36.8938323876195,5945.5061285764,134.842524,0,1.17095476188,12300,2017-11-07 07:29:08,16,16.415,5945.5061285764,134.842524,0.50107456,1.76169296976,132.1, -3, -4.2,0,0,1024,1024,1684,952,128.7,0,99,4.127,4.123,4.129,4.126,0,0,85.91,6,GPS_Atti,
0.357682776175262,36.8938323504479,5947.1465485764,136.482944,0,1.19303809592,12400,2017-11-07 07:29:09,16,16.415,5947.1465485764,136.482944,0.50107456,1.76169296976,131.5, -3.1, -4.2,0,0,1024,1024,1684,946,128.7,0,99,4.127,4.123,4.129,4.126,0,0,85.91,6,GPS_Atti,
0.357682825591209,36.8938323427128,5948.7869685764,138.123364,0,1.20818901504,12500,2017-11-07 07:29:09,16,16.415,5948.7869685764,138.123364,0.50107456,1.76169296976,130.8, -2.9, -4,0,0,1024,1024,1684,951,128.6,0,99,4.127,4.123,4.129,4.126,0,0,85.91,6,GPS_Atti,
0.357682887117487,36.8938323146396,5950.4273885764,139.763784,0,1.23167982944,12600,2017-11-07 07:29:09,16,16.415,5950.4273885764,139.763784,0.50107456,1.76169296976,130, -3.3, -4.2,0,0,1024,1024,1684,939,128.4,0,99,4.127,4.123,4.129,4.126,0,0,85.91,6,GPS_Atti,
0.357682948579645,36.8938322980026,5952.0678085764,141.404204,0,1.25242129992,12700,2017-11-07 07:29:09,16,16.442,5952.0678085764,141.404204,0.50107456,1.76169296976,129.3, -3.9, -4.5,0,0,1024,1024,1684,964,128.1,0,98,4.119,4.116,4.123,4.126,0,0,85.91,6,GPS_Atti,
0.357683005174385,36.8938322892607,5953.7082285764,143.044624,0,1.27001644484,12800,2017-11-07 07:29:09,16,16.442,5953.7082285764,143.044624,0.50107456,1.76169296976,128.5, -3.8, -4.5,0,0,1024,1024,1684,949,127.9,0,98,4.119,4.116,4.123,4.126,0,0,85.91,6,GPS_Atti,
0.357683049013725,36.893832314432,5955.3486485764,144.685044,0,1.27612864976,12900,2017-11-07 07:29:09,16,16.442,5955.3486485764,144.685044,0.50107456,1.76169296976,127.9, -3.6, -4,0,0,1024,1024,1684,968,127.6,0,98,4.119,4.116,4.123,4.126,0,0,85.91,6,GPS_Atti,
0.357683095127188,36.8938323514178,5956.9890685764,146.325464,0,1.28037733756,13000,2017-11-07 07:29:09,16,16.442,5956.9890685764,146.325464,0.50107456,1.76169296976,127.3, -3.6, -3.4,0,0,1024,1024,1684,972,127.3,0,98,4.119,4.116,4.123,4.126,0,0,85.91,6,GPS_Atti,
0.357683145689967,36.8938324080764,5958.6294885764,147.965884,0,1.2817913796,13100,2017-11-07 07:29:09,16,16.442,5958.6294885764,147.965884,0.50107456,1.76169296976,126.8, -3.6, -3.3,0,0,1024,1024,1684,967,127.2,0,98,4.119,4.116,4.123,4.126,0,0,85.91,6,GPS_Atti,
0.357683190009292,36.8938324722784,5960.2699085764,149.606304,0,1.28032812496,13200,2017-11-07 07:29:09,16,16.442,5960.2699085764,149.606304,0.50107456,1.76169296976,126.3, -3.2, -3,0,0,1024,1024,1684,966,127,0,98,4.119,4.116,4.123,4.126,0,0,85.91,6,GPS_Atti,
0.357683236302291,36.893832548834,5962.2384125764,151.574808,0,1.27746395164,13300,2017-11-07 07:29:09,16,16.442,5962.2384125764,151.574808,0.50107456,1.76169296976,125.9, -3, -2.8,0,0,1024,1024,1684,970,126.8,0,98,4.119,4.116,4.123,4.126,0,0,85.91,6,GPS_Atti,
0.357683297267977,36.8938325975713,5963.8788325764,153.215228,0,1.28555122224,13400,2017-11-07 07:29:10,16,16.442,5963.8788325764,153.215228,0.50107456,1.76169296976,125.4, -3.5, -2.6,0,0,1024,1024,1684,968,126.6,0,98,4.119,4.116,4.123,4.126,0,0,85.91,6,GPS_Atti,
0.357683360771594,36.893832625843,5965.5192525764,154.855648,0,1.29907484472,13500,2017-11-07 07:29:10,16,16.442,5965.5192525764,154.855648,0.50107456,1.76169296976,125, -4.1, -2.9,0,0,1024,1024,1684,957,126.3,0,98,4.119,4.116,4.123,4.126,0,0,85.91,6,GPS_Atti,
0.357683406644454,36.893832619283,5967.4877565764,156.824152,0,1.31439964836,13600,2017-11-07 07:29:10,16,16.442,5967.4877565764,156.824152,0.50107456,1.76169296976,124.4, -4.2, -4,0,0,1024,1024,1684,962,126,0,98,4.119,4.116,4.123,4.126,0,0,85.91,6,GPS_Atti,
0.357683440601989,36.8938326185951,5969.1281765764,158.464572,0,1.32494426812,13700,2017-11-07 07:29:10,16,16.387,5969.1281765764,158.464572,0.50107456,1.76169296976,123.8, -4.5, -4.2,0,0,1024,1024,1684,948,125.7,0,98,4.114,4.107,4.114,4.113,0,0,85.91,6,GPS_Atti,
0.357683493684785,36.8938326100898,5970.7685965764,160.104992,0,1.34293967552,13800,2017-11-07 07:29:10,16,16.387,5970.7685965764,160.104992,0.50107456,1.76169296976,123.3, -4.5, -3.5,0,0,1024,1024,1684,943,125.7,0,98,4.114,4.107,4.114,4.113,0,0,85.91,6,GPS_Atti,
0.357683542769344,36.8938326250508,5972.4090165764,161.745412,0,1.3552165788,13900,2017-11-07 07:29:10,16,16.387,5972.4090165764,161.745412,0.50107456,1.76169296976,122.6, -4.3, -2.9,0,0,1024,1024,1684,946,125.3,0,98,4.114,4.107,4.114,4.113,0,0,85.91,6,GPS_Atti,
0.357683580462531,36.893832633857,5974.0494365764,163.385832,0,1.3652559492,14000,2017-11-07 07:29:10,16,16.387,5974.0494365764,163.385832,0.50107456,1.76169296976,121.7, -4, -2.8,0,0,1024,1024,1684,968,124.7,0,98,4.114,4.107,4.114,4.113,0,0,85.91,6,GPS_Atti,
0.357683600238354,36.8938326738667,5975.6898565764,165.026252,0,1.36391736648,14100,2017-11-07 07:29:10,16,16.387,5975.6898565764,165.026252,0.50107456,1.76169296976,120.9, -3.6, -2.8,0,0,1024,1024,1684,961,124.2,0,98,4.114,4.107,4.114,4.113,0,0,85.91,6,GPS_Atti,
0.357683624121928,36.8938326741365,5977.3302765764,166.666672,0,1.37137143496,14200,2017-11-07 07:29:10,16,16.387,5977.3302765764,166.666672,0.50107456,1.76169296976,120.2, -3.6, -3.1,0,0,1024,1024,1684,961,123.7,0,98,4.114,4.107,4.114,4.113,0,0,85.91,6,GPS_Atti,
0.35768365323525,36.8938326489037,5978.9706965764,168.307092,0,1.38519689472,14300,2017-11-07 07:29:10,16,16.387,5978.9706965764,168.307092,0.50107456,1.76169296976,119.6, -4.2, -3.5,0,0,1024,1024,1684,949,123.2,0,98,4.114,4.107,4.114,4.113,0,0,85.91,6,GPS_Atti,
0.357683710082602,36.893832590849,5980.6111165764,169.947512,0,1.41385175128,14400,2017-11-07 07:29:11,16,16.387,5980.6111165764,169.947512,0.50107456,1.76169296976,118.9, -4.6, -3.7,0,0,1024,1024,1684,930,122.6,0,98,4.114,4.107,4.114,4.113,0,0,85.91,6,GPS_Atti,
0.357683783037707,36.8938325566724,5982.5796205764,171.916016,0,1.44309715904,14500,2017-11-07 07:29:11,16,16.387,5982.5796205764,171.916016,0.50107456,1.76169296976,118.2, -5.1, -3.3,0,0,1024,1024,1684,944,121.9,0,98,4.114,4.107,4.114,4.113,0,0,85.91,6,GPS_Atti,
0.357683875653831,36.893832515819,5984.2200405764,173.556436,0,1.47976382688,14600,2017-11-07 07:29:11,16,16.387,5984.2200405764,173.556436,0.50107456,1.76169296976,117.3, -5.2, -2.9,0,0,1024,1024,1684,961,121,0,98,4.114,4.107,4.114,4.113,0,0,85.91,6,GPS_Atti,
0.357683958197621,36.893832503558,5985.8604605764,175.196856,0,1.5080052976,14700,2017-11-07 07:29:11,16,16.387,5985.8604605764,175.196856,0.50107456,1.76169296976,116.4, -5.5, -2.7,0,0,1024,1024,1684,947,120.4,0,98,4.114,4.107,4.114,4.113,0,0,85.91,6,GPS_Atti,
0.357684041383833,36.8938324772005,5987.5008805764,176.837276,0,1.5390912566,14800,2017-11-07 07:29:11,16,16.387,5987.5008805764,176.837276,0.50107456,1.76169296976,115.6, -5.7, -2.6,0,0,1024,1024,1684,952,119.6,0,98,4.114,4.107,4.114,4.113,0,0,85.91,6,GPS_Atti,
0.357684106844432,36.8938324633288,5989.1413005764,178.477696,0,1.562336008,14900,2017-11-07 07:29:11,16,16.387,5989.1413005764,178.477696,0.50107456,1.76169296976,114.9, -5.3, -2.5,0,0,1024,1024,1684,966,118.8,0,98,4.114,4.107,4.114,4.113,0,0,85.91,6,GPS_Atti,
0.357684193036344,36.893832439455,5990.7817205764,180.118116,0,1.593996114,15000,2017-11-07 07:29:11,16,16.387,5990.7817205764,180.118116,0.50107456,1.76169296976,114.2, -5.5, -1.8,0,0,1024,1024,1684,961,118.2,0,98,4.114,4.107,4.114,4.113,0,0,85.91,6,GPS_Atti,
0.357684278089974,36.8938324479374,5992.4221405764,181.758536,0,1.61962931692,15100,2017-11-07 07:29:11,16,16.387,5992.4221405764,181.758536,0.50107456,1.76169296976,113.6, -5.7, -1.5,0,0,1024,1024,1684,975,117.6,0,98,4.114,4.107,4.114,4.113,0,0,85.91,6,GPS_Atti,
0.357684344826459,36.8938324537309,5994.0625605764,183.398956,0,1.64002301836,15200,2017-11-07 07:29:11,16,16.387,5994.0625605764,183.398956,0.50107456,1.76169296976,113.1, -5.6, -1.7,0,0,1024,1024,1684,963,117.6,0,98,4.114,4.107,4.114,4.113,0,0,85.91,6,GPS_Atti,
0.357684386895681,36.8938324763306,5995.7029805764,185.039376,0,1.64970805804,15300,2017-11-07 07:29:11,16,16.387,5995.7029805764,185.039376,0.50107456,1.76169296976,112.6, -5.6, -1.7,0,0,1024,1024,1684,963,117,0,98,4.114,4.107,4.114,4.113,0,0,85.91,6,GPS_Atti,
0.357684421018097,36.8938324947079,5997.3434005764,186.679796,0,1.65764769084,15400,2017-11-07 07:29:12,16,16.387,5997.3434005764,186.679796,0.50107456,1.76169296976,112.1, -5.4, -1.6,0,0,1024,1024,1684,975,116.5,0,98,4.114,4.107,4.114,4.113,0,0,85.91,6,GPS_Atti,
0.35768444739034,36.893832529271,5998.9838205764,188.320216,0,1.66047905576,15500,2017-11-07 07:29:12,16,16.387,5998.9838205764,188.320216,0.50107456,1.76169296976,111.5, -5.2, -1.3,0,0,1024,1024,1684,977,115.9,0,98,4.114,4.107,4.114,4.113,0,0,85.91,6,GPS_Atti,
0.357684474882546,36.8938325608868,6000.2961565764,189.632552,0,1.66430123436,15600,2017-11-07 07:29:12,16,16.387,6000.2961565764,189.632552,0.50107456,1.76169296976,111.1, -5.1, -1.3,0,0,1024,1024,1684,971,115.4,0,98,4.114,4.107,4.114,4.113,0,0,85.91,6,GPS_Atti,
0.357684498391578,36.8938326162537,6002.2646605764,191.601056,0,1.66319231044,15700,2017-11-07 07:29:12,16,16.415,6002.2646605764,191.601056,0.50107456,1.76169296976,110.8, -5.2, -1,0,0,1024,1024,1684,977,114.9,0,98,4.115,4.111,4.118,4.115,0,0,85.91,6,GPS_Atti,
0.357684493087736,36.8938326496772,6003.9050805764,193.241476,0,1.65622052544,15800,2017-11-07 07:29:12,16,16.415,6003.9050805764,193.241476,0.50107456,1.76169296976,110.3, -5.1, -1.3,0,0,1024,1024,1684,976,114.4,0,98,4.115,4.111,4.118,4.115,0,0,85.91,6,GPS_Atti,
0.357684450901673,36.8938326696304,6005.5455005764,194.881896,0,1.63919624668,15900,2017-11-07 07:29:12,16,16.415,6005.5455005764,194.881896,0.50107456,1.76169296976,109.9, -5, -1.9,0,0,1024,1024,1684,984,114,0,98,4.115,4.111,4.118,4.115,0,0,85.91,6,GPS_Atti,
0.357684402332516,36.8938326755593,6007.1859205764,196.522316,0,1.62224742724,16000,2017-11-07 07:29:12,16,16.415,6007.1859205764,196.522316,0.50107456,1.76169296976,109.5, -4.9, -2.3,0,0,1024,1024,1684,964,113.5,0,98,4.115,4.111,4.118,4.115,0,0,85.91,6,GPS_Atti,
0.357684362992159,36.8938326987891,6008.8263405764,198.162736,0,1.60564637684,16100,2017-11-07 07:29:12,16,16.415,6008.8263405764,198.162736,0.50107456,1.76169296976,109.2, -4.9, -2.6,0,0,1024,1024,1684,968,113.1,0,98,4.115,4.111,4.118,4.115,0,0,85.91,6,GPS_Atti,
0.357684343752907,36.8938327338827,6010.4667605764,199.803156,0,1.59385175704,16200,2017-11-07 07:29:12,16,16.415,6010.4667605764,199.803156,0.50107456,1.76169296976,108.8, -4.6, -2.1,0,0,1024,1024,1684,980,112.6,0,98,4.115,4.111,4.118,4.115,0,0,85.91,6,GPS_Atti,
0.357684329514607,36.8938327229048,6012.1071805764,201.443576,0,1.5908465076,16300,2017-11-07 07:29:12,16,16.415,6012.1071805764,201.443576,0.50107456,1.76169296976,108.4, -5.4, -2,0,0,1024,1024,1684,981,112.1,0,98,4.115,4.111,4.118,4.115,0,0,85.91,6,GPS_Atti,
0.357684311848433,36.8938327155841,6013.7476005764,203.083996,0,1.58616146808,16400,2017-11-07 07:29:13,16,16.415,6013.7476005764,203.083996,0.50107456,1.76169296976,108, -5.8, -1.4,0,0,1024,1024,1684,979,111.8,0,98,4.115,4.111,4.118,4.115,0,0,85.91,6,GPS_Atti,
0.357684280575387,36.8938327624601,6015.3880205764,204.724416,0,1.5685531998,16500,2017-11-07 07:29:13,16,16.415,6015.3880205764,204.724416,0.50107456,1.76169296976,107.7, -5.7, -1.3,0,0,1024,1024,1684,985,111.4,0,98,4.115,4.111,4.118,4.115,0,0,85.91,6,GPS_Atti,
0.357684233118865,36.8938328188966,6017.0284405764,206.364836,0,1.54419624364,16600,2017-11-07 07:29:13,16,16.415,6017.0284405764,206.364836,0.50107456,1.76169296976,107.3, -5.5, -1.6,0,0,1024,1024,1684,985,111,0,98,4.115,4.111,4.118,4.115,0,0,85.91,6,GPS_Atti,
0.357684190606706,36.8938329008983,6018.6688605764,208.005256,0,1.5177822008,16700,2017-11-07 07:29:13,16,16.36,6018.6688605764,208.005256,0.50107456,1.76169296976,107, -5, -2,0,0,1024,1024,1684,986,111,0,98,4.104,4.098,4.106,4.104,0,0,85.91,6,GPS_Atti,
0.357684147049493,36.8938329675182,6020.6373645764,209.97376,0,1.49351382732,16800,2017-11-07 07:29:13,16,16.36,6020.6373645764,209.97376,0.50107456,1.76169296976,106.7, -4.6, -1.9,0,0,1024,1024,1684,989,110.7,0,98,4.104,4.098,4.106,4.104,0,0,85.91,6,GPS_Atti,
0.357684111708594,36.8938330121958,6022.2777845764,211.61418,0,1.47527235692,16900,2017-11-07 07:29:13,16,16.36,6022.2777845764,211.61418,0.50107456,1.76169296976,106.4, -4.6, -1.7,0,0,1024,1024,1684,989,110.4,0,98,4.104,4.098,4.106,4.104,0,0,85.91,6,GPS_Atti,
0.357684076754451,36.8938330369239,6023.9182045764,213.2546,0,1.4600230126,17000,2017-11-07 07:29:13,16,16.36,6023.9182045764,213.2546,0.50107456,1.76169296976,106.2, -4.9, -1.3,0,0,1024,1024,1684,986,110.1,0,98,4.104,4.098,4.106,4.104,0,0,85.91,6,GPS_Atti,
0.357684042974009,36.8938330717412,6025.5586245764,214.89502,0,1.4437664504,17100,2017-11-07 07:29:13,16,16.36,6025.5586245764,214.89502,0.50107456,1.76169296976,106, -5.2, -1.4,0,0,1024,1024,1684,990,109.8,0,98,4.104,4.098,4.106,4.104,0,0,85.91,6,GPS_Atti,
0.357683996299954,36.8938331129945,6027.1990445764,216.53544,0,1.42230647596,17200,2017-11-07 07:29:13,16,16.36,6027.1990445764,216.53544,0.50107456,1.76169296976,105.8, -5.4, -1.4,0,0,1024,1024,1684,996,109.5,0,98,4.104,4.098,4.106,4.104,0,0,85.91,6,GPS_Atti,
0.35768394454149,36.8938331938148,6028.8394645764,218.17586,0,1.39385503148,17300,2017-11-07 07:29:13,16,16.36,6028.8394645764,218.17586,0.50107456,1.76169296976,105.6, -5.2, -1.3,0,0,1024,1024,1684,996,109.3,0,98,4.104,4.098,4.106,4.104,0,0,85.91,6,GPS_Atti,
0.357683875075326,36.8938332624534,6030.4798845764,219.81628,0,1.36122379684,17400,2017-11-07 07:29:14,16,16.36,6030.4798845764,219.81628,0.50107456,1.76169296976,105.5, -4.7, -1.3,0,0,1024,1024,1684,995,109.1,0,98,4.104,4.098,4.106,4.104,0,0,85.91,6,GPS_Atti,
0.357683802912866,36.8938333101714,6032.1203045764,221.4567,0,1.33045936016,17500,2017-11-07 07:29:14,16,16.36,6032.1203045764,221.4567,0.50107456,1.76169296976,105.4, -4.5, -1.5,0,0,1024,1024,1684,999,108.8,0,98,4.104,4.098,4.106,4.104,0,0,85.91,6,GPS_Atti,
0.357683724883936,36.8938333528711,6033.7607245764,223.09712,0,1.29835634076,17600,2017-11-07 07:29:14,16,16.36,6033.7607245764,223.09712,0.50107456,1.76169296976,105.3, -4.5, -1.6,0,0,1024,1024,1684,1004,108.6,0,98,4.104,4.098,4.106,4.104,0,0,85.91,6,GPS_Atti,
0.357683659109862,36.8938334195766,6035.4011445764,224.73754,0,1.2675197256,17700,2017-11-07 07:29:14,16,16.36,6035.4011445764,224.73754,0.50107456,1.76169296976,105.3, -4.8, -1.6,0,0,1024,1024,1684,1004,108.5,0,98,4.099,4.093,4.101,4.098,0,0,85.91,6,GPS_Atti,
0.357683575630123,36.8938334631874,6037.3696485764,226.706044,0,1.23350397648,17800,2017-11-07 07:29:14,16,16.36,6037.3696485764,226.706044,0.50107456,1.76169296976,105.2, -4.9, -1.9,0,0,1024,1024,1684,1004,108.3,0,98,4.099,4.093,4.101,4.098,0,0,85.91,6,GPS_Atti,
0.357683488892275,36.8938334909169,6039.0100685764,228.346464,0,1.20029203316,17900,2017-11-07 07:29:14,16,16.36,6039.0100685764,228.346464,0.50107456,1.76169296976,105.3, -4.9, -2.1,0,0,1024,1024,1684,1004,108.1,0,98,4.099,4.093,4.101,4.098,0,0,85.91,6,GPS_Atti,
0.357683407991991,36.8938335089799,6040.6504885764,229.986884,0,1.17026578548,18000,2017-11-07 07:29:14,16,16.36,6040.6504885764,229.986884,0.50107456,1.76169296976,105.3, -4.8, -2,0,0,1024,1024,1684,1002,108,0,98,4.099,4.093,4.101,4.098,0,0,85.91,6,GPS_Atti,
0.357683350940677,36.8938335470519,6042.2909085764,231.627304,0,1.14602037788,18100,2017-11-07 07:29:14,16,16.36,6042.2909085764,231.627304,0.50107456,1.76169296976,105.3, -4.6, -1.9,0,0,1024,1024,1684,1003,108,0,98,4.099,4.093,4.101,4.098,0,0,85.91,6,GPS_Atti,
0.35768329848931,36.8938335857946,6043.9313285764,233.267724,0,1.12332024592,18200,2017-11-07 07:29:14,16,16.36,6043.9313285764,233.267724,0.50107456,1.76169296976,105.2, -4.2, -2,0,0,1024,1024,1684,989,107.8,0,98,4.099,4.093,4.101,4.098,0,0,85.91,6,GPS_Atti,
0.357683222319249,36.8938335531554,6045.5717485764,234.908144,0,1.10105646568,18300,2017-11-07 07:29:14,16,16.36,6045.5717485764,234.908144,0.50107456,1.76169296976,105.2, -4.6, -1.9,0,0,1024,1024,1684,979,107.7,0,98,4.099,4.093,4.101,4.098,0,0,85.91,6,GPS_Atti,
0.35768316363827,36.8938335209524,6047.2121685764,236.548564,0,1.08508205572,18400,2017-11-07 07:29:15,16,16.36,6047.2121685764,236.548564,0.50107456,1.76169296976,105.1, -5.3, -1.8,0,0,1024,1024,1684,998,107.5,0,98,4.099,4.093,4.101,4.098,0,0,85.91,6,GPS_Atti,
0.357683124652914,36.8938335235786,6048.8525885764,238.188984,0,1.0714567272,18500,2017-11-07 07:29:15,16,16.36,6048.8525885764,238.188984,0.50107456,1.76169296976,104.8, -5.4, -1.7,0,0,1024,1024,1684,995,107.4,0,98,4.099,4.093,4.101,4.098,0,0,85.91,6,GPS_Atti,
0.357683082339628,36.8938335377865,6050.4930085764,239.829404,0,1.05518704164,18600,2017-11-07 07:29:15,16,16.36,6050.4930085764,239.829404,0.50107456,1.76169296976,104.7, -5.2, -1.6,0,0,1024,1024,1684,978,107.2,0,98,4.099,4.093,4.101,4.098,0,0,85.91,6,GPS_Atti,
0.357683045364993,36.8938335792153,6052.1334285764,241.469824,0,1.03719491508,18700,2017-11-07 07:29:15,16,16.333,6052.1334285764,241.469824,0.50107456,1.76169296976,104.5, -5, -1.5,0,0,1024,1024,1684,981,107,0,98,4.099,4.093,4.101,4.098,0,0,85.91,6,GPS_Atti,
0.357682999850594,36.8938336096593,6053.7738485764,243.110244,0,1.01775265724,18800,2017-11-07 07:29:15,16,16.333,6053.7738485764,243.110244,0.50107456,1.76169296976,104.2, -5, -1.5,0,0,1024,1024,1684,975,106.8,0,98,4.099,4.093,4.101,4.098,0,0,85.91,6,GPS_Atti,
0.357682959492256,36.8938336296398,6055.4142685764,244.750664,0,1.00141407404,18900,2017-11-07 07:29:15,16,16.333,6055.4142685764,244.750664,0.50107456,1.76169296976,103.9, -5.2, -1.6,0,0,1024,1024,1684,973,106.5,0,98,4.099,4.093,4.101,4.098,0,0,85.91,6,GPS_Atti,
0.357682913060636,36.8938336359932,6057.0546885764,246.391084,0,0.98472444096,19000,2017-11-07 07:29:15,16,16.333,6057.0546885764,246.391084,0.50107456,1.76169296976,103.5, -5.3, -1.7,0,0,1024,1024,1684,972,106.2,0,98,4.099,4.093,4.101,4.098,0,0,85.91,6,GPS_Atti,
0.357682877786503,36.8938336446742,6058.6951085764,248.031504,0,0.97156171088,19100,2017-11-07 07:29:15,16,16.333,6058.6951085764,248.031504,0.50107456,1.76169296976,103.1, -5.5, -1.4,0,0,1024,1024,1684,975,105.9,0,98,4.099,4.093,4.101,4.098,0,0,85.91,6,GPS_Atti,
0.357682829765318,36.8938336471258,6060.3355285764,249.671924,0,0.95485895444,19200,2017-11-07 07:29:15,16,16.333,6060.3355285764,249.671924,0.50107456,1.76169296976,102.6, -5.3, -1.6,0,0,1024,1024,1684,973,105.6,0,98,4.099,4.093,4.101,4.098,0,0,85.91,6,GPS_Atti,
0.357682787738435,36.8938336630253,6061.9759485764,251.312344,0,0.93846459696,19300,2017-11-07 07:29:15,16,16.333,6061.9759485764,251.312344,0.50107456,1.76169296976,102.2, -5, -1.9,0,0,1024,1024,1684,973,105.3,0,98,4.099,4.093,4.101,4.098,0,0,85.91,6,GPS_Atti,
0.357682749067369,36.8938336481113,6063.6163685764,252.952764,0,0.92728349424,19400,2017-11-07 07:29:16,16,16.333,6063.6163685764,252.952764,0.50107456,1.76169296976,101.9, -5, -1.4,0,0,1024,1024,1684,975,104.9,0,98,4.099,4.093,4.101,4.098,0,0,85.91,6,GPS_Atti,
0.357682723309252,36.8938336198535,6065.2567885764,254.593184,0,0.92241472768,19500,2017-11-07 07:29:16,16,16.333,6065.2567885764,254.593184,0.50107456,1.76169296976,101.5, -5.2, -0.9,0,0,1024,1024,1684,977,104.9,0,98,4.099,4.093,4.101,4.098,0,0,85.91,6,GPS_Atti,
0.357682670988364,36.8938335686619,6066.8972085764,256.233604,0,0.91218506856,19600,2017-11-07 07:29:16,16,16.333,6066.8972085764,256.233604,0.50107456,1.76169296976,101.1, -5.2, -1.1,0,0,1024,1024,1684,977,104.6,0,98,4.099,4.093,4.101,4.098,0,0,85.91,6,GPS_Atti,
0.357682614937933,36.8938335352738,6068.5376285764,257.874024,0,0.89862535684,19700,2017-11-07 07:29:16,16,16.333,6068.5376285764,257.874024,0.50107456,1.76169296976,100.7, -5.4, -1.3,0,0,1024,1024,1684,977,104.3,0,98,4.099,4.093,4.101,4.098,0,0,85.91,6,GPS_Atti,
0.357682557522865,36.8938334846073,6070.1780485764,259.514444,0,0.88787404416,19800,2017-11-07 07:29:16,16,16.333,6070.1780485764,259.514444,0.50107456,1.76169296976,100.4, -5.7, -1.4,0,0,1024,1024,1684,976,103.9,0,98,4.099,4.093,4.101,4.098,0,0,85.91,6,GPS_Atti,
0.357682524593692,36.8938334561509,6072.1465525764,261.482948,0,0.88194556628,19900,2017-11-07 07:29:16,16,16.333,6072.1465525764,261.482948,0.50107456,1.76169296976,100.1, -5.8, -1.6,0,0,1024,1024,1684,977,103.6,0,98,4.099,4.093,4.101,4.098,0,0,85.91,6,GPS_Atti,
0.357682489269892,36.893833413311,6073.7869725764,263.123368,0,0.878034805,20000,2017-11-07 07:29:16,16,16.333,6073.7869725764,263.123368,0.50107456,1.76169296976,99.7, -5.8, -1.9,0,0,1024,1024,1684,977,103.2,0,98,4.099,4.093,4.101,4.098,0,0,85.91,6,GPS_Atti,
0.357682466184663,36.893833380403,6075.4273925764,264.763788,0,0.87661420128,20100,2017-11-07 07:29:16,16,16.333,6075.4273925764,264.763788,0.50107456,1.76169296976,99.4, -5.8, -1.8,0,0,1024,1024,1684,977,102.9,0,98,4.099,4.093,4.101,4.098,0,0,85.91,6,GPS_Atti,
0.357682446456471,36.8938333287463,6077.0678125764,266.404208,0,0.8800197132,20200,2017-11-07 07:29:16,16,16.333,6077.0678125764,266.404208,0.50107456,1.76169296976,99.1, -6, -1.3,0,0,1024,1024,1684,977,102.6,0,98,4.099,4.093,4.101,4.098,0,0,85.91,6,GPS_Atti,
0.357682430833993,36.8938332930451,6078.7082325764,268.044628,0,0.8820210256,20300,2017-11-07 07:29:16,16,16.333,6078.7082325764,268.044628,0.50107456,1.76169296976,98.7, -6.2, -1.3,0,0,1024,1024,1684,981,102.2,0,98,4.099,4.093,4.101,4.098,0,0,85.91,6,GPS_Atti,
0.357682417771226,36.8938332501003,6080.3486525764,269.685048,0,0.88647312548,20400,2017-11-07 07:29:17,16,16.333,6080.3486525764,269.685048,0.50107456,1.76169296976,98.4, -6, -1.1,0,0,1024,1024,1684,981,101.9,0,98,4.099,4.093,4.101,4.098,0,0,85.91,6,GPS_Atti,
0.357682416090265,36.8938332200342,6082.3171565764,271.653552,0,0.89201774508,20500,2017-11-07 07:29:17,16,16.333,6082.3171565764,271.653552,0.50107456,1.76169296976,98, -5.8, -1.1,0,0,1024,1024,1684,985,101.6,0,98,4.099,4.093,4.101,4.098,0,0,85.91,6,GPS_Atti,
0.357682396741297,36.8938331707462,6083.6294925764,272.965888,0,0.8963582964,20600,2017-11-07 07:29:17,16,16.333,6083.6294925764,272.965888,0.50107456,1.76169296976,97.7, -5.7, -1.2,0,0,1024,1024,1684,986,101.3,0,98,4.099,4.093,4.101,4.098,0,0,85.91,6,GPS_Atti,
0.357682375767345,36.8938331379768,6085.2699125764,274.606308,0,0.897063677,20700,2017-11-07 07:29:17,16,16.278,6085.2699125764,274.606308,0.50107456,1.76169296976,97.4, -5.6, -0.9,0,0,1024,1024,1684,985,101,0,98,4.096,4.091,4.098,4.096,0,0,85.91,6,GPS_Atti,
0.357682347574094,36.8938330701948,6086.9103325764,276.246728,0,0.90362207616,20800,2017-11-07 07:29:17,16,16.278,6086.9103325764,276.246728,0.50107456,1.76169296976,97.2, -5.9, -0.8,0,0,1024,1024,1684,985,100.7,0,98,4.096,4.091,4.098,4.096,0,0,85.91,6,GPS_Atti,
0.35768232790534,36.8938330108763,6088.8788365764,278.215232,0,0.91138782444,20900,2017-11-07 07:29:17,16,16.278,6088.8788365764,278.215232,0.50107456,1.76169296976,97, -6.3, -0.7,0,0,1024,1024,1684,986,100.4,0,98,4.096,4.091,4.098,4.096,0,0,85.91,6,GPS_Atti,
0.357682291516742,36.8938329353559,6090.5192565764,279.855652,0,0.91885829712,21000,2017-11-07 07:29:17,16,16.278,6090.5192565764,279.855652,0.50107456,1.76169296976,96.7, -6.6, -1,0,0,1024,1024,1684,985,100.4,0,98,4.096,4.091,4.098,4.096,0,0,85.91,6,GPS_Atti,
0.357682256183782,36.8938328953403,6092.1596765764,281.496072,0,0.91884189292,21100,2017-11-07 07:29:17,16,16.278,6092.1596765764,281.496072,0.50107456,1.76169296976,96.5, -6.4, -1.4,0,0,1024,1024,1684,986,100.1,0,98,4.096,4.091,4.098,4.096,0,0,85.91,6,GPS_Atti,
0.357682209752161,36.8938328569718,6093.8000965764,283.136492,0,0.9158792944,21200,2017-11-07 07:29:17,16,16.278,6093.8000965764,283.136492,0.50107456,1.76169296976,96.2, -5.9, -1.5,0,0,1024,1024,1684,986,99.9,0,98,4.096,4.091,4.098,4.096,0,0,85.91,6,GPS_Atti,
0.357682172253574,36.8938328462749,6095.4405165764,284.776912,0,0.90869753564,21300,2017-11-07 07:29:17,16,16.278,6095.4405165764,284.776912,0.50107456,1.76169296976,96, -5.5, -1.8,0,0,1024,1024,1684,986,99.6,0,98,4.096,4.091,4.098,4.096,0,0,85.91,6,GPS_Atti,
0.357682146424824,36.8938328238663,6097.0809365764,286.417332,0,0.9077100028,21400,2017-11-07 07:29:18,16,16.278,6097.0809365764,286.417332,0.50107456,1.76169296976,95.8, -5.3, -1.4,0,0,1024,1024,1684,986,99.3,0,98,4.096,4.091,4.098,4.096,0,0,85.91,6,GPS_Atti,
0.357682149956309,36.8938328198108,6098.7213565764,288.057752,0,0.90966866428,21500,2017-11-07 07:29:18,16,16.278,6098.7213565764,288.057752,0.50107456,1.76169296976,95.5, -5.7, -0.8,0,0,1024,1024,1684,985,99,0,98,4.096,4.091,4.098,4.096,0,0,85.91,6,GPS_Atti,
0.357682163008491,36.893832806521,6100.3617765764,289.698172,0,0.91646328392,21600,2017-11-07 07:29:18,16,16.278,6100.3617765764,289.698172,0.50107456,1.76169296976,95.2, -6.1, -0.1,0,0,1024,1024,1684,984,98.8,0,98,4.096,4.091,4.098,4.096,0,0,85.91,6,GPS_Atti,
0.35768218527563,36.8938328120688,6102.0021965764,291.338592,0,0.92081367776,21700,2017-11-07 07:29:18,16,16.251,6102.0021965764,291.338592,0.50107456,1.76169296976,94.9, -6.2, -0.1,0,0,1024,1024,1684,992,98.5,0,98,4.087,4.081,4.091,4.087,0,0,85.91,6,GPS_Atti,
0.357682191750527,36.8938328221148,6103.6426165764,292.979012,0,0.91994097432,21800,2017-11-07 07:29:18,16,16.251,6103.6426165764,292.979012,0.50107456,1.76169296976,94.7, -5.8, -0.1,0,0,1024,1024,1684,1003,98.3,0,98,4.087,4.081,4.091,4.087,0,0,85.91,6,GPS_Atti,
0.357682189879445,36.8938328445095,6105.2830365764,294.619432,0,0.91376971428,21900,2017-11-07 07:29:18,16,16.251,6105.2830365764,294.619432,0.50107456,1.76169296976,94.5, -5.7, -0.2,0,0,1024,1024,1684,986,98,0,98,4.087,4.081,4.091,4.087,0,0,85.91,6,GPS_Atti,
0.357682193120863,36.8938328594673,6106.9234565764,296.259852,0,0.91084976668,22000,2017-11-07 07:29:18,16,16.251,6106.9234565764,296.259852,0.50107456,1.76169296976,94.4, -5.6, -0.2,0,0,1024,1024,1684,1019,97.8,0,98,4.087,4.081,4.091,4.087,0,0,85.91,6,GPS_Atti,
0.357682213804951,36.893832879556,6108.5638765764,297.900272,0,0.91132548848,22100,2017-11-07 07:29:18,16,16.251,6108.5638765764,297.900272,0.50107456,1.76169296976,94.2, -6, -0.2,0,0,1024,1024,1684,1024,97.6,0,98,4.087,4.081,4.091,4.087,0,0,85.91,6,GPS_Atti,
0.357682230614565,36.8938329063819,6110.2042965764,299.540692,0,0.9092191892,22200,2017-11-07 07:29:18,16,16.251,6110.2042965764,299.540692,0.50107456,1.76169296976,94, -6.2, -0.4,0,0,1024,1024,1684,1024,97.4,0,98,4.087,4.081,4.091,4.087,0,0,85.91,6,GPS_Atti,
0.35768223305377,36.8938329028692,6111.8447165764,301.181112,0,0.91074149896,22300,2017-11-07 07:29:18,16,16.251,6111.8447165764,301.181112,0.50107456,1.76169296976,94, -6.3, -0.5,0,0,1024,1024,1684,1024,97.2,0,98,4.087,4.081,4.091,4.087,0,0,85.91,6,GPS_Atti,
0.357682241957084,36.8938329197536,6113.1570525764,302.493448,0,0.90902890048,22400,2017-11-07 07:29:19,16,16.251,6113.1570525764,302.493448,0.50107456,1.76169296976,94, -6.1, -0.4,0,0,1024,1024,1684,1024,97.2,0,98,4.087,4.081,4.091,4.087,0,0,85.91,6,GPS_Atti,
0.357682246048143,36.8938329096852,6114.7974725764,304.133868,0,0.91259189272,22500,2017-11-07 07:29:19,16,16.251,6114.7974725764,304.133868,0.50107456,1.76169296976,94, -5.9, 0,0,0,1024,1024,1684,1024,97,0,98,4.087,4.081,4.091,4.087,0,0,85.91,6,GPS_Atti,
0.357682247199249,36.8938329156045,6116.1098085764,305.446204,0,0.9114665646,22600,2017-11-07 07:29:19,16,16.251,6116.1098085764,305.446204,0.50107456,1.76169296976,94, -5.9, 0,0,0,1024,1024,1684,1024,96.9,0,98,4.087,4.081,4.091,4.087,0,0,85.91,6,GPS_Atti,
0.35768223775692,36.8938329452713,6117.7502285764,307.086624,0,0.90170278476,22700,2017-11-07 07:29:19,16,16.251,6117.7502285764,307.086624,0.50107456,1.76169296976,94, -5.8, -0.1,0,0,1024,1024,1684,1024,96.8,0,98,4.081,4.076,4.086,4.083,0,0,85.91,6,GPS_Atti,
0.357682213732689,36.8938329539008,6119.0625645764,308.39896,0,0.89305120968,22800,2017-11-07 07:29:19,16,16.251,6119.0625645764,308.39896,0.50107456,1.76169296976,94, -5.8, -0.4,0,0,1024,1024,1684,1024,96.6,0,98,4.081,4.076,4.086,4.083,0,0,85.91,6,GPS_Atti,
0.357682190922871,36.8938329576752,6120.3749005764,309.711296,0,0.88593178688,22900,2017-11-07 07:29:19,16,16.251,6120.3749005764,309.711296,0.50107456,1.76169296976,93.9, -5.8, -0.6,0,0,1024,1024,1684,1024,96.5,0,98,4.081,4.076,4.086,4.083,0,0,85.91,6,GPS_Atti,
0.357682170312266,36.8938329423314,6121.6872365764,311.023632,0,0.88412732488,23000,2017-11-07 07:29:19,16,16.251,6121.6872365764,311.023632,0.50107456,1.76169296976,93.9, -6, -0.5,0,0,1024,1024,1684,1024,96.4,0,98,4.081,4.076,4.086,4.083,0,0,85.91,6,GPS_Atti,
0.357682157349241,36.8938329315714,6122.9995725764,312.335968,0,0.8833169574,23100,2017-11-07 07:29:19,16,16.251,6122.9995725764,312.335968,0.50107456,1.76169296976,93.9, -6.3, -0.3,0,0,1024,1024,1229,1024,96.3,0,98,4.081,4.076,4.086,4.083,0,0,85.91,6,GPS_Atti,
