latitude,longitude,altitude(feet),ascent(feet),speed(mph),distance(feet),time(millisecond),datetime(utc),satellites,gpslevel,voltage(v),max_altitude(feet),max_ascent(feet),max_speed(mph),max_distance(feet), xSpeed(mph), ySpeed(mph), zSpeed(mph), compass_heading(degrees), pitch(degrees), roll(degrees),isPhoto,isVideo,rc_elevator,rc_aileron,rc_throttle,rc_rudder,gimbal_heading(degrees),gimbal_pitch(degrees),battery_percent,voltageCell1,voltageCell2,voltageCell3,voltageCell4,voltageCell5,voltageCell6,current(A),battery_temperature(f),flycStateRaw,flycState,message
0.376744344856793,36.9245242643659,5337.81374102,0,0,0,0,2018-04-02 06:26:51,17,0,0,5337.81374102,0,0,0,0,0,0,188.2, 1.2, -0.8,0,0,364,364,364,1684,0,0,98,4.277,4.277,4.277,4.277,0,0,0,75.11,41,Motors_Started,
0.376744343044385,36.92452425321,5337.81374102,0,0,0.0041234909456,100,2018-04-02 06:26:51,17,0,0,5337.81374102,0,0,0.0041234909456,0,0,0,188.2, 1.2, -0.8,0,0,364,364,364,1684,192.6,0,98,4.277,4.277,4.277,4.277,0,0,0,75.11,41,Motors_Started,
0.376744344580721,36.9245242455203,5337.81374102,0,0,0.0068764109812,200,2018-04-02 06:26:51,17,0,0,5337.81374102,0,0,0.0068764109812,0,0,0,188.2, 1.2, -0.7,0,0,364,364,364,1684,192.5,0,98,4.277,4.277,4.277,4.277,0,0,0,75.11,41,Motors_Started,
0.376744343768178,36.9245242411682,5337.81374102,0,0,0.0084728021084,300,2018-04-02 06:26:52,17,0,17.098,5337.81374102,0,0,0.0084728021084,0,0,0,188.2, 1.2, -0.7,0,0,364,364,364,1684,192.5,0,98,4.277,4.277,4.277,4.277,0,0,1.54,75.11,41,Motors_Started,Setting new Return-To-Home altitude to 45m (148 ft). Setting new Maximum Flight Altitude to 150m (492 ft)
0.37674434688044,36.9245242392496,5337.81374102,0,0,0.0091931761472,500,2018-04-02 06:26:52,17,0,17.098,5337.81374102,0,0,0.0091931761472,0,0,0,188.2, 1.2, -0.7,0,0,364,364,364,1684,192.5,0,98,4.277,4.277,4.277,4.277,0,0,1.54,75.11,41,Motors_Started,
0.376744350377065,36.924524242303,5337.81374102,0,0,0.0082976052524,600,2018-04-02 06:26:52,17,0,17.098,5337.81374102,0,0,0.0091931761472,0,0,0,188.2, 1.2, -0.7,0,0,364,364,364,1684,192.5,0,98,4.277,4.277,4.277,4.277,0,0,1.54,75.11,41,Motors_Started,
0.376744350894249,36.9245242424652,5337.81374102,0,0,0.0082883532836,700,2018-04-02 06:26:52,17,0,17.098,5337.81374102,0,0,0.0091931761472,0,0,0,188.2, 1.2, -0.7,0,0,364,364,364,1684,192.5,0,98,4.277,4.277,4.277,4.277,0,0,1.54,75.11,41,Motors_Started,
0.376744354724807,36.9245242334918,5337.81374102,0,0,0.0118255581212,800,2018-04-02 06:26:52,17,0,17.098,5337.81374102,0,0,0.0118255581212,0,0,0,188.2, 1.3, -0.7,0,0,364,364,364,1684,192.6,0,98,4.277,4.277,4.277,4.277,0,0,1.54,75.11,41,Motors_Started,
0.376744355886753,36.9245242045459,5337.81374102,0,0,0.022192750054,900,2018-04-02 06:26:52,17,0,17.098,5337.81374102,0,0,0.022192750054,0,0,0,188.2, 1.3, -0.7,0,0,364,364,364,1684,192.7,0,98,4.277,4.277,4.277,4.277,0,0,1.54,75.11,41,Motors_Started,
0.376744360343041,36.9245241745727,5337.81374102,0,0,0.033244095552,1000,2018-04-02 06:26:52,17,0,17.098,5337.81374102,0,0,0.033244095552,0,0,0,188.2, 1.4, -0.7,0,0,364,364,364,1684,192.5,0,98,4.277,4.277,4.277,4.277,0,0,1.54,75.11,41,Motors_Started,
0.376744361618214,36.9245241560584,5337.81374102,0,0,0.039985565584,1100,2018-04-02 06:26:52,17,0,17.098,5337.81374102,0,0,0.039985565584,0,0,0,188.2, 1.3, -0.7,0,0,364,364,364,1684,192.5,0,98,4.277,4.277,4.277,4.277,0,0,1.54,75.11,41,Motors_Started,
0.376744360352201,36.9245241427077,5337.81374102,0,0,0.044744424004,1200,2018-04-02 06:26:53,17,0,17.098,5337.81374102,0,0,0.044744424004,0,0,0,188.2, 1.3, -0.7,0,0,364,364,364,1684,192.6,0,98,4.277,4.277,4.277,4.277,0,0,1.54,75.11,41,Motors_Started,
0.376744361860191,36.9245241324212,5337.81374102,0,0,0.048537075044,1300,2018-04-02 06:26:53,17,0,17.071,5337.81374102,0,0,0.048537075044,0,0,0,188.2, 1.4, -0.7,0,0,364,364,364,1684,192.3,0,98,4.272,4.273,4.274,4.275,0,0,1.622,75.11,41,Motors_Started,
0.3767443638044,36.924524128781,5337.81374102,0,0,0.049947836244,1400,2018-04-02 06:26:53,17,0,17.071,5337.81374102,0,0,0.049947836244,0,0,0,188.2, 1.4, -0.6,0,0,364,364,364,1684,192.6,0,98,4.272,4.273,4.274,4.275,0,0,1.622,75.11,41,Motors_Started,
0.376744366942666,36.9245241234012,5337.81374102,0,0,0.05205708828,1500,2018-04-02 06:26:53,17,0,17.071,5337.81374102,0,0,0.05205708828,0,0,0,188.3, 1.5, -0.6,0,0,364,364,364,1684,192.6,0,98,4.272,4.273,4.274,4.275,0,0,1.622,75.11,10,Assisted_Takeoff,
0.376744366686695,36.9245241106281,5337.81374102,0,0,0.056652560868,1600,2018-04-02 06:26:53,17,0,17.071,5337.81374102,0,0,0.056652560868,0,0,0,188.2, 1.3, -0.7,0,0,562,526,686,1497,192.5,0,98,4.272,4.273,4.274,4.275,0,0,1.622,75.11,10,Assisted_Takeoff,
0.376744367335477,36.9245240795961,5337.81374102,0,0,0.067908794824,1700,2018-04-02 06:26:53,17,0,17.071,5337.81374102,0,0,0.067908794824,0,0,0,188.2, 1.3, -0.7,0,0,927,885,989,1123,192.5,0,98,4.272,4.273,4.274,4.275,0,0,1.622,75.11,10,Assisted_Takeoff,
0.376744367394966,36.9245240642674,5337.81374102,0,0,0.073465881616,1800,2018-04-02 06:26:53,17,0,17.071,5337.81374102,0,0,0.073465881616,0,0,0,188.2, 1.3, -0.7,0,0,1024,1024,1024,1024,191.2,0,98,4.272,4.273,4.274,4.275,0,0,1.622,75.11,10,Assisted_Takeoff,
0.37674436922376,36.9245240747424,5337.81374102,0,0,0.069751314568,1900,2018-04-02 06:26:53,17,0,17.071,5337.81374102,0,0,0.073465881616,0,0,0,188.2, 1.3, -0.7,0,0,1024,1024,1024,1024,190,0,98,4.272,4.273,4.274,4.275,0,0,1.622,75.11,10,Assisted_Takeoff,
0.376744382961008,36.9245240826345,5337.81374102,0,0,0.067745080908,2000,2018-04-02 06:26:53,17,0,17.071,5337.81374102,0,0,0.073465881616,0,0,0,188.2, 1.3, -0.7,0,0,1024,1024,1024,1024,189.5,0,98,4.272,4.273,4.274,4.275,0,0,1.622,75.11,10,Assisted_Takeoff,
0.376744412976793,36.924524061661,5337.81374102,0,0,0.078019687536,2100,2018-04-02 06:26:53,17,0,17.071,5337.81374102,0,0,0.078019687536,0,0,0,188.1, 1.3, -0.7,0,0,1024,1024,1024,1024,189.2,0,98,4.272,4.273,4.274,4.275,0,0,1.622,75.11,10,Assisted_Takeoff,
0.376744447942946,36.9245240428431,5337.81374102,0,0,0.089143375556,2200,2018-04-02 06:26:53,17,0,17.071,5337.81374102,0,0,0.089143375556,0,0,0,188.2, 1.3, -0.7,0,0,1024,1024,1024,1024,189.1,0,98,4.272,4.273,4.274,4.275,0,0,1.622,75.11,10,Assisted_Takeoff,
0.376744465717718,36.9245240305037,5337.81374102,0,0,0.096043966328,2300,2018-04-02 06:26:54,17,0,17.071,5337.81374102,0,0,0.096043966328,0,0,0,188.2, 1.3, -0.7,0,0,1024,1024,1024,1024,188.9,0,98,4.272,4.273,4.274,4.275,0,0,1.622,75.11,10,Assisted_Takeoff,
0.376744485988843,36.924524022974,5337.81374102,0,0,0.102018047884,2400,2018-04-02 06:26:54,17,0,17.071,5337.81374102,0,0,0.102018047884,0,0,0,188.2, 1.3, -0.7,0,0,1024,1024,1024,1024,188.9,0,98,4.272,4.273,4.274,4.275,0,0,1.622,75.11,10,Assisted_Takeoff,
0.376744496149774,36.9245240162553,5337.81374102,0,0,0.10602362544,2500,2018-04-02 06:26:54,17,0,17.071,5337.81374102,0,0,0.10602362544,0,0,0,188.2, 1.3, -0.7,0,0,1024,1024,1024,1024,188.8,0,98,4.272,4.273,4.274,4.275,0,0,1.622,75.11,10,Assisted_Takeoff,
0.376744505370584,36.9245240152071,5337.81374102,0,0,0.10813484598,2600,2018-04-02 06:26:54,17,0,17.071,5337.81374102,0,0,0.10813484598,0,0,0,188.2, 1.3, -0.7,0,0,1024,1024,1024,1024,188.8,0,98,4.272,4.273,4.274,4.275,0,0,1.622,75.11,10,Assisted_Takeoff,
0.376744510237087,36.9245240113165,5337.81374102,0,0,0.11029199828,2700,2018-04-02 06:26:54,17,0,17.071,5337.81374102,0,0,0.11029199828,0,0,0,188.2, 1.3, -0.7,0,0,1024,1024,1024,1024,188.7,0,98,4.272,4.273,4.274,4.275,0,0,1.622,75.11,10,Assisted_Takeoff,
0.376744511703399,36.9245240015519,5337.81374102,0,0,0.113576775288,2800,2018-04-02 06:26:54,17,0,17.071,5337.81374102,0,0,0.113576775288,0,0,0,188.2, 1.3, -0.7,0,0,1024,1024,1024,1024,188.7,0,98,4.272,4.273,4.274,4.275,0,0,1.622,75.11,10,Assisted_Takeoff,
0.376744512000793,36.9245239707821,5337.81374102,0,0,0.123254925204,2900,2018-04-02 06:26:54,17,0,17.071,5337.81374102,0,0,0.123254925204,0,0,0,188.2, 1.3, -0.7,0,0,1024,1024,1024,1024,188.7,0,98,4.272,4.273,4.274,4.275,0,0,1.622,75.11,10,Assisted_Takeoff,
0.376744510619822,36.9245239412442,5337.81374102,0,0,0.132496395316,3000,2018-04-02 06:26:54,17,0,17.071,5337.81374102,0,0,0.132496395316,0,0,0,188.2, 1.3, -0.7,0,0,1024,1024,1024,1024,188.7,0,98,4.272,4.273,4.274,4.275,0,0,1.622,75.11,10,Assisted_Takeoff,
0.376744508539179,36.9245239219836,5337.81374102,0,0,0.138456697344,3100,2018-04-02 06:26:54,17,0,17.071,5337.81374102,0,0,0.138456697344,0,0,0,188.2, 1.3, -0.7,0,0,1024,1024,1024,1024,188.6,0,98,4.272,4.273,4.274,4.275,0,0,1.622,75.11,10,Assisted_Takeoff,
0.376744505547779,36.92452390094,5337.81374102,0,0,0.144976382592,3200,2018-04-02 06:26:55,17,0,17.071,5337.81374102,0,0,0.144976382592,0,0,0,188.2, 1.3, -0.7,0,0,1024,1024,1024,1024,188.6,0,98,4.272,4.273,4.274,4.275,0,0,1.622,75.11,10,Assisted_Takeoff,
0.376744500706567,36.9245238971329,5337.81374102,0,0,0.145548561088,3300,2018-04-02 06:26:55,17,0,17.071,5337.81374102,0,0,0.145548561088,0,0,0,188.2, 1.3, -0.7,0,0,1024,1024,1024,1024,188.6,0,98,4.243,4.268,4.265,4.267,0,0,4.05,75.11,10,Assisted_Takeoff,
0.376744495651623,36.9245238947518,5337.81374102,0,0,0.145642065028,3400,2018-04-02 06:26:55,17,0,17.071,5337.81374102,0,0,0.145642065028,0,0,0,188.2, 1.3, -0.7,0,0,1024,1024,1024,1024,188.6,0,98,4.243,4.268,4.265,4.267,0,0,4.05,75.11,10,Assisted_Takeoff,
0.376744491320929,36.9245238903221,5337.81374102,0,0,0.146556107052,3500,2018-04-02 06:26:55,17,0,17.071,5337.81374102,0,0,0.146556107052,0,0,0,188.2, 1.3, -0.7,0,0,1024,1024,1024,1024,188.6,0,98,4.243,4.268,4.265,4.267,0,0,4.05,75.11,10,Assisted_Takeoff,
0.376744487114149,36.9245238804397,5337.81374102,0,0,0.149378941788,3600,2018-04-02 06:26:55,17,0,17.071,5337.81374102,0,0,0.149378941788,0,0,0,188.2, 1.3, -0.7,0,0,1024,1024,1024,1024,188.5,0,98,4.243,4.268,4.265,4.267,0,0,4.05,75.11,10,Assisted_Takeoff,
0.376744483657013,36.9245238499012,5337.81374102,0,0,0.15946850904,3700,2018-04-02 06:26:55,17,0,17.071,5337.81374102,0,0,0.15946850904,0,0,0,188.2, 1.3, -0.7,0,0,1024,1024,1024,1024,188.6,0,98,4.243,4.268,4.265,4.267,0,0,4.05,75.11,10,Assisted_Takeoff,
0.376744480207104,36.9245238226148,5337.81374102,0,0,0.168564966024,3800,2018-04-02 06:26:55,17,0,17.071,5337.81374102,0,0,0.168564966024,0,0,0,188.2, 1.3, -0.7,0,0,1024,1024,1024,1024,188.5,0,98,4.243,4.268,4.265,4.267,0,0,4.05,75.11,10,Assisted_Takeoff,
0.376744476648648,36.9245238047241,5337.81374102,0,0,0.174454073824,3900,2018-04-02 06:26:55,17,0,17.071,5337.81374102,0,0,0.174454073824,0,0,0,188.2, 1.3, -0.7,0,0,1024,1024,1024,1024,188.5,0,98,4.243,4.268,4.265,4.267,0,0,4.05,75.11,10,Assisted_Takeoff,
0.376744474388419,36.9245237943021,5337.81374102,0,0,0.177891409892,4000,2018-04-02 06:26:55,17,0,17.071,5337.81374102,0,0,0.177891409892,0,0,0,188.2, 1.3, -0.7,0,0,1024,1024,1024,1024,188.5,0,98,4.243,4.268,4.265,4.267,0,0,4.05,75.11,10,Assisted_Takeoff,
0.376744471161606,36.9245237849454,5337.81374102,0,0,0.1808809113,4100,2018-04-02 06:26:55,17,0,17.071,5337.81374102,0,0,0.1808809113,0,0,0,188.2, 1.3, -0.7,0,0,1024,1024,1024,1024,188.5,0,98,4.243,4.268,4.265,4.267,0,0,4.05,75.11,10,Assisted_Takeoff,
0.376744466895134,36.9245237728329,5337.81374102,0,0,0.184776580716,4200,2018-04-02 06:26:55,17,0,17.071,5337.81374102,0,0,0.184776580716,0,0,0,188.2, 1.3, -0.7,0,0,1024,1024,1024,1024,188.5,0,98,4.243,4.268,4.265,4.267,0,0,4.05,75.11,10,Assisted_Takeoff,
0.376744467245046,36.9245237808299,5337.81374102,0,0,0.181977368028,4300,2018-04-02 06:26:56,17,0,17.071,5337.81374102,0,0,0.184776580716,0,0,0,188.2, 1.3, -0.7,0,0,1024,1024,1024,1024,188.5,0,98,4.27,4.272,4.271,4.271,0,0,1.968,76.91,10,Assisted_Takeoff,
0.37674446739985,36.9245237753403,5337.81374102,0,0,0.183933404836,4400,2018-04-02 06:26:56,17,0,17.071,5337.81374102,0,0,0.184776580716,0,0,0,188.2, 1.3, -0.7,0,0,1024,1024,1024,1024,188.5,0,98,4.27,4.272,4.271,4.271,0,0,1.968,76.91,10,Assisted_Takeoff,
0.376744465513806,36.9245237461347,5337.81374102,0,0,0.194129271304,4500,2018-04-02 06:26:56,17,0,17.071,5337.81374102,0,0,0.194129271304,0,0,0,188.2, 1.3, -0.7,0,0,1024,1024,1024,1024,188.5,0,98,4.27,4.272,4.271,4.271,0,0,1.968,76.91,10,Assisted_Takeoff,
0.376744465712018,36.9245237204553,5337.81374102,0,0,0.203281174484,4600,2018-04-02 06:26:56,17,0,17.071,5337.81374102,0,0,0.203281174484,0,0,0,188.2, 1.2, -0.7,0,0,1024,1024,1024,1024,188.5,0,98,4.27,4.272,4.271,4.271,0,0,1.968,76.91,10,Assisted_Takeoff,
0.376744463648525,36.9245237034677,5337.81374102,0,0,0.2091781563,4700,2018-04-02 06:26:56,17,0,17.071,5337.81374102,0,0,0.2091781563,0,0,0,188.2, 1.2, -0.7,0,0,1024,1024,1024,1024,188.5,0,98,4.27,4.272,4.271,4.271,0,0,1.968,76.91,10,Assisted_Takeoff,
0.376744462552888,36.9245236931367,5337.81374102,0,0,0.212786096048,4800,2018-04-02 06:26:56,17,0,17.071,5337.81374102,0,0,0.212786096048,0,0,0,188.2, 1.2, -0.7,0,0,1024,1024,1024,1024,188.5,0,98,4.27,4.272,4.271,4.271,0,0,1.968,76.91,10,Assisted_Takeoff,
0.376744459618279,36.9245236842168,5337.81374102,0,0,0.215764114516,4900,2018-04-02 06:26:56,17,0,17.071,5337.81374102,0,0,0.215764114516,0,0,0,188.2, 1.2, -0.7,0,0,1024,1024,1024,1024,188.5,0,98,4.27,4.272,4.271,4.271,0,0,1.968,76.91,10,Assisted_Takeoff,
0.376744458656785,36.9245236834706,5337.81374102,0,0,0.215963589588,5000,2018-04-02 06:26:56,17,0,17.071,5337.81374102,0,0,0.215963589588,0,0,0,188.2, 1.2, -0.7,0,0,1024,1024,1024,1024,188.5,0,98,4.27,4.272,4.271,4.271,0,0,1.968,76.91,10,Assisted_Takeoff,
0.376744455035634,36.9245236802063,5337.81374102,0,0,0.216883537124,5100,2018-04-02 06:26:56,17,0,17.071,5337.81374102,0,0,0.216883537124,0,0,0,188.2, 1.2, -0.7,0,0,1024,1024,1024,1024,188.5,0,98,4.27,4.272,4.271,4.271,0,0,1.968,76.91,10,Assisted_Takeoff,
0.376744453331111,36.9245236855315,5337.81374102,0,0,0.214859258844,5200,2018-04-02 06:26:57,17,0,17.071,5337.81374102,0,0,0.216883537124,0,0,0,188.2, 1.2, -0.7,0,0,1024,1024,1024,1024,188.5,0,98,4.27,4.272,4.271,4.271,0,0,1.968,76.91,10,Assisted_Takeoff,
0.376744449309414,36.9245236856033,5337.81374102,0,0,0.214567920252,5300,2018-04-02 06:26:57,17,0,17.071,5337.81374102,0,0,0.216883537124,0,0,0,188.2, 1.2, -0.7,0,0,1024,1024,1024,1024,188.5,0,98,4.27,4.272,4.271,4.271,0,0,1.968,76.91,10,Assisted_Takeoff,
0.376744447748093,36.9245236801806,5337.81374102,0,0,0.21641568934,5400,2018-04-02 06:26:57,17,0,17.071,5337.81374102,0,0,0.216883537124,0,0,0,188.2, 1.2, -0.7,0,0,1024,1024,1246,1024,188.5,0,98,4.27,4.272,4.271,4.271,0,0,1.968,76.91,10,Assisted_Takeoff,
0.376744443907102,36.9245236519819,5337.81374102,0,0,0.226326778896,5500,2018-04-02 06:26:57,17,0,17.071,5337.81374102,0,0,0.226326778896,0,0,0,188.2, 1.2, -0.7,0,0,1024,1024,1554,1072,188.5,0,98,4.27,4.272,4.271,4.271,0,0,1.968,76.91,10,Assisted_Takeoff,
0.376744442944946,36.9245236268913,5337.81374102,0,0,0.235314311992,5600,2018-04-02 06:26:57,17,0,17.071,5337.81374102,0,0,0.235314311992,0,0,0,188.2, 1.2, -0.7,0,0,1024,1024,1684,1091,188.6,0,98,4.27,4.272,4.271,4.271,0,0,1.968,76.91,10,Assisted_Takeoff,
0.376744440265749,36.924523609824,5337.81374102,0,0,0.241327763628,5700,2018-04-02 06:26:57,17,0,17.071,5337.81374102,0,0,0.241327763628,0,0,0,188.2, 1.3, -0.6,0,0,1024,1024,1684,1235,188.7,0,98,4.27,4.272,4.271,4.271,0,0,1.968,76.91,10,Assisted_Takeoff,
0.376744441256199,36.9245235988228,5337.81374102,0,0,0.245351713888,5800,2018-04-02 06:26:57,17,0,17.071,5337.81374102,0,0,0.245351713888,0,0,0,188.2, 1.4, -0.6,0,0,1024,1024,1684,1182,189.8,0,98,4.27,4.272,4.271,4.271,0,0,1.968,76.91,10,Assisted_Takeoff,
0.37674443809198,36.9245235885876,5337.81374102,0,0,0.248887475156,5900,2018-04-02 06:26:57,17,0,17.071,5337.81374102,0,0,0.248887475156,0,0,0,189, 1.4, -0.6,0,0,1024,1024,1684,1206,190.7,0,98,4.27,4.272,4.271,4.271,0,0,1.968,76.91,10,Assisted_Takeoff,
0.376744456087965,36.9245235881267,5337.81374102,0,0,0.250035441072,6000,2018-04-02 06:26:57,17,0,17.071,5337.81374102,0,0,0.250035441072,0,0,0,190.8, 2.4, -0.2,0,0,1024,1024,1684,1195,190.7,0,98,4.27,4.272,4.271,4.271,0,0,1.968,76.91,10,Assisted_Takeoff,
0.376744511226061,36.9245235976344,5337.81374102,0,0.223694,0.25071030986,6100,2018-04-02 06:26:57,17,0,17.071,5337.81374102,0,0.223694,0.25071030986,0.223694,0,-0.447388,192.8, 3.3, 0.1,0,0,1024,1024,1684,1191,191.8,0,98,4.27,4.272,4.271,4.271,0,0,1.968,76.91,6,P-GPS,
0.376744664383127,36.9245236289287,5337.81374102,0,0.223694,0.25949475896,6200,2018-04-02 06:26:57,17,0,17.071,5337.81374102,0,0.223694,0.25949475896,0.223694,0,-0.894776,195.1, 1.7, 0,0,0,1024,1024,1684,1162,192.9,0,98,4.27,4.272,4.271,4.271,0,0,1.968,76.91,6,P-GPS,
0.376744898490698,36.9245236704459,5337.81374102,0,0.447388,0.29623360528,6300,2018-04-02 06:26:58,17,0,17.071,5337.81374102,0,0.447388,0.29623360528,0.447388,0,-1.789552,197.3, 0.1, 0,0,0,1024,1024,1684,1162,194.2,0,98,4.271,4.271,4.271,4.271,0,0,1.978,76.91,6,P-GPS,Home Point Recorded. RTH Altitude:  45m.
0.376745184371287,36.9245237162927,5338.14182502,0.328084,0.447388,0.36578741328,6400,2018-04-02 06:26:58,17,0,17.071,5338.14182502,0.328084,0.447388,0.36578741328,0.447388,0,-2.460634,199.2, -0.4, -0.1,0,0,1024,1024,1684,1125,195.5,0,98,4.271,4.271,4.271,4.271,0,0,1.978,76.91,6,P-GPS,
0.37674548711886,36.924523740605,5338.79799302,0.984252,0.447388,0.45847442412,6500,2018-04-02 06:26:58,17,0,17.071,5338.79799302,0.984252,0.447388,0.45847442412,0.447388,0,-3.35541,200.4, -0.9, -0.4,0,0,1024,1024,1684,1115,196.7,0,98,4.271,4.271,4.271,4.271,0,0,1.978,76.91,6,P-GPS,
0.37674582901027,36.9245237799777,5339.12607702,1.312336,0.447388,0.5696030366,6600,2018-04-02 06:26:58,17,0,17.071,5339.12607702,1.312336,0.447388,0.5696030366,0.447388,0,-4.250186,201.2, -1.5, -0.5,0,0,1024,1024,1684,1095,197.7,0,98,4.271,4.271,4.271,4.271,0,0,1.978,76.91,6,P-GPS,
0.376746148825272,36.9245238246334,5339.78224502,1.968504,0.447388,0.67744752824,6700,2018-04-02 06:26:58,17,0,17.071,5339.78224502,1.968504,0.447388,0.67744752824,0.447388,0,-5.368656,202, -2.8, -0.1,0,0,1024,1024,1684,1091,198.5,0,98,4.271,4.271,4.271,4.271,0,0,1.978,76.91,6,P-GPS,
0.376746487534906,36.9245238581969,5340.76649702,2.952756,0.447388,0.79567587848,6800,2018-04-02 06:26:58,17,0,17.071,5340.76649702,2.952756,0.447388,0.79567587848,0.447388,0,-6.487126,202.9, -4, -0.4,0,0,1024,1024,1684,1093,199.2,0,98,4.271,4.271,4.271,4.271,0,0,1.978,76.91,6,P-GPS,
0.37674677912134,36.9245238546114,5341.75074902,3.937008,0.447388,0.90063323092,6900,2018-04-02 06:26:58,17,0,17.071,5341.75074902,3.937008,0.447388,0.90063323092,0.447388,0,-7.82929,203.8, -4, -1.6,0,0,1024,1024,1684,1092,200,0,98,4.271,4.271,4.271,4.271,0,0,1.978,76.91,6,P-GPS,
0.376747019525271,36.9245238200437,5343.06308502,5.249344,0.223694,0.9892224726,7000,2018-04-02 06:26:58,17,0,17.071,5343.06308502,5.249344,0.447388,0.9892224726,0.223694,0,-8.94776,204.3, -2.4, -2.5,0,0,1024,1024,1684,1092,200.7,0,98,4.271,4.271,4.271,4.271,0,0,1.978,76.91,6,P-GPS,
0.376747217402793,36.9245237835568,5344.37542102,6.56168,0.447388,1.06262470592,7100,2018-04-02 06:26:58,17,0,17.071,5344.37542102,6.56168,0.447388,1.06262470592,0.447388,0,-9.842536,204.9, -2.8, -2,0,0,1024,1024,1684,1086,201.4,0,98,4.271,4.271,4.271,4.271,0,0,1.978,76.91,6,P-GPS,
0.376747426926336,36.9245237754725,5346.01584102,8.2021,0.223694,1.1385499052,7200,2018-04-02 06:26:59,17,0,17.071,5346.01584102,8.2021,0.447388,1.1385499052,0.223694,0,-10.513618,205.6, -3.7, -1.3,0,0,1024,1024,1684,1085,202,0,98,4.271,4.271,4.271,4.271,0,0,1.978,76.91,6,P-GPS,
0.376747625197942,36.9245237619243,5347.65626102,9.84252,0.223694,1.21078744032,7300,2018-04-02 06:26:59,17,0,17.071,5347.65626102,9.84252,0.447388,1.21078744032,0.223694,0,-10.961006,206.2, -4.4, -1.5,0,0,1024,1024,1684,1091,202,0,98,4.241,4.241,4.234,4.22,0,0,5.678,76.91,6,P-GPS,
0.376747819155189,36.924523718791,5349.29668102,11.48294,0.223694,1.28312996232,7400,2018-04-02 06:26:59,17,0,17.071,5349.29668102,11.48294,0.447388,1.28312996232,0.223694,0,-11.408394,206.7, -4.4, -2.5,0,0,1024,1024,1684,1091,202.7,0,98,4.241,4.241,4.234,4.22,0,0,5.678,76.91,6,P-GPS,
0.376747993816189,36.9245236821762,5350.93710102,13.12336,0.223694,1.34815949196,7500,2018-04-02 06:26:59,17,0,17.071,5350.93710102,13.12336,0.447388,1.34815949196,0.223694,0,-11.408394,207.4, -5.6, -2.8,0,0,1024,1024,1684,1081,203.4,0,98,4.241,4.241,4.234,4.22,0,0,5.678,76.91,6,P-GPS,
0.376748147900578,36.9245236451878,5352.57752102,14.76378,0.223694,1.4058071316,7600,2018-04-02 06:26:59,17,0,17.071,5352.57752102,14.76378,0.447388,1.4058071316,0.223694,0,-11.408394,208, -5.5, -3.1,0,0,1024,1024,1684,1091,204,0,98,4.241,4.241,4.234,4.22,0,0,5.678,76.91,6,P-GPS,
0.376748263025259,36.9245236130364,5354.21794102,16.4042,0,1.44915687052,7700,2018-04-02 06:26:59,17,0,17.071,5354.21794102,16.4042,0.447388,1.44915687052,0,0,-11.1847,208.5, -4, -2.6,0,0,1024,1024,1684,1095,204.6,0,98,4.241,4.241,4.234,4.22,0,0,5.678,76.91,6,P-GPS,
0.376748369973114,36.9245235867274,5355.85836102,18.04462,0.223694,1.48922576944,7800,2018-04-02 06:26:59,17,0,17.071,5355.85836102,18.04462,0.447388,1.48922576944,0.223694,0,-11.1847,209, -3.9, -2.3,0,0,1024,1024,1684,1088,206,0,98,4.241,4.241,4.234,4.22,0,0,5.678,76.91,6,P-GPS,
0.376748545469303,36.9245235426349,5359.13920102,21.32546,0.223694,1.55504598152,8000,2018-04-02 06:26:59,17,0,17.071,5359.13920102,21.32546,0.447388,1.55504598152,0.223694,0,-10.961006,210.4, -5.5, -2.8,0,0,1024,1024,1684,1024,206.6,0,98,4.241,4.241,4.234,4.22,0,0,5.678,76.91,6,P-GPS,
0.376748594933289,36.9245235273308,5360.77962102,22.96588,0,1.57377957792,8100,2018-04-02 06:26:59,17,0,17.071,5360.77962102,22.96588,0.447388,1.57377957792,0,0,-10.737312,210.9, -4.7, -3.5,0,0,1024,1024,1684,998,207,0,98,4.241,4.241,4.234,4.22,0,0,5.678,76.91,6,P-GPS,
0.376748615236322,36.9245235113143,5362.42004102,24.6063,0,1.58208338396,8200,2018-04-02 06:27:00,17,0,17.071,5362.42004102,24.6063,0.447388,1.58208338396,0,0,-10.737312,210.8, -3.5, -4.1,0,0,1024,1024,1684,919,207.3,0,98,4.241,4.241,4.234,4.22,0,0,5.678,76.91,6,P-GPS,
0.376748658166991,36.9245235480115,5365.37279702,27.559056,0,1.59526251824,8400,2018-04-02 06:27:00,17,0,17.071,5365.37279702,27.559056,0.447388,1.59526251824,0,0,-10.513618,210, -4, -2.8,0,0,1024,1024,1684,894,207.3,0,98,4.241,4.241,4.234,4.22,0,0,5.678,76.91,6,P-GPS,
0.376748702016917,36.9245235894848,5367.01321702,29.199476,0.223694,1.6086614688,8500,2018-04-02 06:27:00,17,0,17.071,5367.01321702,29.199476,0.447388,1.6086614688,0.223694,0,-10.513618,209, -4.4, -2.1,0,0,1024,1024,1684,903,206.6,0,98,4.241,4.241,4.234,4.22,0,0,5.678,76.91,6,P-GPS,
0.376748759270972,36.9245236144475,5368.65363702,30.839896,0.223694,1.62795608884,8600,2018-04-02 06:27:00,17,0,17.071,5368.65363702,30.839896,0.447388,1.62795608884,0.223694,0,-10.513618,207.6, -4.7, -2.3,0,0,1024,1024,1684,910,206,0,98,4.241,4.241,4.234,4.22,0,0,5.678,76.91,6,P-GPS,
0.376748818120088,36.9245235893017,5370.29405702,32.480316,0.223694,1.65054795308,8700,2018-04-02 06:27:00,17,0,17.071,5370.29405702,32.480316,0.447388,1.65054795308,0.223694,0,-10.513618,206.3, -4.9, -4.2,0,0,1024,1024,1684,903,206,0,98,4.241,4.241,4.234,4.22,0,0,5.678,76.91,6,P-GPS,
0.376748881933516,36.9245235647047,5371.60639302,33.792652,0,1.67491475176,8800,2018-04-02 06:27:00,17,0,17.071,5371.60639302,33.792652,0.447388,1.67491475176,0,0,-10.513618,205.1, -5.4, -5.3,0,0,1024,1024,1684,921,205.4,0,98,4.241,4.241,4.234,4.22,0,0,5.678,76.91,6,P-GPS,
0.376748906449333,36.9245235814862,5373.24681302,35.433072,0,1.68283798036,8900,2018-04-02 06:27:00,17,0,17.071,5373.24681302,35.433072,0.447388,1.68283798036,0,0,-10.513618,203.8, -5, -4,0,0,1024,1024,1684,939,204.7,0,98,4.241,4.241,4.234,4.22,0,0,5.678,76.91,6,P-GPS,
0.376748895301006,36.9245236745229,5374.88723302,37.073492,0,1.67411750764,9000,2018-04-02 06:27:00,17,0,17.071,5374.88723302,37.073492,0.447388,1.68283798036,0,0,-10.513618,202.5, -5.1, -2.7,0,0,1024,1024,1684,989,204.2,0,98,4.241,4.241,4.234,4.22,0,0,5.678,76.91,6,P-GPS,
0.376748832420269,36.9245238080527,5376.52765302,38.713912,0,1.64572839912,9100,2018-04-02 06:27:00,17,0,17.071,5376.52765302,38.713912,0.447388,1.68283798036,0,0,-10.737312,201.6, -5, -1.6,0,0,1024,1024,1684,1024,203.7,0,98,4.241,4.241,4.234,4.22,0,0,5.678,76.91,6,P-GPS,
0.376748738967532,36.924523951474,5377.83998902,40.026248,0,1.60724742676,9200,2018-04-02 06:27:01,17,0,17.071,5377.83998902,40.026248,0.447388,1.68283798036,0,0,-10.737312,201.1, -3.9, -0.2,0,0,1024,1024,1684,1024,203.6,0,98,4.241,4.241,4.234,4.22,0,0,5.678,76.91,6,P-GPS,
0.376748646094114,36.9245240270049,5379.48040902,41.666668,0,1.57169296368,9300,2018-04-02 06:27:01,17,0,16.424,5379.48040902,41.666668,0.447388,1.68283798036,0,0,-10.737312,201.1, -3.4, -1.2,0,0,1024,1024,1684,1024,203.5,0,98,4.093,4.105,4.089,4.098,0,0,23.296,76.91,6,P-GPS,
0.37674858959525,36.9245240807898,5381.12082902,43.307088,0,1.55013784488,9400,2018-04-02 06:27:01,17,0,16.424,5381.12082902,43.307088,0.447388,1.68283798036,0,0,-10.737312,201.1, -4, -2.7,0,0,1024,1024,1684,1024,203.4,0,98,4.093,4.105,4.089,4.098,0,0,23.296,76.91,6,P-GPS,
0.376748578188814,36.9245241614715,5382.76124902,44.947508,0,1.54498364524,9500,2018-04-02 06:27:01,17,0,16.424,5382.76124902,44.947508,0.447388,1.68283798036,0,0,-10.961006,201.2, -4.9, -2.6,0,0,1024,1024,1684,1024,203.2,0,98,4.093,4.105,4.089,4.098,0,0,23.296,76.91,6,P-GPS,
0.376748516469565,36.9245243504569,5386.04208902,48.228348,0,1.52233600672,9700,2018-04-02 06:27:01,17,0,16.424,5386.04208902,48.228348,0.447388,1.68283798036,0,0,-11.1847,201.2, -4.4, -2.2,0,0,1024,1024,1684,1024,203,0,98,4.093,4.105,4.089,4.098,0,0,23.296,76.91,6,P-GPS,
0.376748333545433,36.924524636193,5389.65101302,51.837272,0.3131716,1.4615814116,9900,2018-04-02 06:27:01,17,0,16.424,5389.65101302,51.837272,0.447388,1.68283798036,-0.223694,0.223694,-11.408394,201.1, -3.6, -1.1,0,0,1024,1024,1684,1024,203,0,98,4.093,4.105,4.089,4.098,0,0,23.296,76.91,6,P-GPS,
0.376748221992134,36.9245248095318,5391.29143302,53.477692,0.223694,1.42848429768,10000,2018-04-02 06:27:01,17,0,16.424,5391.29143302,53.477692,0.447388,1.68283798036,0,0.223694,-11.632088,201.1, -4.1, 0.1,0,0,1024,1024,1684,1024,202.9,0,98,4.093,4.105,4.089,4.098,0,0,23.296,76.91,6,P-GPS,
0.376748125383472,36.9245250129758,5393.25993702,55.446196,0,1.4061024072,10100,2018-04-02 06:27:02,17,0,16.424,5393.25993702,55.446196,0.447388,1.68283798036,0,0,-11.632088,201, -4.1, 1.1,0,0,1024,1024,1684,1024,202.9,0,98,4.093,4.105,4.089,4.098,0,0,23.296,76.91,6,P-GPS,
0.376748073841795,36.9245252664677,5396.86886102,59.05512,0,1.40878613432,10300,2018-04-02 06:27:02,17,0,16.317,5396.86886102,59.05512,0.447388,1.68283798036,0,0,-11.855782,201, -4.4, -0.8,0,0,1024,1024,1684,1024,202.8,0,98,4.108,4.118,4.103,4.111,0,0,17.982,76.91,6,P-GPS,
0.376748101302246,36.9245253655287,5398.50928102,60.69554,0,1.42820542628,10400,2018-04-02 06:27:02,17,0,16.317,5398.50928102,60.69554,0.447388,1.68283798036,0,0,-11.855782,201.1, -5.2, -1.1,0,0,1024,1024,1684,1024,202.8,0,98,4.108,4.118,4.103,4.111,0,0,17.982,76.91,6,P-GPS,
0.376748162215822,36.9245254679912,5400.47778502,62.664044,0,1.4603510966,10500,2018-04-02 06:27:02,17,0,16.317,5400.47778502,62.664044,0.447388,1.68283798036,0,0,-11.855782,201.1, -5.9, -1.5,0,0,1024,1024,1684,1024,202.6,0,98,4.108,4.118,4.103,4.111,0,0,17.982,76.91,6,P-GPS,
0.376748317314121,36.9245256107776,5404.08670902,66.272968,0,1.5303314138,10700,2018-04-02 06:27:02,17,0,16.317,5404.08670902,66.272968,0.447388,1.68283798036,0,0,-11.632088,201.1, -6.3, -1.8,0,0,1024,1024,1684,1024,202.6,0,98,4.108,4.118,4.103,4.111,0,0,17.982,76.91,6,P-GPS,
0.376748387115948,36.9245256553921,5405.72712902,67.913388,0,1.55969165096,10800,2018-04-02 06:27:02,17,0,16.317,5405.72712902,67.913388,0.447388,1.68283798036,0,0,-11.632088,201.2, -6.5, -1.9,0,0,1024,1024,1684,1024,202.5,0,98,4.108,4.118,4.103,4.111,0,0,17.982,76.91,6,P-GPS,
0.376748491854413,36.9245257170049,5407.36754902,69.553808,0,1.6031660618,10900,2018-04-02 06:27:02,17,0,16.317,5407.36754902,69.553808,0.447388,1.68283798036,0,0,-11.408394,201.2, -6.6, -2.2,0,0,1024,1024,1684,1024,202.5,0,98,4.108,4.118,4.103,4.111,0,0,17.982,76.91,6,P-GPS,
0.376748552354771,36.9245257562293,5409.33605302,71.522312,0,1.6287402096,11000,2018-04-02 06:27:02,17,0,16.317,5409.33605302,71.522312,0.447388,1.68283798036,0,0,-11.408394,201.2, -6.1, -2.4,0,0,1024,1024,1684,1024,202.5,0,98,4.108,4.118,4.103,4.111,0,0,17.982,76.91,6,P-GPS,
0.376748552938161,36.9245258017895,5410.97647302,73.162732,0,1.63457026228,11100,2018-04-02 06:27:02,17,0,16.317,5410.97647302,73.162732,0.447388,1.68283798036,0,0,-11.408394,201.2, -5.7, -2.2,0,0,1024,1024,1684,1024,202.4,0,98,4.108,4.118,4.103,4.111,0,0,17.982,76.91,6,P-GPS,
0.37674854636739,36.9245258359592,5412.61689302,74.803152,0,1.63664375316,11200,2018-04-02 06:27:03,17,0,16.397,5412.61689302,74.803152,0.447388,1.68283798036,0,0,-11.408394,201.2, -5.5, -1.9,0,0,1024,1024,1684,1024,202.4,0,98,4.104,4.109,4.092,4.105,0,0,18.918,76.91,6,P-GPS,
0.376748578682639,36.9245259184941,5416.22581702,78.412076,0,1.65841212656,11400,2018-04-02 06:27:03,17,0,16.397,5416.22581702,78.412076,0.447388,1.68283798036,0,0,-11.1847,201.2, -6, -2,0,0,1024,1024,1684,1024,202.3,0,98,4.104,4.109,4.092,4.105,0,0,18.918,76.91,6,P-GPS,
0.37674858102312,36.9245260154097,5419.50665702,81.692916,0,1.6723917858,11600,2018-04-02 06:27:03,17,0,16.397,5419.50665702,81.692916,0.447388,1.68283798036,0,0,-11.1847,201.1, -5.9, -1.5,0,0,1024,1024,1684,1024,202.3,0,98,4.104,4.109,4.092,4.105,0,0,18.918,76.91,6,P-GPS,
0.376748566187996,36.9245260764095,5421.14707702,83.333336,0,1.67604664156,11700,2018-04-02 06:27:03,17,0,16.397,5421.14707702,83.333336,0.447388,1.68283798036,0,0,-11.1847,201.1, -5.9, -1.3,0,0,1024,1024,1684,1024,202.3,0,98,4.104,4.109,4.092,4.105,0,0,18.918,76.91,6,P-GPS,
0.376748574265078,36.9245261139491,5423.11558102,85.30184,0,1.68419296728,11800,2018-04-02 06:27:03,17,0,16.397,5423.11558102,85.30184,0.447388,1.68419296728,0,0,-11.1847,201.1, -5.9, -1.4,0,0,1024,1024,1684,1024,202.2,0,98,4.104,4.109,4.092,4.105,0,0,18.918,76.91,6,P-GPS,
0.376748612114187,36.9245261177354,5424.75600102,86.94226,0,1.69740490996,11900,2018-04-02 06:27:03,17,0,16.397,5424.75600102,86.94226,0.447388,1.69740490996,0,0,-11.1847,201.1, -5.9, -1.4,0,0,1024,1024,1684,1024,202.2,0,98,4.104,4.109,4.092,4.105,0,0,18.918,76.91,6,P-GPS,
0.376748642106869,36.9245261123857,5426.39642102,88.58268,0,1.7066765638,12000,2018-04-02 06:27:03,17,0,16.397,5426.39642102,88.58268,0.447388,1.7066765638,0,0,-11.1847,201.2, -6, -1.5,0,0,1024,1024,1684,1024,202.2,0,98,4.104,4.109,4.092,4.105,0,0,18.918,76.91,6,P-GPS,
0.376748675316949,36.924526089848,5428.36492502,90.551184,0,1.71460307324,12100,2018-04-02 06:27:03,17,0,16.397,5428.36492502,90.551184,0.447388,1.71460307324,0,0,-11.1847,201.2, -6, -1.7,0,0,1024,1024,1684,1024,202.2,0,98,4.104,4.109,4.092,4.105,0,0,18.918,76.91,6,P-GPS,
0.376748689955846,36.9245260659884,5430.00534502,92.191604,0,1.7161745956,12200,2018-04-02 06:27:03,17,0,16.397,5430.00534502,92.191604,0.447388,1.7161745956,0,0,-11.1847,201.2, -5.6, -1.6,0,0,1024,1024,1684,1024,202.2,0,98,4.104,4.109,4.092,4.105,0,0,18.918,76.91,6,P-GPS,
0.376748711172843,36.9245260891789,5431.64576502,93.832024,0,1.72657157756,12300,2018-04-02 06:27:04,17,0,16.397,5431.64576502,93.832024,0.447388,1.72657157756,0,0,-11.1847,201.2, -5.6, -0.8,0,0,1024,1024,1684,1024,202.1,0,98,4.104,4.109,4.092,4.105,0,0,18.918,76.91,6,P-GPS,
0.376748729273812,36.9245260883259,5433.28618502,95.472444,0,1.7325459872,12400,2018-04-02 06:27:04,17,0,16.397,5433.28618502,95.472444,0.447388,1.7325459872,0,0,-11.1847,201.1, -6.2, -0.4,0,0,1024,1024,1684,1024,202.1,0,98,4.104,4.109,4.092,4.105,0,0,18.918,76.91,6,P-GPS,
0.376748716795453,36.9245259959468,5436.56702502,98.753284,0,1.7156496612,12600,2018-04-02 06:27:04,17,0,16.397,5436.56702502,98.753284,0.447388,1.7325459872,0,0,-11.1847,201.1, -6, -3.5,0,0,1024,1024,1684,1024,202.1,0,98,4.104,4.109,4.092,4.105,0,0,18.918,76.91,6,P-GPS,
0.376748739666135,36.9245259391374,5438.53552902,100.721788,0,1.71592197092,12700,2018-04-02 06:27:04,17,0,16.397,5438.53552902,100.721788,0.447388,1.7325459872,0,0,-10.961006,201.2, -6.4, -2.9,0,0,1024,1024,1684,1024,202,0,98,4.104,4.109,4.092,4.105,0,0,18.918,76.91,6,P-GPS,
0.376748736422274,36.9245259036673,5440.17594902,102.362208,0,1.71024611772,12800,2018-04-02 06:27:04,17,0,16.397,5440.17594902,102.362208,0.447388,1.7325459872,0,0,-10.961006,201.3, -6.7, -2.2,0,0,1024,1024,1684,1024,202,0,98,4.104,4.109,4.092,4.105,0,0,18.918,76.91,6,P-GPS,
0.376748703813905,36.9245258044548,5443.45678902,105.643048,0,1.68670609072,13000,2018-04-02 06:27:04,17,0,16.397,5443.45678902,105.643048,0.447388,1.7325459872,0,0,-11.1847,201.2, -6.2, -0.8,0,0,1024,1024,1684,1024,202,0,98,4.104,4.109,4.092,4.105,0,0,18.918,76.91,6,P-GPS,
0.376748726626776,36.9245257336916,5445.09720902,107.283468,0.223694,1.6861713138,13100,2018-04-02 06:27:04,17,0,16.397,5445.09720902,107.283468,0.447388,1.7325459872,0,-0.223694,-11.1847,201.2, -6.8, -1.9,0,0,1024,1024,1684,1024,202,0,98,4.104,4.109,4.092,4.105,0,0,18.918,76.91,6,P-GPS,
0.376748743840244,36.9245256163357,5446.73762902,108.923888,0.223694,1.679051891,13200,2018-04-02 06:27:05,17,0,16.397,5446.73762902,108.923888,0.447388,1.7325459872,0,-0.223694,-10.961006,201.2, -6.7, -3.5,0,0,1024,1024,1684,1024,201.9,0,98,4.104,4.112,4.097,4.107,0,0,17.386,76.91,6,P-GPS,
0.376748831938657,36.9245253255709,5451.98697302,114.173232,0,1.68227039504,13500,2018-04-02 06:27:05,17,0,16.397,5451.98697302,114.173232,0.447388,1.7325459872,0,0,-10.961006,201.3, -6.3, -3.3,0,0,1024,1024,1684,1024,201.9,0,98,4.104,4.112,4.097,4.107,0,0,17.386,76.91,6,P-GPS,
0.376748817855873,36.9245252443231,5453.62739302,115.813652,0,1.67067590648,13600,2018-04-02 06:27:05,17,0,16.397,5453.62739302,115.813652,0.447388,1.7325459872,0,0,-10.961006,201.3, -6.3, -2.9,0,0,1024,1024,1684,1024,201.9,0,98,4.104,4.112,4.097,4.107,0,0,17.386,76.91,6,P-GPS,
0.376748839058621,36.924525167238,5455.26781302,117.454072,0,1.67246724512,13700,2018-04-02 06:27:05,17,0,16.397,5455.26781302,117.454072,0.447388,1.7325459872,0,0,-10.961006,201.3, -6.2, -3,0,0,1024,1024,1684,1024,201.9,0,98,4.104,4.112,4.097,4.107,0,0,17.386,76.91,6,P-GPS,
0.376748832257832,36.9245250824007,5456.90823302,119.094492,0,1.66420609,13800,2018-04-02 06:27:05,17,0,16.397,5456.90823302,119.094492,0.447388,1.7325459872,0,0,-10.961006,201.2, -6.2, -3.1,0,0,1024,1024,1684,1024,201.9,0,98,4.104,4.112,4.097,4.107,0,0,17.386,76.91,6,P-GPS,
0.376748778223617,36.9245250147115,5458.54865302,120.734912,0,1.64051514436,13900,2018-04-02 06:27:05,17,0,16.397,5458.54865302,120.734912,0.447388,1.7325459872,0,0,-10.961006,201.2, -5.7, -3.1,0,0,1024,1024,1684,1024,201.8,0,98,4.104,4.112,4.097,4.107,0,0,17.386,76.91,6,P-GPS,
0.376748706717013,36.9245249347496,5460.18907302,122.375332,0,1.61010831924,14000,2018-04-02 06:27:05,17,0,16.397,5460.18907302,122.375332,0.447388,1.7325459872,0,0,-10.961006,201.3, -5.3, -3.3,0,0,1024,1024,1684,1024,201.8,0,98,4.104,4.112,4.097,4.107,0,0,17.386,76.91,6,P-GPS,
0.376748655028979,36.924524841726,5461.82949302,124.015752,0.223694,1.58660766232,14100,2018-04-02 06:27:05,17,0,16.397,5461.82949302,124.015752,0.447388,1.7325459872,0,-0.223694,-10.961006,201.3, -5.3, -2.5,0,0,1024,1024,1684,1024,201.8,0,98,4.104,4.112,4.097,4.107,0,0,17.386,76.91,6,P-GPS,
0.376748596798265,36.9245247230035,5463.79799702,125.984256,0.223694,1.56031501056,14200,2018-04-02 06:27:06,17,0,16.397,5463.79799702,125.984256,0.447388,1.7325459872,0,-0.223694,-10.961006,201.2, -5.6, -3.5,0,0,1024,1024,1684,1024,201.8,0,98,4.104,4.112,4.097,4.107,0,0,17.386,76.91,6,P-GPS,
0.376748534264387,36.9245245804258,5465.43841702,127.624676,0.3131716,1.53284781808,14300,2018-04-02 06:27:06,17,0,16.29,5465.43841702,127.624676,0.447388,1.7325459872,-0.223694,-0.223694,-10.961006,201.2, -4.9, -4.4,0,0,1024,1024,1684,1024,201.8,0,98,4.101,4.105,4.09,4.099,0,0,17.27,76.91,6,P-GPS,
0.376748449939892,36.9245244403476,5467.07883702,129.265096,0.3131716,1.4991142212,14400,2018-04-02 06:27:06,17,0,16.29,5467.07883702,129.265096,0.447388,1.7325459872,-0.223694,-0.223694,-11.1847,201, -4, -5.4,0,0,1024,1024,1684,1024,201.8,0,98,4.101,4.105,4.09,4.099,0,0,17.27,76.91,6,P-GPS,
0.376748346554868,36.9245243429625,5468.71925702,130.905516,0.223694,1.46029860316,14500,2018-04-02 06:27:06,17,0,16.29,5468.71925702,130.905516,0.447388,1.7325459872,-0.223694,0,-10.961006,201.1, -3.6, -5.2,0,0,1024,1024,1684,1024,201.8,0,98,4.101,4.105,4.09,4.099,0,0,17.27,76.91,6,P-GPS,
0.3767482268909,36.9245243240682,5470.35967702,132.545936,0.223694,1.41652563588,14600,2018-04-02 06:27:06,17,0,16.29,5470.35967702,132.545936,0.447388,1.7325459872,-0.223694,0,-10.961006,201.1, -3.6, -3.3,0,0,1024,1024,1684,1024,201.7,0,98,4.101,4.105,4.09,4.099,0,0,17.27,76.91,6,P-GPS,
0.376748007046686,36.9245243411548,5473.96860102,136.15486,0.223694,1.33644033148,14800,2018-04-02 06:27:06,17,0,16.29,5473.96860102,136.15486,0.447388,1.7325459872,-0.223694,0,-11.1847,201.1, -4.3, -1.2,0,0,1024,1024,1684,1024,201.7,0,98,4.101,4.105,4.09,4.099,0,0,17.27,76.91,6,P-GPS,
0.376747944036285,36.9245243552849,5475.60902102,137.79528,0,1.31357615752,14900,2018-04-02 06:27:06,17,0,16.29,5475.60902102,137.79528,0.447388,1.7325459872,0,0,-11.1847,201.1, -4.5, -1.6,0,0,1024,1024,1684,1024,201.7,0,98,4.101,4.105,4.09,4.099,0,0,17.27,76.91,6,P-GPS,
0.376747882000507,36.9245243544568,5477.24944102,139.4357,0,1.29094164236,15000,2018-04-02 06:27:06,17,0,16.29,5477.24944102,139.4357,0.447388,1.7325459872,0,0,-11.1847,201.1, -4.5, -1.9,0,0,1024,1024,1684,1024,201.7,0,98,4.101,4.105,4.09,4.099,0,0,17.27,76.91,6,P-GPS,
0.376747885032466,36.924524326446,5479.21794502,141.404204,0,1.29183075,15100,2018-04-02 06:27:06,17,0,16.29,5479.21794502,141.404204,0.447388,1.7325459872,0,0,-11.1847,201.1, -4.7, -2.3,0,0,1024,1024,1684,1024,201.7,0,98,4.101,4.105,4.09,4.099,0,0,17.27,76.91,6,P-GPS,
0.376747875118703,36.9245243054024,5480.85836502,143.044624,0,1.28810043492,15200,2018-04-02 06:27:07,17,0,16.29,5480.85836502,143.044624,0.447388,1.7325459872,0,0,-11.1847,201.1, -4.8, -2.4,0,0,1024,1024,1684,1024,201.7,0,98,4.101,4.105,4.09,4.099,0,0,17.27,76.91,6,P-GPS,
0.376747886961562,36.9245242853073,5482.49878502,144.685044,0,1.29235896524,15300,2018-04-02 06:27:07,17,0,16.263,5482.49878502,144.685044,0.447388,1.7325459872,0,0,-11.1847,201.1, -4.8, -2.6,0,0,1024,1024,1684,1024,201.7,0,98,4.098,4.104,4.09,4.101,0,0,17.156,76.91,6,P-GPS,
0.376747887318802,36.9245242746375,5484.13920502,146.325464,0,1.2924705138,15400,2018-04-02 06:27:07,17,0,16.263,5484.13920502,146.325464,0.447388,1.7325459872,0,0,-11.1847,201.1, -5.2, -2.5,0,0,1024,1024,1684,1024,201.7,0,98,4.098,4.104,4.09,4.101,0,0,17.156,76.91,6,P-GPS,
0.376747879469905,36.9245242763071,5485.77962502,147.965884,0,1.28960962132,15500,2018-04-02 06:27:07,17,0,16.263,5485.77962502,147.965884,0.447388,1.7325459872,0,0,-10.961006,201.1, -5.1, -2.6,0,0,1024,1024,1684,1024,201.7,0,98,4.098,4.104,4.09,4.101,0,0,17.156,76.91,6,P-GPS,
0.376747856769803,36.9245242773761,5487.42004502,149.606304,0,1.28132878116,15600,2018-04-02 06:27:07,17,0,16.263,5487.42004502,149.606304,0.447388,1.7325459872,0,0,-10.961006,201.2, -4.9, -2.5,0,0,1024,1024,1684,1024,201.7,0,98,4.098,4.104,4.09,4.101,0,0,17.156,76.91,6,P-GPS,
0.37674781648047,36.9245242849401,5489.38854902,151.574808,0,1.26664046048,15700,2018-04-02 06:27:07,17,0,16.263,5489.38854902,151.574808,0.447388,1.7325459872,0,0,-10.961006,201.1, -4.8, -2.5,0,0,1024,1024,1684,1024,201.7,0,98,4.098,4.104,4.09,4.101,0,0,17.156,76.91,6,P-GPS,
0.376747780016963,36.9245242941523,5491.02896902,153.215228,0,1.253362901,15800,2018-04-02 06:27:07,17,0,16.263,5491.02896902,153.215228,0.447388,1.7325459872,0,0,-10.961006,201.2, -5.3, -2.3,0,0,1024,1024,1684,1024,201.6,0,98,4.098,4.104,4.09,4.101,0,0,17.156,76.91,6,P-GPS,
0.376747725753748,36.9245243051053,5492.66938902,154.855648,0,1.23360896336,15900,2018-04-02 06:27:07,17,0,16.263,5492.66938902,154.855648,0.447388,1.7325459872,0,0,-11.1847,201.1, -5.1, -2.2,0,0,1024,1024,1684,1024,201.6,0,98,4.098,4.104,4.09,4.101,0,0,17.156,76.91,6,P-GPS,
0.376747672729169,36.9245243079012,5494.30980902,156.496068,0,1.21427497324,16000,2018-04-02 06:27:07,17,0,16.263,5494.30980902,156.496068,0.447388,1.7325459872,0,0,-11.1847,201.1, -5, -2.3,0,0,1024,1024,1684,1024,201.6,0,98,4.098,4.104,4.09,4.101,0,0,17.156,76.91,6,P-GPS,
0.37674761514515,36.9245243490126,5495.95022902,158.136488,0,1.19356303032,16100,2018-04-02 06:27:07,17,0,16.263,5495.95022902,158.136488,0.447388,1.7325459872,0,0,-11.1847,201.1, -5, -2.3,0,0,1024,1024,1684,1024,201.6,0,98,4.098,4.104,4.09,4.101,0,0,17.156,76.91,6,P-GPS,
0.376747564183403,36.9245243811405,5497.91873302,160.104992,0,1.17534124496,16200,2018-04-02 06:27:08,17,0,16.263,5497.91873302,160.104992,0.447388,1.7325459872,0,0,-10.961006,201.1, -5.1, -2.2,0,0,1024,1024,1684,1024,201.6,0,98,4.098,4.104,4.09,4.101,0,0,17.156,76.91,6,P-GPS,
0.376747513859801,36.9245244028811,5499.55915302,161.745412,0,1.15731302916,16300,2018-04-02 06:27:08,17,0,16.263,5499.55915302,161.745412,0.447388,1.7325459872,0,0,-10.961006,201.2, -5.3, -2.2,0,0,1024,1024,1684,1024,201.6,0,98,4.098,4.104,4.09,4.101,0,0,17.156,76.91,6,P-GPS,
0.376747466251834,36.9245244142977,5501.19957302,163.385832,0,1.14015095512,16400,2018-04-02 06:27:08,17,0,16.263,5501.19957302,163.385832,0.447388,1.7325459872,0,0,-10.961006,201.2, -5.3, -2,0,0,1024,1024,1684,1024,201.6,0,98,4.098,4.104,4.09,4.101,0,0,17.156,76.91,6,P-GPS,
0.376747432517802,36.9245244652968,5504.48041302,166.666672,0,1.12891407812,16600,2018-04-02 06:27:08,17,0,16.263,5504.48041302,166.666672,0.447388,1.7325459872,0,0,-10.961006,201.2, -5.2, -2.6,0,0,1024,1024,1684,1024,201.6,0,98,4.098,4.104,4.09,4.101,0,0,17.156,76.91,6,P-GPS,
0.376747393021725,36.924524477389,5506.12083302,168.307092,0,1.11483271284,16700,2018-04-02 06:27:08,17,0,16.263,5506.12083302,168.307092,0.447388,1.7325459872,0,0,-10.961006,201.2, -5.3, -2.3,0,0,1024,1024,1684,1024,201.6,0,98,4.098,4.104,4.09,4.101,0,0,17.156,76.91,6,P-GPS,
0.376747346140247,36.924524490161,5508.08933702,170.275596,0,1.09811027136,16800,2018-04-02 06:27:08,17,0,16.263,5508.08933702,170.275596,0.447388,1.7325459872,0,0,-10.961006,201.2, -5, -2,0,0,1024,1024,1684,1024,201.6,0,98,4.098,4.104,4.09,4.101,0,0,17.156,76.91,6,P-GPS,
0.376747295834152,36.9245245351229,5509.72975702,171.916016,0,1.0811844178,16900,2018-04-02 06:27:08,17,0,16.263,5509.72975702,171.916016,0.447388,1.7325459872,0,0,-10.961006,201.1, -4.9, -2.4,0,0,1024,1024,1684,1024,201.6,0,98,4.098,4.104,4.09,4.101,0,0,17.156,76.91,6,P-GPS,
0.376747242099978,36.9245246583432,5513.01059702,175.196856,0,1.06678481104,17100,2018-04-02 06:27:08,17,0,16.263,5513.01059702,175.196856,0.447388,1.7325459872,0,0,-10.961006,201.1, -5, -2,0,0,1024,1024,1684,1024,201.6,0,98,4.098,4.104,4.09,4.101,0,0,17.156,76.91,6,P-GPS,
0.376747215336705,36.9245247381539,5514.65101702,176.837276,0,1.06146328856,17200,2018-04-02 06:27:09,17,0,16.263,5514.65101702,176.837276,0.447388,1.7325459872,0,0,-10.961006,201.1, -5, -1.1,0,0,1024,1024,1684,1024,201.5,0,98,4.098,4.104,4.09,4.101,0,0,17.156,76.91,6,P-GPS,
0.376747190190883,36.9245248274075,5516.29143702,178.477696,0,1.05824806536,17300,2018-04-02 06:27:09,17,0,16.263,5516.29143702,178.477696,0.447388,1.7325459872,0,0,-11.1847,201.2, -5.1, -1,0,0,1024,1024,1684,1024,201.5,0,98,4.098,4.104,4.09,4.101,0,0,17.156,76.91,6,P-GPS,
0.376747179429515,36.9245248828696,5518.25994102,180.4462,0,1.05852365592,17400,2018-04-02 06:27:09,17,0,16.263,5518.25994102,180.4462,0.447388,1.7325459872,0,0,-10.961006,201.2, -5.3, -1.4,0,0,1024,1024,1684,1024,201.5,0,98,4.098,4.104,4.09,4.101,0,0,17.156,76.91,6,P-GPS,
0.376747211070385,36.9245249224414,5519.90036102,182.08662,0,1.07294294772,17500,2018-04-02 06:27:09,17,0,16.263,5519.90036102,182.08662,0.447388,1.7325459872,0,0,-11.1847,201.2, -5.6, -1.6,0,0,1024,1024,1684,1024,201.5,0,98,4.098,4.104,4.09,4.101,0,0,17.156,76.91,6,P-GPS,
0.376747232862019,36.9245249407938,5521.54078102,183.72704,0,1.0822014782,17600,2018-04-02 06:27:09,17,0,16.263,5521.54078102,183.72704,0.447388,1.7325459872,0,0,-10.961006,201.2, -5.6, -1.9,0,0,1024,1024,1684,1024,201.5,0,98,4.098,4.104,4.09,4.101,0,0,17.156,76.91,6,P-GPS,
0.376747261984908,36.924524968235,5523.18120102,185.36746,0,1.09485567808,17700,2018-04-02 06:27:09,17,0,16.263,5523.18120102,185.36746,0.447388,1.7325459872,0,0,-11.1847,201.2, -5.7, -2,0,0,1024,1024,1684,1024,201.5,0,98,4.098,4.104,4.09,4.101,0,0,17.156,76.91,6,P-GPS,
0.376747276218526,36.924524983323,5524.82162102,187.00788,0,1.10120082264,17800,2018-04-02 06:27:09,17,0,16.263,5524.82162102,187.00788,0.447388,1.7325459872,0,0,-11.1847,201.2, -5.8, -1.9,0,0,1024,1024,1684,1024,201.5,0,98,4.098,4.104,4.09,4.101,0,0,17.156,76.91,6,P-GPS,
0.376747280500927,36.9245249803314,5526.79012502,188.976384,0,1.1024606652,17900,2018-04-02 06:27:09,17,0,16.263,5526.79012502,188.976384,0.447388,1.7325459872,0,0,-11.1847,201.2, -5.6, -2,0,0,1024,1024,1684,1024,201.5,0,98,4.098,4.104,4.09,4.101,0,0,17.156,76.91,6,P-GPS,
0.376747277519653,36.9245249710338,5528.43054502,190.616804,0,1.10060370976,18000,2018-04-02 06:27:09,17,0,16.263,5528.43054502,190.616804,0.447388,1.7325459872,0,0,-10.961006,201.2, -5.7, -1.9,0,0,1024,1024,1684,1024,201.5,0,98,4.098,4.104,4.09,4.101,0,0,17.156,76.91,6,P-GPS,
0.37674727445716,36.9245249970053,5530.07096502,192.257224,0,1.10177825048,18100,2018-04-02 06:27:09,17,0,16.263,5530.07096502,192.257224,0.447388,1.7325459872,0,0,-11.1847,201.2, -5.8, -1.7,0,0,1024,1024,1684,1024,201.5,0,98,4.098,4.104,4.09,4.101,0,0,17.156,76.91,6,P-GPS,
0.376747268494409,36.924524999256,5531.71138502,193.897644,0,1.0998688016,18200,2018-04-02 06:27:10,17,0,16.263,5531.71138502,193.897644,0.447388,1.7325459872,0,0,-10.961006,201.2, -5.8, -2,0,0,1024,1024,1684,1024,201.5,0,98,4.098,4.104,4.09,4.101,0,0,17.156,76.91,6,P-GPS,
0.376747308580187,36.9245249942056,5533.35180502,195.538064,0,1.1136155212,18300,2018-04-02 06:27:10,17,0,16.263,5533.35180502,195.538064,0.447388,1.7325459872,0,0,-10.961006,201.2, -5.8, -2.7,0,0,1024,1024,1684,1024,201.5,0,97,4.091,4.097,4.08,4.088,0,0,16.796,76.91,6,P-GPS,
0.37674732126434,36.9245249889713,5535.32030902,197.506568,0,1.11765751608,18400,2018-04-02 06:27:10,17,0,16.263,5535.32030902,197.506568,0.447388,1.7325459872,0,0,-11.1847,201.2, -5.6, -2.3,0,0,1024,1024,1684,1024,201.5,0,97,4.091,4.097,4.08,4.088,0,0,16.796,76.91,6,P-GPS,
0.376747326482689,36.9245250448892,5536.96072902,199.146988,0,1.12449806748,18500,2018-04-02 06:27:10,17,0,16.263,5536.96072902,199.146988,0.447388,1.7325459872,0,0,-11.1847,201.2, -5.8, -1.8,0,0,1024,1024,1684,1024,201.5,0,97,4.091,4.097,4.08,4.088,0,0,16.796,76.91,6,P-GPS,
0.376747323533984,36.9245250724768,5538.60114902,200.787408,0,1.12605318564,18600,2018-04-02 06:27:10,17,0,16.263,5538.60114902,200.787408,0.447388,1.7325459872,0,0,-11.1847,201.1, -5.8, -1.7,0,0,1024,1024,1684,1024,201.5,0,97,4.091,4.097,4.08,4.088,0,0,16.796,76.91,6,P-GPS,
0.376747321162766,36.9245250963504,5540.24156902,202.427828,0,1.12752956364,18700,2018-04-02 06:27:10,17,0,16.263,5540.24156902,202.427828,0.447388,1.7325459872,0,0,-10.961006,201.2, -5.7, -1.9,0,0,1024,1024,1684,1024,201.5,0,97,4.091,4.097,4.08,4.088,0,0,16.796,76.91,6,P-GPS,
0.376747307322824,36.924525097115,5542.21007302,204.396332,0,1.12274281808,18800,2018-04-02 06:27:10,17,0,16.263,5542.21007302,204.396332,0.447388,1.7325459872,0,0,-11.1847,201.2, -5.7, -2,0,0,1024,1024,1684,1024,201.5,0,97,4.091,4.097,4.08,4.088,0,0,16.796,76.91,6,P-GPS,
0.376747341896726,36.9245250918484,5543.85049302,206.036752,0,1.13437995756,18900,2018-04-02 06:27:10,17,0,16.263,5543.85049302,206.036752,0.447388,1.7325459872,0,0,-10.961006,201.2, -5.7, -2,0,0,1024,1024,1684,1024,201.5,0,97,4.091,4.097,4.08,4.088,0,0,16.796,76.91,6,P-GPS,
0.376747353018388,36.924525069028,5545.49091302,207.677172,0,1.13611224108,19000,2018-04-02 06:27:10,17,0,16.263,5545.49091302,207.677172,0.447388,1.7325459872,0,0,-10.961006,201.2, -5.7, -2.1,0,0,1024,1024,1684,1024,201.5,0,97,4.091,4.097,4.08,4.088,0,0,16.796,76.91,6,P-GPS,
0.376747367366404,36.9245250952206,5547.13133302,209.317592,0,1.14366473476,19100,2018-04-02 06:27:10,17,0,16.263,5547.13133302,209.317592,0.447388,1.7325459872,0,0,-10.961006,201.2, -5.5, -2.5,0,0,1024,1024,1684,1024,201.5,0,97,4.091,4.097,4.08,4.088,0,0,16.796,76.91,6,P-GPS,
0.376747350313746,36.9245251120596,5548.77175302,210.958012,0,1.1393209026,19200,2018-04-02 06:27:11,17,0,16.263,5548.77175302,210.958012,0.447388,1.7325459872,0,0,-10.961006,201.2, -5.1, -2,0,0,1024,1024,1684,1024,201.4,0,97,4.091,4.097,4.08,4.088,0,0,16.796,76.91,6,P-GPS,
0.376747337178513,36.924525156809,5550.41217302,212.598432,0,1.13926512832,19300,2018-04-02 06:27:11,17,0,16.236,5550.41217302,212.598432,0.447388,1.7325459872,0,0,-10.961006,201.1, -4.9, -1.6,0,0,1024,1024,1684,1024,201.4,0,97,4.091,4.097,4.08,4.088,0,0,17.294,76.91,6,P-GPS,
0.376747319223493,36.9245251828589,5552.38067702,214.566936,0,1.13575791036,19400,2018-04-02 06:27:11,17,0,16.236,5552.38067702,214.566936,0.447388,1.7325459872,0,0,-11.1847,201.2, -5.1, -1.8,0,0,1024,1024,1684,1024,201.4,0,97,4.091,4.097,4.08,4.088,0,0,17.294,76.91,6,P-GPS,
0.376747330205312,36.9245252139169,5554.02109702,216.207356,0,1.14296919668,19500,2018-04-02 06:27:11,17,0,16.236,5554.02109702,216.207356,0.447388,1.7325459872,0,0,-10.961006,201.1, -5.4, -2.1,0,0,1024,1024,1684,1024,201.4,0,97,4.091,4.097,4.08,4.088,0,0,17.294,76.91,6,P-GPS,
0.376747321048775,36.9245252381154,5555.66151702,217.847776,0,1.14250003656,19600,2018-04-02 06:27:11,17,0,16.236,5555.66151702,217.847776,0.447388,1.7325459872,0,0,-10.961006,201.1, -5.6, -1.5,0,0,1024,1024,1684,1024,201.4,0,97,4.091,4.097,4.08,4.088,0,0,17.294,76.91,6,P-GPS,
0.376747286395283,36.9245252983321,5557.30193702,219.488196,0,1.13758533824,19700,2018-04-02 06:27:11,17,0,16.236,5557.30193702,219.488196,0.447388,1.7325459872,0,0,-11.1847,201.1, -5.6, -1,0,0,1024,1024,1684,1024,201.4,0,97,4.091,4.097,4.08,4.088,0,0,17.294,76.91,6,P-GPS,
0.37674723688224,36.9245253210748,5558.94235702,221.128616,0,1.12337930104,19800,2018-04-02 06:27:11,17,0,16.236,5558.94235702,221.128616,0.447388,1.7325459872,0,0,-11.1847,201.1, -5.7, -0.8,0,0,1024,1024,1684,1024,201.4,0,97,4.091,4.097,4.08,4.088,0,0,17.294,76.91,6,P-GPS,
0.37674720795049,36.9245253058824,5560.58277702,222.769036,0,1.1115649962,19900,2018-04-02 06:27:11,17,0,16.236,5560.58277702,222.769036,0.447388,1.7325459872,0,0,-11.1847,201.1, -5.3, -1.9,0,0,1024,1024,1684,1024,201.4,0,97,4.091,4.097,4.08,4.088,0,0,17.294,76.91,6,P-GPS,
0.376747160576001,36.924525281443,5562.55128102,224.73754,0,1.09227693784,20000,2018-04-02 06:27:11,17,0,16.236,5562.55128102,224.73754,0.447388,1.7325459872,0,0,-10.961006,201.1, -5, -1.8,0,0,1024,1024,1684,1024,201.4,0,97,4.091,4.097,4.08,4.088,0,0,17.294,76.91,6,P-GPS,
0.376747138441986,36.9245252739749,5564.19170102,226.37796,0,1.08375659636,20100,2018-04-02 06:27:11,17,0,16.236,5564.19170102,226.37796,0.447388,1.7325459872,0,0,-10.961006,201.1, -5.1, -1.2,0,0,1024,1024,1684,1024,201.4,0,97,4.091,4.097,4.08,4.088,0,0,17.294,76.91,6,P-GPS,
0.376747093228442,36.9245252507908,5565.83212102,228.01838,0,1.06536748816,20200,2018-04-02 06:27:12,17,0,16.236,5565.83212102,228.01838,0.447388,1.7325459872,0,0,-10.961006,201.1, -5.1, -1.2,0,0,1024,1024,1684,1024,201.4,0,97,4.091,4.097,4.08,4.088,0,0,17.294,76.91,6,P-GPS,
0.376747041601475,36.9245252348275,5567.47254102,229.6588,0.223694,1.04567260564,20300,2018-04-02 06:27:12,17,0,16.317,5567.47254102,229.6588,0.447388,1.7325459872,-0.223694,0,-10.961006,201.1, -4.9, -1.3,0,0,1024,1024,1684,1024,201.4,0,97,4.085,4.091,4.076,4.083,0,0,17.294,76.91,6,P-GPS,
0.376746963583741,36.9245251956288,5569.11296102,231.29922,0.223694,1.01405515056,20400,2018-04-02 06:27:12,17,0,16.317,5569.11296102,231.29922,0.447388,1.7325459872,-0.223694,0,-10.961006,201.1, -4.2, -1.8,0,0,1024,1024,1684,1024,201.4,0,97,4.085,4.091,4.076,4.083,0,0,17.294,76.91,6,P-GPS,
0.376746800746873,36.9245251066388,5572.39380102,234.58006,0.223694,0.947260529,20600,2018-04-02 06:27:12,17,0,16.317,5572.39380102,234.58006,0.447388,1.7325459872,-0.223694,0,-10.961006,201, -3.5, -1.4,0,0,1024,1024,1684,1024,201.4,0,97,4.085,4.091,4.076,4.083,0,0,17.294,76.91,6,P-GPS,
0.376746746772911,36.9245251268773,5574.03422102,236.22048,0.223694,0.93112207704,20700,2018-04-02 06:27:12,17,0,16.317,5574.03422102,236.22048,0.447388,1.7325459872,-0.223694,0,-10.961006,201.1, -4, -0.7,0,0,1024,1024,1684,1024,201.4,0,97,4.085,4.091,4.076,4.083,0,0,17.294,76.91,6,P-GPS,
0.376746679148619,36.92452512209,5575.67464102,237.8609,0.223694,0.90733598704,20800,2018-04-02 06:27:12,17,0,16.317,5575.67464102,237.8609,0.447388,1.7325459872,-0.223694,0,-10.961006,201.1, -4, -0.7,0,0,1024,1024,1684,1024,201.4,0,97,4.085,4.091,4.076,4.083,0,0,17.294,76.91,6,P-GPS,
0.376746607493419,36.9245251314291,5577.64314502,239.829404,0.223694,0.88405842724,20900,2018-04-02 06:27:12,17,0,16.317,5577.64314502,239.829404,0.447388,1.7325459872,-0.223694,0,-10.961006,201.1, -3.5, -0.8,0,0,1024,1024,1684,1024,201.4,0,97,4.085,4.091,4.076,4.083,0,0,17.294,76.91,6,P-GPS,
0.376746533507305,36.9245251197095,5579.28356502,241.469824,0,0.85733926628,21000,2018-04-02 06:27:12,17,0,16.317,5579.28356502,241.469824,0.447388,1.7325459872,0,0,-11.1847,201.1, -3.3, -0.9,0,0,1024,1024,1684,1024,201.4,0,97,4.085,4.091,4.076,4.083,0,0,17.294,76.91,6,P-GPS,
0.376746484390482,36.9245251131072,5582.56440502,244.750664,0,0.83978349144,21200,2018-04-02 06:27:13,17,0,16.317,5582.56440502,244.750664,0.447388,1.7325459872,0,0,-11.1847,201.1, -3.9, -0.9,0,0,1024,1024,1684,1024,201.4,0,97,4.085,4.091,4.076,4.083,0,0,17.294,76.91,6,P-GPS,
0.376746491263839,36.924525077884,5584.20482502,246.391084,0,0.83747378008,21300,2018-04-02 06:27:13,17,0,16.209,5584.20482502,246.391084,0.447388,1.7325459872,0,0,-11.1847,201.2, -4.1, -1,0,0,1024,1024,1684,1024,201.4,0,97,4.082,4.087,4.073,4.081,0,0,17.388,76.91,6,P-GPS,
0.376746489553973,36.9245250317521,5585.84524502,248.031504,0,0.8310695804,21400,2018-04-02 06:27:13,17,0,16.209,5585.84524502,248.031504,0.447388,1.7325459872,0,0,-11.1847,201.1, -4.6, -1.4,0,0,1024,1024,1684,1024,201.4,0,97,4.082,4.087,4.073,4.081,0,0,17.388,76.91,6,P-GPS,
0.376746529435991,36.9245249820987,5589.45416902,251.640428,0,0.83895671976,21600,2018-04-02 06:27:13,17,0,16.209,5589.45416902,251.640428,0.447388,1.7325459872,0,0,-11.1847,201.1, -4.3, -1.6,0,0,1024,1024,1684,1024,201.4,0,97,4.082,4.087,4.073,4.081,0,0,17.388,76.91,6,P-GPS,
0.376746548873811,36.9245249997506,5591.09458902,253.280848,0,0.84771328172,21700,2018-04-02 06:27:13,17,0,16.209,5591.09458902,253.280848,0.447388,1.7325459872,0,0,-11.1847,201.1, -4.3, -1.2,0,0,1024,1024,1684,1024,201.4,0,97,4.082,4.087,4.073,4.081,0,0,17.388,76.91,6,P-GPS,
0.376746554418358,36.9245249916656,5592.73500902,254.921268,0,0.8487040954,21800,2018-04-02 06:27:13,17,0,16.209,5592.73500902,254.921268,0.447388,1.7325459872,0,0,-11.1847,201.1, -4.4, -1.6,0,0,1024,1024,1684,1024,201.4,0,97,4.082,4.087,4.073,4.081,0,0,17.388,76.91,6,P-GPS,
0.376746535493803,36.924525012543,5594.37542902,256.561688,0,0.84458007952,21900,2018-04-02 06:27:13,17,0,16.209,5594.37542902,256.561688,0.447388,1.7325459872,0,0,-11.1847,201.2, -4.1, -1.7,0,0,1024,1024,1684,1024,201.4,0,97,4.082,4.087,4.073,4.081,0,0,17.388,76.91,6,P-GPS,
0.376746514028469,36.9245250263594,5596.01584902,258.202108,0,0.838828767,22000,2018-04-02 06:27:13,17,0,16.209,5596.01584902,258.202108,0.447388,1.7325459872,0,0,-11.1847,201.2, -4.3, -1.3,0,0,1024,1024,1684,1024,201.4,0,97,4.082,4.087,4.073,4.081,0,0,17.388,76.91,6,P-GPS,
0.376746514193959,36.924525062099,5597.98435302,260.170612,0,0.84329727108,22100,2018-04-02 06:27:13,17,0,16.209,5597.98435302,260.170612,0.447388,1.7325459872,0,0,-11.1847,201.2, -4.5, -1.2,0,0,1024,1024,1684,1024,201.4,0,97,4.082,4.087,4.073,4.081,0,0,17.388,76.91,6,P-GPS,
0.376746516746647,36.9245250905128,5599.62477302,261.811032,0,0.8478018644,22200,2018-04-02 06:27:14,17,0,16.209,5599.62477302,261.811032,0.447388,1.7325459872,0,0,-11.1847,201.2, -4.6, -1.3,0,0,1024,1024,1684,1024,201.4,0,97,4.082,4.087,4.073,4.081,0,0,17.388,76.91,6,P-GPS,
0.376746512830036,36.9245251000063,5601.26519302,263.451452,0,0.84770672004,22300,2018-04-02 06:27:14,17,0,16.29,5601.26519302,263.451452,0.447388,1.7325459872,0,0,-11.1847,201.2, -4.4, -1,0,0,1024,1024,1684,1024,201.4,0,97,4.081,4.087,4.073,4.082,0,0,17.202,76.91,6,P-GPS,
0.376746562694314,36.9245251094741,5604.54603302,266.732292,0,0.8659285054,22500,2018-04-02 06:27:14,17,0,16.29,5604.54603302,266.732292,0.447388,1.7325459872,0,0,-11.1847,201.2, -5, -1.7,0,0,1024,1024,1684,1024,201.4,0,97,4.081,4.087,4.073,4.082,0,0,17.202,76.91,6,P-GPS,
0.376746579578225,36.9245251118118,5606.18645302,268.372712,0,0.87199149772,22600,2018-04-02 06:27:14,17,0,16.29,5606.18645302,268.372712,0.447388,1.7325459872,0,0,-11.1847,201.2, -5.3, -1.6,0,0,1024,1024,1684,1024,201.4,0,97,4.081,4.087,4.073,4.082,0,0,17.202,76.91,6,P-GPS,
0.376746570276451,36.9245251692266,5608.15495702,270.341216,0,0.8764928102,22700,2018-04-02 06:27:14,17,0,16.29,5608.15495702,270.341216,0.447388,1.7325459872,0,0,-10.961006,201.2, -4.8, -1.3,0,0,1024,1024,1684,1024,201.4,0,97,4.081,4.087,4.073,4.082,0,0,17.202,76.91,6,P-GPS,
0.376746521409289,36.9245252130516,5609.79537702,271.981636,0,0.86626643192,22800,2018-04-02 06:27:14,17,0,16.29,5609.79537702,271.981636,0.447388,1.7325459872,0,0,-11.1847,201.1, -4.3, -0.7,0,0,1024,1024,1684,1024,201.4,0,97,4.081,4.087,4.073,4.082,0,0,17.202,76.91,6,P-GPS,
0.376746440830623,36.9245252564423,5611.43579702,273.622056,0,0.846046615,22900,2018-04-02 06:27:14,17,0,16.29,5611.43579702,273.622056,0.447388,1.7325459872,0,0,-11.1847,201.1, -3.9, -0.4,0,0,1024,1024,1684,1024,201.4,0,97,4.081,4.087,4.073,4.082,0,0,17.202,76.91,6,P-GPS,
0.376746361598274,36.9245252772791,5613.07621702,275.262476,0,0.82339569564,23000,2018-04-02 06:27:14,17,0,16.29,5613.07621702,275.262476,0.447388,1.7325459872,0,0,-10.961006,201.1, -3.7, -0.3,0,0,1024,1024,1684,1024,201.4,0,97,4.081,4.087,4.073,4.082,0,0,17.202,76.91,6,P-GPS,
0.376746302378483,36.92452532065,5614.71663702,276.902896,0,0.81153873988,23100,2018-04-02 06:27:14,17,0,16.29,5614.71663702,276.902896,0.447388,1.7325459872,0,0,-10.961006,201.1, -3.8, -0.5,0,0,1024,1024,1684,1024,201.4,0,97,4.081,4.087,4.073,4.082,0,0,17.202,76.91,6,P-GPS,
0.376746243737197,36.9245253447886,5616.35705702,278.543316,0,0.79709320136,23200,2018-04-02 06:27:15,17,0,16.29,5616.35705702,278.543316,0.447388,1.7325459872,0,0,-10.961006,201.1, -3.8, -0.5,0,0,1024,1024,1510,1024,201.4,0,97,4.081,4.087,4.073,4.082,0,0,17.202,76.91,6,P-GPS,
0.376746207854535,36.9245253598865,5617.99747702,280.183736,0,0.78852036644,23300,2018-04-02 06:27:15,17,0,16.236,5617.99747702,280.183736,0.447388,1.7325459872,0,0,-10.961006,201.1, -4.2, -0.4,0,0,1024,1024,1034,1024,201.4,0,97,4.081,4.087,4.073,4.082,0,0,16.69,76.91,6,P-GPS,
0.376746163943441,36.9245253603009,5619.63789702,281.824156,0,0.77482942112,23400,2018-04-02 06:27:15,17,0,16.236,5619.63789702,281.824156,0.447388,1.7325459872,0,0,-10.961006,201.1, -4.3, -0.4,0,0,1024,1024,1024,1024,201.4,0,97,4.081,4.087,4.073,4.082,0,0,16.69,76.91,6,P-GPS,
0.376746170154937,36.9245253887246,5621.27831702,283.464576,0,0.78216209852,23500,2018-04-02 06:27:15,17,0,16.236,5621.27831702,283.464576,0.447388,1.7325459872,0,0,-10.289924,201.2, -5.9, -1,0,0,1024,1024,1024,1024,201.3,0,97,4.081,4.087,4.073,4.082,0,0,16.69,76.91,6,P-GPS,
0.376746163858253,36.9245253971274,5622.91873702,285.104996,0,0.78182089116,23600,2018-04-02 06:27:15,17,0,16.236,5622.91873702,285.104996,0.447388,1.7325459872,0,0,-8.94776,201.2, -6.7, -0.9,0,0,1024,1024,1024,1024,201.4,0,97,4.081,4.087,4.073,4.082,0,0,16.69,76.91,6,P-GPS,
0.376746141111435,36.9245253967077,5624.23107302,286.417332,0,0.77470803004,23700,2018-04-02 06:27:15,17,0,16.236,5624.23107302,286.417332,0.447388,1.7325459872,0,0,-7.605596,201.2, -5.4, -0.8,0,0,1024,1024,1024,1024,201.3,0,97,4.081,4.087,4.073,4.082,0,0,16.69,76.91,6,P-GPS,
