latitude,longitude,altitude(feet),ascent(feet),speed(mph),distance(feet),time(millisecond),datetime(utc),satellites,gpslevel,voltage(v),max_altitude(feet),max_ascent(feet),max_speed(mph),max_distance(feet), xSpeed(mph), ySpeed(mph), zSpeed(mph), compass_heading(degrees), pitch(degrees), roll(degrees),isPhoto,isVideo,rc_elevator,rc_aileron,rc_throttle,rc_rudder,gimbal_heading(degrees),gimbal_pitch(degrees),battery_percent,voltageCell1,voltageCell2,voltageCell3,voltageCell4,voltageCell5,voltageCell6,current(A),battery_temperature(f),flycStateRaw,flycState,message
0.347650901343863,36.8999728501534,5712.9612946914,0,0,0,0,2018-04-04 12:31:01,15,0,17.146,5712.9612946914,0,0,0,0,0,0,142.6, -1.8, 7,0,0,409,364,364,1684,147.4,0,99,4.296,4.297,4.297,4.294,0,0,1.54,85.91,41,Motors_Started,Setting new Return-To-Home altitude to 30m (98 ft). Setting new Maximum Flight Altitude to 150m (492 ft)
0.347650902642955,36.8999728707138,5712.9612946914,0,0,0.0075162732064,100,2018-04-04 12:31:01,15,0,17.146,5712.9612946914,0,0,0.0075162732064,0,0,0,142.6, -1.8, 7,0,0,395,364,364,1684,147.4,0,99,4.296,4.297,4.297,4.294,0,0,1.54,85.91,41,Motors_Started,
0.347650904012883,36.899972880736,5712.9612946914,0,0,0.0112002628256,200,2018-04-04 12:31:01,15,0,17.146,5712.9612946914,0,0,0.0112002628256,0,0,0,142.6, -1.8, 7,0,0,364,364,364,1684,147.4,0,99,4.296,4.297,4.297,4.294,0,0,1.54,85.91,41,Motors_Started,
0.34765090615103,36.8999728749103,5712.9612946914,0,0,0.00920111578,300,2018-04-04 12:31:01,15,0,17.146,5712.9612946914,0,0,0.0112002628256,0,0,0,142.6, -1.8, 7,0,0,364,364,364,1684,147.4,0,99,4.296,4.297,4.297,4.294,0,0,1.54,85.91,41,Motors_Started,
0.347650907696627,36.8999728530428,5712.9612946914,0,0,0.00254628288988,400,2018-04-04 12:31:01,15,0,17.146,5712.9612946914,0,0,0.0112002628256,0,0,0,142.6, -1.8, 7,0,0,364,364,364,1683,147.4,0,99,4.296,4.297,4.297,4.294,0,0,1.54,85.91,41,Motors_Started,
0.347650908755319,36.8999728500181,5712.9612946914,0,0,0.00270451452224,500,2018-04-04 12:31:01,15,0,17.146,5712.9612946914,0,0,0.0112002628256,0,0,0,142.6, -1.9, 7,0,0,364,364,364,1683,147.4,0,99,4.296,4.297,4.297,4.294,0,0,1.54,85.91,41,Motors_Started,
0.347650908849972,36.8999728669093,5712.9612946914,0,0,0.0066986878784,600,2018-04-04 12:31:01,15,0,17.146,5712.9612946914,0,0,0.0112002628256,0,0,0,142.6, -1.9, 7,0,0,559,528,364,1648,147.4,0,99,4.296,4.297,4.297,4.294,0,0,1.54,85.91,41,Motors_Started,
0.347650908013156,36.8999728690038,5712.9612946914,0,0,0.0072952102072,700,2018-04-04 12:31:01,15,0,17.146,5712.9612946914,0,0,0.0112002628256,0,0,0,142.6, -1.9, 7,0,0,559,528,364,1648,147.4,0,99,4.296,4.297,4.297,4.294,0,0,1.54,85.91,41,Motors_Started,
0.347650906225938,36.8999728517224,5712.9612946914,0,0,0.0018709482226,800,2018-04-04 12:31:01,15,0,17.146,5712.9612946914,0,0,0.0112002628256,0,0,0,142.6, -1.9, 7,0,0,952,781,862,1361,147.3,0,99,4.296,4.297,4.297,4.294,0,0,1.54,85.91,41,Motors_Started,
0.347650922588951,36.8999728337734,5712.9612946914,0,0,0.0097875331216,900,2018-04-04 12:31:01,15,0,17.146,5712.9612946914,0,0,0.0112002628256,0,0,0,142.6, -1.9, 7.1,0,0,952,781,862,1361,146.9,0,99,4.296,4.297,4.297,4.294,0,0,1.54,85.91,41,Motors_Started,
0.347650948890764,36.8999728241707,5712.9612946914,0,0,0.0197685701864,1000,2018-04-04 12:31:01,15,0,17.12,5712.9612946914,0,0,0.0197685701864,0,0,0,142.6, -1.8, 7.1,0,0,1024,995,1024,1226,146.3,0,99,4.295,4.293,4.293,4.29,0,0,1.892,85.91,41,Motors_Started,
0.347650959616714,36.8999728164996,5712.9612946914,0,0,0.0245515755888,1100,2018-04-04 12:31:02,15,0,17.12,5712.9612946914,0,0,0.0245515755888,0,0,0,142.6, -1.9, 7,0,0,1024,1024,1037,1088,145.6,0,99,4.295,4.293,4.293,4.29,0,0,1.892,85.91,41,Motors_Started,
0.34765094837068,36.8999728157903,5712.9612946914,0,0,0.0212500991052,1200,2018-04-04 12:31:02,15,0,17.12,5712.9612946914,0,0,0.0245515755888,0,0,0,142.6, -1.8, 7.1,0,0,1024,1024,1024,1024,144.8,0,99,4.295,4.293,4.293,4.29,0,0,1.892,85.91,41,Motors_Started,
0.347650932141403,36.8999728140213,5712.9612946914,0,0,0.0173215556724,1300,2018-04-04 12:31:02,15,0,17.12,5712.9612946914,0,0,0.0245515755888,0,0,0,142.6, -1.8, 7.1,0,0,1024,1024,1024,1024,144.3,0,99,4.295,4.293,4.293,4.29,0,0,1.892,85.91,41,Motors_Started,
0.347650922185707,36.8999728131324,5712.9612946914,0,0,0.0155002301548,1400,2018-04-04 12:31:02,15,0,17.12,5712.9612946914,0,0,0.0245515755888,0,0,0,142.6, -1.8, 7.2,0,0,1024,1024,1024,1024,144,0,99,4.295,4.293,4.293,4.29,0,0,1.892,85.91,41,Motors_Started,
0.347650911221801,36.8999728126261,5712.9612946914,0,0,0.0141579072772,1500,2018-04-04 12:31:02,15,0,17.12,5712.9612946914,0,0,0.0245515755888,0,0,0,142.6, -1.8, 7.2,0,0,1024,1024,1024,1024,143.8,0,99,4.295,4.293,4.293,4.29,0,0,1.892,85.91,10,Assisted_Takeoff,
0.347650908860964,36.8999728145349,5712.9612946914,0,0,0.0132813980628,1600,2018-04-04 12:31:02,15,0,17.12,5712.9612946914,0,0,0.0245515755888,0,0,0,142.6, -1.8, 7,0,0,1024,1024,1024,1024,143.7,0,99,4.295,4.293,4.293,4.29,0,0,1.892,85.91,10,Assisted_Takeoff,
0.347650902960908,36.8999727937285,5712.9612946914,0,0,0.02059465289,1700,2018-04-04 12:31:02,15,0,17.12,5712.9612946914,0,0,0.0245515755888,0,0,0,142.6, -1.8, 7,0,0,1024,1024,1024,1024,143.7,0,99,4.295,4.293,4.293,4.29,0,0,1.892,85.91,10,Assisted_Takeoff,
0.347650901928475,36.8999727662933,5712.9612946914,0,0,0.0305964904804,1800,2018-04-04 12:31:02,15,0,17.12,5712.9612946914,0,0,0.0305964904804,0,0,0,142.6, -1.8, 7,0,0,1024,1024,1024,1024,143.6,0,99,4.295,4.293,4.293,4.29,0,0,1.892,85.91,10,Assisted_Takeoff,
0.347650883462531,36.8999727364303,5712.9612946914,0,0,0.042000985596,1900,2018-04-04 12:31:02,15,0,17.12,5712.9612946914,0,0,0.042000985596,0,0,0,142.6, -1.8, 7,0,0,1024,1024,1024,1024,143.5,0,99,4.295,4.293,4.293,4.29,0,0,1.892,85.91,10,Assisted_Takeoff,
0.347650853743224,36.8999727176892,5712.9612946914,0,0,0.051354332352,2000,2018-04-04 12:31:02,15,0,17.066,5712.9612946914,0,0,0.051354332352,0,0,0,142.6, -1.8, 7,0,0,1024,1024,1024,1024,143.5,0,99,4.295,4.293,4.293,4.29,0,0,1.892,85.91,10,Assisted_Takeoff,
0.347650822767573,36.8999727010662,5712.9612946914,0,0,0.061485894356,2100,2018-04-04 12:31:03,15,0,17.066,5712.9612946914,0,0,0.061485894356,0,0,0,142.6, -1.8, 7,0,0,1024,1024,1024,1024,143.4,0,99,4.295,4.293,4.293,4.29,0,0,1.892,85.91,10,Assisted_Takeoff,
0.347650805282563,36.8999726907373,5712.9612946914,0,0,0.067905513984,2200,2018-04-04 12:31:03,15,0,17.066,5712.9612946914,0,0,0.067905513984,0,0,0,142.6, -1.8, 7,0,0,1024,1024,1024,1024,143.4,0,99,4.295,4.293,4.293,4.29,0,0,1.892,85.91,10,Assisted_Takeoff,
0.347650789872394,36.8999726668529,5712.9612946914,0,0,0.078271656048,2300,2018-04-04 12:31:03,15,0,17.066,5712.9612946914,0,0,0.078271656048,0,0,0,142.6, -1.8, 7,0,0,1024,1024,1024,1024,143.4,0,99,4.295,4.293,4.293,4.29,0,0,1.892,85.91,10,Assisted_Takeoff,
0.347650781157165,36.8999726341543,5712.9612946914,0,0,0.090184058004,2400,2018-04-04 12:31:03,15,0,17.066,5712.9612946914,0,0,0.090184058004,0,0,0,142.6, -1.8, 7,0,0,1024,1024,1024,1024,143.3,0,99,4.295,4.293,4.293,4.29,0,0,1.892,85.91,10,Assisted_Takeoff,
0.347650775101592,36.8999726025505,5712.9612946914,0,0,0.101400593796,2500,2018-04-04 12:31:03,15,0,17.066,5712.9612946914,0,0,0.101400593796,0,0,0,142.6, -1.8, 7,0,0,1024,1024,1024,1024,143.3,0,99,4.295,4.293,4.293,4.29,0,0,1.892,85.91,10,Assisted_Takeoff,
0.347650771080964,36.8999725842799,5712.9612946914,0,0,0.108019032328,2600,2018-04-04 12:31:03,15,0,17.066,5712.9612946914,0,0,0.108019032328,0,0,0,142.6, -1.8, 7,0,0,1024,1024,1024,1024,143.3,0,99,4.295,4.293,4.293,4.29,0,0,1.892,85.91,10,Assisted_Takeoff,
0.347650770528718,36.8999725539818,5712.9612946914,0,0,0.118127300368,2700,2018-04-04 12:31:03,15,0,17.066,5712.9612946914,0,0,0.118127300368,0,0,0,142.6, -1.8, 7,0,0,1024,1024,1024,1024,143.3,0,99,4.295,4.293,4.293,4.29,0,0,1.892,85.91,10,Assisted_Takeoff,
0.347650769349521,36.8999725173263,5712.9612946914,0,0,0.130630581608,2800,2018-04-04 12:31:03,15,0,17.066,5712.9612946914,0,0,0.130630581608,0,0,0,142.6, -1.8, 7,0,0,1024,1024,1024,1024,143.3,0,99,4.295,4.293,4.293,4.29,0,0,1.892,85.91,10,Assisted_Takeoff,
0.347650754497705,36.8999724846358,5712.9612946914,0,0,0.143716540032,2900,2018-04-04 12:31:03,15,0,17.066,5712.9612946914,0,0,0.143716540032,0,0,0,142.6, -1.8, 7,0,0,1024,1024,1024,1024,143.3,0,99,4.295,4.293,4.293,4.29,0,0,1.892,85.91,10,Assisted_Takeoff,
0.347650726733142,36.8999724664876,5712.9612946914,0,0,0.153792983924,3000,2018-04-04 12:31:03,15,0,17.066,5712.9612946914,0,0,0.153792983924,0,0,0,142.6, -1.8, 7,0,0,1024,1024,1024,1024,143.2,0,99,4.295,4.293,4.293,4.29,0,0,1.892,85.91,10,Assisted_Takeoff,
0.347650700894214,36.899972454362,5712.9612946914,0,0,0.161865490744,3100,2018-04-04 12:31:04,15,0,17.066,5712.9612946914,0,0,0.161865490744,0,0,0,142.6, -1.8, 7,0,0,1024,1024,1024,1024,143.2,0,99,4.295,4.293,4.293,4.29,0,0,1.892,85.91,10,Assisted_Takeoff,
0.347650686213995,36.8999724485694,5712.9612946914,0,0,0.166214572248,3200,2018-04-04 12:31:04,15,0,17.066,5712.9612946914,0,0,0.166214572248,0,0,0,142.6, -1.8, 7,0,0,1024,1024,1024,1024,143.2,0,99,4.295,4.293,4.293,4.29,0,0,1.892,85.91,10,Assisted_Takeoff,
0.347650674559424,36.8999724347534,5712.9612946914,0,0,0.172671265368,3300,2018-04-04 12:31:04,15,0,17.066,5712.9612946914,0,0,0.172671265368,0,0,0,142.6, -1.8, 7,0,0,1024,1024,1024,1024,143.2,0,99,4.295,4.293,4.293,4.29,0,0,1.892,85.91,10,Assisted_Takeoff,
0.347650668597894,36.8999724067075,5712.9612946914,0,0,0.182719165952,3400,2018-04-04 12:31:04,15,0,17.066,5712.9612946914,0,0,0.182719165952,0,0,0,142.6, -1.8, 7,0,0,1024,1024,1024,1024,143.2,0,99,4.295,4.293,4.293,4.29,0,0,1.892,85.91,10,Assisted_Takeoff,
0.34765066795588,36.8999723826886,5712.9612946914,0,0,0.190626318436,3500,2018-04-04 12:31:04,15,0,17.066,5712.9612946914,0,0,0.190626318436,0,0,0,142.6, -1.8, 7,0,0,1024,1024,1024,1024,143.2,0,99,4.295,4.293,4.293,4.29,0,0,1.892,85.91,10,Assisted_Takeoff,
0.347650668152311,36.8999723702698,5712.9612946914,0,0,0.194659455048,3600,2018-04-04 12:31:04,15,0,17.066,5712.9612946914,0,0,0.194659455048,0,0,0,142.6, -1.8, 7,0,0,1024,1024,1024,1024,143.2,0,99,4.295,4.293,4.293,4.29,0,0,1.892,85.91,10,Assisted_Takeoff,
0.347650673188275,36.8999723648749,5712.9612946914,0,0,0.195642722796,3700,2018-04-04 12:31:04,15,0,17.066,5712.9612946914,0,0,0.195642722796,0,0,0,142.6, -1.8, 7,0,0,1024,1024,1024,1024,143.2,0,99,4.295,4.293,4.293,4.29,0,0,1.892,85.91,10,Assisted_Takeoff,
0.347650677396785,36.8999723627073,5712.9612946914,0,0,0.195712932772,3800,2018-04-04 12:31:04,15,0,17.066,5712.9612946914,0,0,0.195712932772,0,0,0,142.6, -1.8, 7,0,0,1024,1024,1024,1024,143.2,0,99,4.295,4.293,4.293,4.29,0,0,1.892,85.91,10,Assisted_Takeoff,
0.347650667627952,36.8999723670746,5712.9612946914,0,0,0.195791672932,3900,2018-04-04 12:31:04,15,0,17.066,5712.9612946914,0,0,0.195791672932,0,0,0,142.6, -1.8, 7,0,0,1024,1024,1024,1024,143.2,0,99,4.295,4.293,4.293,4.29,0,0,1.892,85.91,10,Assisted_Takeoff,
0.347650643646468,36.8999723702104,5712.9612946914,0,0,0.198749022108,4000,2018-04-04 12:31:04,15,0,17.146,5712.9612946914,0,0,0.198749022108,0,0,0,142.6, -1.8, 7,0,0,1024,1024,1024,1024,143.2,0,99,4.292,4.292,4.293,4.289,0,0,2.042,85.91,10,Assisted_Takeoff,
0.347650636211197,36.8999723619591,5712.9612946914,0,0,0.20268701436,4100,2018-04-04 12:31:05,15,0,17.146,5712.9612946914,0,0,0.20268701436,0,0,0,142.6, -1.8, 7,0,0,1024,1024,1024,1024,143.2,0,99,4.292,4.292,4.293,4.289,0,0,2.042,85.91,10,Assisted_Takeoff,
0.347650653974671,36.8999723381022,5712.9612946914,0,0,0.207476712676,4200,2018-04-04 12:31:05,15,0,17.146,5712.9612946914,0,0,0.207476712676,0,0,0,142.6, -1.8, 7,0,0,1024,1024,1024,1024,143.2,0,99,4.292,4.292,4.293,4.289,0,0,2.042,85.91,10,Assisted_Takeoff,
0.347650658907838,36.899972295277,5712.9612946914,0,0,0.220922907332,4300,2018-04-04 12:31:05,15,0,17.146,5712.9612946914,0,0,0.220922907332,0,0,0,142.6, -1.8, 7,0,0,1024,1024,1024,1024,143.2,0,99,4.292,4.292,4.293,4.289,0,0,2.042,85.91,10,Assisted_Takeoff,
0.347650644406545,36.8999722534485,5712.9612946914,0,0,0.237028878976,4400,2018-04-04 12:31:05,15,0,17.146,5712.9612946914,0,0,0.237028878976,0,0,0,142.6, -1.8, 7,0,0,1024,1024,1024,1024,143.2,0,99,4.292,4.292,4.293,4.289,0,0,2.042,85.91,10,Assisted_Takeoff,
0.347650629289699,36.8999722143633,5712.9612946914,0,0,0.25230807894,4500,2018-04-04 12:31:05,15,0,17.146,5712.9612946914,0,0,0.25230807894,0,0,0,142.6, -1.8, 7,0,0,1024,1024,1024,1024,143.2,0,99,4.292,4.292,4.293,4.289,0,0,2.042,85.91,10,Assisted_Takeoff,
0.347650621340653,36.8999721923187,5712.9612946914,0,0,0.260843840368,4600,2018-04-04 12:31:05,15,0,17.146,5712.9612946914,0,0,0.260843840368,0,0,0,142.6, -1.8, 7,0,0,1024,1024,1024,1024,143.2,0,99,4.292,4.292,4.293,4.289,0,0,2.042,85.91,10,Assisted_Takeoff,
0.347650614186695,36.8999721586252,5712.9612946914,0,0,0.2731873447,4700,2018-04-04 12:31:05,15,0,17.146,5712.9612946914,0,0,0.2731873447,0,0,0,142.6, -1.8, 7,0,0,1024,1024,1024,1024,143.2,0,99,4.292,4.292,4.293,4.289,0,0,2.042,85.91,10,Assisted_Takeoff,
0.347650611356052,36.8999721215579,5712.9612946914,0,0,0.286104339864,4800,2018-04-04 12:31:05,15,0,17.146,5712.9612946914,0,0,0.286104339864,0,0,0,142.6, -1.8, 6.9,0,0,1024,1024,1024,1024,143.2,0,99,4.292,4.292,4.293,4.289,0,0,2.042,85.91,10,Assisted_Takeoff,
0.347650608913794,36.899972089284,5712.9612946914,0,0,0.29739502264,4900,2018-04-04 12:31:05,15,0,17.146,5712.9612946914,0,0,0.29739502264,0,0,0,142.6, -1.8, 6.9,0,0,1024,1024,1024,1024,143.2,0,99,4.292,4.292,4.293,4.289,0,0,2.042,85.91,10,Assisted_Takeoff,
0.347650608565306,36.8999720729302,5712.9612946914,0,0,0.30301674198,5000,2018-04-04 12:31:05,15,0,17.146,5712.9612946914,0,0,0.30301674198,0,0,0,142.6, -1.8, 7,0,0,1024,1024,1024,1024,143.2,0,99,4.291,4.292,4.293,4.289,0,0,2.046,85.91,10,Assisted_Takeoff,
0.347650609585323,36.8999720638385,5712.9612946914,0,0,0.305993448112,5100,2018-04-04 12:31:06,15,0,17.146,5712.9612946914,0,0,0.305993448112,0,0,0,142.6, -1.8, 6.9,0,0,1024,1024,1024,1024,143.2,0,99,4.291,4.292,4.293,4.289,0,0,2.046,85.91,10,Assisted_Takeoff,
0.347650611940053,36.8999720602022,5712.9612946914,0,0,0.306940954704,5200,2018-04-04 12:31:06,15,0,17.146,5712.9612946914,0,0,0.306940954704,0,0,0,142.6, -1.8, 6.9,0,0,1024,1024,1024,1024,143.2,0,99,4.291,4.292,4.293,4.289,0,0,2.046,85.91,10,Assisted_Takeoff,
0.347650614397172,36.8999720638707,5712.9612946914,0,0,0.305375994024,5300,2018-04-04 12:31:06,15,0,17.146,5712.9612946914,0,0,0.306940954704,0,0,0,142.6, -1.8, 6.9,0,0,1024,1024,1024,1024,143.2,0,99,4.291,4.292,4.293,4.289,0,0,2.046,85.91,10,Assisted_Takeoff,
0.347650617049093,36.8999720674898,5712.9612946914,0,0,0.303804471664,5400,2018-04-04 12:31:06,15,0,17.146,5712.9612946914,0,0,0.306940954704,0,0,0,142.6, -1.8, 6.9,0,0,1024,1024,1024,1024,143.2,0,99,4.291,4.292,4.293,4.289,0,0,2.046,85.91,10,Assisted_Takeoff,
0.347650619061849,36.8999720775319,5712.9612946914,0,0,0.300110573908,5500,2018-04-04 12:31:06,15,0,17.146,5712.9612946914,0,0,0.306940954704,0,0,0,142.6, -1.8, 6.9,0,0,1024,1024,1024,1024,143.2,0,99,4.291,4.292,4.293,4.289,0,0,2.046,85.91,10,Assisted_Takeoff,
0.347650621380957,36.8999720847349,5712.9612946914,0,0,0.297351715552,5600,2018-04-04 12:31:06,15,0,17.146,5712.9612946914,0,0,0.306940954704,0,0,0,142.6, -1.8, 6.9,0,0,1024,1024,1024,1024,143.2,0,99,4.291,4.292,4.293,4.289,0,0,2.046,85.91,10,Assisted_Takeoff,
0.347650623287254,36.8999720779122,5712.9612946914,0,0,0.299454405908,5700,2018-04-04 12:31:06,15,0,17.146,5712.9612946914,0,0,0.306940954704,0,0,0,142.6, -1.8, 6.9,0,0,1024,1024,1024,1024,143.2,0,99,4.291,4.292,4.293,4.289,0,0,2.046,85.91,10,Assisted_Takeoff,
0.347650625224899,36.8999720573271,5712.9612946914,0,0,0.306297910064,5800,2018-04-04 12:31:06,15,0,17.146,5712.9612946914,0,0,0.306940954704,0,0,0,142.6, -1.8, 6.9,0,0,1024,1024,1024,1024,143.2,0,99,4.291,4.292,4.293,4.289,0,0,2.046,85.91,10,Assisted_Takeoff,
0.347650625989047,36.8999720383233,5712.9612946914,0,0,0.312764445704,5900,2018-04-04 12:31:06,15,0,17.146,5712.9612946914,0,0,0.312764445704,0,0,0,142.6, -1.8, 6.9,0,0,1024,1024,1024,1024,143.2,0,99,4.291,4.292,4.293,4.289,0,0,2.046,85.91,10,Assisted_Takeoff,
0.347650626393308,36.8999720293092,5712.9612946914,0,0,0.315833671524,6000,2018-04-04 12:31:06,15,0,17.146,5712.9612946914,0,0,0.315833671524,0,0,0,142.6, -1.8, 6.9,0,0,1024,1024,1024,1024,143.1,0,99,4.291,4.292,4.293,4.289,0,0,2.046,85.91,10,Assisted_Takeoff,
0.347650624878041,36.8999720206317,5712.9612946914,0,0,0.319011493148,6100,2018-04-04 12:31:07,15,0,17.146,5712.9612946914,0,0,0.319011493148,0,0,0,142.6, -1.8, 6.9,0,0,1024,1024,1024,1024,143.1,0,99,4.291,4.292,4.293,4.289,0,0,2.046,85.91,10,Assisted_Takeoff,
0.34765062568351,36.8999720189291,5712.9612946914,0,0,0.319508212324,6200,2018-04-04 12:31:07,15,0,17.146,5712.9612946914,0,0,0.319508212324,0,0,0,142.6, -1.8, 6.9,0,0,1024,1024,1024,1024,143.1,0,99,4.291,4.292,4.293,4.289,0,0,2.046,85.91,10,Assisted_Takeoff,
0.347650625464688,36.8999720001213,5712.9612946914,0,0,0.32605316004,6300,2018-04-04 12:31:07,15,0,17.146,5712.9612946914,0,0,0.32605316004,0,0,0,142.6, -1.8, 6.9,0,0,1024,1024,1024,1024,143.1,0,99,4.291,4.292,4.293,4.289,0,0,2.046,85.91,10,Assisted_Takeoff,
0.34765062678963,36.8999719733451,5712.9612946914,0,0,0.33521326532,6400,2018-04-04 12:31:07,15,0,17.146,5712.9612946914,0,0,0.33521326532,0,0,0,142.6, -1.8, 6.9,0,0,1024,1024,1024,1024,143.1,0,99,4.291,4.292,4.293,4.289,0,0,2.046,85.91,10,Assisted_Takeoff,
0.347650626842148,36.8999719456966,5712.9612946914,0,0,0.3448490924,6500,2018-04-04 12:31:07,15,0,17.146,5712.9612946914,0,0,0.3448490924,0,0,0,142.6, -1.8, 6.9,0,0,1024,1024,1064,1024,143.1,0,99,4.291,4.292,4.293,4.289,0,0,2.046,85.91,10,Assisted_Takeoff,
0.347650627954986,36.8999719316815,5712.9612946914,0,0,0.34962927628,6600,2018-04-04 12:31:07,15,0,17.146,5712.9612946914,0,0,0.34962927628,0,0,0,142.6, -1.8, 6.9,0,0,1024,1024,1068,1024,143.1,0,99,4.291,4.292,4.293,4.289,0,0,2.046,85.91,10,Assisted_Takeoff,
0.347650646673542,36.8999719195204,5712.9612946914,0,0,0.3520177278,6700,2018-04-04 12:31:07,15,0,17.146,5712.9612946914,0,0,0.3520177278,0,0,0,142.6, -1.8, 6.9,0,0,1024,1024,1089,1024,143.1,0,99,4.291,4.292,4.293,4.289,0,0,2.046,85.91,10,Assisted_Takeoff,
0.347650677036288,36.8999719147771,5712.9612946914,0,0,0.35094161228,6800,2018-04-04 12:31:07,15,0,17.146,5712.9612946914,0,0,0.3520177278,0,0,0,142.6, -1.8, 6.9,0,0,1024,1024,1069,1024,143.1,0,99,4.291,4.292,4.293,4.289,0,0,2.046,85.91,10,Assisted_Takeoff,
0.347650707944765,36.899971912706,5712.9612946914,0,0,0.34922245212,6900,2018-04-04 12:31:07,15,0,17.146,5712.9612946914,0,0,0.3520177278,0,0,0,142.6, -1.8, 6.9,0,0,1024,1024,1058,1024,143.1,0,99,4.291,4.292,4.293,4.289,0,0,2.046,85.91,10,Assisted_Takeoff,
0.347650728268357,36.8999719148146,5712.9612946914,0,0,0.34704397436,7000,2018-04-04 12:31:07,15,0,17.12,5712.9612946914,0,0,0.3520177278,0,0,0,142.6, -1.8, 6.9,0,0,1024,1024,1065,1024,143.1,0,99,4.291,4.292,4.293,4.289,0,0,2.046,85.91,10,Assisted_Takeoff,
0.347650745952852,36.8999719200195,5712.9612946914,0,0,0.34405512912,7100,2018-04-04 12:31:08,15,0,17.12,5712.9612946914,0,0,0.3520177278,0,0,0,142.6, -1.8, 6.9,0,0,1024,1024,1084,1024,143.1,0,99,4.291,4.292,4.293,4.289,0,0,2.046,85.91,10,Assisted_Takeoff,
0.347650757826651,36.8999719259704,5712.9612946914,0,0,0.3412237642,7200,2018-04-04 12:31:08,15,0,17.12,5712.9612946914,0,0,0.3520177278,0,0,0,142.6, -1.8, 6.9,0,0,1024,1024,1128,1024,143.1,0,99,4.291,4.292,4.293,4.289,0,0,2.046,85.91,10,Assisted_Takeoff,
0.347650764420628,36.8999719339833,5712.9612946914,0,0,0.33796917092,7300,2018-04-04 12:31:08,15,0,17.12,5712.9612946914,0,0,0.3520177278,0,0,0,142.6, -1.8, 6.9,0,0,1024,1024,1150,1024,143.1,0,99,4.291,4.292,4.293,4.289,0,0,2.046,85.91,10,Assisted_Takeoff,
0.347650771069361,36.899971942651,5712.9612946914,0,0,0.33449148052,7400,2018-04-04 12:31:08,15,0,17.12,5712.9612946914,0,0,0.3520177278,0,0,0,142.6, -1.8, 6.9,0,0,1024,1024,1142,1024,143.1,0,99,4.291,4.292,4.293,4.289,0,0,2.046,85.91,10,Assisted_Takeoff,
0.347650771247472,36.8999719508237,5712.9612946914,0,0,0.331528882,7500,2018-04-04 12:31:08,15,0,17.12,5712.9612946914,0,0,0.3520177278,0,0,0,142.5, -1.8, 6.9,0,0,1024,1024,1149,1024,143.1,0,99,4.291,4.292,4.293,4.289,0,0,2.046,85.91,10,Assisted_Takeoff,
0.347650772478373,36.8999719598204,5712.9612946914,0,0,0.3282152336,7600,2018-04-04 12:31:08,15,0,17.12,5712.9612946914,0,0,0.3520177278,0,0,0,142.5, -1.8, 6.9,0,0,1024,1024,1157,1024,143.1,0,99,4.291,4.292,4.293,4.289,0,0,2.046,85.91,10,Assisted_Takeoff,
0.347650767444649,36.8999719655413,5712.9612946914,0,0,0.32642061412,7700,2018-04-04 12:31:08,15,0,17.12,5712.9612946914,0,0,0.3520177278,0,0,0,142.5, -1.8, 6.9,0,0,1024,1024,1163,1024,143.1,0,99,4.291,4.292,4.293,4.289,0,0,2.046,85.91,10,Assisted_Takeoff,
0.347650763313693,36.8999719720289,5712.9612946914,0,0,0.324311362084,7800,2018-04-04 12:31:08,15,0,17.12,5712.9612946914,0,0,0.3520177278,0,0,0,142.7, -1.7, 6.9,0,0,1024,1024,1177,1024,143.1,0,99,4.291,4.292,4.293,4.289,0,0,2.046,85.91,10,Assisted_Takeoff,
0.347650746786412,36.899971966873,5712.9612946914,0,0,0.327154866112,7900,2018-04-04 12:31:08,15,0,17.12,5712.9612946914,0,0,0.3520177278,0,0,0,143, -1.3, 6.6,0,0,1024,1024,1183,1024,143.1,0,99,4.291,4.292,4.293,4.289,0,0,2.046,85.91,10,Assisted_Takeoff,
0.347650690608554,36.8999719308996,5712.9612946914,0,0,0.34408465668,8000,2018-04-04 12:31:08,15,0,17.146,5712.9612946914,0,0,0.3520177278,0,0,0,143.2, 1, 4.7,0,0,1024,1024,1167,1024,143.1,0,99,4.291,4.292,4.292,4.289,0,0,2.048,85.91,10,Assisted_Takeoff,
0.347650590021808,36.8999718186144,5712.9612946914,0,0.223694,0.39311681048,8100,2018-04-04 12:31:09,15,0,17.146,5712.9612946914,0,0.223694,0.39311681048,0,-0.223694,0,143.3, 4.5, 1.7,0,0,1024,1024,1150,1024,143.1,0,99,4.291,4.292,4.292,4.289,0,0,2.048,85.91,10,Assisted_Takeoff,
0.347650538244413,36.8999716407738,5712.9612946914,0,0.223694,0.46069227196,8200,2018-04-04 12:31:09,15,0,17.146,5712.9612946914,0,0.223694,0.46069227196,0,-0.223694,-0.447388,143.2, 3.5, 0,0,0,1024,1024,1144,1024,143.1,0,99,4.291,4.292,4.292,4.289,0,0,2.048,85.91,6,P-GPS,Obstacle Avoided. Revise Flight Route
0.347650568387318,36.8999713918058,5712.9612946914,0,0.223694,0.54575789148,8300,2018-04-04 12:31:09,15,0,17.146,5712.9612946914,0,0.223694,0.54575789148,0,-0.223694,-0.447388,143.2, 0.7, -0.1,0,0,1024,1024,1149,1024,143.1,0,99,4.291,4.292,4.292,4.289,0,0,2.048,85.91,6,P-GPS,
0.347650628778978,36.8999711478115,5712.9612946914,0,0.223694,0.62899936396,8400,2018-04-04 12:31:09,15,0,17.146,5712.9612946914,0,0.223694,0.62899936396,0,-0.223694,-0.671082,143.3, -0.9, -0.7,0,0,1024,1024,1169,1024,143.1,0,99,4.291,4.292,4.292,4.289,0,0,2.048,85.91,6,P-GPS,
0.347650692566962,36.8999709401233,5712.9612946914,0,0.223694,0.70101052112,8500,2018-04-04 12:31:09,15,0,17.146,5712.9612946914,0,0.223694,0.70101052112,0,-0.223694,-0.671082,143.2, -1.5, -1,0,0,1024,1024,1198,1024,143.1,0,99,4.291,4.292,4.292,4.289,0,0,2.048,85.91,6,P-GPS,
0.347650766491602,36.8999708240756,5713.2893786914,0.328084,0,0.74083663788,8600,2018-04-04 12:31:09,15,0,17.146,5713.2893786914,0.328084,0.223694,0.74083663788,0,0,-0.894776,143.2, -1.5, -0.4,0,0,1024,1024,1216,1024,143.1,0,99,4.291,4.292,4.292,4.289,0,0,2.048,85.91,6,P-GPS,
0.347650821112056,36.8999707781185,5713.2893786914,0.328084,0,0.75653217644,8700,2018-04-04 12:31:09,15,0,17.146,5713.2893786914,0.328084,0.223694,0.75653217644,0,0,-0.894776,143.2, -1.5, 0.2,0,0,1024,1024,1223,1024,143.1,0,99,4.291,4.292,4.292,4.289,0,0,2.048,85.91,6,P-GPS,
0.347650858208214,36.8999707906284,5713.2893786914,0.328084,0,0.75156826552,8800,2018-04-04 12:31:09,15,0,17.146,5713.2893786914,0.328084,0.223694,0.75653217644,0,0,-0.894776,143.2, -0.8, 1,0,0,1024,1024,1217,1024,143.1,0,99,4.291,4.292,4.292,4.289,0,0,2.048,85.91,6,P-GPS,
0.347650892881247,36.8999708193197,5713.6174626914,0.656168,0,0.74094162476,8900,2018-04-04 12:31:09,15,0,17.146,5713.6174626914,0.656168,0.223694,0.75653217644,0,0,-1.11847,143.2, 0, 1.6,0,0,1024,1024,1217,1024,143.1,0,99,4.291,4.292,4.292,4.289,0,0,2.048,85.91,6,P-GPS,
0.347650944506993,36.8999708239458,5713.6174626914,0.656168,0,0.73941603416,9000,2018-04-04 12:31:09,15,0,17.04,5713.6174626914,0.656168,0.223694,0.75653217644,0,0,-1.11847,143.2, -0.2, 1.1,0,0,1024,1024,1220,1024,143.1,0,99,4.275,4.281,4.28,4.276,0,0,3.998,85.91,6,P-GPS,
0.347650995434543,36.8999708320793,5713.9455466914,0.984252,0,0.73708007608,9100,2018-04-04 12:31:10,15,0,17.04,5713.9455466914,0.984252,0.223694,0.75653217644,0,0,-1.342164,143.1, -1.3, 1.1,0,0,1024,1024,1220,1024,143.1,0,99,4.275,4.281,4.28,4.276,0,0,3.998,85.91,6,P-GPS,Home Point Recorded. RTH Altitude:  30m.
0.347651019642585,36.8999708721194,5714.2736306914,1.312336,0,0.72295934072,9200,2018-04-04 12:31:10,15,0,17.04,5714.2736306914,1.312336,0.223694,0.75653217644,0,0,-1.565858,143, -0.7, 0.8,0,0,1024,1024,1199,1024,143.1,0,99,4.275,4.281,4.28,4.276,0,0,3.998,85.91,6,P-GPS,
0.347651004194351,36.8999709348887,5714.6017146914,1.64042,0,0.69977692528,9300,2018-04-04 12:31:10,15,0,17.04,5714.6017146914,1.64042,0.223694,0.75653217644,0,0,-1.565858,143.1, -0.1, 0.9,0,0,1024,1024,1199,1024,143.1,0,99,4.275,4.281,4.28,4.276,0,0,3.998,85.91,6,P-GPS,
0.347650974531226,36.8999710231114,5714.6017146914,1.64042,0,0.66711616308,9400,2018-04-04 12:31:10,15,0,17.04,5714.6017146914,1.64042,0.223694,0.75653217644,0,0,-1.565858,143.1, 0.3, 2.1,0,0,1024,1024,1201,1024,143.1,0,99,4.275,4.281,4.28,4.276,0,0,3.998,85.91,6,P-GPS,
0.347650937730223,36.899971107257,5714.9297986914,1.968504,0,0.63602036156,9500,2018-04-04 12:31:10,15,0,17.04,5714.9297986914,1.968504,0.223694,0.75653217644,0,0,-1.565858,143.1, 0.2, 2.1,0,0,1024,1024,1207,1024,143.1,0,99,4.275,4.281,4.28,4.276,0,0,3.998,85.91,6,P-GPS,
0.34765088702638,36.8999711779931,5715.2578826914,2.296588,0,0.61009844472,9600,2018-04-04 12:31:10,15,0,17.04,5715.2578826914,2.296588,0.223694,0.75653217644,0,0,-1.565858,143.2, 0.6, 0.7,0,0,1024,1024,1210,1024,143.1,0,99,4.275,4.281,4.28,4.276,0,0,3.998,85.91,6,P-GPS,
0.347650825942835,36.8999712249129,5715.5859666914,2.624672,0,0.59359581952,9700,2018-04-04 12:31:10,15,0,17.04,5715.5859666914,2.624672,0.223694,0.75653217644,0,0,-1.565858,143.2, 1.1, 0.2,0,0,1024,1024,1204,1024,143.1,0,99,4.275,4.281,4.28,4.276,0,0,3.998,85.91,6,P-GPS,
0.34765076647145,36.8999712755927,5715.5859666914,2.624672,0,0.57657154076,9800,2018-04-04 12:31:10,15,0,17.04,5715.5859666914,2.624672,0.223694,0.75653217644,0,0,-1.565858,143.1, 1.4, 0.9,0,0,1024,1024,1197,1024,143.1,0,99,4.275,4.281,4.28,4.276,0,0,3.998,85.91,6,P-GPS,
0.347650663036758,36.8999713462086,5715.9140506914,2.952756,0,0.55554791804,9900,2018-04-04 12:31:10,15,0,17.04,5715.9140506914,2.952756,0.223694,0.75653217644,0,0,-1.565858,143.1, 1.9, 0.6,0,0,1024,1024,1203,1024,143.1,0,99,4.275,4.281,4.28,4.276,0,0,3.998,85.91,6,P-GPS,
0.347650532285936,36.899971448939,5716.2421346914,3.28084,0,0.5286581534,10000,2018-04-04 12:31:10,15,0,16.827,5716.2421346914,3.28084,0.223694,0.75653217644,0,0,-1.565858,143.1, 2, 0.2,0,0,1024,1024,1220,1024,143.1,0,99,4.275,4.281,4.28,4.276,0,0,12.794,85.91,6,P-GPS,
0.347650432416519,36.8999715181294,5716.5702186914,3.608924,0,0.51521655192,10100,2018-04-04 12:31:11,15,0,16.827,5716.5702186914,3.608924,0.223694,0.75653217644,0,0,-1.565858,143, 1.9, 0,0,0,1024,1024,1232,1024,143.1,0,99,4.275,4.281,4.28,4.276,0,0,12.794,85.91,6,P-GPS,
0.347650370773197,36.8999715652206,5716.5702186914,3.608924,0,0.50719161728,10200,2018-04-04 12:31:11,15,0,16.827,5716.5702186914,3.608924,0.223694,0.75653217644,0,0,-1.565858,142.9, 2.1, -0.3,0,0,1024,1024,1235,1024,143.1,0,99,4.275,4.281,4.28,4.276,0,0,12.794,85.91,6,P-GPS,
0.347650312471848,36.8999716224858,5716.8983026914,3.937008,0,0.4967683886,10300,2018-04-04 12:31:11,15,0,16.827,5716.8983026914,3.937008,0.223694,0.75653217644,0,0,-1.565858,142.8, 2.6, -0.4,0,0,1024,1024,1234,1024,143.1,0,99,4.275,4.281,4.28,4.276,0,0,12.794,85.91,6,P-GPS,
0.347650262849903,36.8999717179854,5717.2263866914,4.265092,0,0.47422573696,10400,2018-04-04 12:31:11,15,0,16.827,5717.2263866914,4.265092,0.223694,0.75653217644,0,0.223694,-1.789552,142.8, 2.8, 0.4,0,0,1024,1024,1234,1024,143.1,0,99,4.275,4.281,4.28,4.276,0,0,12.794,85.91,6,P-GPS,
0.347650221877031,36.8999718031299,5717.5544706914,4.593176,0,0.45539043452,10500,2018-04-04 12:31:11,15,0,16.827,5717.5544706914,4.593176,0.223694,0.75653217644,0,0,-1.789552,142.9, 3, 1.3,0,0,1024,1024,1237,1024,143.1,0,99,4.275,4.281,4.28,4.276,0,0,12.794,85.91,6,P-GPS,
0.347650180892556,36.899971864271,5717.8825546914,4.92126,0,0.44550198276,10600,2018-04-04 12:31:11,15,0,16.827,5717.8825546914,4.92126,0.223694,0.75653217644,0,0,-2.013246,142.9, 2.6, 1.4,0,0,1024,1024,1236,1024,143.1,0,99,4.275,4.281,4.28,4.276,0,0,12.794,85.91,6,P-GPS,
0.347650139158793,36.8999718826801,5718.2106386914,5.249344,0,0.44935696976,10700,2018-04-04 12:31:11,15,0,16.827,5718.2106386914,5.249344,0.223694,0.75653217644,0,0,-2.013246,143.1, 2, 2.3,0,0,1024,1024,1230,1024,143.1,0,99,4.275,4.281,4.28,4.276,0,0,12.794,85.91,6,P-GPS,
0.347650081196771,36.8999718674286,5718.5387226914,5.577428,0,0.46700132728,10800,2018-04-04 12:31:11,15,0,16.827,5718.5387226914,5.577428,0.223694,0.75653217644,0,0,-2.013246,143.3, 2.4, 2,0,0,1024,1024,1228,1024,143.1,0,99,4.275,4.281,4.28,4.276,0,0,12.794,85.91,6,P-GPS,
0.347649984828102,36.8999718025011,5718.8668066914,5.905512,0.223694,0.50785434696,10900,2018-04-04 12:31:11,15,0,16.827,5718.8668066914,5.905512,0.223694,0.75653217644,-0.223694,0,-2.013246,143.4, 2.8, -0.2,0,0,1024,1024,1222,1024,143.1,0,99,4.275,4.281,4.28,4.276,0,0,12.794,85.91,6,P-GPS,
0.347649889667738,36.8999717279746,5719.1948906914,6.233596,0,0.55124017512,11000,2018-04-04 12:31:11,15,0,16.747,5719.1948906914,6.233596,0.223694,0.75653217644,0,0,-2.013246,143.5, 2, -1.9,0,0,1024,1024,1224,1023,143.1,0,99,4.224,4.227,4.226,4.217,0,0,12.794,85.91,6,P-GPS,
0.347649816150005,36.8999716566915,5719.1948906914,6.233596,0,0.58852036004,11100,2018-04-04 12:31:12,15,0,16.747,5719.1948906914,6.233596,0.223694,0.75653217644,0,0,-2.013246,143.4, 1.3, -2,0,0,1024,1024,1232,1024,143.1,0,99,4.224,4.227,4.226,4.217,0,0,12.794,85.91,6,P-GPS,
0.347649759360463,36.8999716065602,5719.5229746914,6.56168,0,0.61600067588,11200,2018-04-04 12:31:12,15,0,16.747,5719.5229746914,6.56168,0.223694,0.75653217644,0,0,-1.789552,143.4, 2.2, -1.3,0,0,1024,1024,1242,1024,143.1,0,99,4.224,4.227,4.226,4.217,0,0,12.794,85.91,6,P-GPS,
0.347649743059128,36.8999715609606,5719.8510586914,6.889764,0,0.6323162932,11300,2018-04-04 12:31:12,15,0,16.747,5719.8510586914,6.889764,0.223694,0.75653217644,0,0,-1.789552,143.4, 2.2, -0.7,0,0,1024,1024,1227,1024,143.1,0,99,4.224,4.227,4.226,4.217,0,0,12.794,85.91,6,P-GPS,
0.347649747533278,36.8999715137844,5720.1791426914,7.217848,0.223694,0.64415356392,11400,2018-04-04 12:31:12,15,0,16.747,5720.1791426914,7.217848,0.223694,0.75653217644,0,-0.223694,-1.789552,143.3, 2.2, -0.3,0,0,1024,1024,1210,1024,143.1,0,99,4.224,4.227,4.226,4.217,0,0,12.794,85.91,6,P-GPS,
0.347649730201342,36.8999714328644,5720.5072266914,7.545932,0.223694,0.67078742304,11500,2018-04-04 12:31:12,15,0,16.747,5720.5072266914,7.545932,0.223694,0.75653217644,0,-0.223694,-1.789552,143.4, 2.1, -1.3,0,0,1024,1024,1204,1019,143.1,0,99,4.224,4.227,4.226,4.217,0,0,12.794,85.91,6,P-GPS,
0.347649685333028,36.8999713344214,5720.8353106914,7.874016,0.223694,0.70897640064,11600,2018-04-04 12:31:12,15,0,16.747,5720.8353106914,7.874016,0.223694,0.75653217644,0,-0.223694,-1.789552,143.3, 1.3, -3,0,0,1024,1024,1264,1021,143.1,0,99,4.224,4.227,4.226,4.217,0,0,12.794,85.91,6,P-GPS,
0.347649648918781,36.8999712405594,5721.1633946914,8.2021,0,0.74408466948,11700,2018-04-04 12:31:12,15,0,16.747,5721.1633946914,8.2021,0.223694,0.75653217644,0,0,-1.789552,143.3, 1.1, -3.2,0,0,1024,1024,1291,1022,143.1,0,99,4.224,4.227,4.226,4.217,0,0,12.794,85.91,6,P-GPS,
0.347649625762816,36.8999711839368,5721.4914786914,8.530184,0,0.7656004182,11800,2018-04-04 12:31:12,15,0,16.747,5721.4914786914,8.530184,0.223694,0.7656004182,0,0,-1.789552,143.4, 1.2, -3.2,0,0,1024,1024,1268,1024,143.1,0,99,4.224,4.227,4.226,4.217,0,0,12.794,85.91,6,P-GPS,
0.347649639422713,36.8999711743653,5721.8195626914,8.858268,0,0.76536747856,11900,2018-04-04 12:31:12,15,0,16.747,5721.8195626914,8.858268,0.223694,0.7656004182,0,0,-2.23694,143.3, 1.3, -3.3,0,0,1024,1024,1244,1023,143.1,0,99,4.224,4.227,4.226,4.217,0,0,12.794,85.91,6,P-GPS,
0.347649708687765,36.899971255467,5722.1476466914,9.186352,0.223694,0.72653217548,12000,2018-04-04 12:31:12,15,0,16.801,5722.1476466914,9.186352,0.223694,0.7656004182,0,0.223694,-2.23694,143.1, 2, -1.2,0,0,1024,1024,1254,1022,143.1,0,99,4.217,4.222,4.223,4.211,0,0,12.864,85.91,6,P-GPS,
0.347649792827634,36.8999713747685,5722.4757306914,9.514436,0.223694,0.67329070396,12100,2018-04-04 12:31:12,15,0,16.801,5722.4757306914,9.514436,0.223694,0.7656004182,0,0.223694,-2.23694,143, 2.6, -0.1,0,0,1024,1024,1252,1023,143.1,0,99,4.217,4.222,4.223,4.211,0,0,12.864,85.91,6,P-GPS,
0.347649855999048,36.8999715296667,5722.8038146914,9.84252,0,0.61446196192,12200,2018-04-04 12:31:13,15,0,16.801,5722.8038146914,9.84252,0.223694,0.7656004182,0,0,-2.23694,143.1, 3.3, 1.1,0,0,1024,1024,1254,1021,143.1,0,99,4.217,4.222,4.223,4.211,0,0,12.864,85.91,6,P-GPS,
0.34764993072936,36.8999716882915,5723.1318986914,10.170604,0,0.55235566072,12300,2018-04-04 12:31:13,15,0,16.801,5723.1318986914,10.170604,0.223694,0.7656004182,0,0,-2.23694,143.1, 3.6, 2,0,0,1024,1024,1271,1022,143.1,0,99,4.217,4.222,4.223,4.211,0,0,12.864,85.91,6,P-GPS,
0.34765000676996,36.8999718255152,5723.4599826914,10.498688,0,0.49626313924,12400,2018-04-04 12:31:13,15,0,16.801,5723.4599826914,10.498688,0.223694,0.7656004182,0,0,-2.23694,143.2, 3, 3.6,0,0,1024,1024,1277,1021,143.1,-0.1,99,4.217,4.222,4.223,4.211,0,0,12.864,85.91,6,P-GPS,
0.347650060943406,36.89997186984,5723.7880666914,10.826772,0,0.47110237728,12500,2018-04-04 12:31:13,15,0,16.801,5723.7880666914,10.826772,0.223694,0.7656004182,0,0,-2.23694,143.2, 2.7, 2.6,0,0,1024,1024,1272,1022,143.1,-0.4,99,4.217,4.222,4.223,4.211,0,0,12.864,85.91,6,P-GPS,
0.34765006949864,36.8999718199183,5724.1161506914,11.154856,0,0.48310697084,12600,2018-04-04 12:31:13,15,0,16.801,5724.1161506914,11.154856,0.223694,0.7656004182,0,0,-2.460634,143.3, 2.7, 0.4,0,0,1024,1024,1277,1021,143.1,-0.9,99,4.217,4.222,4.223,4.211,0,0,12.864,85.91,6,P-GPS,
0.347650038115878,36.8999717104934,5724.4442346914,11.48294,0,0.52161090908,12700,2018-04-04 12:31:13,15,0,16.801,5724.4442346914,11.48294,0.223694,0.7656004182,0,0,-2.460634,143.3, 2, -1.6,0,0,1024,1024,1272,1021,143.1,-1.6,99,4.217,4.222,4.223,4.211,0,0,12.864,85.91,6,P-GPS,
0.347649985507367,36.8999716048213,5724.7723186914,11.811024,0,0.56398951936,12800,2018-04-04 12:31:13,15,0,16.801,5724.7723186914,11.811024,0.223694,0.7656004182,0,0,-2.460634,143.2, 1.7, -2.6,0,0,1024,1024,1262,1021,143.1,-2.5,99,4.217,4.222,4.223,4.211,0,0,12.864,85.91,6,P-GPS,
0.347649953455925,36.89997152275,5725.4284866914,12.467192,0,0.59509844424,12900,2018-04-04 12:31:13,15,0,16.801,5725.4284866914,12.467192,0.223694,0.7656004182,0,0,-2.684328,143.3, 2.1, -1.8,0,0,1024,1024,1263,1021,143.1,-3.7,99,4.217,4.222,4.223,4.211,0,0,12.864,85.91,6,P-GPS,
0.347649948199308,36.899971456903,5725.7565706914,12.795276,0,0.61588912732,13000,2018-04-04 12:31:13,15,0,16.774,5725.7565706914,12.795276,0.223694,0.7656004182,0,0,-2.460634,143.2, 2.5, -1.4,0,0,1024,1024,1260,1022,143.1,-5.1,99,4.216,4.216,4.218,4.2,0,0,12.636,85.91,6,P-GPS,
0.347649938744969,36.8999713498243,5726.0846546914,13.12336,0.223694,0.65036419404,13100,2018-04-04 12:31:14,15,0,16.774,5726.0846546914,13.12336,0.223694,0.7656004182,0,-0.223694,-2.460634,143.1, 2.2, -1.7,0,0,1024,1024,1258,1021,143.1,-5.1,99,4.216,4.216,4.218,4.2,0,0,12.636,85.91,6,P-GPS,
0.347649909646914,36.8999712099995,5726.4127386914,13.451444,0.223694,0.69928151844,13200,2018-04-04 12:31:14,15,0,16.774,5726.4127386914,13.451444,0.223694,0.7656004182,0,-0.223694,-2.460634,143.2, 0.8, -3.1,0,0,1024,1024,1259,1022,143.1,-6.7,99,4.216,4.216,4.218,4.2,0,0,12.636,85.91,6,P-GPS,
0.347649839624229,36.8999710565133,5727.0689066914,14.107612,0.223694,0.76045278024,13300,2018-04-04 12:31:14,15,0,16.774,5727.0689066914,14.107612,0.223694,0.7656004182,0,-0.223694,-2.460634,143.2, 0.4, -4.3,0,0,1024,1024,1259,1022,143.1,-8.5,99,4.216,4.216,4.218,4.2,0,0,12.636,85.91,6,P-GPS,
0.347649745987071,36.8999709601396,5727.3969906914,14.435696,0.223694,0.80819556392,13400,2018-04-04 12:31:14,15,0,16.774,5727.3969906914,14.435696,0.223694,0.80819556392,-0.223694,0,-2.460634,143.2, 0.8, -3.7,0,0,1024,1024,1259,1022,143.1,-10.3,99,4.216,4.216,4.218,4.2,0,0,12.636,85.91,6,P-GPS,
0.347649608386708,36.8999709136896,5727.7250746914,14.76378,0.223694,0.84951774372,13500,2018-04-04 12:31:14,15,0,16.774,5727.7250746914,14.76378,0.223694,0.84951774372,-0.223694,0,-2.460634,143.2, 2, -3.1,0,0,1024,1024,1257,1022,143.1,-12.4,99,4.216,4.216,4.218,4.2,0,0,12.636,85.91,6,P-GPS,
0.347649442438901,36.8999709151209,5728.0531586914,15.091864,0.223694,0.88415685244,13600,2018-04-04 12:31:14,15,0,16.774,5728.0531586914,15.091864,0.223694,0.88415685244,-0.223694,0,-2.23694,143.1, 3.9, -2.4,0,0,1024,1024,1258,1021,143.1,-14.4,99,4.216,4.216,4.218,4.2,0,0,12.636,85.91,6,P-GPS,
0.347649264847822,36.899970909267,5728.3812426914,15.419948,0.3131716,0.92624346796,13700,2018-04-04 12:31:14,15,0,16.774,5728.3812426914,15.419948,0.3131716,0.92624346796,-0.223694,-0.223694,-2.23694,143.1, 4.4, -2.8,0,0,1024,1024,1257,1021,143.1,-16.4,99,4.216,4.216,4.218,4.2,0,0,12.636,85.91,6,P-GPS,
0.347649109237377,36.8999708720187,5728.7093266914,15.748032,0.3131716,0.97384845636,13800,2018-04-04 12:31:14,15,0,16.774,5728.7093266914,15.748032,0.3131716,0.97384845636,-0.223694,-0.223694,-2.23694,143.1, 3.4, -4.4,0,0,1024,1024,1261,1022,143.1,-18.4,99,4.216,4.216,4.218,4.2,0,0,12.636,85.91,6,P-GPS,
0.347648971928811,36.8999708054539,5729.0374106914,16.076116,0.223694,1.02569229004,13900,2018-04-04 12:31:14,15,0,16.774,5729.0374106914,16.076116,0.3131716,1.02569229004,-0.223694,0,-2.23694,143.1, 2.9, -5.6,0,0,1024,1024,1258,1022,143.1,-20.3,99,4.216,4.216,4.218,4.2,0,0,12.636,85.91,6,P-GPS,
0.347648868173011,36.899970771938,5729.6935786914,16.732284,0.223694,1.06074150376,14000,2018-04-04 12:31:15,15,0,16.694,5729.6935786914,16.732284,0.3131716,1.06074150376,-0.223694,0,-2.23694,142.9, 4.9, -4.7,0,0,1024,1024,1256,1022,143.1,-22.1,99,4.216,4.216,4.218,4.2,0,0,12.636,85.91,6,P-GPS,
0.347648835520572,36.8999707348445,5730.0216626914,17.060368,0.223694,1.07874675368,14100,2018-04-04 12:31:15,15,0,16.694,5730.0216626914,17.060368,0.3131716,1.07874675368,0,0,-2.23694,143, 5, -3.2,0,0,1024,1024,1254,1022,143.1,-23.2,99,4.216,4.216,4.218,4.2,0,0,12.636,85.91,6,P-GPS,
0.347648855612415,36.8999706701774,5730.3497466914,17.388452,0.223694,1.09071853884,14200,2018-04-04 12:31:15,15,0,16.694,5730.3497466914,17.388452,0.3131716,1.09071853884,0,-0.223694,-2.23694,143.1, 2.9, -3.7,0,0,1024,1024,1251,1022,143.1,-23.2,99,4.216,4.216,4.218,4.2,0,0,12.636,85.91,6,P-GPS,
0.347648899415829,36.8999705536282,5730.6778306914,17.716536,0.223694,1.11153546864,14300,2018-04-04 12:31:15,15,0,16.694,5730.6778306914,17.716536,0.3131716,1.11153546864,0,-0.223694,-2.23694,143.1, 0.8, -5.7,0,0,1024,1024,1249,1022,143.1,-23.2,99,4.216,4.216,4.218,4.2,0,0,12.636,85.91,6,P-GPS,
0.347648941864987,36.8999704699353,5731.0059146914,18.04462,0,1.12482615148,14400,2018-04-04 12:31:15,15,0,16.694,5731.0059146914,18.04462,0.3131716,1.12482615148,0,0,-2.23694,143.2, 0.6, -5.5,0,0,1024,1024,1250,1022,143.1,-23.2,99,4.216,4.216,4.218,4.2,0,0,12.636,85.91,6,P-GPS,
0.347648978065094,36.8999704533249,5731.3339986914,18.372704,0,1.12119754244,14500,2018-04-04 12:31:15,15,0,16.694,5731.3339986914,18.372704,0.3131716,1.12482615148,0,0,-2.23694,143.1, 3.2, -5.1,0,0,1024,1024,1251,1022,143.1,-23.2,99,4.216,4.216,4.218,4.2,0,0,12.636,85.91,6,P-GPS,
0.347649010629699,36.8999704844175,5731.6620826914,18.700788,0,1.10491473352,14600,2018-04-04 12:31:15,15,0,16.694,5731.6620826914,18.700788,0.3131716,1.12482615148,0,0,-2.013246,143.1, 4.3, -4.3,0,0,1024,1024,1257,1022,143.1,-23.2,99,4.216,4.216,4.218,4.2,0,0,12.636,85.91,6,P-GPS,
0.347649094800203,36.8999704742672,5731.9901666914,19.028872,0.3131716,1.08895344692,14700,2018-04-04 12:31:15,15,0,16.694,5731.9901666914,19.028872,0.3131716,1.12482615148,0.223694,-0.223694,-2.23694,143.1, 1.7, -2.7,0,0,1024,1024,1267,1022,143.1,-23.2,99,4.216,4.216,4.218,4.2,0,0,12.636,85.91,6,P-GPS,
0.347649159630187,36.899970433667,5732.3182506914,19.356956,0.4921268,1.08678481168,14800,2018-04-04 12:31:15,15,0,16.694,5732.3182506914,19.356956,0.4921268,1.12482615148,0.223694,-0.447388,-2.23694,143.1, 0.6, -3.1,0,0,1024,1024,1280,1022,143.1,-23.2,99,4.216,4.216,4.218,4.2,0,0,12.636,85.91,6,P-GPS,
0.347649200783206,36.899970370913,5732.6463346914,19.68504,0.223694,1.09687667552,14900,2018-04-04 12:31:15,15,0,16.694,5732.6463346914,19.68504,0.4921268,1.12482615148,0,-0.223694,-2.23694,143.2, 0.8, -5,0,0,1024,1024,1286,1022,143.1,-23.2,99,4.216,4.216,4.218,4.2,0,0,12.636,85.91,6,P-GPS,
0.347649234357854,36.8999703496387,5732.9744186914,20.013124,0,1.09644360464,15000,2018-04-04 12:31:15,15,0,16.747,5732.9744186914,20.013124,0.4921268,1.12482615148,0,0,-2.460634,143.3, 0.1, -4.6,0,0,1024,1024,1299,1022,143.1,-23.2,99,4.209,4.211,4.213,4.201,0,0,13.836,85.91,6,P-GPS,
0.347649224812119,36.8999703665428,5733.6305866914,20.669292,0,1.09326118984,15100,2018-04-04 12:31:16,15,0,16.747,5733.6305866914,20.669292,0.4921268,1.12482615148,0,0,-2.460634,143.2, 0.3, -4.5,0,0,1024,1024,1298,1023,143.1,-23.2,99,4.209,4.211,4.213,4.201,0,0,13.836,85.91,6,P-GPS,
0.347649131572403,36.8999704436463,5733.9586706914,20.997376,0.223694,1.08986552044,15200,2018-04-04 12:31:16,15,0,16.747,5733.9586706914,20.997376,0.4921268,1.12482615148,-0.223694,0,-2.684328,143.1, 1.8, -6.5,0,0,1024,1024,1300,1023,143.1,-23.2,99,4.209,4.211,4.213,4.201,0,0,13.836,85.91,6,P-GPS,
0.347649001862462,36.8999706006819,5734.2867546914,21.32546,0.3131716,1.07416670104,15300,2018-04-04 12:31:16,15,0,16.747,5734.2867546914,21.32546,0.4921268,1.12482615148,-0.223694,0.223694,-2.684328,142.9, 5.1, -5.7,0,0,1024,1024,1300,1024,143.1,-23.2,99,4.209,4.211,4.213,4.201,0,0,13.836,85.91,6,P-GPS,
0.347648908805233,36.8999708260937,5734.9429226914,21.981628,0.223694,1.036253314,15400,2018-04-04 12:31:16,15,0,16.747,5734.9429226914,21.981628,0.4921268,1.12482615148,-0.223694,0,-2.908022,142.8, 6.4, -3.9,0,0,1024,1024,1310,1024,143.1,-23.2,99,4.209,4.211,4.213,4.201,0,0,13.836,85.91,6,P-GPS,
0.347648856184508,36.8999710163909,5735.2710066914,22.309712,0,1.00219163312,15500,2018-04-04 12:31:16,15,0,16.747,5735.2710066914,22.309712,0.4921268,1.12482615148,0,0,-2.908022,142.8, 5.7, -4.8,0,0,1024,1024,1318,1024,143.1,-23.2,99,4.209,4.211,4.213,4.201,0,0,13.836,85.91,6,P-GPS,
0.347648837107083,36.8999711892911,5735.9271746914,22.96588,0,0.96664045088,15600,2018-04-04 12:31:16,15,0,16.747,5735.9271746914,22.96588,0.4921268,1.12482615148,0,0,-2.908022,142.9, 5.5, -4.7,0,0,1024,1024,1325,1022,143.1,-23.2,99,4.209,4.211,4.213,4.201,0,0,13.836,85.91,6,P-GPS,
0.347648869105804,36.8999713427864,5736.2552586914,23.293964,0,0.92315291668,15700,2018-04-04 12:31:16,15,0,16.747,5736.2552586914,23.293964,0.4921268,1.12482615148,0,0,-3.131716,142.7, 5.9, -4.5,0,0,1024,1024,1306,1023,143.1,-23.2,99,4.209,4.211,4.213,4.201,0,0,13.836,85.91,6,P-GPS,
0.347648949167948,36.8999714388203,5736.9114266914,23.950132,0,0.87888454256,15800,2018-04-04 12:31:16,15,0,16.747,5736.9114266914,23.950132,0.4921268,1.12482615148,0,0,-3.131716,142.9, 3.5, -5.1,0,0,1024,1024,1300,1024,143.1,-23.2,99,4.209,4.211,4.213,4.201,0,0,13.836,85.91,6,P-GPS,
0.347649069293376,36.8999715056848,5737.2395106914,24.278216,0,0.82909451472,15900,2018-04-04 12:31:16,15,0,16.747,5737.2395106914,24.278216,0.4921268,1.12482615148,0,0,-3.131716,143.2, 0.7, -5,0,0,1024,1024,1299,1023,143.1,-23.2,99,4.209,4.211,4.213,4.201,0,0,13.836,85.91,6,P-GPS,
0.347649121925908,36.8999716271172,5737.8956786914,24.934384,0,0.7877788966,16000,2018-04-04 12:31:16,15,0,16.721,5737.8956786914,24.934384,0.4921268,1.12482615148,0,0.223694,-3.131716,143.1, 2.6, -5.1,0,0,1024,1024,1289,1024,143.1,-23.2,99,4.205,4.209,4.213,4.202,0,0,13.144,85.91,6,P-GPS,
0.34764914128658,36.8999717659022,5738.2237626914,25.262468,0.223694,0.75421918424,16100,2018-04-04 12:31:17,15,0,16.721,5738.2237626914,25.262468,0.4921268,1.12482615148,0,0.223694,-3.131716,143, 4.9, -4.3,0,0,1024,1024,1289,1023,143.1,-23.2,99,4.205,4.209,4.213,4.202,0,0,13.144,85.91,6,P-GPS,
0.347649139564297,36.8999718746767,5738.8799306914,25.918636,0,0.73473427548,16200,2018-04-04 12:31:17,15,0,16.721,5738.8799306914,25.918636,0.4921268,1.12482615148,0,0,-3.131716,143, 4.7, -4.1,0,0,1024,1024,1302,1024,143.1,-23.2,99,4.205,4.209,4.213,4.202,0,0,13.144,85.91,6,P-GPS,
0.347649092847801,36.8999719647203,5739.2080146914,26.24672,0,0.73466537784,16300,2018-04-04 12:31:17,15,0,16.721,5739.2080146914,26.24672,0.4921268,1.12482615148,0,0,-3.131716,142.9, 6.5, -3.2,0,0,1024,1024,1307,1023,143.1,-23.2,99,4.205,4.209,4.213,4.202,0,0,13.144,85.91,6,P-GPS,
0.347649007753154,36.8999719637656,5739.8641826914,26.902888,0.223694,0.76281826588,16400,2018-04-04 12:31:17,15,0,16.721,5739.8641826914,26.902888,0.4921268,1.12482615148,0,-0.223694,-3.131716,142.7, 5.6, -6,0,0,1024,1024,1293,1023,143.1,-23.2,99,4.205,4.209,4.213,4.202,0,0,13.144,85.91,6,P-GPS,
0.347648936025387,36.8999718704082,5740.1922666914,27.230972,0.223694,0.80120409388,16500,2018-04-04 12:31:17,15,0,16.721,5740.1922666914,27.230972,0.4921268,1.12482615148,0,-0.223694,-2.908022,143, 3.3, -8.5,0,0,1024,1024,1291,1023,143.1,-23.2,99,4.205,4.209,4.213,4.202,0,0,13.144,85.91,6,P-GPS,
0.347648897649781,36.8999718022683,5740.8484346914,27.88714,0,0.82498034136,16600,2018-04-04 12:31:17,15,0,16.721,5740.8484346914,27.88714,0.4921268,1.12482615148,0,0,-2.908022,143.1, 3, -8.2,0,0,1024,1024,1305,1023,143.1,-23.2,99,4.205,4.209,4.213,4.202,0,0,13.144,85.91,6,P-GPS,
0.347648894215495,36.8999717819451,5741.1765186914,28.215224,0,0.82954727064,16700,2018-04-04 12:31:17,15,0,16.721,5741.1765186914,28.215224,0.4921268,1.12482615148,0,0,-2.908022,143, 3.2, -7.4,0,0,1024,1024,1307,1023,143.1,-23.2,99,4.205,4.209,4.213,4.202,0,0,13.144,85.91,6,P-GPS,
0.347648904909283,36.8999718140135,5741.5046026914,28.543308,0,0.8206529134,16800,2018-04-04 12:31:17,15,0,16.721,5741.5046026914,28.543308,0.4921268,1.12482615148,0,0,-2.908022,143, 3.8, -6.1,0,0,1024,1024,1309,1023,143.1,-23.2,99,4.205,4.209,4.213,4.202,0,0,13.144,85.91,6,P-GPS,
0.347648936923576,36.8999718683707,5742.1607706914,29.199476,0,0.80124346396,16900,2018-04-04 12:31:17,15,0,16.721,5742.1607706914,29.199476,0.4921268,1.12482615148,0,0,-2.908022,143, 2.9, -5,0,0,1024,1024,1312,1022,143.1,-23.2,99,4.205,4.209,4.213,4.202,0,0,13.144,85.91,6,P-GPS,
0.347648949894845,36.8999719380971,5742.4888546914,29.52756,0.223694,0.78590553696,17000,2018-04-04 12:31:17,15,0,16.747,5742.4888546914,29.52756,0.4921268,1.12482615148,0,-0.223694,-3.131716,143.1, 2.4, -4.7,0,0,1024,1024,1314,1022,143.1,-23.2,99,4.193,4.196,4.193,4.176,0,0,15.822,85.91,6,P-GPS,
0.347648934984506,36.8999719672308,5743.1450226914,30.183728,0.447388,0.78642390968,17100,2018-04-04 12:31:18,15,0,16.747,5743.1450226914,30.183728,0.4921268,1.12482615148,0,-0.447388,-3.35541,143, 2.2, -6.4,0,0,1024,1024,1319,1022,143.1,-23.2,99,4.193,4.196,4.193,4.176,0,0,15.822,85.91,6,P-GPS,
0.347648882715728,36.899971992196,5743.4731066914,30.511812,0.223694,0.80025265028,17200,2018-04-04 12:31:18,15,0,16.747,5743.4731066914,30.511812,0.4921268,1.12482615148,0,-0.223694,-3.131716,142.9, 3, -7.8,0,0,1024,1024,1317,1021,143.1,-23.2,99,4.193,4.196,4.193,4.176,0,0,15.822,85.91,6,P-GPS,
0.347648854056132,36.8999720477251,5744.1292746914,31.16798,0,0.80227364772,17300,2018-04-04 12:31:18,15,0,16.747,5744.1292746914,31.16798,0.4921268,1.12482615148,0,0,-3.35541,142.9, 3.3, -7.3,0,0,1024,1024,1316,1022,143.1,-23.2,99,4.193,4.196,4.193,4.176,0,0,15.822,85.91,6,P-GPS,
0.347648831204177,36.8999721297812,5744.4573586914,31.496064,0,0.79971131168,17400,2018-04-04 12:31:18,15,0,16.747,5744.4573586914,31.496064,0.4921268,1.12482615148,0,0,-3.35541,142.9, 3.3, -7.8,0,0,1024,1024,1316,1022,143.1,-23.2,99,4.193,4.196,4.193,4.176,0,0,15.822,85.91,6,P-GPS,
0.347648835370042,36.8999722215614,5745.1135266914,32.152232,0,0.78788716432,17500,2018-04-04 12:31:18,15,0,16.747,5745.1135266914,32.152232,0.4921268,1.12482615148,0,0,-3.131716,143, 2.3, -7.8,0,0,1024,1024,1323,1022,143.1,-23.2,99,4.193,4.196,4.193,4.176,0,0,15.822,85.91,6,P-GPS,
0.347648840101385,36.8999723622119,5745.7696946914,32.8084,0,0.77282482788,17600,2018-04-04 12:31:18,15,0,16.747,5745.7696946914,32.8084,0.4921268,1.12482615148,0,0,-3.131716,143.1, 1.9, -7,0,0,1024,1024,1334,1022,143.1,-23.2,99,4.193,4.196,4.193,4.176,0,0,15.822,85.91,6,P-GPS,
0.347648831585844,36.8999725442204,5746.0977786914,33.136484,0.223694,0.7633530428,17700,2018-04-04 12:31:18,15,0,16.747,5746.0977786914,33.136484,0.4921268,1.12482615148,-0.223694,0,-3.35541,143, 2.9, -6.9,0,0,1024,1024,1335,1021,143.1,-23.2,99,4.193,4.196,4.193,4.176,0,0,15.822,85.91,6,P-GPS,
0.347648778758815,36.8999729973746,5747.0820306914,34.120736,0.223694,0.77628283324,17900,2018-04-04 12:31:18,15,0,16.747,5747.0820306914,34.120736,0.4921268,1.12482615148,-0.223694,0,-3.35541,143, 4.5, -6.7,0,0,1024,1024,1336,1021,143.1,-23.2,99,4.193,4.196,4.193,4.176,0,0,15.822,85.91,6,P-GPS,
0.347648747100134,36.8999732305097,5747.7381986914,34.776904,0.223694,0.7981299468,18000,2018-04-04 12:31:19,15,0,16.747,5747.7381986914,34.776904,0.4921268,1.12482615148,0,0.223694,-3.579104,143, 4.4, -6.7,0,0,1024,1024,1336,1022,143.1,-23.2,99,4.193,4.196,4.193,4.176,0,0,15.822,85.91,6,P-GPS,
0.347648732182874,36.8999734492051,5748.3943666914,35.433072,0.223694,0.82104005252,18100,2018-04-04 12:31:19,15,0,16.747,5748.3943666914,35.433072,0.4921268,1.12482615148,0,0.223694,-3.579104,142.9, 5, -6.6,0,0,1024,1024,1349,1022,143.1,-23.2,99,4.193,4.196,4.193,4.176,0,0,15.822,85.91,6,P-GPS,
0.347648734015128,36.8999736688055,5748.7224506914,35.761156,0.223694,0.8452756176,18200,2018-04-04 12:31:19,15,0,16.747,5748.7224506914,35.761156,0.4921268,1.12482615148,0,0.223694,-3.579104,142.8, 5.8, -6.3,0,0,1024,1024,1322,1022,143.1,-23.2,99,4.193,4.196,4.193,4.176,0,0,15.822,85.91,6,P-GPS,
0.347648749590126,36.8999738545054,5749.3786186914,36.417324,0.223694,0.8663714188,18300,2018-04-04 12:31:19,15,0,16.747,5749.3786186914,36.417324,0.4921268,1.12482615148,0,0.223694,-3.579104,142.9, 5.7, -6.3,0,0,1024,1024,1322,1022,143.1,-23.2,99,4.193,4.196,4.193,4.176,0,0,15.822,85.91,6,P-GPS,
0.347648761909102,36.8999740361274,5750.0347866914,37.073492,0.223694,0.89247706268,18400,2018-04-04 12:31:19,15,0,16.747,5750.0347866914,37.073492,0.4921268,1.12482615148,0,0.223694,-3.802798,142.8, 5.4, -6.7,0,0,1024,1024,1339,1022,143.1,-23.2,99,4.193,4.196,4.193,4.176,0,0,15.822,85.91,6,P-GPS,
0.34764879068615,36.8999741748344,5750.6909546914,37.72966,0.223694,0.9091699766,18500,2018-04-04 12:31:19,15,0,16.747,5750.6909546914,37.72966,0.4921268,1.12482615148,0,0.223694,-3.579104,142.8, 5.7, -7.3,0,0,1024,1024,1352,1022,143.2,-23.2,99,4.193,4.196,4.193,4.176,0,0,15.822,85.91,6,P-GPS,
0.347648848713003,36.8999743050279,5751.3471226914,38.385828,0.223694,0.91793310024,18600,2018-04-04 12:31:19,15,0,16.747,5751.3471226914,38.385828,0.4921268,1.12482615148,0,0.223694,-3.579104,142.9, 5.7, -7,0,0,1024,1024,1362,1021,143.2,-23.2,99,4.193,4.196,4.193,4.176,0,0,15.822,85.91,6,P-GPS,
0.347648948077501,36.8999744004268,5751.6752066914,38.713912,0.223694,0.90982286376,18700,2018-04-04 12:31:19,15,0,16.747,5751.6752066914,38.713912,0.4921268,1.12482615148,0,0.223694,-3.802798,142.8, 5.9, -6.5,0,0,1024,1024,1350,1022,143.2,-23.2,99,4.193,4.196,4.193,4.176,0,0,15.822,85.91,6,P-GPS,
0.347649062182979,36.8999744746775,5752.3313746914,39.37008,0.223694,0.89529530424,18800,2018-04-04 12:31:19,15,0,16.747,5752.3313746914,39.37008,0.4921268,1.12482615148,0,0.223694,-3.802798,142.8, 5.4, -6,0,0,1024,1024,1357,1022,143.2,-23.2,99,4.193,4.196,4.193,4.176,0,0,15.822,85.91,6,P-GPS,
0.34764919246145,36.899974498865,5752.9875426914,40.026248,0.223694,0.86634845292,18900,2018-04-04 12:31:19,15,0,16.747,5752.9875426914,40.026248,0.4921268,1.12482615148,0,0.223694,-4.026492,142.9, 5, -5.8,0,0,1024,1024,1393,1023,143.2,-23.2,99,4.193,4.196,4.193,4.176,0,0,15.822,85.91,6,P-GPS,
0.347649302910766,36.8999745019382,5753.6437106914,40.682416,0.223694,0.83862207408,19000,2018-04-04 12:31:19,15,0,16.668,5753.6437106914,40.682416,0.4921268,1.12482615148,0,0.223694,-3.802798,142.9, 5.2, -5.9,0,0,1024,1024,1384,1023,143.2,-23.2,99,4.188,4.19,4.188,4.174,0,0,15.118,87.71,6,P-GPS,
0.34764941855146,36.8999744807063,5754.2998786914,41.338584,0,0.8041010756,19100,2018-04-04 12:31:20,15,0,16.668,5754.2998786914,41.338584,0.4921268,1.12482615148,0,0,-4.250186,142.9, 4.9, -5.2,0,0,1024,1024,1384,1023,143.2,-23.2,99,4.188,4.19,4.188,4.174,0,0,15.118,87.71,6,P-GPS,
0.347649530696902,36.8999744511414,5754.9560466914,41.994752,0,0.76893703248,19200,2018-04-04 12:31:20,15,0,16.668,5754.9560466914,41.994752,0.4921268,1.12482615148,0,0,-4.47388,142.9, 4.2, -5.8,0,0,1024,1024,1400,1023,143.2,-23.2,99,4.188,4.19,4.188,4.174,0,0,15.118,87.71,6,P-GPS,
0.347649632903645,36.8999743718923,5755.6122146914,42.65092,0,0.72278217536,19300,2018-04-04 12:31:20,15,0,16.668,5755.6122146914,42.65092,0.4921268,1.12482615148,0,0,-4.47388,143, 4.4, -6.6,0,0,1024,1024,1400,1023,143.2,-23.2,99,4.188,4.19,4.188,4.174,0,0,15.118,87.71,6,P-GPS,
0.347649737118361,36.8999742799726,5756.5964666914,43.635172,0,0.67272311864,19400,2018-04-04 12:31:20,15,0,16.668,5756.5964666914,43.635172,0.4921268,1.12482615148,0,0,-4.697574,142.9, 5, -6.9,0,0,1024,1024,1417,1023,143.2,-23.2,99,4.188,4.19,4.188,4.174,0,0,15.118,87.71,6,P-GPS,
0.347649864922921,36.8999741776405,5757.2526346914,44.29134,0,0.61445868108,19500,2018-04-04 12:31:20,15,0,16.668,5757.2526346914,44.29134,0.4921268,1.12482615148,0,0,-4.697574,142.9, 5.1, -7.1,0,0,1024,1024,1419,1023,143.2,-23.2,99,4.188,4.19,4.188,4.174,0,0,15.118,87.71,6,P-GPS,
0.347650014176734,36.8999740939207,5757.9088026914,44.947508,0,0.55739175012,19600,2018-04-04 12:31:20,15,0,16.668,5757.9088026914,44.947508,0.4921268,1.12482615148,0,0,-4.921268,142.9, 4.8, -7,0,0,1024,1024,1416,1023,143.2,-23.2,99,4.188,4.19,4.188,4.174,0,0,15.118,87.71,6,P-GPS,
0.347650191760587,36.8999739821892,5758.8930546914,45.93176,0,0.48744752216,19700,2018-04-04 12:31:20,15,0,16.668,5758.8930546914,45.93176,0.4921268,1.12482615148,0,0,-4.921268,142.9, 4.6, -6.6,0,0,1024,1024,1416,1023,143.2,-23.2,99,4.188,4.19,4.188,4.174,0,0,15.118,87.71,6,P-GPS,
0.347650359676165,36.8999738640166,5759.5492226914,46.587928,0,0.41938321552,19800,2018-04-04 12:31:20,15,0,16.668,5759.5492226914,46.587928,0.4921268,1.12482615148,0,0,-5.144962,142.9, 4.3, -5.9,0,0,1024,1024,1418,1023,143.2,-23.2,99,4.188,4.19,4.188,4.174,0,0,15.118,87.71,6,P-GPS,
0.347650549707844,36.8999737077678,5760.5334746914,47.57218,0,0.33817586384,19900,2018-04-04 12:31:20,15,0,16.668,5760.5334746914,47.57218,0.4921268,1.12482615148,0,0,-5.144962,143, 4, -6.5,0,0,1024,1024,1418,1023,143.2,-23.2,99,4.188,4.19,4.188,4.174,0,0,15.118,87.71,6,P-GPS,
0.347650734688294,36.8999735718124,5761.1896426914,48.228348,0,0.270221793424,20000,2018-04-04 12:31:20,15,0,16.588,5761.1896426914,48.228348,0.4921268,1.12482615148,0,0,-5.144962,143, 3.7, -6.5,0,0,1024,1024,1417,1023,143.2,-23.2,99,4.188,4.189,4.182,4.163,0,0,15.224,87.71,6,P-GPS,
0.347650909369853,36.8999734120154,5762.1738946914,49.2126,0,0.205012145668,20100,2018-04-04 12:31:21,15,0,16.588,5762.1738946914,49.2126,0.4921268,1.12482615148,0,0,-5.368656,143, 3.7, -6.8,0,0,1024,1024,1417,1023,143.2,-23.2,99,4.188,4.189,4.182,4.163,0,0,15.224,87.71,6,P-GPS,
0.347651042677129,36.8999732613687,5763.1581466914,50.196852,0,0.158643049696,20200,2018-04-04 12:31:21,15,0,16.588,5763.1581466914,50.196852,0.4921268,1.12482615148,0,0,-5.144962,143, 3.7, -7.1,0,0,1024,1024,1414,1023,143.2,-23.2,99,4.188,4.189,4.182,4.163,0,0,15.224,87.71,6,P-GPS,
0.347651191189796,36.8999730979364,5763.8143146914,50.85302,0,0.139124348284,20300,2018-04-04 12:31:21,15,0,16.588,5763.8143146914,50.85302,0.4921268,1.12482615148,0,0,-5.144962,143, 3.8, -7.1,0,0,1024,1024,1417,1022,143.2,-23.2,99,4.188,4.189,4.182,4.163,0,0,15.224,87.71,6,P-GPS,
0.347651336940419,36.8999729646056,5764.4704826914,51.509188,0,0.164321199484,20400,2018-04-04 12:31:21,15,0,16.588,5764.4704826914,51.509188,0.4921268,1.12482615148,0,0,-4.921268,143, 3.8, -7.2,0,0,1024,1024,1422,1022,143.2,-23.2,99,4.188,4.189,4.182,4.163,0,0,15.224,87.71,6,P-GPS,
0.347651496270433,36.8999728154738,5765.4547346914,52.49344,0,0.217427172312,20500,2018-04-04 12:31:21,15,0,16.588,5765.4547346914,52.49344,0.4921268,1.12482615148,0,0,-5.144962,143, 3.5, -7.1,0,0,1024,1024,1437,1022,143.2,-23.2,99,4.188,4.189,4.182,4.163,0,0,15.224,87.71,6,P-GPS,
0.347651631684915,36.8999726906925,5766.1109026914,53.149608,0,0.272741806628,20600,2018-04-04 12:31:21,15,0,16.588,5766.1109026914,53.149608,0.4921268,1.12482615148,0,0,-5.144962,143, 3.5, -7.2,0,0,1024,1024,1445,1021,143.2,-23.2,99,4.188,4.189,4.182,4.163,0,0,15.224,87.71,6,P-GPS,
0.347651780525104,36.8999725618889,5767.0951546914,54.13386,0,0.33756890844,20700,2018-04-04 12:31:21,15,0,16.588,5767.0951546914,54.13386,0.4921268,1.12482615148,0,0,-5.144962,143, 3.7, -6.7,0,0,1024,1024,1445,1021,143.2,-23.2,99,4.188,4.189,4.182,4.163,0,0,15.224,87.71,6,P-GPS,
0.347651908997529,36.8999724595009,5767.7513226914,54.790028,0,0.39430119372,20800,2018-04-04 12:31:21,15,0,16.588,5767.7513226914,54.790028,0.4921268,1.12482615148,0,0,-5.368656,143, 3.6, -6.4,0,0,1024,1024,1445,1021,143.2,-23.2,99,4.188,4.189,4.182,4.163,0,0,15.224,87.71,6,P-GPS,
0.347652037943017,36.8999723207999,5768.7355746914,55.77428,0,0.45745408288,20900,2018-04-04 12:31:21,15,0,16.588,5768.7355746914,55.77428,0.4921268,1.12482615148,0,0,-5.59235,142.9, 3.7, -7,0,0,1024,1024,1446,1022,143.2,-23.2,99,4.188,4.189,4.182,4.163,0,0,15.224,87.71,6,P-GPS,
0.347652143533768,36.8999721969191,5769.7198266914,56.758532,0,0.512057103,21000,2018-04-04 12:31:21,15,0,16.535,5769.7198266914,56.758532,0.4921268,1.12482615148,0,0,-5.816044,142.9, 4, -7.4,0,0,1024,1024,1447,1021,143.2,-23.2,99,4.18,4.181,4.178,4.161,0,0,15.52,87.71,6,P-GPS,
0.347652284567603,36.8999720184283,5770.7040786914,57.742784,0,0.58887140992,21100,2018-04-04 12:31:22,15,0,16.535,5770.7040786914,57.742784,0.4921268,1.12482615148,0,0,-5.59235,142.8, 4, -7.7,0,0,1024,1024,1455,1022,143.2,-23.2,99,4.18,4.181,4.178,4.161,0,0,15.52,87.71,6,P-GPS,
0.347652433104087,36.8999718490957,5771.6883306914,58.727036,0,0.66762141244,21200,2018-04-04 12:31:22,15,0,16.535,5771.6883306914,58.727036,0.4921268,1.12482615148,0,0,-5.59235,142.9, 3.1, -7.7,0,0,1024,1024,1451,1022,143.2,-23.2,99,4.18,4.181,4.178,4.161,0,0,15.52,87.71,6,P-GPS,
0.347652620535141,36.8999716611219,5772.3444986914,59.383204,0,0.76264438136,21300,2018-04-04 12:31:22,15,0,16.535,5772.3444986914,59.383204,0.4921268,1.12482615148,0,0,-5.816044,143, 2.7, -7,0,0,1024,1024,1453,1021,143.2,-23.2,99,4.18,4.181,4.178,4.161,0,0,15.52,87.71,6,P-GPS,
0.347652785820985,36.8999715309091,5773.3287506914,60.367456,0,0.83928152292,21400,2018-04-04 12:31:22,15,0,16.535,5773.3287506914,60.367456,0.4921268,1.12482615148,0,0,-5.816044,143, 2.8, -6.8,0,0,1024,1024,1452,1022,143.2,-23.2,99,4.18,4.181,4.178,4.161,0,0,15.52,87.71,6,P-GPS,
0.347652953270625,36.8999713882345,5774.3130026914,61.351708,0,0.91921262784,21500,2018-04-04 12:31:22,15,0,16.535,5774.3130026914,61.351708,0.4921268,1.12482615148,0,0,-6.039738,143, 2.5, -6.7,0,0,1024,1024,1458,1022,143.2,-23.2,99,4.18,4.181,4.178,4.161,0,0,15.52,87.71,6,P-GPS,
