latitude,longitude,altitude(feet),ascent(feet),speed(mph),distance(feet),time(millisecond),datetime(utc),satellites,voltage(v),max_altitude(feet),max_ascent(feet),max_speed(mph),max_distance(feet),compass_heading(degrees), pitch(degrees), roll(degrees),isPhoto,isVideo,rc_elevator,rc_aileron,rc_throttle,rc_rudder,gimbal_heading(degrees),gimbal_pitch(degrees),battery_percent,voltageCell1,voltageCell2,voltageCell3,voltageCell4,voltageCell5,voltageCell6,battery_temperature(f),flycStateRaw,flycState,message
0.345826891374689,36.9133927225511,5395.254472845,0,0,0,0,2017-11-15 06:35:33,14,17.023,5395.254472845,0,0,0,219.8, 1.1, -0.8,0,0,1024,1024,1024,1024,224.4,0,99,4.272,4.271,4.272,4.268,0,0,76.91,41,Motors_Started,Setting new Return-To-Home altitude to 30m (98 ft). Setting new Maximum Flight Altitude to 120m (394 ft)
0.345826890124044,36.9133927279867,5395.254472845,0,0,0.00203492788664,100,2017-11-15 06:35:33,14,17.023,5395.254472845,0,0,0.00203492788664,219.8, 1.1, -0.8,0,0,1024,1024,1024,1024,224.4,0,99,4.272,4.271,4.272,4.268,0,0,76.91,41,Motors_Started,
0.345826888994718,36.9133927289411,5395.254472845,0,0,0.0024877953552,200,2017-11-15 06:35:33,14,17.023,5395.254472845,0,0,0.0024877953552,219.8, 1.1, -0.8,0,0,1024,1024,1024,1024,224.4,0,99,4.272,4.271,4.272,4.268,0,0,76.91,41,Motors_Started,
0.345826888002996,36.9133927371185,5395.254472845,0,0,0.0054553151352,300,2017-11-15 06:35:33,14,17.023,5395.254472845,0,0,0.0054553151352,219.9, 1.1, -0.8,0,0,1024,1024,1024,1024,224.4,0,99,4.272,4.271,4.272,4.268,0,0,76.91,41,Motors_Started,
0.345826887157019,36.9133927402142,5395.254472845,0,0,0.0066254267212,400,2017-11-15 06:35:33,14,17.023,5395.254472845,0,0,0.0066254267212,219.8, 1.1, -0.8,0,0,1024,1024,1024,1024,224.4,0,99,4.272,4.271,4.272,4.268,0,0,76.91,41,Motors_Started,
0.345826886184838,36.9133927128203,5395.254472845,0,0,0.004023622176,500,2017-11-15 06:35:33,14,17.023,5395.254472845,0,0,0.0066254267212,219.8, 1.1, -0.8,0,0,1024,1024,1024,1024,224.4,0,99,4.272,4.271,4.272,4.268,0,0,76.91,41,Motors_Started,
0.345826885133678,36.9133926852241,5395.254472845,0,0,0.0138075463736,600,2017-11-15 06:35:33,14,17.023,5395.254472845,0,0,0.0138075463736,219.8, 1.1, -0.8,0,0,1024,1024,1024,1024,224.4,0,99,4.272,4.271,4.272,4.268,0,0,76.91,41,Motors_Started,
0.345826884342254,36.9133926642089,5395.254472845,0,0,0.0214398300824,700,2017-11-15 06:35:33,14,17.023,5395.254472845,0,0,0.0214398300824,219.8, 1.1, -0.7,0,0,1024,1024,1024,1024,224.4,0,99,4.272,4.271,4.272,4.268,0,0,76.91,41,Motors_Started,
0.345826883957127,36.9133926464667,5395.254472845,0,0,0.0278904864568,800,2017-11-15 06:35:34,14,17.023,5395.254472845,0,0,0.0278904864568,219.8, 1.1, -0.7,0,0,1024,1024,1024,1024,224.4,0,99,4.272,4.271,4.272,4.268,0,0,76.91,41,Motors_Started,
0.345826883765785,36.9133926380307,5395.254472845,0,0,0.0309613526968,900,2017-11-15 06:35:34,14,17.023,5395.254472845,0,0,0.0309613526968,219.8, 1.1, -0.7,0,0,1024,1024,1024,1024,224.4,0,99,4.272,4.271,4.272,4.268,0,0,76.91,41,Motors_Started,
0.345826883993767,36.9133926313554,5395.254472845,0,0,0.03338090658,1000,2017-11-15 06:35:34,14,17.023,5395.254472845,0,0,0.03338090658,219.8, 1.3, -0.8,0,0,1024,1024,1024,1024,224.4,0,99,4.272,4.271,4.272,4.268,0,0,76.91,41,Motors_Started,
0.345826884359353,36.913392636959,5395.254472845,0,0,0.0313323828924,1100,2017-11-15 06:35:34,14,17.023,5395.254472845,0,0,0.03338090658,219.8, 1.4, -0.9,0,0,1024,1024,1024,1024,224.3,0,99,4.272,4.271,4.272,4.268,0,0,76.91,41,Motors_Started,
0.345826882080345,36.9133926293919,5395.254472845,0,0,0.034157153324,1200,2017-11-15 06:35:34,14,17.023,5395.254472845,0,0,0.034157153324,219.8, 1.1, -0.7,0,0,1024,1024,1024,1024,224.4,0,99,4.272,4.271,4.272,4.268,0,0,76.91,41,Motors_Started,
0.345826879656406,36.9133926293373,5395.254472845,0,0,0.034275919732,1300,2017-11-15 06:35:34,14,17.023,5395.254472845,0,0,0.034275919732,219.8, 1.2, -0.7,0,0,1024,1024,1024,1024,224.4,0,99,4.272,4.271,4.272,4.268,0,0,76.91,41,Motors_Started,
0.34582687714046,36.9133926280247,5395.254472845,0,0,0.034875985368,1400,2017-11-15 06:35:34,14,17.023,5395.254472845,0,0,0.034875985368,219.8, 1.1, -0.7,0,0,1024,1024,1024,1024,224.4,0,99,4.272,4.271,4.272,4.268,0,0,76.91,41,Motors_Started,
0.345826874319995,36.9133926299454,5395.254472845,0,0,0.034354659892,1500,2017-11-15 06:35:34,14,17.023,5395.254472845,0,0,0.034875985368,219.9, 0.9, -0.6,0,0,1024,1024,1024,1024,224.4,0,99,4.272,4.271,4.272,4.268,0,0,76.91,10,Assisted_Takeoff,
0.345826871685987,36.9133926368675,5395.254472845,0,0,0.0320757556196,1600,2017-11-15 06:35:34,14,17.023,5395.254472845,0,0,0.034875985368,219.8, 1.4, -0.9,0,0,565,486,736,1453,224,0,99,4.272,4.271,4.272,4.268,0,0,76.91,10,Assisted_Takeoff,
0.345826870857109,36.9133926470143,5395.254472845,0,0,0.0285576780792,1700,2017-11-15 06:35:34,14,17.023,5395.254472845,0,0,0.034875985368,219.9, 1, -0.7,0,0,957,894,1024,1080,222.7,0,99,4.272,4.271,4.272,4.268,0,0,76.91,10,Assisted_Takeoff,
0.345826867647446,36.9133926432848,5395.254472845,0,0,0.0301876321996,1800,2017-11-15 06:35:34,14,17.023,5395.254472845,0,0,0.034875985368,219.8, 1.3, -0.9,0,0,1024,1024,1024,1024,221.7,0,99,4.272,4.271,4.272,4.268,0,0,76.91,10,Assisted_Takeoff,
0.345826867802962,36.9133926536055,5395.254472845,0,0,0.0265838591184,1900,2017-11-15 06:35:35,14,17.023,5395.254472845,0,0,0.034875985368,219.8, 1.2, -0.8,0,0,1024,1024,1024,1024,221.2,0,99,4.272,4.271,4.272,4.268,0,0,76.91,10,Assisted_Takeoff,
0.345826864417427,36.9133926445171,5395.254472845,0,0,0.0301211623812,2000,2017-11-15 06:35:35,14,16.997,5395.254472845,0,0,0.034875985368,219.8, 1.1, -0.8,0,0,1024,1024,1024,1024,220.9,0,99,4.272,4.271,4.272,4.268,0,0,76.91,10,Assisted_Takeoff,
0.34582686582766,36.9133926898695,5395.254472845,0,0,0.0151344493032,2100,2017-11-15 06:35:35,14,16.997,5395.254472845,0,0,0.034875985368,219.8, 1.2, -0.8,0,0,1024,1024,1024,1024,220.9,0,99,4.272,4.271,4.272,4.268,0,0,76.91,10,Assisted_Takeoff,
0.345826863886555,36.9133927140365,5395.254472845,0,0,0.0104991473176,2200,2017-11-15 06:35:35,14,16.997,5395.254472845,0,0,0.034875985368,219.8, 1.1, -0.7,0,0,1024,1024,1024,1024,220.8,0,99,4.272,4.271,4.272,4.268,0,0,76.91,10,Assisted_Takeoff,
0.345826865275617,36.9133927111673,5395.254472845,0,0,0.0103885830096,2300,2017-11-15 06:35:35,14,16.997,5395.254472845,0,0,0.034875985368,219.8, 1.1, -0.7,0,0,1024,1024,1024,1024,220.6,0,99,4.272,4.271,4.272,4.268,0,0,76.91,10,Assisted_Takeoff,
0.345826864270053,36.9133926981545,5395.254472845,0,0,0.013304954494,2400,2017-11-15 06:35:35,14,16.997,5395.254472845,0,0,0.034875985368,219.8, 1.1, -0.7,0,0,1024,1024,1024,1024,220.6,0,99,4.272,4.271,4.272,4.268,0,0,76.91,10,Assisted_Takeoff,
0.345826866042614,36.9133926898015,5395.254472845,0,0,0.0151058731868,2500,2017-11-15 06:35:35,14,16.997,5395.254472845,0,0,0.034875985368,219.8, 1.1, -0.7,0,0,1024,1024,1024,1024,220.5,0,99,4.272,4.271,4.272,4.268,0,0,76.91,10,Assisted_Takeoff,
0.345826865593978,36.9133926811006,5395.254472845,0,0,0.0178094821972,2600,2017-11-15 06:35:35,14,16.997,5395.254472845,0,0,0.034875985368,219.8, 1.1, -0.7,0,0,1024,1024,1024,1024,220.4,0,99,4.272,4.271,4.272,4.268,0,0,76.91,10,Assisted_Takeoff,
0.345826867170312,36.9133926736823,5395.254472845,0,0,0.0198966213716,2700,2017-11-15 06:35:35,14,16.997,5395.254472845,0,0,0.034875985368,219.8, 1.1, -0.7,0,0,1024,1024,1024,1024,220.4,0,99,4.272,4.271,4.272,4.268,0,0,76.91,10,Assisted_Takeoff,
0.345826867047364,36.913392667803,5395.254472845,0,0,0.0218577106732,2800,2017-11-15 06:35:36,14,16.997,5395.254472845,0,0,0.034875985368,219.8, 1.1, -0.7,0,0,1024,1024,1033,1024,220.4,0,99,4.272,4.271,4.272,4.268,0,0,76.91,10,Assisted_Takeoff,
0.345826904156346,36.9133926647897,5395.254472845,0,0,0.0215836292996,2900,2017-11-15 06:35:36,14,16.997,5395.254472845,0,0,0.034875985368,219.8, 1.1, -0.7,0,0,1024,1024,1109,1024,220.3,0,99,4.272,4.271,4.272,4.268,0,0,76.91,10,Assisted_Takeoff,
0.345826933864864,36.913392661056,5395.254472845,0,0,0.0272709654396,3000,2017-11-15 06:35:36,14,16.649,5395.254472845,0,0,0.034875985368,219.8, 1.1, -0.7,0,0,1024,1024,1145,1024,220.3,0,99,4.249,4.245,4.242,4.23,0,0,76.91,10,Assisted_Takeoff,
0.345826961238194,36.9133926604998,5395.254472845,0,0,0.034091864608,3100,2017-11-15 06:35:36,14,16.649,5395.254472845,0,0,0.034875985368,219.8, 1.1, -0.7,0,0,1024,1024,1141,1024,220.3,0,99,4.249,4.245,4.242,4.23,0,0,76.91,10,Assisted_Takeoff,
0.345826980063006,36.9133926579758,5395.254472845,0,0,0.040026248,3200,2017-11-15 06:35:36,14,16.649,5395.254472845,0,0,0.040026248,219.8, 1, -0.6,0,0,1024,1024,1145,1024,220.3,0,99,4.249,4.245,4.242,4.23,0,0,76.91,10,Assisted_Takeoff,
0.34582699389501,36.9133926578211,5395.254472845,0,0,0.044235893804,3300,2017-11-15 06:35:36,14,16.649,5395.254472845,0,0,0.044235893804,219.8, 1.1, -0.6,0,0,1024,1024,1151,1024,220.2,0,99,4.249,4.245,4.242,4.23,0,0,76.91,10,Assisted_Takeoff,
0.345827004418829,36.9133926567275,5395.254472845,0,0,0.04772637948,3400,2017-11-15 06:35:36,14,16.649,5395.254472845,0,0,0.04772637948,219.8, 1, -0.6,0,0,1024,1024,1155,1024,220.2,0,99,4.249,4.245,4.242,4.23,0,0,76.91,10,Assisted_Takeoff,
0.345827008737462,36.9133926561563,5395.254472845,0,0,0.049196851968,3500,2017-11-15 06:35:36,14,16.649,5395.254472845,0,0,0.049196851968,219.8, 0.9, -0.5,0,0,1024,1024,1178,1024,220.2,0,99,4.249,4.245,4.242,4.23,0,0,76.91,10,Assisted_Takeoff,
0.345827013549514,36.9133926535349,5395.254472845,0,0,0.05119586778,3600,2017-11-15 06:35:36,14,16.649,5395.254472845,0,0,0.05119586778,219.8, 0.9, -0.5,0,0,1024,1024,1219,1024,220.2,0,99,4.249,4.245,4.242,4.23,0,0,76.91,10,Assisted_Takeoff,
0.345827012473113,36.9133926561311,5395.254472845,0,0,0.050391733896,3700,2017-11-15 06:35:36,14,16.649,5395.254472845,0,0,0.05119586778,219.8, 0.8, -0.4,0,0,1024,1024,1284,1024,220.2,0,99,4.249,4.245,4.242,4.23,0,0,76.91,10,Assisted_Takeoff,
0.345827011143488,36.9133926527576,5395.254472845,0,0,0.050575460936,3800,2017-11-15 06:35:37,14,16.649,5395.254472845,0,0,0.05119586778,219.9, 0.1, 0,0,0,1024,1024,1336,1024,220.2,0,99,4.249,4.245,4.242,4.23,0,0,76.91,10,Assisted_Takeoff,
0.34582699812815,36.913392646783,5395.254472845,0,0,0.047761812552,3900,2017-11-15 06:35:37,14,16.649,5395.254472845,0,0,0.05119586778,220.1, -0.9, 0.8,0,0,1024,1024,1356,1024,220.2,0,99,4.249,4.245,4.242,4.23,0,0,76.91,10,Assisted_Takeoff,
0.345826969667834,36.9133925978462,5395.254472845,0,0,0.053721458412,4000,2017-11-15 06:35:37,14,16.997,5395.254472845,0,0,0.053721458412,220.2, -1.2, 0,0,0,1024,1024,1386,1024,220.2,0,99,4.262,4.259,4.259,4.254,0,0,76.91,6,GPS_Atti,Home Point Recorded. RTH Altitude:  30m.
0.345826863873527,36.9133925158787,5395.254472845,0,0,0.076067587736,4100,2017-11-15 06:35:37,14,16.997,5395.254472845,0,0,0.076067587736,220.2, -0.6, 0,0,0,1024,1024,1403,1024,220.2,0,99,4.262,4.259,4.259,4.254,0,0,76.91,6,GPS_Atti,
0.345826718731942,36.9133923980776,5395.254472845,0,0.31540854,0.134096460984,4200,2017-11-15 06:35:37,14,16.997,5395.254472845,0,0.31540854,0.134096460984,220.3, 0.1, 1.2,0,0,1024,1024,1436,1024,220.2,0,99,4.262,4.259,4.259,4.254,0,0,76.91,6,GPS_Atti,
0.345826562214862,36.9133921946373,5395.582556845,0.328084,0.50107456,0.226979009888,4300,2017-11-15 06:35:37,14,16.997,5395.582556845,0.328084,0.50107456,0.226979009888,220.2, 0.8, 0.6,0,0,1024,1024,1444,1024,220.2,0,99,4.262,4.259,4.259,4.254,0,0,76.91,6,GPS_Atti,
0.345826427415524,36.9133919469612,5396.238724845,0.984252,0.50107456,0.32973426252,4400,2017-11-15 06:35:37,14,16.997,5396.238724845,0.984252,0.50107456,0.32973426252,220.1, 2.2, -1,0,0,1024,1024,1459,1024,220.2,0,99,4.262,4.259,4.259,4.254,0,0,76.91,6,GPS_Atti,
0.345826271299041,36.9133916567249,5396.566808845,1.312336,0.31540854,0.44988190416,4500,2017-11-15 06:35:37,14,16.997,5396.566808845,1.312336,0.50107456,0.44988190416,220, 3.2, -2.7,0,0,1024,1024,1460,1024,220.2,0,99,4.262,4.259,4.259,4.254,0,0,76.91,6,GPS_Atti,
0.34582609987437,36.9133914359203,5397.222976845,1.968504,0.31540854,0.5511319074,4600,2017-11-15 06:35:37,14,16.997,5397.222976845,1.968504,0.50107456,0.5511319074,220.1, 3.4, -1.7,0,0,1024,1024,1459,1024,220.2,0,99,4.262,4.259,4.259,4.254,0,0,76.91,6,GPS_Atti,
0.345825952646748,36.9133912507426,5397.879144845,2.624672,0.223694,0.63690618836,4700,2017-11-15 06:35:37,14,16.997,5397.879144845,2.624672,0.50107456,0.63690618836,220.2, 2.7, 0.3,0,0,1024,1024,1463,1024,220.2,0,99,4.262,4.259,4.259,4.254,0,0,76.91,6,GPS_Atti,
0.345825806474358,36.913391079189,5398.863396845,3.608924,0.31540854,0.71844162404,4800,2017-11-15 06:35:38,14,16.997,5398.863396845,3.608924,0.50107456,0.71844162404,220.2, 3.2, 1.3,0,0,1024,1024,1477,1024,220.2,0,99,4.262,4.259,4.259,4.254,0,0,76.91,6,GPS_Atti,
0.345825678455862,36.913390905961,5399.847648845,4.593176,0.223694,0.7969324402,4900,2017-11-15 06:35:38,14,16.997,5399.847648845,4.593176,0.50107456,0.7969324402,220.3, 3.9, 1,0,0,1024,1024,1479,1024,220.2,0,99,4.262,4.259,4.259,4.254,0,0,76.91,6,GPS_Atti,
0.345825597173708,36.9133907086859,5400.503816845,5.249344,0.447388,0.87338913556,5000,2017-11-15 06:35:38,14,16.622,5400.503816845,5.249344,0.50107456,0.87338913556,220.3, 3.9, -1.2,0,0,1024,1024,1479,1024,220.2,0,99,4.193,4.185,4.18,4.17,0,0,76.91,6,GPS_Atti,
0.345825574938934,36.9133905238749,5401.488068845,6.233596,0.223694,0.93497050236,5100,2017-11-15 06:35:38,14,16.622,5401.488068845,6.233596,0.50107456,0.93497050236,220.4, 3, -2.4,0,0,1024,1024,1475,1024,220.2,0,99,4.193,4.185,4.18,4.17,0,0,76.91,6,GPS_Atti,
0.345825509679041,36.9133903605062,5402.472320845,7.217848,0.31540854,0.99838913956,5200,2017-11-15 06:35:38,14,16.622,5402.472320845,7.217848,0.50107456,0.99838913956,220.4, 2.8, -1.9,0,0,1024,1024,1478,1024,220.2,0,99,4.193,4.185,4.18,4.17,0,0,76.91,6,GPS_Atti,
0.345825392180292,36.9133901766004,5403.456572845,8.2021,0.50107456,1.07795607124,5300,2017-11-15 06:35:38,14,16.622,5403.456572845,8.2021,0.50107456,1.07795607124,220.3, 4.3, -0.8,0,0,1024,1024,1480,1024,220.2,0,99,4.193,4.185,4.18,4.17,0,0,76.91,6,GPS_Atti,
0.345825259973438,36.9133899692695,5404.440824845,9.186352,0.447388,1.1676181476,5400,2017-11-15 06:35:38,14,16.622,5404.440824845,9.186352,0.50107456,1.1676181476,220.2, 5.8, -0.6,0,0,1024,1024,1480,1024,220.2,0,99,4.193,4.185,4.18,4.17,0,0,76.91,6,GPS_Atti,
0.345825117417822,36.9133897620344,5405.425076845,10.170604,0.447388,1.25919295368,5500,2017-11-15 06:35:38,14,16.622,5405.425076845,10.170604,0.50107456,1.25919295368,220.1, 6.4, -1.6,0,0,1024,1024,1477,1024,220.2,0,99,4.193,4.185,4.18,4.17,0,0,76.91,6,GPS_Atti,
0.345825013045961,36.9133895596138,5406.409328845,11.154856,0.447388,1.3421260272,5600,2017-11-15 06:35:38,14,16.622,5406.409328845,11.154856,0.50107456,1.3421260272,220.1, 5.6, -3,0,0,1024,1024,1480,1024,220.2,0,99,4.193,4.185,4.18,4.17,0,0,76.91,6,GPS_Atti,
0.345824937834647,36.9133893767374,5407.393580845,12.139108,0.223694,1.41354335232,5700,2017-11-15 06:35:38,14,16.622,5407.393580845,12.139108,0.50107456,1.41354335232,220.1, 5.6, -3.2,0,0,1024,1024,1481,1024,220.2,0,99,4.193,4.185,4.18,4.17,0,0,76.91,6,GPS_Atti,
0.34582485158411,36.9133892197025,5408.377832845,13.12336,0.31540854,1.4788878426,5800,2017-11-15 06:35:38,14,16.622,5408.377832845,13.12336,0.50107456,1.4788878426,220.1, 5.6, -2.9,0,0,1024,1024,1481,1024,220.2,0,99,4.193,4.185,4.18,4.17,0,0,76.91,6,GPS_Atti,
0.345824758181448,36.9133891213695,5409.362084845,14.107612,0.223694,1.5270833822,5900,2017-11-15 06:35:39,14,16.622,5409.362084845,14.107612,0.50107456,1.5270833822,220.1, 6, -2.9,0,0,1024,1024,1480,1024,220.2,0,99,4.193,4.185,4.18,4.17,0,0,76.91,6,GPS_Atti,
0.345824662658552,36.9133890535363,5410.018252845,14.76378,0,1.56623364592,6000,2017-11-15 06:35:39,14,15.821,5410.018252845,14.76378,0.50107456,1.56623364592,220.1, 6.1, -2.7,0,0,1024,1024,1484,1024,220.2,0,99,4.193,4.185,4.18,4.17,0,0,76.91,6,GPS_Atti,
0.345824565808473,36.913389030154,5411.002504845,15.748032,0,1.59208010344,6100,2017-11-15 06:35:39,14,15.821,5411.002504845,15.748032,0.50107456,1.59208010344,220.2, 6, -1.9,0,0,1024,1024,1486,1024,220.2,0,99,4.193,4.185,4.18,4.17,0,0,76.91,6,GPS_Atti,
0.345824482344205,36.9133890309281,5411.986756845,16.732284,0,1.60827761052,6200,2017-11-15 06:35:39,14,15.821,5411.986756845,16.732284,0.50107456,1.60827761052,220.2, 5.7, -1.5,0,0,1024,1024,1485,1024,220.2,0,99,4.193,4.185,4.18,4.17,0,0,76.91,6,GPS_Atti,
0.345824407934085,36.9133890827695,5412.971008845,17.716536,0,1.60761488084,6300,2017-11-15 06:35:39,14,15.821,5412.971008845,17.716536,0.50107456,1.60827761052,220.2, 5.1, -1.3,0,0,1024,1024,1497,1024,220.2,0,99,4.193,4.185,4.18,4.17,0,0,76.91,6,GPS_Atti,
0.345824337355693,36.9133891431384,5413.955260845,18.700788,0,1.60429138992,6400,2017-11-15 06:35:39,14,15.821,5413.955260845,18.700788,0.50107456,1.60827761052,220.2, 4.7, -1.1,0,0,1024,1024,1505,1024,220.2,0,99,4.193,4.185,4.18,4.17,0,0,76.91,6,GPS_Atti,
0.345824246219825,36.913389254413,5414.939512845,19.68504,0,1.59136159948,6500,2017-11-15 06:35:39,14,15.821,5414.939512845,19.68504,0.50107456,1.60827761052,220.2, 4.6, -0.8,0,0,1024,1024,1505,1024,220.2,0,99,4.193,4.185,4.18,4.17,0,0,76.91,6,GPS_Atti,
0.345824151675624,36.9133893475524,5415.923764845,20.669292,0,1.5859908644,6600,2017-11-15 06:35:39,14,15.821,5415.923764845,20.669292,0.50107456,1.60827761052,220.1, 5.1, -0.8,0,0,1024,1024,1553,1024,220.2,0,99,4.193,4.185,4.18,4.17,0,0,76.91,6,GPS_Atti,
0.345824039418837,36.913389450837,5416.908016845,21.653544,0,1.58352039188,6700,2017-11-15 06:35:39,14,15.821,5416.908016845,21.653544,0.50107456,1.60827761052,220.1, 5, -0.2,0,0,1024,1024,1560,1024,220.2,0,99,4.193,4.185,4.18,4.17,0,0,76.91,6,GPS_Atti,
0.345823944918603,36.9133895430043,5417.892268845,22.637796,0,1.5815617304,6800,2017-11-15 06:35:40,14,15.821,5417.892268845,22.637796,0.50107456,1.60827761052,220.1, 4.7, 0.3,0,0,1024,1024,1542,1024,220.2,0,99,4.193,4.185,4.18,4.17,0,0,76.91,6,GPS_Atti,
0.345823861477133,36.9133896080892,5418.876520845,23.622048,0,1.585301888,6900,2017-11-15 06:35:40,14,15.821,5418.876520845,23.622048,0.50107456,1.60827761052,220.1, 4.3, 0.4,0,0,1024,1024,1542,1024,220.2,0,99,4.193,4.185,4.18,4.17,0,0,76.91,6,GPS_Atti,
0.345823802266909,36.9133896211101,5419.860772845,24.6063,0,1.59707354192,7000,2017-11-15 06:35:40,14,16.035,5419.860772845,24.6063,0.50107456,1.60827761052,220.1, 5.1, -0.6,0,0,1024,1024,1553,1024,220.2,0,99,4.051,4.045,4.049,4.042,0,0,76.91,6,GPS_Atti,
0.345823739697205,36.9133895922173,5421.173108845,25.918636,0,1.62067590488,7100,2017-11-15 06:35:40,14,16.035,5421.173108845,25.918636,0.50107456,1.62067590488,220.1, 6.3, -2,0,0,1024,1024,1553,1024,220.2,0,99,4.051,4.045,4.049,4.042,0,0,76.91,6,GPS_Atti,
0.345823692423476,36.9133895753465,5422.157360845,26.902888,0,1.63726711276,7200,2017-11-15 06:35:40,14,16.035,5422.157360845,26.902888,0.50107456,1.63726711276,220.1, 6.2, -2.3,0,0,1024,1024,1556,1024,220.2,0,99,4.051,4.045,4.049,4.042,0,0,76.91,6,GPS_Atti,
0.345823688082044,36.9133895438736,5423.469696845,28.215224,0,1.64646658812,7300,2017-11-15 06:35:40,14,16.035,5423.469696845,28.215224,0.50107456,1.64646658812,220.1, 5.5, -2,0,0,1024,1024,1556,1024,220.2,0,99,4.051,4.045,4.049,4.042,0,0,76.91,6,GPS_Atti,
0.345823687150574,36.9133895350678,5424.782032845,29.52756,0,1.64896986904,7400,2017-11-15 06:35:40,14,16.035,5424.782032845,29.52756,0.50107456,1.64896986904,220.1, 5.2, -1.8,0,0,1024,1024,1557,1024,220.2,0,99,4.051,4.045,4.049,4.042,0,0,76.91,6,GPS_Atti,
0.345823664033183,36.9133895815187,5425.766284845,30.511812,0,1.64309716544,7500,2017-11-15 06:35:40,14,16.035,5425.766284845,30.511812,0.50107456,1.64896986904,220.1, 5.1, -1.6,0,0,1024,1024,1596,1024,220.2,0,99,4.051,4.045,4.049,4.042,0,0,76.91,6,GPS_Atti,
0.345823633848345,36.9133896370334,5427.078620845,31.824148,0,1.63701448808,7600,2017-11-15 06:35:40,14,16.035,5427.078620845,31.824148,0.50107456,1.64896986904,220.1, 4.9, -1.3,0,0,1024,1024,1636,1024,220.2,0,99,4.051,4.045,4.049,4.042,0,0,76.91,6,GPS_Atti,
0.345823615264543,36.9133896849863,5428.062872845,32.8084,0,1.62999677132,7700,2017-11-15 06:35:40,14,16.035,5428.062872845,32.8084,0.50107456,1.64896986904,220.1, 4.2, -0.8,0,0,1024,1024,1655,1024,220.2,0,99,4.051,4.045,4.049,4.042,0,0,76.91,6,GPS_Atti,
0.345823590678295,36.9133897252811,5429.375208845,34.120736,0,1.62666671872,7800,2017-11-15 06:35:41,14,16.035,5429.375208845,34.120736,0.50107456,1.64896986904,220.1, 4, -0.9,0,0,1024,1024,1678,1024,220.2,0,99,4.051,4.045,4.049,4.042,0,0,76.91,6,GPS_Atti,
0.345823502195162,36.9133897654775,5430.687544845,35.433072,0,1.64103351708,7900,2017-11-15 06:35:41,14,16.035,5430.687544845,35.433072,0.50107456,1.64896986904,220.1, 4.6, -1.2,0,0,1024,1024,1684,1024,220.2,0,99,4.051,4.045,4.049,4.042,0,0,76.91,6,GPS_Atti,
0.345823411497345,36.9133898141734,5431.999880845,36.745408,0,1.6546588456,8000,2017-11-15 06:35:41,14,15.847,5431.999880845,36.745408,0.50107456,1.6546588456,220.1, 5.1, -1,0,0,1024,1024,1684,1024,220.2,0,99,4.048,4.041,4.035,4.027,0,0,76.91,6,GPS_Atti,
0.345823349855855,36.9133898867656,5433.640300845,38.385828,0,1.65529532856,8100,2017-11-15 06:35:41,14,15.847,5433.640300845,38.385828,0.50107456,1.65529532856,220.1, 5.6, -0.8,0,0,1024,1024,1684,1024,220.2,0,99,4.048,4.041,4.035,4.027,0,0,76.91,6,GPS_Atti,
0.345823302274349,36.9133899745733,5435.280720845,40.026248,0,1.6492126512,8200,2017-11-15 06:35:41,14,15.847,5435.280720845,40.026248,0.50107456,1.65529532856,220, 5.6, -0.7,0,0,1024,1024,1684,1024,220.2,0,99,4.048,4.041,4.035,4.027,0,0,76.91,6,GPS_Atti,
0.345823237276636,36.9133900773135,5436.921140845,41.666668,0,1.6458497902,8300,2017-11-15 06:35:41,14,15.847,5436.921140845,41.666668,0.50107456,1.65529532856,220.1, 5.4, -0.2,0,0,1024,1024,1684,1024,220.2,0,99,4.048,4.041,4.035,4.027,0,0,76.91,6,GPS_Atti,
0.345823188069943,36.9133901777422,5438.561560845,43.307088,0,1.63939965876,8400,2017-11-15 06:35:41,14,15.847,5438.561560845,43.307088,0.50107456,1.65529532856,220, 5.1, -0.4,0,0,1024,1024,1684,1024,220.2,0,99,4.048,4.041,4.035,4.027,0,0,76.91,6,GPS_Atti,
0.345823147751299,36.9133902877679,5440.201980845,44.947508,0,1.6293143566,8500,2017-11-15 06:35:41,14,15.847,5440.201980845,44.947508,0.50107456,1.65529532856,220, 5.1, -0.5,0,0,1024,1024,1684,1024,220.2,0,99,4.048,4.041,4.035,4.027,0,0,76.91,6,GPS_Atti,
0.345823117696736,36.9133903934432,5441.842400845,46.587928,0,1.61793968432,8600,2017-11-15 06:35:41,14,15.847,5441.842400845,46.587928,0.50107456,1.65529532856,220, 5.1, -0.4,0,0,1024,1024,1684,1024,220.2,0,99,4.048,4.041,4.035,4.027,0,0,76.91,6,GPS_Atti,
0.345823079677454,36.913390462392,5443.482820845,48.228348,0,1.61678810948,8700,2017-11-15 06:35:41,14,15.847,5443.482820845,48.228348,0.50107456,1.65529532856,220, 5.2, -0.3,0,0,1024,1024,1684,1024,220.2,0,99,4.048,4.041,4.035,4.027,0,0,76.91,6,GPS_Atti,
0.345823051764296,36.9133905266703,5445.451324845,50.196852,0,1.61378614088,8800,2017-11-15 06:35:42,14,15.847,5445.451324845,50.196852,0.50107456,1.65529532856,220, 5.3, -0.3,0,0,1024,1024,1684,1024,220.2,0,99,4.048,4.041,4.035,4.027,0,0,76.91,6,GPS_Atti,
0.345823014170038,36.913390591115,5447.091744845,51.837272,0,1.61424873932,8900,2017-11-15 06:35:42,14,15.847,5447.091744845,51.837272,0.50107456,1.65529532856,220, 5.3, -0.3,0,0,1024,1024,1684,1024,220.2,0,99,4.048,4.041,4.035,4.027,0,0,76.91,6,GPS_Atti,
0.345822991943405,36.9133906566175,5448.732164845,53.477692,0,1.61003614076,9000,2017-11-15 06:35:42,14,15.874,5448.732164845,53.477692,0.50107456,1.65529532856,220, 5, -0.6,0,0,1024,1024,1684,1024,220.2,0,99,3.958,3.951,3.96,3.956,0,0,76.91,6,GPS_Atti,
0.345822983270313,36.9133906983641,5450.700668845,55.446196,0,1.60577104876,9100,2017-11-15 06:35:42,14,15.874,5450.700668845,55.446196,0.50107456,1.65529532856,220.1, 4.9, -0.6,0,0,1024,1024,1684,1024,220.2,0,99,3.958,3.951,3.96,3.956,0,0,76.91,6,GPS_Atti,
0.345822976683257,36.9133907418986,5452.341088845,57.086616,0,1.6006726234,9200,2017-11-15 06:35:42,14,15.874,5452.341088845,57.086616,0.50107456,1.65529532856,220.1, 5.1, -0.6,0,0,1024,1024,1684,1024,220.2,0,99,3.958,3.951,3.96,3.956,0,0,76.91,6,GPS_Atti,
0.345822975803897,36.9133908068299,5453.981508845,58.727036,0,1.59040687504,9300,2017-11-15 06:35:42,14,15.874,5453.981508845,58.727036,0.50107456,1.65529532856,220, 5.4, -0.6,0,0,1024,1024,1684,1024,220.2,0,99,3.958,3.951,3.96,3.956,0,0,76.91,6,GPS_Atti,
0.345822982210196,36.9133908758735,5455.621928845,60.367456,0,1.57738522108,9400,2017-11-15 06:35:42,14,15.874,5455.621928845,60.367456,0.50107456,1.65529532856,220, 5.5, -0.7,0,0,1024,1024,1684,1024,220.2,0,99,3.958,3.951,3.96,3.956,0,0,76.91,6,GPS_Atti,
0.34582300030058,36.9133909428748,5457.590432845,62.33596,0,1.56109585048,9500,2017-11-15 06:35:42,14,15.874,5457.590432845,62.33596,0.50107456,1.65529532856,220, 5.6, -0.8,0,0,1024,1024,1684,1024,220.2,0,99,3.958,3.951,3.96,3.956,0,0,76.91,6,GPS_Atti,
0.345823022354597,36.9133910216776,5459.230852845,63.97638,0,1.54198823832,9600,2017-11-15 06:35:42,14,15.874,5459.230852845,63.97638,0.50107456,1.65529532856,220.1, 5.2, -0.8,0,0,1024,1024,1684,1024,220.2,0,99,3.958,3.951,3.96,3.956,0,0,76.91,6,GPS_Atti,
0.345823041184295,36.9133911367561,5460.871272845,65.6168,0,1.51922248956,9700,2017-11-15 06:35:42,14,15.874,5460.871272845,65.6168,0.50107456,1.65529532856,220.1, 4.7, -0.4,0,0,1024,1024,1684,1024,220.2,0,99,3.958,3.951,3.96,3.956,0,0,76.91,6,GPS_Atti,
0.345823057301005,36.9133912458424,5462.511692845,67.25722,0,1.49902563852,9800,2017-11-15 06:35:42,14,15.874,5462.511692845,67.25722,0.50107456,1.65529532856,220.1, 4.7, -0.1,0,0,1024,1024,1684,1024,220.2,0,99,3.958,3.951,3.96,3.956,0,0,76.91,6,GPS_Atti,
0.345823064070447,36.9133913187916,5464.152112845,68.89764,0,1.48734912896,9900,2017-11-15 06:35:43,14,15.874,5464.152112845,68.89764,0.50107456,1.65529532856,220.1, 5.1, 0,0,0,1024,1024,1684,1024,220.2,0,99,3.958,3.951,3.96,3.956,0,0,76.91,6,GPS_Atti,
0.345823084427625,36.9133913773356,5466.120616845,70.866144,0,1.47312340672,10000,2017-11-15 06:35:43,14,15.821,5466.120616845,70.866144,0.50107456,1.65529532856,220.1, 5.3, -0.2,0,0,1024,1024,1684,1024,220.2,0,99,3.958,3.951,3.96,3.956,0,0,76.91,6,GPS_Atti,
0.345823140656168,36.9133914330543,5467.761036845,72.506564,0,1.44706041376,10100,2017-11-15 06:35:43,14,15.821,5467.761036845,72.506564,0.50107456,1.65529532856,220.1, 5.3, -0.9,0,0,1024,1024,1684,1024,220.2,0,99,3.958,3.951,3.96,3.956,0,0,76.91,6,GPS_Atti,
0.345823200963963,36.9133914963748,5469.401456845,74.146984,0,1.41881894304,10200,2017-11-15 06:35:43,14,15.821,5469.401456845,74.146984,0.50107456,1.65529532856,220.1, 5.3, -1.2,0,0,1024,1024,1684,1024,220.2,0,99,3.958,3.951,3.96,3.956,0,0,76.91,6,GPS_Atti,
0.34582327039593,36.9133915637568,5471.041876845,75.787404,0,1.38711290528,10300,2017-11-15 06:35:43,14,15.821,5471.041876845,75.787404,0.50107456,1.65529532856,220, 4.8, -0.9,0,0,1024,1024,1684,1024,220.2,0,99,3.958,3.951,3.96,3.956,0,0,76.91,6,GPS_Atti,
0.345823331250882,36.9133916425521,5472.682296845,77.427824,0,1.35735896732,10400,2017-11-15 06:35:43,14,15.821,5472.682296845,77.427824,0.50107456,1.65529532856,220, 4.4, -0.4,0,0,1024,1024,1684,1024,220.2,0,99,3.958,3.951,3.96,3.956,0,0,76.91,6,GPS_Atti,
0.345823388936882,36.9133917364409,5474.322716845,79.068244,0,1.3275426934,10500,2017-11-15 06:35:43,14,15.821,5474.322716845,79.068244,0.50107456,1.65529532856,220.1, 4.6, -0.3,0,0,1024,1024,1684,1024,220.2,0,99,3.958,3.951,3.96,3.956,0,0,76.91,6,GPS_Atti,
0.345823441740807,36.9133918183978,5475.963136845,80.708664,0,1.30110896552,10600,2017-11-15 06:35:43,14,15.821,5475.963136845,80.708664,0.50107456,1.65529532856,220.1, 5, -0.5,0,0,1024,1024,1684,1024,220.2,0,99,3.958,3.951,3.96,3.956,0,0,76.91,6,GPS_Atti,
0.345823534809638,36.9133918785863,5477.603556845,82.349084,0,1.26275594592,10700,2017-11-15 06:35:43,14,15.821,5477.603556845,82.349084,0.50107456,1.65529532856,220, 4.5, -0.4,0,0,1024,1024,1684,1024,220.2,0,99,3.958,3.951,3.96,3.956,0,0,76.91,6,GPS_Atti,
0.345823624007658,36.9133919341101,5479.243976845,83.989504,0,1.2263123752,10800,2017-11-15 06:35:44,14,15.821,5479.243976845,83.989504,0.50107456,1.65529532856,220, 3.9, -0.5,0,0,1024,1024,1684,1024,220.2,0,99,3.958,3.951,3.96,3.956,0,0,76.91,6,GPS_Atti,
0.345823697623098,36.9133920000553,5481.212480845,85.958008,0,1.19468179676,10900,2017-11-15 06:35:44,14,15.821,5481.212480845,85.958008,0.50107456,1.65529532856,220, 4.2, -0.4,0,0,1024,1024,1684,1024,220.2,0,99,3.958,3.951,3.96,3.956,0,0,76.91,6,GPS_Atti,
0.345823751133767,36.913392052181,5482.852900845,87.598428,0,1.17152890888,11000,2017-11-15 06:35:44,14,15.821,5482.852900845,87.598428,0.50107456,1.65529532856,220, 4.7, -0.3,0,0,1024,1024,1684,1024,220.2,0,99,4.002,3.992,3.994,3.986,0,0,76.91,6,GPS_Atti,
0.345823801977046,36.9133920845318,5484.493320845,89.238848,0,1.1509514804,11100,2017-11-15 06:35:44,14,15.821,5484.493320845,89.238848,0.50107456,1.65529532856,220, 5, -0.5,0,0,1024,1024,1684,1024,220.2,0,99,4.002,3.992,3.994,3.986,0,0,76.91,6,GPS_Atti,
0.345823856678108,36.913392111794,5486.133740845,90.879268,0,1.12940620412,11200,2017-11-15 06:35:44,14,15.821,5486.133740845,90.879268,0.50107456,1.65529532856,220.1, 5, -0.8,0,0,1024,1024,1684,1024,220.2,0,99,4.002,3.992,3.994,3.986,0,0,76.91,6,GPS_Atti,
0.345823950922676,36.9133921485745,5487.774160845,92.519688,0,1.09307090112,11300,2017-11-15 06:35:44,14,15.821,5487.774160845,92.519688,0.50107456,1.65529532856,220.1, 4.9, -0.9,0,0,1024,1024,1684,1024,220.2,0,99,4.002,3.992,3.994,3.986,0,0,76.91,6,GPS_Atti,
0.345824045105363,36.9133921915052,5489.414580845,94.160108,0,1.05637798656,11400,2017-11-15 06:35:44,14,15.821,5489.414580845,94.160108,0.50107456,1.65529532856,220.1, 4.6, -0.9,0,0,1024,1024,1684,1024,220.2,0,99,4.002,3.992,3.994,3.986,0,0,76.91,6,GPS_Atti,
0.345824134576962,36.9133922181812,5491.055000845,95.800528,0,1.02250987524,11500,2017-11-15 06:35:44,14,15.821,5491.055000845,95.800528,0.50107456,1.65529532856,220.1, 4.1, -0.9,0,0,1024,1024,1684,1024,220.2,0,99,4.002,3.992,3.994,3.986,0,0,76.91,6,GPS_Atti,
0.345824211224564,36.9133922475012,5492.695420845,97.440948,0,0.9930938638,11600,2017-11-15 06:35:44,14,15.821,5492.695420845,97.440948,0.50107456,1.65529532856,220.1, 3.6, -1.2,0,0,1024,1024,1684,1024,220.2,0,99,4.002,3.992,3.994,3.986,0,0,76.91,6,GPS_Atti,
0.345824294625323,36.9133922854246,5494.335840845,99.081368,0,0.96075134308,11700,2017-11-15 06:35:44,14,15.821,5494.335840845,99.081368,0.50107456,1.65529532856,220.1, 4, -0.9,0,0,1024,1024,1684,1024,220.2,0,99,4.002,3.992,3.994,3.986,0,0,76.91,6,GPS_Atti,
0.345824355032453,36.9133923252403,5496.304344845,101.049872,0,0.93666669664,11800,2017-11-15 06:35:44,14,15.821,5496.304344845,101.049872,0.50107456,1.65529532856,220.1, 4.6, -0.5,0,0,1024,1024,1684,1024,220.2,0,99,4.002,3.992,3.994,3.986,0,0,76.91,6,GPS_Atti,
0.345824440548561,36.9133923721649,5497.944764845,102.690292,0,0.90327430712,11900,2017-11-15 06:35:45,14,15.821,5497.944764845,102.690292,0.50107456,1.65529532856,220, 4.1, -0.6,0,0,1024,1024,1684,992,220.2,0,99,4.002,3.992,3.994,3.986,0,0,76.91,6,GPS_Atti,
0.345824515574233,36.9133924126503,5499.585184845,104.330712,0,0.87415357128,12000,2017-11-15 06:35:45,14,15.741,5499.585184845,104.330712,0.50107456,1.65529532856,220.1, 3.7, -0.6,0,0,1024,1024,1684,960,220.2,0,99,3.989,3.98,3.98,3.969,0,0,76.91,6,GPS_Atti,
0.345824609115313,36.9133924444674,5501.225604845,105.971132,0,0.83883860952,12100,2017-11-15 06:35:45,14,15.741,5501.225604845,105.971132,0.50107456,1.65529532856,220.1, 3.9, -0.6,0,0,1024,1024,1684,940,220.1,0,99,3.989,3.98,3.98,3.969,0,0,76.91,6,GPS_Atti,
0.345824682271531,36.9133924548449,5502.866024845,107.611552,0,0.81188650892,12200,2017-11-15 06:35:45,14,15.741,5502.866024845,107.611552,0.50107456,1.65529532856,219.7, 4.4, -0.7,0,0,1024,1024,1684,908,219.9,0,99,3.989,3.98,3.98,3.969,0,0,76.91,6,GPS_Atti,
0.345824751683956,36.9133924597307,5504.506444845,109.251972,0,0.7865321774,12300,2017-11-15 06:35:45,14,15.741,5504.506444845,109.251972,0.50107456,1.65529532856,219, 4.6, -1,0,0,1024,1024,1684,907,219.4,0,99,3.989,3.98,3.98,3.969,0,0,76.91,6,GPS_Atti,
0.345824812775033,36.9133924562538,5506.474948845,111.220476,0,0.76457351528,12400,2017-11-15 06:35:45,14,15.741,5506.474948845,111.220476,0.50107456,1.65529532856,217.9, 4.9, -1.6,0,0,1024,1024,1684,910,218.8,0,99,3.989,3.98,3.98,3.969,0,0,76.91,6,GPS_Atti,
0.345824911872364,36.9133924213185,5508.115368845,112.860896,0,0.73053480028,12500,2017-11-15 06:35:45,14,15.741,5508.115368845,112.860896,0.50107456,1.65529532856,216.7, 4.8, -2.1,0,0,1024,1024,1684,920,218.1,0,99,3.989,3.98,3.98,3.969,0,0,76.91,6,GPS_Atti,
0.34582499964061,36.9133924059059,5509.755788845,114.501316,0,0.69979989116,12600,2017-11-15 06:35:45,14,15.741,5509.755788845,114.501316,0.50107456,1.65529532856,215.4, 4.6, -2,0,0,1024,1024,1684,920,217.5,0,99,3.989,3.98,3.98,3.969,0,0,76.91,6,GPS_Atti,
0.345825078476841,36.9133924150308,5511.396208845,116.141736,0,0.6708825674,12700,2017-11-15 06:35:45,14,15.741,5511.396208845,116.141736,0.50107456,1.65529532856,214.3, 3.9, -1.7,0,0,1024,1024,1684,922,216.8,0,99,3.989,3.98,3.98,3.969,0,0,76.91,6,GPS_Atti,
0.34582513700149,36.9133924352505,5513.036628845,117.782156,0,0.64860894464,12800,2017-11-15 06:35:46,14,15.741,5513.036628845,117.782156,0.50107456,1.65529532856,213.2, 3.7, -1.4,0,0,1024,1024,1684,923,216,0,99,3.989,3.98,3.98,3.969,0,0,76.91,6,GPS_Atti,
0.345825207356784,36.9133924425756,5514.677048845,119.422576,0,0.62284450812,12900,2017-11-15 06:35:46,14,15.741,5514.677048845,119.422576,0.50107456,1.65529532856,212.1, 4, -1.9,0,0,1024,1024,1684,925,215.2,0,99,3.989,3.98,3.98,3.969,0,0,76.91,6,GPS_Atti,
0.345825258341737,36.9133924500989,5516.317468845,121.062996,0,0.60404529492,13000,2017-11-15 06:35:46,14,15.767,5516.317468845,121.062996,0.50107456,1.65529532856,211.1, 4.2, -2.1,0,0,1024,1024,1684,928,214.4,0,99,3.989,3.98,3.98,3.969,0,0,76.91,6,GPS_Atti,
0.345825301107933,36.913392456749,5517.957888845,122.703416,0,0.58825789284,13100,2017-11-15 06:35:46,14,15.767,5517.957888845,122.703416,0.50107456,1.65529532856,210.1, 4, -1.7,0,0,1024,1024,1684,928,213.5,0,99,3.989,3.98,3.98,3.969,0,0,76.91,6,GPS_Atti,
0.345825326505146,36.9133924636502,5519.926392845,124.67192,0,0.57870408676,13200,2017-11-15 06:35:46,14,15.767,5519.926392845,124.67192,0.50107456,1.65529532856,209, 4.2, -1.5,0,0,1024,1024,1684,926,213.5,0,99,3.989,3.98,3.98,3.969,0,0,76.91,6,GPS_Atti,
0.345825327145125,36.9133924490968,5521.566812845,126.31234,0,0.5793635356,13300,2017-11-15 06:35:46,14,15.767,5521.566812845,126.31234,0.50107456,1.65529532856,208, 4.5, -1.6,0,0,1024,1024,1684,955,212.6,0,99,3.989,3.98,3.98,3.969,0,0,76.91,6,GPS_Atti,
0.345825332077681,36.9133924306409,5523.207232845,127.95276,0,0.57879266944,13400,2017-11-15 06:35:46,14,15.767,5523.207232845,127.95276,0.50107456,1.65529532856,207.2, 4.6, -2.2,0,0,1024,1024,1684,937,211.9,0,99,3.989,3.98,3.98,3.969,0,0,76.91,6,GPS_Atti,
0.345825370500818,36.9133924028798,5524.847652845,129.59318,0,0.56701445384,13500,2017-11-15 06:35:46,14,15.767,5524.847652845,129.59318,0.50107456,1.65529532856,206.5, 4.5, -2.6,0,0,1024,1024,1684,964,211,0,99,3.989,3.98,3.98,3.969,0,0,76.91,6,GPS_Atti,
0.34582540975446,36.9133923851911,5526.488072845,131.2336,0,0.55440290488,13600,2017-11-15 06:35:46,14,15.767,5526.488072845,131.2336,0.50107456,1.65529532856,205.8, 4.2, -2.8,0,0,1024,1024,1684,1024,210.4,0,99,3.989,3.98,3.98,3.969,0,0,76.91,6,GPS_Atti,
0.345825467476286,36.9133923468614,5528.128492845,132.87402,0,0.5372867626,13700,2017-11-15 06:35:46,14,15.767,5528.128492845,132.87402,0.50107456,1.65529532856,205.5, 4.1, -2.8,0,0,1024,1024,1684,1024,210,0,99,3.989,3.98,3.98,3.969,0,0,76.91,6,GPS_Atti,
0.345825511792761,36.9133923217875,5529.768912845,134.51444,0,0.5241469984,13800,2017-11-15 06:35:47,14,15.767,5529.768912845,134.51444,0.50107456,1.65529532856,205.5, 4, -2.9,0,0,1024,1024,1684,1024,209.7,0,99,3.989,3.98,3.98,3.969,0,0,76.91,6,GPS_Atti,
0.345825563398151,36.9133923087833,5531.409332845,136.15486,0,0.50748361204,13900,2017-11-15 06:35:47,14,15.767,5531.409332845,136.15486,0.50107456,1.65529532856,205.5, 4.1, -2.9,0,0,1024,1024,1684,1024,209.4,0,99,3.989,3.98,3.98,3.969,0,0,76.91,6,GPS_Atti,
0.345825595190263,36.9133923090868,5533.377836845,138.123364,0,0.49638781116,14000,2017-11-15 06:35:47,14,15.767,5533.377836845,138.123364,0.50107456,1.65529532856,205.5, 4.2, -2.8,0,0,1024,1024,1684,1024,209.2,0,99,3.99,3.984,3.983,3.973,0,0,76.91,6,GPS_Atti,
0.345825605955907,36.9133923093957,5535.018256845,139.763784,0,0.49261484516,14100,2017-11-15 06:35:47,14,15.767,5535.018256845,139.763784,0.50107456,1.65529532856,205.5, 4.3, -3,0,0,1024,1024,1684,1024,209,0,99,3.99,3.984,3.983,3.973,0,0,76.91,6,GPS_Atti,
0.34582560725052,36.9133923191634,5536.658676845,141.404204,0,0.49108269288,14200,2017-11-15 06:35:47,14,15.767,5536.658676845,141.404204,0.50107456,1.65529532856,205.5, 4.3, -2.8,0,0,1024,1024,1684,1024,208.9,0,99,3.99,3.984,3.983,3.973,0,0,76.91,6,GPS_Atti,
0.345825632883857,36.913392295582,5538.299096845,143.044624,0,0.48486550108,14300,2017-11-15 06:35:47,14,15.767,5538.299096845,143.044624,0.50107456,1.65529532856,205.5, 4.4, -2.7,0,0,1024,1024,1684,1024,208.7,0,99,3.99,3.984,3.983,3.973,0,0,76.91,6,GPS_Atti,
0.345825655623448,36.9133922790025,5539.939516845,144.685044,0,0.47902560588,14400,2017-11-15 06:35:47,14,15.767,5539.939516845,144.685044,0.50107456,1.65529532856,205.5, 4.4, -2.8,0,0,1024,1024,1684,1024,208.7,0,99,3.99,3.984,3.983,3.973,0,0,76.91,6,GPS_Atti,
0.345825672857271,36.9133922593641,5541.579936845,146.325464,0,0.47561025144,14500,2017-11-15 06:35:47,14,15.767,5541.579936845,146.325464,0.50107456,1.65529532856,205.5, 4.5, -2.9,0,0,1024,1024,1684,1024,208.6,0,99,3.99,3.984,3.983,3.973,0,0,76.91,6,GPS_Atti,
0.345825684694431,36.9133922549703,5543.548440845,148.293968,0,0.47215224608,14600,2017-11-15 06:35:47,14,15.767,5543.548440845,148.293968,0.50107456,1.65529532856,205.5, 4.7, -3,0,0,1024,1024,1684,1024,208.4,0,99,3.99,3.984,3.983,3.973,0,0,76.91,6,GPS_Atti,
0.345825696679779,36.9133922184248,5545.188860845,149.934388,0,0.47310040884,14700,2017-11-15 06:35:47,14,15.767,5545.188860845,149.934388,0.50107456,1.65529532856,205.5, 4.3, -2.9,0,0,1024,1024,1684,1024,208.3,0,99,3.99,3.984,3.983,3.973,0,0,76.91,6,GPS_Atti,
0.345825709393041,36.9133921968203,5546.829280845,151.574808,0,0.47197836156,14800,2017-11-15 06:35:48,14,15.767,5546.829280845,151.574808,0.50107456,1.65529532856,205.5, 4.1, -3,0,0,1024,1024,1684,1024,208.2,0,99,3.99,3.984,3.983,3.973,0,0,76.91,6,GPS_Atti,
0.345825746659982,36.9133921731147,5548.469700845,153.215228,0,0.46326445052,14900,2017-11-15 06:35:48,14,15.767,5548.469700845,153.215228,0.50107456,1.65529532856,205.5, 4.1, -2.9,0,0,1024,1024,1684,1024,208.1,0,99,3.99,3.984,3.983,3.973,0,0,76.91,6,GPS_Atti,
0.345825778626337,36.9133921652199,5550.110120845,154.855648,0,0.45406169432,15000,2017-11-15 06:35:48,14,15.821,5550.110120845,154.855648,0.50107456,1.65529532856,205.4, 4.2, -2.9,0,0,1024,1024,1684,1024,208,0,99,3.987,3.979,3.978,3.969,0,0,78.71,6,GPS_Atti,
0.345825802592148,36.9133921538468,5551.750540845,156.496068,0,0.44816602484,15100,2017-11-15 06:35:48,14,15.821,5551.750540845,156.496068,0.50107456,1.65529532856,205.5, 4.4, -3,0,0,1024,1024,1684,1024,207.9,0,99,3.987,3.979,3.978,3.969,0,0,78.71,6,GPS_Atti,
0.345825820493633,36.9133921533682,5553.390960845,158.136488,0,0.44246720576,15200,2017-11-15 06:35:48,14,15.821,5553.390960845,158.136488,0.50107456,1.65529532856,205.5, 4.2, -3.4,0,0,1024,1024,1684,1024,207.9,0,99,3.987,3.979,3.978,3.969,0,0,78.71,6,GPS_Atti,
0.345825860147872,36.9133921576737,5555.031380845,159.776908,0,0.42898951504,15300,2017-11-15 06:35:48,14,15.821,5555.031380845,159.776908,0.50107456,1.65529532856,205.5, 4.2, -3.4,0,0,1024,1024,1684,1024,207.8,0,99,3.987,3.979,3.978,3.969,0,0,78.71,6,GPS_Atti,
0.345825890373421,36.913392183551,5556.671800845,161.417328,0,0.41479332036,15400,2017-11-15 06:35:48,14,15.821,5556.671800845,161.417328,0.50107456,1.65529532856,205.5, 4, -3.3,0,0,1024,1024,1684,1024,207.7,0,99,3.987,3.979,3.978,3.969,0,0,78.71,6,GPS_Atti,
0.345825906081392,36.9133922159865,5558.640304845,163.385832,0,0.40420933052,15500,2017-11-15 06:35:48,14,15.821,5558.640304845,163.385832,0.50107456,1.65529532856,205.5, 3.9, -2.7,0,0,1024,1024,1684,1024,207.7,0,99,3.987,3.979,3.978,3.969,0,0,78.71,6,GPS_Atti,
0.345825915278844,36.9133922551796,5560.280724845,165.026252,0,0.39484581316,15600,2017-11-15 06:35:48,14,15.821,5560.280724845,165.026252,0.50107456,1.65529532856,205.5, 4.3, -2.5,0,0,1024,1024,1684,1024,207.6,0,99,3.987,3.979,3.978,3.969,0,0,78.71,6,GPS_Atti,
0.345825923202852,36.9133923047262,5561.921144845,166.666672,0,0.3847277026,15700,2017-11-15 06:35:48,14,15.821,5561.921144845,166.666672,0.50107456,1.65529532856,205.5, 4.2, -2.7,0,0,1024,1024,1684,1024,207.5,0,99,3.987,3.979,3.978,3.969,0,0,78.71,6,GPS_Atti,
0.345825937427311,36.9133923624587,5563.561564845,168.307092,0,0.37201772844,15800,2017-11-15 06:35:48,14,15.821,5563.561564845,168.307092,0.50107456,1.65529532856,205.5, 4.6, -2.9,0,0,1024,1024,1684,1024,207.5,0,99,3.987,3.979,3.978,3.969,0,0,78.71,6,GPS_Atti,
0.345825960801996,36.9133924362349,5565.201984845,169.947512,0,0.35522638932,15900,2017-11-15 06:35:49,14,15.821,5565.201984845,169.947512,0.50107456,1.65529532856,205.5, 3.9, -2.7,0,0,1024,1024,1684,1024,207.5,0,99,3.987,3.979,3.978,3.969,0,0,78.71,6,GPS_Atti,
0.345825992527342,36.9133925178909,5566.842404845,171.587932,0,0.33633859344,16000,2017-11-15 06:35:49,14,15.741,5566.842404845,171.587932,0.50107456,1.65529532856,205.6, 3.3, -2.5,0,0,1024,1024,1684,1024,207.4,0,99,3.977,3.967,3.969,3.962,0,0,78.71,6,GPS_Atti,
0.34582600971394,36.9133925906832,5568.482824845,173.228352,0,0.325251322744,16100,2017-11-15 06:35:49,14,15.741,5568.482824845,173.228352,0.50107456,1.65529532856,205.6, 3.2, -2.4,0,0,1024,1024,1684,1024,207.4,0,99,3.977,3.967,3.969,3.962,0,0,78.71,6,GPS_Atti,
0.345826027719645,36.9133926587563,5570.123244845,174.868772,0,0.315962608536,16200,2017-11-15 06:35:49,14,15.741,5570.123244845,174.868772,0.50107456,1.65529532856,205.6, 3, -2.3,0,0,1024,1024,1684,1024,207.3,0,99,3.977,3.967,3.969,3.962,0,0,78.71,6,GPS_Atti,
0.345826080948594,36.9133928010204,5573.732168845,178.477696,0,0.297066282472,16400,2017-11-15 06:35:49,14,15.741,5573.732168845,178.477696,0.50107456,1.65529532856,205.6, 3.3, -2.4,0,0,1024,1024,1684,1024,207.3,0,99,3.977,3.967,3.969,3.962,0,0,78.71,6,GPS_Atti,
0.345826083716949,36.9133928438344,5575.372588845,180.118116,0,0.29797737174,16500,2017-11-15 06:35:49,14,15.741,5575.372588845,180.118116,0.50107456,1.65529532856,205.5, 3.7, -2.7,0,0,1024,1024,1684,1024,207.2,0,99,3.977,3.967,3.969,3.962,0,0,78.71,6,GPS_Atti,
0.345826088955653,36.9133928861655,5577.013008845,181.758536,0,0.298785770716,16600,2017-11-15 06:35:49,14,15.741,5577.013008845,181.758536,0.50107456,1.65529532856,205.6, 3.8, -2.7,0,0,1024,1024,1684,1024,207.2,0,99,3.977,3.967,3.969,3.962,0,0,78.71,6,GPS_Atti,
0.345826119189344,36.9133929301042,5578.653428845,183.398956,0,0.29173065238,16700,2017-11-15 06:35:49,14,15.741,5578.653428845,183.398956,0.50107456,1.65529532856,205.6, 3.1, -2.9,0,0,1024,1024,1684,1024,207.1,0,99,3.977,3.967,3.969,3.962,0,0,78.71,6,GPS_Atti,
0.3458261427513,36.9133929807219,5580.293848845,185.039376,0,0.288919956752,16800,2017-11-15 06:35:50,14,15.741,5580.293848845,185.039376,0.50107456,1.65529532856,205.6, 3.4, -2.6,0,0,1024,1024,1684,1024,207.1,0,99,3.977,3.967,3.969,3.962,0,0,78.71,6,GPS_Atti,
0.345826140175102,36.9133930355493,5581.934268845,186.679796,0,0.296913395328,16900,2017-11-15 06:35:50,14,15.741,5581.934268845,186.679796,0.50107456,1.65529532856,205.6, 3.8, -2.2,0,0,1024,1024,1684,1024,207.1,0,99,3.977,3.967,3.969,3.962,0,0,78.71,6,GPS_Atti,
0.345826145385309,36.9133930891299,5583.574688845,188.320216,0,0.303258867972,17000,2017-11-15 06:35:50,14,15.714,5583.574688845,188.320216,0.50107456,1.65529532856,205.6, 3.8, -2.4,0,0,1024,1024,1684,1024,207.1,0,99,3.977,3.967,3.969,3.962,0,0,78.71,6,GPS_Atti,
0.345826147833674,36.9133931366059,5585.215108845,189.960636,0,0.310505587364,17100,2017-11-15 06:35:50,14,15.714,5585.215108845,189.960636,0.50107456,1.65529532856,205.6, 3.6, -2.9,0,0,1024,1024,1684,1024,207,0,99,3.977,3.967,3.969,3.962,0,0,78.71,6,GPS_Atti,
0.345826151526985,36.9133931979041,5587.183612845,191.92914,0,0.32084482654,17200,2017-11-15 06:35:50,14,15.714,5587.183612845,191.92914,0.50107456,1.65529532856,205.6, 3.5, -2.6,0,0,1024,1024,1684,1024,207,0,99,3.977,3.967,3.969,3.962,0,0,78.71,6,GPS_Atti,
0.345826211873049,36.9133933204218,5590.464452845,195.20998,0,0.330216546,17400,2017-11-15 06:35:50,14,15.714,5590.464452845,195.20998,0.50107456,1.65529532856,205.6, 3.4, -2.2,0,0,1024,1024,1684,1024,207,0,99,3.977,3.967,3.969,3.962,0,0,78.71,6,GPS_Atti,
0.345826238942673,36.9133933231117,5592.104872845,196.8504,0,0.323530522164,17500,2017-11-15 06:35:50,14,15.714,5592.104872845,196.8504,0.50107456,1.65529532856,205.6, 3.3, -2.4,0,0,1024,1024,1684,1024,207,0,99,3.977,3.967,3.969,3.962,0,0,78.71,6,GPS_Atti,
0.345826263138094,36.9133933208313,5593.745292845,198.49082,0,0.316517726664,17600,2017-11-15 06:35:50,14,15.714,5593.745292845,198.49082,0.50107456,1.65529532856,205.6, 3.2, -2.8,0,0,1024,1024,1684,1024,206.9,0,99,3.977,3.967,3.969,3.962,0,0,78.71,6,GPS_Atti,
0.345826270278007,36.9133933091637,5595.385712845,200.13124,0,0.311698172704,17700,2017-11-15 06:35:51,14,15.714,5595.385712845,200.13124,0.50107456,1.65529532856,205.6, 3.4, -2.9,0,0,1024,1024,1684,1024,206.9,0,99,3.977,3.967,3.969,3.962,0,0,78.71,6,GPS_Atti,
0.34582629368119,36.9133933189476,5598.994636845,203.740164,0,0.30805775264,17900,2017-11-15 06:35:51,14,15.714,5598.994636845,203.740164,0.50107456,1.65529532856,205.5, 3.5, -2.7,0,0,1024,1024,1684,1024,206.9,0,99,3.977,3.967,3.969,3.962,0,0,78.71,6,GPS_Atti,
0.345826313279513,36.9133933260848,5600.635056845,205.380584,0,0.3049130675,18000,2017-11-15 06:35:51,14,15.714,5600.635056845,205.380584,0.50107456,1.65529532856,205.5, 3.6, -2.9,0,0,1024,1024,1684,1024,206.8,0,98,3.977,3.967,3.969,3.962,0,0,78.71,6,GPS_Atti,
0.345826319261602,36.9133933176254,5602.275476845,207.021004,0,0.301175206488,18100,2017-11-15 06:35:51,14,15.714,5602.275476845,207.021004,0.50107456,1.65529532856,205.5, 3.7, -2.9,0,0,1024,1024,1684,1024,206.8,0,98,3.977,3.967,3.969,3.962,0,0,78.71,6,GPS_Atti,
0.345826325136214,36.9133933097044,5603.915896845,208.661424,0,0.29760663682,18200,2017-11-15 06:35:51,14,15.714,5603.915896845,208.661424,0.50107456,1.65529532856,205.5, 4, -2.9,0,0,1024,1024,1684,1024,206.8,0,98,3.977,3.967,3.969,3.962,0,0,78.71,6,GPS_Atti,
0.345826329712141,36.9133932967135,5605.556316845,210.301844,0,0.293043644548,18300,2017-11-15 06:35:51,14,15.714,5605.556316845,210.301844,0.50107456,1.65529532856,205.5, 3.9, -3,0,0,1024,1024,1684,1024,206.8,0,98,3.977,3.967,3.969,3.962,0,0,78.71,6,GPS_Atti,
0.345826342163224,36.9133932876459,5607.196736845,211.942264,0,0.287503618124,18400,2017-11-15 06:35:51,14,15.714,5607.196736845,211.942264,0.50107456,1.65529532856,205.5, 3.6, -3.2,0,0,1024,1024,1684,1024,206.8,0,98,3.977,3.967,3.969,3.962,0,0,78.71,6,GPS_Atti,
0.345826383161745,36.9133932814653,5609.165240845,213.910768,0,0.275613197796,18500,2017-11-15 06:35:51,14,15.714,5609.165240845,213.910768,0.50107456,1.65529532856,205.5, 3.5, -3.3,0,0,1024,1024,1684,1024,206.7,0,98,3.977,3.967,3.969,3.962,0,0,78.71,6,GPS_Atti,
0.345826420019946,36.9133932814235,5610.805660845,215.551188,0,0.266740166016,18600,2017-11-15 06:35:51,14,15.714,5610.805660845,215.551188,0.50107456,1.65529532856,205.5, 3.4, -3.3,0,0,1024,1024,1684,1024,206.7,0,98,3.977,3.967,3.969,3.962,0,0,78.71,6,GPS_Atti,
0.345826438231649,36.9133932861449,5612.446080845,217.191608,0,0.263845808968,18700,2017-11-15 06:35:51,14,15.714,5612.446080845,217.191608,0.50107456,1.65529532856,205.5, 3.5, -3.2,0,0,1024,1024,1684,1024,206.7,0,98,3.977,3.967,3.969,3.962,0,0,78.71,6,GPS_Atti,
0.345826451128112,36.9133932941922,5614.086500845,218.832028,0,0.26324311866,18800,2017-11-15 06:35:51,14,15.714,5614.086500845,218.832028,0.50107456,1.65529532856,205.5, 3.6, -3.2,0,0,1024,1024,1684,1024,206.7,0,98,3.977,3.967,3.969,3.962,0,0,78.71,6,GPS_Atti,
0.345826455843271,36.9133933050365,5615.726920845,220.472448,0,0.265354667284,18900,2017-11-15 06:35:52,14,15.714,5615.726920845,220.472448,0.50107456,1.65529532856,205.5, 3.5, -3.2,0,0,1024,1024,1684,1024,206.7,0,98,3.977,3.967,3.969,3.962,0,0,78.71,6,GPS_Atti,
0.345826465712456,36.9133933201504,5617.367340845,222.112868,0,0.267686032188,19000,2017-11-15 06:35:52,14,15.794,5617.367340845,222.112868,0.50107456,1.65529532856,205.5, 3.1, -3.1,0,0,1024,1024,1684,1024,206.7,0,98,3.979,3.969,3.971,3.961,0,0,78.71,6,GPS_Atti,
0.345826493763218,36.9133933261887,5619.007760845,223.753288,0,0.263718184292,19100,2017-11-15 06:35:52,14,15.794,5619.007760845,223.753288,0.50107456,1.65529532856,205.5, 2.9, -3.1,0,0,1024,1024,1684,1024,206.6,0,98,3.979,3.969,3.971,3.961,0,0,78.71,6,GPS_Atti,
0.345826512477297,36.9133933287603,5620.648180845,225.393708,0,0.260819890236,19200,2017-11-15 06:35:52,14,15.794,5620.648180845,225.393708,0.50107456,1.65529532856,205.5, 3.3, -3,0,0,1024,1024,1684,1024,206.6,0,98,3.979,3.969,3.971,3.961,0,0,78.71,6,GPS_Atti,
0.345826513539042,36.9133933205979,5622.288600845,227.034128,0,0.258092527944,19300,2017-11-15 06:35:52,14,15.794,5622.288600845,227.034128,0.50107456,1.65529532856,205.5, 3.4, -2.8,0,0,1024,1024,1684,1024,206.6,0,98,3.979,3.969,3.971,3.961,0,0,78.71,6,GPS_Atti,
0.345826516579347,36.9133933062988,5623.929020845,228.674548,0,0.253096136708,19400,2017-11-15 06:35:52,14,15.794,5623.929020845,228.674548,0.50107456,1.65529532856,205.5, 3.4, -3.2,0,0,1024,1024,1684,1024,206.6,0,98,3.979,3.969,3.971,3.961,0,0,78.71,6,GPS_Atti,
0.345826516355436,36.9133932833367,5625.569440845,230.314968,0,0.246133866144,19500,2017-11-15 06:35:52,14,15.794,5625.569440845,230.314968,0.50107456,1.65529532856,205.5, 3.6, -3.5,0,0,1024,1024,1684,1024,206.6,0,98,3.979,3.969,3.971,3.961,0,0,78.71,6,GPS_Atti,
0.345826519607439,36.9133932670494,5627.209860845,231.955388,0,0.240545611372,19600,2017-11-15 06:35:52,14,15.794,5627.209860845,231.955388,0.50107456,1.65529532856,205.5, 3.5, -3.4,0,0,1024,1024,1684,1024,206.6,0,98,3.979,3.969,3.971,3.961,0,0,78.71,6,GPS_Atti,
0.345826559297504,36.9133932193443,5628.850280845,233.595808,0,0.21801673926,19700,2017-11-15 06:35:52,14,15.794,5628.850280845,233.595808,0.50107456,1.65529532856,205.5, 3.4, -3.4,0,0,1024,1024,1684,1024,206.6,0,98,3.979,3.969,3.971,3.961,0,0,78.71,6,GPS_Atti,
0.345826599848202,36.9133931719641,5630.818784845,235.564312,0,0.195442263472,19800,2017-11-15 06:35:53,14,15.794,5630.818784845,235.564312,0.50107456,1.65529532856,205.5, 3.4, -3.5,0,0,1024,1024,1684,1024,206.6,0,98,3.979,3.969,3.971,3.961,0,0,78.71,6,GPS_Atti,
0.345826631455486,36.9133931305312,5632.459204845,237.204732,0,0.176490491212,19900,2017-11-15 06:35:53,14,15.794,5632.459204845,237.204732,0.50107456,1.65529532856,205.5, 3.2, -4,0,0,1024,1024,1684,1024,206.6,0,98,3.979,3.969,3.971,3.961,0,0,78.71,6,GPS_Atti,
0.345826653073894,36.9133930961077,5634.099624845,238.845152,0,0.16166011016,20000,2017-11-15 06:35:53,14,15.714,5634.099624845,238.845152,0.50107456,1.65529532856,205.5, 3.3, -4.4,0,0,1024,1024,1684,1024,206.6,0,98,3.974,3.966,3.967,3.958,0,0,78.71,6,GPS_Atti,
0.345826679769791,36.9133930933642,5635.740044845,240.485572,0,0.155767065352,20100,2017-11-15 06:35:53,14,15.714,5635.740044845,240.485572,0.50107456,1.65529532856,205.5, 3.6, -3.9,0,0,1024,1024,1684,1024,206.5,0,98,3.974,3.966,3.967,3.958,0,0,78.71,6,GPS_Atti,
0.345826700911879,36.913393095491,5637.380464845,242.125992,0,0.15278215712,20200,2017-11-15 06:35:53,14,15.714,5637.380464845,242.125992,0.50107456,1.65529532856,205.5, 3.7, -3.8,0,0,1024,1024,1684,1024,206.5,0,98,3.974,3.966,3.967,3.958,0,0,78.71,6,GPS_Atti,
0.345826750819617,36.9133930810425,5639.020884845,243.766412,0,0.140486881136,20300,2017-11-15 06:35:53,14,15.714,5639.020884845,243.766412,0.50107456,1.65529532856,205.4, 3.9, -3.8,0,0,1024,1024,1684,1024,206.5,0,98,3.974,3.966,3.967,3.958,0,0,78.71,6,GPS_Atti,
0.345826810272479,36.9133930757451,5640.661304845,245.406832,0,0.132213914992,20400,2017-11-15 06:35:53,14,15.714,5640.661304845,245.406832,0.50107456,1.65529532856,205.5, 3.7, -3.9,0,0,1024,1024,1684,1024,206.5,0,98,3.974,3.966,3.967,3.958,0,0,78.71,6,GPS_Atti,
0.34582687552423,36.9133930874742,5642.301724845,247.047252,0,0.133265096128,20500,2017-11-15 06:35:53,14,15.714,5642.301724845,247.047252,0.50107456,1.65529532856,205.5, 3.1, -3.9,0,0,1024,1024,1684,1024,206.5,0,98,3.974,3.966,3.967,3.958,0,0,78.71,6,GPS_Atti,
0.345826941805971,36.9133931056474,5643.942144845,248.687672,0,0.140975726296,20600,2017-11-15 06:35:53,14,15.714,5643.942144845,248.687672,0.50107456,1.65529532856,205.6, 2.7, -4.1,0,0,1024,1024,1684,1024,206.5,0,98,3.974,3.966,3.967,3.958,0,0,78.71,6,GPS_Atti,
0.345827013871946,36.913393125252,5645.582564845,250.328092,0,0.153569886804,20700,2017-11-15 06:35:53,14,15.714,5645.582564845,250.328092,0.50107456,1.65529532856,205.6, 2.5, -4.2,0,0,1024,1024,1684,1024,206.5,0,98,3.974,3.966,3.967,3.958,0,0,78.71,6,GPS_Atti,
0.345827075226831,36.9133931503923,5647.222984845,251.968512,0,0.169897315148,20800,2017-11-15 06:35:54,14,15.714,5647.222984845,251.968512,0.50107456,1.65529532856,205.6, 2.1, -3.8,0,0,1024,1024,1684,1024,206.5,0,98,3.974,3.966,3.967,3.958,0,0,78.71,6,GPS_Atti,
0.345827147274079,36.9133931613088,5648.863404845,253.608932,0,0.185315294644,20900,2017-11-15 06:35:54,14,15.714,5648.863404845,253.608932,0.50107456,1.65529532856,205.6, 2, -3.7,0,0,1024,1024,1684,1024,206.5,0,98,3.974,3.966,3.967,3.958,0,0,78.71,6,GPS_Atti,
0.345827197369087,36.9133931614544,5650.503824845,255.249352,0,0.195207027244,21000,2017-11-15 06:35:54,14,15.741,5650.503824845,255.249352,0.50107456,1.65529532856,205.6, 2.4, -3.9,0,0,1024,1024,1684,1024,206.5,0,98,3.974,3.966,3.967,3.958,0,0,78.71,6,GPS_Atti,
0.345827198404777,36.9133931393638,5652.472328845,257.217856,0,0.188875662212,21100,2017-11-15 06:35:54,14,15.741,5652.472328845,257.217856,0.50107456,1.65529532856,205.5, 3, -4.1,0,0,1024,1024,1684,1024,206.4,0,98,3.974,3.966,3.967,3.958,0,0,78.71,6,GPS_Atti,
0.34582719966275,36.9133931264367,5654.112748845,258.858276,0,0.185377630604,21200,2017-11-15 06:35:54,14,15.741,5654.112748845,258.858276,0.50107456,1.65529532856,205.5, 3.3, -4.2,0,0,1024,1024,1684,1024,206.4,0,98,3.974,3.966,3.967,3.958,0,0,78.71,6,GPS_Atti,
0.345827223747437,36.9133931159607,5655.753168845,260.498696,0,0.187901580816,21300,2017-11-15 06:35:54,14,15.741,5655.753168845,260.498696,0.50107456,1.65529532856,205.6, 3.1, -4.1,0,0,1024,1024,1684,1024,206.4,0,98,3.974,3.966,3.967,3.958,0,0,78.71,6,GPS_Atti,
0.345827256677017,36.9133931150731,5657.393588845,262.139116,0,0.19563320836,21400,2017-11-15 06:35:54,14,15.741,5657.393588845,262.139116,0.50107456,1.65529532856,205.6, 2.8, -4.3,0,0,1024,1024,1684,1024,206.4,0,98,3.974,3.966,3.967,3.958,0,0,78.71,6,GPS_Atti,
0.345827310497091,36.9133931204434,5659.034008845,263.779536,0,0.210848760028,21500,2017-11-15 06:35:54,14,15.741,5659.034008845,263.779536,0.50107456,1.65529532856,205.5, 2.7, -4.2,0,0,1024,1024,1684,1024,206.4,0,98,3.974,3.966,3.967,3.958,0,0,78.71,6,GPS_Atti,
0.345827361017938,36.9133931357259,5660.674428845,265.419956,0,0.228219495492,21600,2017-11-15 06:35:54,14,15.741,5660.674428845,265.419956,0.50107456,1.65529532856,205.6, 2.6, -4.1,0,0,1024,1024,1684,1024,206.4,0,98,3.974,3.966,3.967,3.958,0,0,78.71,6,GPS_Atti,
0.345827424562265,36.9133931118918,5662.314848845,267.060376,0,0.240875007708,21700,2017-11-15 06:35:54,14,15.741,5662.314848845,267.060376,0.50107456,1.65529532856,205.6, 2.3, -4,0,0,1024,1024,1684,1024,206.4,0,98,3.974,3.966,3.967,3.958,0,0,78.71,6,GPS_Atti,
0.345827476564996,36.9133930932256,5663.955268845,268.700796,0,0.252733603888,21800,2017-11-15 06:35:54,14,15.741,5663.955268845,268.700796,0.50107456,1.65529532856,205.6, 2, -3.9,0,0,1024,1024,1684,1024,206.4,0,98,3.974,3.966,3.967,3.958,0,0,78.71,6,GPS_Atti,
0.345827487629459,36.9133930536186,5665.595688845,270.341216,0,0.248826779616,21900,2017-11-15 06:35:55,14,15.741,5665.595688845,270.341216,0.50107456,1.65529532856,205.6, 2.3, -3.9,0,0,1024,1024,1684,1024,206.4,0,98,3.974,3.966,3.967,3.958,0,0,78.71,6,GPS_Atti,
0.345827487991788,36.9133930154875,5667.236108845,271.981636,0,0.242497383088,22000,2017-11-15 06:35:55,14,15.821,5667.236108845,271.981636,0.50107456,1.65529532856,205.6, 2.7, -4.3,0,0,1024,1024,1684,1024,206.4,0,98,3.969,3.962,3.961,3.952,0,0,78.71,6,GPS_Atti,
0.345827464979431,36.9133929708444,5668.876528845,273.622056,0,0.228043970552,22100,2017-11-15 06:35:55,14,15.821,5668.876528845,273.622056,0.50107456,1.65529532856,205.6, 2.8, -4.3,0,0,1024,1024,1684,1024,206.4,0,98,3.969,3.962,3.961,3.952,0,0,78.71,6,GPS_Atti,
0.345827449563766,36.9133929317883,5670.516948845,275.262476,0,0.217492461028,22200,2017-11-15 06:35:55,14,15.821,5670.516948845,275.262476,0.50107456,1.65529532856,205.6, 2.5, -4.3,0,0,1024,1024,1684,1024,206.4,0,98,3.969,3.962,3.961,3.952,0,0,78.71,6,GPS_Atti,
0.34582742468277,36.9133928614038,5672.157368845,276.902896,0,0.201063654728,22300,2017-11-15 06:35:55,14,15.821,5672.157368845,276.902896,0.50107456,1.65529532856,205.6, 2.9, -4.6,0,0,1024,1024,1684,1024,206.4,0,98,3.969,3.962,3.961,3.952,0,0,78.71,6,GPS_Atti,
0.345827395418817,36.913392791485,5673.797788845,278.543316,0,0.18561188258,22400,2017-11-15 06:35:55,14,15.821,5673.797788845,278.543316,0.50107456,1.65529532856,205.5, 3, -5.2,0,0,1024,1024,1652,1024,206.4,0,98,3.969,3.962,3.961,3.952,0,0,78.71,6,GPS_Atti,
0.345827381742331,36.9133927526419,5675.766292845,280.51182,0,0.179246724896,22500,2017-11-15 06:35:55,14,15.821,5675.766292845,280.51182,0.50107456,1.65529532856,205.5, 3.2, -5.3,0,0,1024,1024,1016,1024,206.4,0,98,3.969,3.962,3.961,3.952,0,0,78.71,6,GPS_Atti,
0.345827340799177,36.913392732025,5677.406712845,282.15224,0,0.164008535432,22600,2017-11-15 06:35:55,14,15.821,5677.406712845,282.15224,0.50107456,1.65529532856,205.3, 3.9, -5.4,0,0,1024,1024,1024,1024,206.4,0,98,3.969,3.962,3.961,3.952,0,0,78.71,6,GPS_Atti,
0.345827251722477,36.9133927020456,5679.047132845,283.79266,0.223694,0.131685371668,22700,2017-11-15 06:35:55,14,15.821,5679.047132845,283.79266,0.50107456,1.65529532856,205.1, 5.8, -6.5,0,0,1024,1024,1024,1024,206.3,0,98,3.969,3.962,3.961,3.952,0,0,78.71,6,GPS_Atti,
0.345827155140277,36.9133926761394,5680.359468845,285.104996,0.223694,0.097712929636,22800,2017-11-15 06:35:56,14,15.821,5680.359468845,285.104996,0.50107456,1.65529532856,205, 6.2, -6.2,0,0,1024,1024,1024,1024,206.3,0,98,3.969,3.962,3.961,3.952,0,0,78.71,6,GPS_Atti,
0.345827065953656,36.9133926442639,5681.343720845,286.089248,0.223694,0.069806104596,22900,2017-11-15 06:35:56,14,15.821,5681.343720845,286.089248,0.50107456,1.65529532856,205.1, 6.1, -5.4,0,0,1024,1024,1024,1024,206.3,0,98,3.969,3.962,3.961,3.952,0,0,78.71,6,GPS_Atti,
0.34582698446469,36.9133926016913,5682.327972845,287.0735,0,0.055658794432,23000,2017-11-15 06:35:56,14,15.821,5682.327972845,287.0735,0.50107456,1.65529532856,205.1, 6.1, -5.3,0,0,1024,1024,1024,1024,206.3,0,98,3.969,3.962,3.961,3.952,0,0,78.71,6,GPS_Atti,
0.345826932694827,36.9133925573249,5682.984140845,287.729668,0,0.062138125348,23100,2017-11-15 06:35:56,14,15.821,5682.984140845,287.729668,0.50107456,1.65529532856,205.2, 5.7, -5.5,0,0,1024,1024,1024,1024,206.3,0,98,3.969,3.962,3.961,3.952,0,0,78.71,6,GPS_Atti,
0.345826878189178,36.9133925041361,5683.312224845,288.057752,0,0.079832351636,23200,2017-11-15 06:35:56,14,15.821,5683.312224845,288.057752,0.50107456,1.65529532856,205.3, 5.3, -5,0,0,1024,1024,1024,1024,206.3,0,98,3.969,3.962,3.961,3.952,0,0,78.71,6,GPS_Atti,
0.345826789224026,36.9133923696923,5683.312224845,288.057752,0,0.134024282504,23400,2017-11-15 06:35:56,14,15.821,5683.312224845,288.057752,0.50107456,1.65529532856,205.5, 3.5, -3.7,0,0,1024,1024,1024,1024,206.3,0,98,3.969,3.962,3.961,3.952,0,0,78.71,6,GPS_Atti,
