latitude,longitude,altitude(feet),ascent(feet),speed(mph),distance(feet),time(millisecond),datetime(utc),satellites,voltage(v),max_altitude(feet),max_ascent(feet),max_speed(mph),max_distance(feet),compass_heading(degrees), pitch(degrees), roll(degrees),isPhoto,isVideo,rc_elevator,rc_aileron,rc_throttle,rc_rudder,gimbal_heading(degrees),gimbal_pitch(degrees),battery_percent,voltageCell1,voltageCell2,voltageCell3,voltageCell4,voltageCell5,voltageCell6,battery_temperature(f),flycStateRaw,flycState,message
0,0,5911.5678571492,0,0,0,100,2017-11-02 05:24:44,4,0,5911.5678571492,0,0,0,320.1, -0.3, -0.4,0,0,1024,1024,1024,1024,324.6,0,98,4.282,4.282,4.283,4.282,0,0,75.11,41,Motors_Started,
0,0,5911.5678571492,0,0,0,200,2017-11-02 05:24:44,4,0,5911.5678571492,0,0,0,320.1, -0.3, -0.4,0,0,1024,1024,1024,1024,324.6,0,98,4.282,4.282,4.283,4.282,0,0,75.11,41,Motors_Started,
0,0,5911.5678571492,0,0,0,300,2017-11-02 05:24:45,4,0,5911.5678571492,0,0,0,320, -0.3, -0.4,0,0,1024,1024,1024,1024,324.6,0,98,4.282,4.282,4.283,4.282,0,0,75.11,41,Motors_Started,
0,0,5911.5678571492,0,0,0,400,2017-11-02 05:24:45,4,0,5911.5678571492,0,0,0,320.1, -0.3, -0.4,0,0,1024,1024,1024,1024,324.6,0,98,4.282,4.282,4.283,4.282,0,0,75.11,41,Motors_Started,
0,0,5911.5678571492,0,0,0,500,2017-11-02 05:24:45,4,0,5911.5678571492,0,0,0,320, -0.3, -0.4,0,0,1024,1024,1024,1024,324.6,0,98,4.282,4.282,4.283,4.282,0,0,75.11,41,Motors_Started,
0,0,5911.5678571492,0,0,0,600,2017-11-02 05:24:45,4,0,5911.5678571492,0,0,0,320.1, -0.3, -0.4,0,0,1024,1024,1024,1024,324.6,0,98,4.282,4.282,4.283,4.282,0,0,75.11,41,Motors_Started,
0,0,5911.5678571492,0,0,0,700,2017-11-02 05:24:45,4,0,5911.5678571492,0,0,0,320.1, -0.3, -0.4,0,0,1024,1024,1024,1024,324.6,0,98,4.282,4.282,4.283,4.282,0,0,75.11,41,Motors_Started,
0,0,5911.5678571492,0,0,0,800,2017-11-02 05:24:45,4,0,5911.5678571492,0,0,0,320, -0.3, -0.3,0,0,1024,1024,1024,1024,324.6,0,98,4.282,4.282,4.283,4.282,0,0,75.11,41,Motors_Started,
0,0,5911.5678571492,0,0,0,900,2017-11-02 05:24:45,4,17.115,5911.5678571492,0,0,0,320.1, -0.4, -0.3,0,0,1024,1024,1024,1024,324.6,0,98,4.282,4.282,4.283,4.282,0,0,75.11,41,Motors_Started,
0,0,5911.5678571492,0,0,0,1000,2017-11-02 05:24:45,4,17.115,5911.5678571492,0,0,0,320.1, -0.3, -0.4,0,0,1024,1024,1024,1024,324.6,0,98,4.282,4.282,4.283,4.282,0,0,75.11,41,Motors_Started,
0,0,5911.5678571492,0,0,0,1100,2017-11-02 05:24:45,4,17.115,5911.5678571492,0,0,0,320.1, -0.4, -0.3,0,0,1024,1024,1024,1024,324.6,0,98,4.282,4.282,4.283,4.282,0,0,75.11,41,Motors_Started,
0,0,5911.5678571492,0,0,0,1200,2017-11-02 05:24:45,4,17.115,5911.5678571492,0,0,0,320, -0.4, -0.3,0,0,1024,1024,1024,1024,324.6,0,98,4.282,4.282,4.283,4.282,0,0,75.11,41,Motors_Started,
0,0,5911.5678571492,0,0,0,1300,2017-11-02 05:24:46,4,17.115,5911.5678571492,0,0,0,320, -0.4, -0.3,0,0,1024,1024,1024,1024,324.6,0,98,4.282,4.282,4.283,4.282,0,0,75.11,41,Motors_Started,
0,0,5911.5678571492,0,0,0,1400,2017-11-02 05:24:46,4,17.115,5911.5678571492,0,0,0,320, -0.4, -0.4,0,0,1024,1024,1024,1024,324.6,0,98,4.282,4.282,4.283,4.282,0,0,75.11,41,Motors_Started,
0,0,5911.5678571492,0,0,0,1500,2017-11-02 05:24:46,4,17.115,5911.5678571492,0,0,0,320.2, -0.4, -0.4,0,0,1024,1024,1024,1024,324.6,0,98,4.282,4.282,4.283,4.282,0,0,75.11,41,Motors_Started,
0,0,5911.5678571492,0,0,0,1600,2017-11-02 05:24:46,4,17.115,5911.5678571492,0,0,0,320.2, -0.4, -0.3,0,0,1024,1024,1024,1024,324.7,0,98,4.282,4.282,4.283,4.282,0,0,75.11,10,Assisted_Takeoff,
0,0,5911.5678571492,0,0,0,1700,2017-11-02 05:24:46,4,17.115,5911.5678571492,0,0,0,320.2, -0.4, -0.3,0,0,1024,1024,1024,1024,324.7,0,98,4.282,4.282,4.283,4.282,0,0,75.11,10,Assisted_Takeoff,
0,0,5911.5678571492,0,0,0,1900,2017-11-02 05:24:46,4,17.089,5911.5678571492,0,0,0,320.2, -0.3, -0.4,0,0,1024,1024,1024,1024,324.7,0,98,4.282,4.281,4.283,4.281,0,0,75.11,10,Assisted_Takeoff,
0,0,5911.5678571492,0,0,0,2000,2017-11-02 05:24:46,4,17.089,5911.5678571492,0,0,0,320.2, -0.3, -0.3,0,0,364,364,401,1619,324.7,0,98,4.282,4.281,4.283,4.281,0,0,75.11,10,Assisted_Takeoff,
0,0,5911.5678571492,0,0,0,2100,2017-11-02 05:24:46,4,17.089,5911.5678571492,0,0,0,320.2, -0.3, -0.4,0,0,364,364,502,1505,324.7,0,98,4.282,4.281,4.283,4.281,0,0,75.11,10,Assisted_Takeoff,
0,0,5911.5678571492,0,0,0,2200,2017-11-02 05:24:46,4,17.089,5911.5678571492,0,0,0,320.2, -0.3, -0.4,0,0,417,384,578,1403,324.5,0,98,4.282,4.281,4.283,4.281,0,0,75.11,10,Assisted_Takeoff,
0,0,5911.5678571492,0,0,0,2300,2017-11-02 05:24:47,4,17.089,5911.5678571492,0,0,0,320.2, -0.3, -0.4,0,0,585,477,651,1271,324.1,0,98,4.282,4.281,4.283,4.281,0,0,75.11,10,Assisted_Takeoff,
0,0,5911.5678571492,0,0,0,2400,2017-11-02 05:24:47,4,17.089,5911.5678571492,0,0,0,320.2, -0.3, -0.4,0,0,815,647,755,1162,323.8,0,98,4.282,4.281,4.283,4.281,0,0,75.11,10,Assisted_Takeoff,
0,0,5911.5678571492,0,0,0,2500,2017-11-02 05:24:47,4,17.089,5911.5678571492,0,0,0,320.2, -0.3, -0.4,0,0,1024,906,1016,1024,323.2,0,98,4.282,4.281,4.283,4.281,0,0,75.11,10,Assisted_Takeoff,
0,0,5911.5678571492,0,0,0,2600,2017-11-02 05:24:47,4,17.089,5911.5678571492,0,0,0,320.2, -0.3, -0.4,0,0,1024,1024,1024,1024,322.3,0,98,4.282,4.281,4.283,4.281,0,0,75.11,10,Assisted_Takeoff,
0,0,5911.5678571492,0,0,0,2700,2017-11-02 05:24:47,4,17.089,5911.5678571492,0,0,0,320.1, -0.3, -0.3,0,0,1024,1024,1024,1024,321.7,0,98,4.282,4.281,4.283,4.281,0,0,75.11,10,Assisted_Takeoff,
0,0,5911.5678571492,0,0,0,2800,2017-11-02 05:24:47,4,17.089,5911.5678571492,0,0,0,320.2, -0.3, -0.4,0,0,1024,1024,1024,1024,321.4,0,98,4.282,4.281,4.283,4.281,0,0,75.11,10,Assisted_Takeoff,
0,0,5911.5678571492,0,0,0,2900,2017-11-02 05:24:47,4,16.876,5911.5678571492,0,0,0,320.2, -0.3, -0.3,0,0,1024,1024,1024,1024,321.2,0,98,4.272,4.27,4.263,4.26,0,0,75.11,10,Assisted_Takeoff,Setting new Return-To-Home altitude to 30m (98 ft). Setting new Maximum Flight Altitude to 8m (26 ft)
0,0,5911.5678571492,0,0,0,3000,2017-11-02 05:24:47,4,16.876,5911.5678571492,0,0,0,320.2, -0.3, -0.4,0,0,1024,1024,1024,1024,321.1,0,98,4.272,4.27,4.263,4.26,0,0,75.11,10,Assisted_Takeoff,
0,0,5911.5678571492,0,0,0,3100,2017-11-02 05:24:47,4,16.876,5911.5678571492,0,0,0,320.2, -0.3, -0.4,0,0,1024,1024,1024,1024,321,0,98,4.272,4.27,4.263,4.26,0,0,75.11,10,Assisted_Takeoff,
0,0,5911.5678571492,0,0,0,3200,2017-11-02 05:24:47,4,16.876,5911.5678571492,0,0,0,320.2, -0.3, -0.4,0,0,1024,1024,1024,1024,320.9,0,98,4.272,4.27,4.263,4.26,0,0,75.11,10,Assisted_Takeoff,
0,0,5911.5678571492,0,0,0,3300,2017-11-02 05:24:48,4,16.876,5911.5678571492,0,0,0,320.2, -0.3, -0.4,0,0,1024,1024,1024,1024,320.8,0,98,4.272,4.27,4.263,4.26,0,0,75.11,10,Assisted_Takeoff,
0,0,5911.5678571492,0,0,0,3400,2017-11-02 05:24:48,4,16.876,5911.5678571492,0,0,0,320.2, -0.3, -0.3,0,0,1024,1024,1024,1024,320.8,0,98,4.272,4.27,4.263,4.26,0,0,75.11,10,Assisted_Takeoff,
0,0,5911.5678571492,0,0,0,3500,2017-11-02 05:24:48,4,16.876,5911.5678571492,0,0,0,320.2, -0.3, -0.4,0,0,1024,1024,1024,1024,320.8,0,98,4.272,4.27,4.263,4.26,0,0,75.11,10,Assisted_Takeoff,
0,0,5911.5678571492,0,0,0,3600,2017-11-02 05:24:48,4,16.876,5911.5678571492,0,0,0,320.2, -0.3, -0.3,0,0,1024,1024,1024,1024,320.7,0,98,4.272,4.27,4.263,4.26,0,0,75.11,10,Assisted_Takeoff,
0,0,5911.5678571492,0,0,0,3700,2017-11-02 05:24:48,4,16.876,5911.5678571492,0,0,0,320.2, -0.3, -0.4,0,0,1024,1024,1065,1024,320.7,0,98,4.272,4.27,4.263,4.26,0,0,75.11,10,Assisted_Takeoff,
0,0,5911.5678571492,0,0,0,3800,2017-11-02 05:24:48,4,16.876,5911.5678571492,0,0,0,320.2, -0.3, -0.3,0,0,1024,1024,1198,1024,320.7,0,98,4.272,4.27,4.263,4.26,0,0,75.11,10,Assisted_Takeoff,
0,0,5911.5678571492,0,0,0,3900,2017-11-02 05:24:48,4,17.062,5911.5678571492,0,0,0,320.2, -0.3, -0.3,0,0,1024,1024,1453,1024,320.7,0,98,4.272,4.273,4.273,4.273,0,0,75.11,10,Assisted_Takeoff,
0,0,5911.5678571492,0,0,0,4000,2017-11-02 05:24:48,4,17.062,5911.5678571492,0,0,0,320.2, -0.3, -0.3,0,0,1024,1024,1453,1024,320.6,0,98,4.272,4.273,4.273,4.273,0,0,75.11,10,Assisted_Takeoff,
0,0,5911.5678571492,0,0,0,4100,2017-11-02 05:24:48,4,17.062,5911.5678571492,0,0,0,320.2, -0.4, -0.3,0,0,1024,1024,1684,1091,320.6,0,98,4.272,4.273,4.273,4.273,0,0,75.11,10,Assisted_Takeoff,
0,0,5911.5678571492,0,0,0,4200,2017-11-02 05:24:48,4,17.062,5911.5678571492,0,0,0,320.2, -0.4, -0.3,0,0,1024,1024,1684,1091,320.6,0,98,4.272,4.273,4.273,4.273,0,0,75.11,10,Assisted_Takeoff,
0,0,5911.5678571492,0,0,0,4300,2017-11-02 05:24:49,4,17.062,5911.5678571492,0,0,0,320.4, -1.2, -0.2,0,0,1024,1024,1684,1186,320.9,0,98,4.272,4.273,4.273,4.273,0,0,75.11,10,Assisted_Takeoff,
0,0,5911.5678571492,0,0,0,4400,2017-11-02 05:24:49,11,17.062,5911.5678571492,0,0,0,321.6, -2.8, 1.5,0,0,1024,1024,1684,1140,321.7,0,98,4.272,4.273,4.273,4.273,0,0,75.11,10,Assisted_Takeoff,
0,0,5911.5678571492,0,0.447388,0,4500,2017-11-02 05:24:49,11,17.062,5911.5678571492,0,0.447388,0,323.3, -3.1, 3.3,0,0,1024,1024,1684,1141,322.4,0,98,4.272,4.273,4.273,4.273,0,0,75.11,6,GPS_Atti,
0,0,5911.5678571492,0,0.671082,0,4600,2017-11-02 05:24:49,11,17.062,5911.5678571492,0,0.671082,0,325.1, -0.9, 2.5,0,0,1024,1024,1684,1140,323.2,0,98,4.272,4.273,4.273,4.273,0,0,75.11,6,GPS_Atti,
0,0,5911.5678571492,0,0.894776,0,4700,2017-11-02 05:24:49,10,17.062,5911.5678571492,0,0.894776,0,326.7, 0.5, 0.3,0,0,1024,1024,1684,1129,324.2,0,98,4.272,4.273,4.273,4.273,0,0,75.11,6,GPS_Atti,
0,0,5911.8959411492,0.328084,1.11847,0,4800,2017-11-02 05:24:49,10,17.062,5911.8959411492,0.328084,1.11847,0,328.6, 1.4, -1,0,0,1024,1024,1684,1143,325.4,0,98,4.272,4.273,4.273,4.273,0,0,75.11,6,GPS_Atti,
0,0,5912.5521091492,0.984252,1.1408394,0,4900,2017-11-02 05:24:49,11,17.089,5912.5521091492,0.984252,1.1408394,0,330.7, 3.3, -1.6,0,0,1024,1024,1684,1153,326.9,0,98,4.272,4.273,4.273,4.273,0,0,75.11,6,GPS_Atti,
0,0,5913.2082771492,1.64042,1.1408394,0,5000,2017-11-02 05:24:49,11,17.089,5913.2082771492,1.64042,1.1408394,0,332.3, 5.5, -4.2,0,0,1024,1024,1684,1156,326.9,0,98,4.272,4.273,4.273,4.273,0,0,75.11,6,GPS_Atti,
0,0,5913.8644451492,2.296588,1.20571066,0,5100,2017-11-02 05:24:49,11,17.089,5913.8644451492,2.296588,1.20571066,0,334, 7.1, -1.7,0,0,1024,1024,1684,1162,328.8,0,98,4.272,4.273,4.273,4.273,0,0,75.11,6,GPS_Atti,
0,0,5914.8486971492,3.28084,1.20571066,0,5200,2017-11-02 05:24:49,11,17.089,5914.8486971492,3.28084,1.20571066,0,335.9, 6.9, 0.4,0,0,1024,1024,1684,1167,330.5,0,98,4.272,4.273,4.273,4.273,0,0,75.11,6,GPS_Atti,
0,0,5915.8329491492,4.265092,1.36005952,0,5300,2017-11-02 05:24:50,11,17.089,5915.8329491492,4.265092,1.36005952,0,338, 6.2, 0.1,0,0,1024,1024,1684,1172,332.4,0,98,4.272,4.273,4.273,4.273,0,0,75.11,6,GPS_Atti,
0,0,5917.1452851492,5.577428,1.58151658,0,5400,2017-11-02 05:24:50,11,17.089,5917.1452851492,5.577428,1.58151658,0,340.1, 8.5, -0.5,0,0,1024,1024,1684,1172,334.5,0,98,4.272,4.273,4.273,4.273,0,0,75.11,6,GPS_Atti,
0,0,5918.4576211492,6.889764,1.58151658,0,5500,2017-11-02 05:24:50,11,17.089,5918.4576211492,6.889764,1.58151658,0,342.1, 10.8, -1,0,0,1024,1024,1684,1166,336.7,0,98,4.272,4.273,4.273,4.273,0,0,75.11,6,GPS_Atti,
0,0,5920.0980411492,8.530184,1.58151658,0,5600,2017-11-02 05:24:50,11,17.089,5920.0980411492,8.530184,1.58151658,0,343.9, 11.8, -1.7,0,0,1024,1024,1684,1164,338.9,0,98,4.272,4.273,4.273,4.273,0,0,75.11,6,GPS_Atti,
0,0,5921.4103771492,9.84252,1.58151658,0,5700,2017-11-02 05:24:50,11,17.089,5921.4103771492,9.84252,1.58151658,0,345.7, 12.2, -2.1,0,0,1024,1024,1684,1165,341,0,98,4.272,4.273,4.273,4.273,0,0,75.11,6,GPS_Atti,
0,0,5923.0507971492,11.48294,1.36005952,0,5800,2017-11-02 05:24:50,11,17.089,5923.0507971492,11.48294,1.58151658,0,347.4, 12.5, -1.1,0,0,1024,1024,1684,1166,343,0,98,4.272,4.273,4.273,4.273,0,0,75.11,6,GPS_Atti,
0,0,5924.6912171492,13.12336,1.36005952,0,5900,2017-11-02 05:24:50,11,16.266,5924.6912171492,13.12336,1.58151658,0,349, 12.4, 0,0,0,1024,1024,1684,1166,344.8,0,98,4.197,4.199,4.192,4.183,0,0,75.11,6,GPS_Atti,Setting new Maximum Flight Altitude to 30m (98 ft)
0,0,5926.3316371492,14.76378,1.36005952,0,6000,2017-11-02 05:24:50,11,16.266,5926.3316371492,14.76378,1.58151658,0,350.7, 12, 0.6,0,0,1024,1024,1684,1169,346.5,0,98,4.197,4.199,4.192,4.183,0,0,75.11,6,GPS_Atti,
0,0,5927.9720571492,16.4042,1.11847,0,6100,2017-11-02 05:24:50,11,16.266,5927.9720571492,16.4042,1.58151658,0,352.3, 11.9, 0.9,0,0,1024,1024,1684,1169,348.2,0,98,4.197,4.199,4.192,4.183,0,0,75.11,6,GPS_Atti,
0,0,5929.6124771492,18.04462,1.11847,0,6200,2017-11-02 05:24:50,11,16.266,5929.6124771492,18.04462,1.58151658,0,354, 11.5, 0.9,0,0,1024,1024,1684,1169,350,0,98,4.197,4.199,4.192,4.183,0,0,75.11,6,GPS_Atti,
0,0,5931.5809811492,20.013124,1.11847,0,6300,2017-11-02 05:24:51,11,16.266,5931.5809811492,20.013124,1.58151658,0,355.7, 11.3, 0.9,0,0,1024,1024,1684,1172,351.8,0,98,4.197,4.199,4.192,4.183,0,0,75.11,6,GPS_Atti,
0,0,5933.2214011492,21.653544,1.1408394,0,6400,2017-11-02 05:24:51,11,16.266,5933.2214011492,21.653544,1.58151658,0,357.4, 11.3, 0.9,0,0,1024,1024,1684,1171,353.6,0,98,4.197,4.199,4.192,4.183,0,0,75.11,6,GPS_Atti,
0,0,5934.8618211492,23.293964,1.1408394,0,6500,2017-11-02 05:24:51,11,16.266,5934.8618211492,23.293964,1.58151658,0,359.1, 11.1, 1.3,0,0,1024,1024,1684,1169,355.4,0,98,4.197,4.199,4.192,4.183,0,0,75.11,6,GPS_Atti,
0,0,5936.5022411492,24.934384,1.1408394,0,6600,2017-11-02 05:24:51,11,16.266,5936.5022411492,24.934384,1.58151658,0,0.7, 10.7, 2,0,0,1024,1024,1684,1167,355.4,0,98,4.197,4.199,4.192,4.183,0,0,75.11,6,GPS_Atti,
0,0,5938.4707451492,26.902888,1.11847,0,6700,2017-11-02 05:24:51,11,16.266,5938.4707451492,26.902888,1.58151658,0,2.4, 10.9, 2.4,0,0,1024,1024,1684,1167,357.1,0,98,4.197,4.199,4.192,4.183,0,0,75.11,6,GPS_Atti,
0,0,5940.1111651492,28.543308,1.11847,0,6800,2017-11-02 05:24:51,11,16.266,5940.1111651492,28.543308,1.58151658,0,4.1, 11.4, 2.5,0,0,1024,1024,1684,1165,358.8,0,98,4.197,4.199,4.192,4.183,0,0,75.11,6,GPS_Atti,
0.0692644492478215,36.9623954143999,5941.7515851492,30.183728,0.894776,0,6900,2017-11-02 05:24:51,11,16.266,5941.7515851492,30.183728,1.58151658,0,5.7, 11.4, 2.5,0,0,1024,1024,1684,1162,0.4,0,98,4.068,4.07,4.064,4.07,0,0,75.11,6,GPS_Atti,
0.0692649171331649,36.9623953484012,5943.7200891492,32.152232,0.894776,0.172397643312,7000,2017-11-02 05:24:51,11,16.266,5943.7200891492,32.152232,1.58151658,0.172397643312,7.1, 11, 2.2,0,0,1024,1024,1684,1160,2.1,0,98,4.068,4.07,4.064,4.07,0,0,75.11,6,GPS_Atti,
0.0692655662337919,36.962395100335,5945.3605091492,33.792652,1.11847,0.42333334688,7100,2017-11-02 05:24:51,11,16.266,5945.3605091492,33.792652,1.58151658,0.42333334688,8.6, 11.1, 2.6,0,0,1024,1024,1684,1163,3.8,0,98,4.068,4.07,4.064,4.07,0,0,75.11,6,GPS_Atti,
0.0692662875253768,36.9623947757451,5947.0009291492,35.433072,1.1408394,0.71001970776,7200,2017-11-02 05:24:51,11,16.266,5947.0009291492,35.433072,1.58151658,0.71001970776,9.9, 11.4, 3.5,0,0,1024,1024,1684,1095,5.3,0,98,4.068,4.07,4.064,4.07,0,0,75.11,6,GPS_Atti,
0.069267092029025,36.9623943836359,5948.9694331492,37.401576,0.92161928,1.03496066304,7300,2017-11-02 05:24:52,11,16.266,5948.9694331492,37.401576,1.58151658,1.03496066304,11.2, 11.4, 4.1,0,0,1024,1024,1684,1065,6.6,0,98,4.068,4.07,4.064,4.07,0,0,75.11,6,GPS_Atti,
0.069267838719858,36.9623940478611,5950.6098531492,39.041996,0.92161928,1.33336946524,7400,2017-11-02 05:24:52,11,16.266,5950.6098531492,39.041996,1.58151658,1.33336946524,12, 11.2, 4.5,0,0,1024,1024,1684,1050,7.3,0,98,4.068,4.07,4.064,4.07,0,0,75.11,6,GPS_Atti,
0.0692687028797201,36.9623935796634,5952.5783571492,41.0105,0.894776,1.69014769188,7500,2017-11-02 05:24:52,11,16.266,5952.5783571492,41.0105,1.58151658,1.69014769188,12.2, 11.2, 4.5,0,0,1024,1024,1684,1049,7.9,0,98,4.068,4.07,4.064,4.07,0,0,75.11,6,GPS_Atti,
0.0692694975799319,36.9623931956257,5954.5468611492,42.979004,0.894776,2.0119259174,7600,2017-11-02 05:24:52,11,16.266,5954.5468611492,42.979004,1.58151658,2.0119259174,12.2, 11.7, 4.4,0,0,1024,1024,1684,1052,8.2,0,98,4.068,4.07,4.064,4.07,0,0,75.11,6,GPS_Atti,
0.0692703512188244,36.9623927344452,5956.1872811492,44.619424,0.92161928,2.3649278972,7700,2017-11-02 05:24:52,11,16.266,5956.1872811492,44.619424,1.58151658,2.3649278972,12.2, 12, 4.2,0,0,1024,1024,1684,1057,8.5,0,98,4.068,4.07,4.064,4.07,0,0,75.11,6,GPS_Atti,
0.0692711165964594,36.9623923448674,5958.1557851492,46.587928,0.92161928,2.67799221168,7800,2017-11-02 05:24:52,11,16.266,5958.1557851492,46.587928,1.58151658,2.67799221168,12, 11.8, 4.7,0,0,1024,1024,1684,1075,8.6,0,98,4.068,4.07,4.064,4.07,0,0,75.11,6,GPS_Atti,
0.0692718587532972,36.962391910143,5959.7962051492,48.228348,0.92161928,2.99044300908,7900,2017-11-02 05:24:52,11,16.24,5959.7962051492,48.228348,1.58151658,2.99044300908,12, 11.3, 4.9,0,0,1024,1024,1684,1095,8.9,0,98,4.068,4.07,4.064,4.07,0,0,75.11,6,GPS_Atti,
0.0692725426769777,36.9623915459736,5961.7647091492,50.196852,0.92161928,3.2728511546,8000,2017-11-02 05:24:52,11,16.24,5961.7647091492,50.196852,1.58151658,3.2728511546,12.2, 11, 4.8,0,0,1024,1024,1684,1100,9.3,0,98,4.068,4.07,4.064,4.07,0,0,75.11,6,GPS_Atti,
0.069273151243598,36.9623911819947,5963.4051291492,51.837272,0.92161928,3.530511924,8100,2017-11-02 05:24:52,11,16.24,5963.4051291492,51.837272,1.58151658,3.530511924,12.6, 10.7, 4.8,0,0,1024,1024,1684,1106,9.3,0,98,4.068,4.07,4.064,4.07,0,0,75.11,6,GPS_Atti,
0.0692737450874562,36.9623908457999,5965.3736331492,53.805776,0.92161928,3.779035554,8200,2017-11-02 05:24:52,11,16.24,5965.3736331492,53.805776,1.58151658,3.779035554,13.2, 10.8, 5.1,0,0,1024,1024,1684,1102,9.8,0,98,4.068,4.07,4.064,4.07,0,0,75.11,6,GPS_Atti,
0.0692741977492909,36.9623905642366,5967.3421371492,55.77428,0.92161928,3.9726379224,8300,2017-11-02 05:24:53,11,16.24,5967.3421371492,55.77428,1.58151658,3.9726379224,13.9, 10.3, 5.6,0,0,1024,1024,1684,1095,10.3,0,98,4.068,4.07,4.064,4.07,0,0,75.11,6,GPS_Atti,
0.0692745706157413,36.9623903171961,5968.9825571492,57.4147,0.92161928,4.1346129932,8400,2017-11-02 05:24:53,11,16.24,5968.9825571492,57.4147,1.58151658,4.1346129932,14.6, 10.2, 6,0,0,1024,1024,1684,1099,10.9,0,98,4.068,4.07,4.064,4.07,0,0,75.11,6,GPS_Atti,
0.0692748714911253,36.9623901088344,5970.6229771492,59.05512,0.92161928,4.266896462,8500,2017-11-02 05:24:53,11,16.24,5970.6229771492,59.05512,1.58151658,4.266896462,15.2, 9.8, 6.1,0,0,1024,1024,1684,1103,11.4,0,98,4.068,4.07,4.064,4.07,0,0,75.11,6,GPS_Atti,
0.0692753217778744,36.9623898837122,5972.5914811492,61.023624,0.92161928,4.4505578852,8600,2017-11-02 05:24:53,11,16.24,5972.5914811492,61.023624,1.58151658,4.4505578852,15.7, 10, 6.4,0,0,1024,1024,1684,1113,11.9,0,98,4.068,4.07,4.064,4.07,0,0,75.11,6,GPS_Atti,
0.0692756530774776,36.9623897069425,5974.5599851492,62.992128,0.92161928,4.5875329552,8700,2017-11-02 05:24:53,11,16.24,5974.5599851492,62.992128,1.58151658,4.5875329552,16.4, 10.1, 6.6,0,0,1024,1024,1684,1120,12.5,0,98,4.068,4.07,4.064,4.07,0,0,75.11,6,GPS_Atti,
0.0692760340210102,36.9623895547258,5976.2004051492,64.632548,0.92161928,4.7366143248,8800,2017-11-02 05:24:53,11,16.24,5976.2004051492,64.632548,1.58151658,4.7366143248,17.3, 10.9, 6.4,0,0,1024,1024,1684,1120,13.2,0,98,4.068,4.07,4.064,4.07,0,0,75.11,6,GPS_Atti,
0.0692763637858049,36.9623894633118,5978.1689091492,66.601052,0.70687304,4.859088082,8900,2017-11-02 05:24:53,11,16.24,5978.1689091492,66.601052,1.58151658,4.859088082,18.2, 11.2, 5.9,0,0,1024,1024,1684,1120,14,-1,98,4.077,4.087,4.079,4.081,0,0,75.11,6,GPS_Atti,
0.0692767347152212,36.9623893662965,5980.1374131492,68.569556,0.70687304,4.996063152,9000,2017-11-02 05:24:53,11,16.24,5980.1374131492,68.569556,1.58151658,4.996063152,19.1, 11, 5.3,0,0,1024,1024,1684,1126,14.9,-5.8,98,4.077,4.087,4.079,4.081,0,0,75.11,6,GPS_Atti,
0.0692770373827078,36.962389304206,5981.7778331492,70.209976,0.92161928,5.1052166988,9100,2017-11-02 05:24:53,11,16.24,5981.7778331492,70.209976,1.58151658,5.1052166988,20, 11.3, 5.8,0,0,1024,1024,1684,1127,15.8,-11.3,98,4.077,4.087,4.079,4.081,0,0,75.11,6,GPS_Atti,
0.069277408422044,36.962389210874,5983.4182531492,71.850396,0.92161928,5.24196211,9200,2017-11-02 05:24:53,11,16.24,5983.4182531492,71.850396,1.58151658,5.24196211,21, 12.2, 6.6,0,0,1024,1024,1684,1128,16.7,-17,98,4.077,4.087,4.079,4.081,0,0,75.11,6,GPS_Atti,
0.0692777127603142,36.9623890785507,5985.0586731492,73.490816,0.99991218,5.3629594892,9300,2017-11-02 05:24:54,11,16.24,5985.0586731492,73.490816,1.58151658,5.3629594892,21.8, 11.7, 7.5,0,0,1024,1024,1684,1130,17.6,-22.7,98,4.077,4.087,4.079,4.081,0,0,75.11,6,GPS_Atti,
0.0692780566306908,36.9623888974596,5986.6990931492,75.131236,0.99991218,5.5046589688,9400,2017-11-02 05:24:54,11,16.24,5986.6990931492,75.131236,1.58151658,5.5046589688,22.6, 10.5, 7.8,0,0,1024,1024,1684,1135,18.5,-28.3,98,4.077,4.087,4.079,4.081,0,0,75.11,6,GPS_Atti,
0.0692783521476798,36.9623887006087,5988.3395131492,76.771656,0.99991218,5.6329398128,9500,2017-11-02 05:24:54,11,16.24,5988.3395131492,76.771656,1.58151658,5.6329398128,23.4, 9.7, 7.2,0,0,1024,1024,1684,1136,19.5,-34,98,4.077,4.087,4.079,4.081,0,0,75.11,6,GPS_Atti,
0.0692786786458158,36.9623884672222,5989.9799331492,78.412076,0.99991218,5.7772967728,9600,2017-11-02 05:24:54,11,16.24,5989.9799331492,78.412076,1.58151658,5.7772967728,24.5, 9.3, 8.1,0,0,1024,1024,1684,1140,19.5,-34,98,4.077,4.087,4.079,4.081,0,0,75.11,6,GPS_Atti,
0.0692789798477028,36.9623881758392,5991.6203531492,80.052496,0.99991218,5.9228676436,9700,2017-11-02 05:24:54,11,16.24,5991.6203531492,80.052496,1.58151658,5.9228676436,25.6, 9.2, 10.7,0,0,1024,1024,1684,1139,20.5,-39.6,98,4.077,4.087,4.079,4.081,0,0,75.11,6,GPS_Atti,
0.0692792915221132,36.9623879221954,5992.9326891492,81.364832,0.99991218,6.0660106928,9800,2017-11-02 05:24:54,11,16.24,5992.9326891492,81.364832,1.58151658,6.0660106928,26.8, 10.2, 11.4,0,0,1024,1024,1684,1140,21.5,-45.3,98,4.077,4.087,4.079,4.081,0,0,75.11,6,GPS_Atti,
0.0692795252543085,36.9623876945746,5994.5731091492,83.005252,0.70687304,6.1796589904,9900,2017-11-02 05:24:54,11,16.16,5994.5731091492,83.005252,1.58151658,6.1796589904,27.9, 9.5, 12.3,0,0,1024,1024,1684,1138,22.5,-50.9,98,4.061,4.069,4.053,4.059,0,0,75.11,6,GPS_Atti,
0.0692797392432488,36.9623875276889,5996.2135291492,84.645672,0.671082,6.2769358964,10000,2017-11-02 05:24:54,11,16.16,5996.2135291492,84.645672,1.58151658,6.2769358964,28.9, 8.8, 12.1,0,0,1024,1024,1684,1135,23.5,-56.5,98,4.061,4.069,4.053,4.059,0,0,75.11,6,GPS_Atti,
0.0692798585170009,36.9623874226529,5997.8539491492,86.286092,0.447388,6.3332023024,10100,2017-11-02 05:24:54,11,16.16,5997.8539491492,86.286092,1.58151658,6.3332023024,30.2, 9.6, 10.8,0,0,1024,1024,1684,1129,24.5,-62.1,98,4.061,4.069,4.053,4.059,0,0,75.11,6,GPS_Atti,
0.06927998000218,36.9623873591096,5999.8224531492,88.254596,0.447388,6.383202304,10200,2017-11-02 05:24:54,11,16.16,5999.8224531492,88.254596,1.58151658,6.383202304,31.3, 10, 9.4,0,0,1024,1024,1684,1120,25.7,-67.8,98,4.061,4.069,4.053,4.059,0,0,75.11,6,GPS_Atti,
0.0692799676471754,36.9623873811885,6001.4628731492,89.895016,0.447388,6.37549233,10300,2017-11-02 05:24:55,13,16.16,6001.4628731492,89.895016,1.58151658,6.383202304,32.6, 11, 8.9,0,0,1024,1024,1684,1095,26.9,-73.5,98,4.061,4.069,4.053,4.059,0,0,75.11,6,GPS_Atti,
0.0692799581126358,36.9623873631938,6002.7752091492,91.207352,0.31540854,6.3754267132,10400,2017-11-02 05:24:55,13,16.16,6002.7752091492,91.207352,1.58151658,6.383202304,33.7, 10.9, 10.7,0,0,1024,1024,1684,1075,27.9,-79.1,98,4.061,4.069,4.053,4.059,0,0,75.11,6,GPS_Atti,
0.0692798023242839,36.9623873149506,6004.4156291492,92.847772,0.31540854,6.3332351108,10500,2017-11-02 05:24:55,13,16.16,6004.4156291492,92.847772,1.58151658,6.383202304,34.3, 9.6, 12.7,0,0,1024,1024,1684,1072,28.7,-84.7,98,4.061,4.069,4.053,4.059,0,0,75.11,6,GPS_Atti,
0.0692796521328941,36.9623872717348,6006.0560491492,94.488192,0,6.2922574192,10600,2017-11-02 05:24:55,13,16.16,6006.0560491492,94.488192,1.58151658,6.383202304,34.2, 7.4, 13.5,0,0,1024,1024,1684,1073,29.2,-89.9,98,4.061,4.069,4.053,4.059,0,0,75.11,6,GPS_Atti,
0.0692793818095622,36.9623872988813,6008.0245531492,96.456696,0,6.2007547916,10700,2017-11-02 05:24:55,13,16.16,6008.0245531492,96.456696,1.58151658,6.383202304,34.3, 7.3, 11.7,0,0,1024,1024,1684,1073,29.6,-89.9,98,4.061,4.069,4.053,4.059,0,0,75.11,6,GPS_Atti,
0.0692791655961674,36.9623873880809,6009.6649731492,98.097116,0,6.1159122692,10800,2017-11-02 05:24:55,13,16.16,6009.6649731492,98.097116,1.58151658,6.383202304,34.8, 8.4, 9.8,0,0,1024,1024,1684,1073,30.1,-89.9,98,4.061,4.069,4.053,4.059,0,0,75.11,6,GPS_Atti,
0.0692789228765896,36.9623875065976,6011.3053931492,99.737536,0,6.0174542608,10900,2017-11-02 05:24:55,13,15.921,6011.3053931492,99.737536,1.58151658,6.383202304,35.1, 9.1, 8.9,0,0,1024,1024,1684,1074,30.5,-90,98,4.032,4.042,4.01,4.016,0,0,75.11,6,GPS_Atti,
0.0692787595322576,36.9623875840792,6013.2738971492,101.70604,0,5.951607802,11000,2017-11-02 05:24:55,13,15.921,6013.2738971492,101.70604,1.58151658,6.383202304,35.2, 8.8, 9.4,0,0,1024,1024,1684,1082,30.9,-90,98,4.032,4.042,4.01,4.016,0,0,75.11,6,GPS_Atti,
0.0692785955056076,36.9623875843645,6014.9143171492,103.34646,0,5.899114362,11100,2017-11-02 05:24:55,13,15.921,6014.9143171492,103.34646,1.58151658,6.383202304,35.4, 8.5, 11.1,0,0,1024,1024,1684,1092,30.9,-90,98,4.032,4.042,4.01,4.016,0,0,75.11,6,GPS_Atti,
0.0692784763393328,36.9623875897468,6016.5547371492,104.98688,0,5.8601707912,11200,2017-11-02 05:24:55,13,15.921,6016.5547371492,104.98688,1.58151658,6.383202304,35.8, 8.5, 12.1,0,0,1024,1024,1684,1098,31.3,-89.9,98,4.032,4.042,4.01,4.016,0,0,75.11,6,GPS_Atti,
0.0692783086617113,36.9623876097006,6018.1951571492,106.6273,0,5.8032482172,11300,2017-11-02 05:24:56,13,15.921,6018.1951571492,106.6273,1.58151658,6.383202304,36.5, 7.9, 11.4,0,0,1024,1024,1684,1111,31.8,-90,98,4.032,4.042,4.01,4.016,0,0,75.11,6,GPS_Atti,
0.0692781210144811,36.9623876799302,6019.8355771492,108.26772,0,5.7310369288,11400,2017-11-02 05:24:56,13,15.921,6019.8355771492,108.26772,1.58151658,6.383202304,37.1, 7.1, 11.6,0,0,1024,1024,1684,1106,32.5,-90,98,4.032,4.042,4.01,4.016,0,0,75.11,6,GPS_Atti,
0.069277897787378,36.9623877767041,6021.1479131492,109.580056,0,5.6427495244,11500,2017-11-02 05:24:56,13,15.921,6021.1479131492,109.580056,1.58151658,6.383202304,38, 7.4, 10.7,0,0,1024,1024,1684,1148,33.2,-89.9,98,4.032,4.042,4.01,4.016,0,0,75.11,6,GPS_Atti,
0.0692774085197507,36.9623880243767,6024.1006691492,112.532812,0.223694,5.44291356,11700,2017-11-02 05:24:56,13,15.921,6024.1006691492,112.532812,1.58151658,6.383202304,39.6, 6.7, 8.7,0,0,1024,1024,1684,1173,35.1,-90,98,4.032,4.042,4.01,4.016,0,0,75.11,6,GPS_Atti,
0.0692771796354331,36.9623881058612,6025.7410891492,114.173232,0.223694,5.3556760244,11800,2017-11-02 05:24:56,13,15.921,6025.7410891492,114.173232,1.58151658,6.383202304,40.5, 5.7, 8.8,0,0,1024,1024,1684,1163,36.5,-90,98,4.032,4.042,4.01,4.016,0,0,75.11,6,GPS_Atti,
0.0692769774527118,36.962388110143,6027.3815091492,115.813652,0,5.2910434764,11900,2017-11-02 05:24:56,13,16.08,6027.3815091492,115.813652,1.58151658,6.383202304,42, 5.1, 10,0,0,1024,1024,1684,1157,37.9,-90,98,4.032,4.042,4.01,4.016,0,0,75.11,6,GPS_Atti,
0.0692768247396764,36.9623881211736,6029.3500131492,117.782156,0,5.2409450496,12000,2017-11-02 05:24:56,13,16.08,6029.3500131492,117.782156,1.58151658,6.383202304,43.5, 4.7, 11,0,0,1024,1024,1684,1157,39.2,-90,98,4.032,4.042,4.01,4.016,0,0,75.11,6,GPS_Atti,
0.0692767101843408,36.9623880772908,6030.9904331492,119.422576,0,5.2131891432,12100,2017-11-02 05:24:56,13,16.08,6030.9904331492,119.422576,1.58151658,6.383202304,44.9, 4.2, 11.8,0,0,1024,1024,1684,1163,40.6,-89.9,98,4.032,4.042,4.01,4.016,0,0,75.11,6,GPS_Atti,
0.0692766451345169,36.9623880872895,6032.6308531492,121.062996,0,5.190945048,12200,2017-11-02 05:24:56,13,16.08,6032.6308531492,121.062996,1.58151658,6.383202304,46.2, 3.5, 11.8,0,0,1024,1024,1684,1167,42.2,-89.9,98,4.032,4.042,4.01,4.016,0,0,75.11,6,GPS_Atti,
0.0692765997668814,36.962388144799,6034.2712731492,122.703416,0,5.1659778556,12300,2017-11-02 05:24:57,13,16.08,6034.2712731492,122.703416,1.58151658,6.383202304,47.6, 3.2, 11.7,0,0,1024,1024,1684,1167,43.8,-89.9,98,4.032,4.042,4.01,4.016,0,0,75.11,6,GPS_Atti,
0.0692766321965294,36.962388300912,6035.9116931492,124.343836,0.31540854,5.1471786424,12400,2017-11-02 05:24:57,13,16.08,6035.9116931492,124.343836,1.58151658,6.383202304,49.6, 5.5, 12.5,0,0,1024,1024,1684,1167,43.8,-89.9,98,4.032,4.042,4.01,4.016,0,0,75.11,6,GPS_Atti,
0.0692767027618931,36.9623885345195,6037.8801971492,126.31234,0.31540854,5.1271655184,12500,2017-11-02 05:24:57,13,16.08,6037.8801971492,126.31234,1.58151658,6.383202304,51.4, 7, 13,0,0,1024,1024,1684,1165,45.3,-89.9,98,4.032,4.042,4.01,4.016,0,0,75.11,6,GPS_Atti,
0.0692767914567238,36.962388809147,6039.5206171492,127.95276,0.31540854,5.1073492448,12600,2017-11-02 05:24:57,13,16.08,6039.5206171492,127.95276,1.58151658,6.383202304,53, 7.5, 13.1,0,0,1024,1024,1684,1165,46.9,-89.9,98,4.032,4.042,4.01,4.016,0,0,75.11,6,GPS_Atti,
0.0692768444104657,36.9623890248508,6041.1610371492,129.59318,0.31540854,5.0878610552,12700,2017-11-02 05:24:57,13,16.08,6041.1610371492,129.59318,1.58151658,6.383202304,54.7, 8.1, 13.2,0,0,1024,1024,1684,1162,48.5,-89.9,98,4.032,4.042,4.01,4.016,0,0,75.11,6,GPS_Atti,
0.0692768987573414,36.9623892092671,6042.8014571492,131.2336,0.31540854,5.075131396,12800,2017-11-02 05:24:57,13,16.08,6042.8014571492,131.2336,1.58151658,6.383202304,56.3, 7.6, 14,0,0,1024,1024,1684,1160,50.1,-90,98,4.032,4.042,4.01,4.016,0,0,75.11,6,GPS_Atti,
0.0692768874795525,36.96238936748,6044.4418771492,132.87402,0.223694,5.04593192,12900,2017-11-02 05:24:57,13,16.08,6044.4418771492,132.87402,1.58151658,6.383202304,57.5, 6.5, 14.2,0,0,1024,1024,1684,1160,51.6,-90,98,4.043,4.05,4.041,4.042,0,0,75.11,6,GPS_Atti,
0.0692768701602364,36.9623895496786,6046.0822971492,134.51444,0.223694,5.0115159084,13000,2017-11-02 05:24:57,13,16.08,6046.0822971492,134.51444,1.58151658,6.383202304,58.6, 5, 13.6,0,0,1024,1024,1684,1161,53.2,-90,98,4.043,4.05,4.041,4.042,0,0,75.11,6,GPS_Atti,
0.069276852638179,36.9623897467121,6048.0508011492,136.482944,0.31540854,4.9754266684,13100,2017-11-02 05:24:57,13,16.08,6048.0508011492,136.482944,1.58151658,6.383202304,60, 4.9, 12.9,0,0,1024,1024,1684,1157,54.8,-89.9,98,4.043,4.05,4.041,4.042,0,0,75.11,6,GPS_Atti,
0.0692769072211791,36.9623899640785,6049.6912211492,138.123364,0.31540854,4.9612534396,13200,2017-11-02 05:24:57,13,16.08,6049.6912211492,138.123364,1.58151658,6.383202304,61.7, 6.1, 13.2,0,0,1024,1024,1684,1150,56.4,-90,98,4.043,4.05,4.041,4.042,0,0,75.11,6,GPS_Atti,
0.069276970554623,36.9623901245547,6051.3316411492,139.763784,0.31540854,4.9593505524,13300,2017-11-02 05:24:58,13,16.08,6051.3316411492,139.763784,1.58151658,6.383202304,63.1, 5.9, 14.4,0,0,1024,1024,1684,1147,57.9,-90,98,4.043,4.05,4.041,4.042,0,0,75.11,6,GPS_Atti,
0.0692770684045659,36.9623902788745,6053.3001451492,141.732288,0.31540854,4.9707678756,13400,2017-11-02 05:24:58,13,16.08,6053.3001451492,141.732288,1.58151658,6.383202304,64, 4.2, 14.6,0,0,1024,1024,1684,1145,59.3,-89.9,98,4.043,4.05,4.041,4.042,0,0,75.11,6,GPS_Atti,
0.0692771640870499,36.9623904204903,6055.2686491492,143.700792,0.50107456,4.9839896608,13500,2017-11-02 05:24:58,13,16.08,6055.2686491492,143.700792,1.58151658,6.383202304,65.4, 4.4, 15.7,0,0,1024,1024,1684,1145,60.7,-89.9,98,4.043,4.05,4.041,4.042,0,0,75.11,6,GPS_Atti,
0.0692772867039975,36.9623906253021,6056.9090691492,145.341212,0.50107456,4.9990487164,13600,2017-11-02 05:24:58,13,16.08,6056.9090691492,145.341212,1.58151658,6.383202304,67.1, 5.8, 17,0,0,1024,1024,1684,1139,62.1,-90,98,4.043,4.05,4.041,4.042,0,0,75.11,6,GPS_Atti,
0.0692773596859721,36.9623911321507,6059.8618251492,148.293968,0.447388,4.9627298176,13800,2017-11-02 05:24:58,13,16.08,6059.8618251492,148.293968,1.58151658,6.383202304,69.9, 5.9, 14.5,0,0,1024,1024,1684,1134,63.4,-90,98,4.043,4.05,4.041,4.042,0,0,75.11,6,GPS_Atti,
0.0692772963036749,36.962391404617,6061.5022451492,149.934388,0.447388,4.9102363776,13900,2017-11-02 05:24:58,13,16.08,6061.5022451492,149.934388,1.58151658,6.383202304,71.2, 6.1, 12.9,0,0,1024,1024,1684,1129,64.9,-90,98,4.034,4.048,4.036,4.036,0,0,75.11,6,GPS_Atti,
0.069277255431359,36.9623916704407,6063.1426651492,151.574808,0.447388,4.8679135416,14000,2017-11-02 05:24:58,13,16.08,6063.1426651492,151.574808,1.58151658,6.383202304,72.4, 6, 12.8,0,0,1024,1024,1684,1130,66.2,-90,98,4.034,4.048,4.036,4.036,0,0,75.11,6,GPS_Atti,
0.0692772240561285,36.9623919128534,6064.7830851492,153.215228,0.223694,4.8328085536,14100,2017-11-02 05:24:58,13,16.08,6064.7830851492,153.215228,1.58151658,6.383202304,73.3, 5.3, 13.4,0,0,1024,1024,1684,1129,67.5,-90,98,4.034,4.048,4.036,4.036,0,0,75.11,6,GPS_Atti,
0.0692772513586205,36.9623921475882,6066.7515891492,155.183732,0.31540854,4.8205054036,14200,2017-11-02 05:24:58,13,16.08,6066.7515891492,155.183732,1.58151658,6.383202304,74.5, 5.3, 14.3,0,0,1024,1024,1684,1133,68.8,-89.9,98,4.034,4.048,4.036,4.036,0,0,75.11,6,GPS_Atti,
0.0692772764789976,36.9623923241912,6068.3920091492,156.824152,0.223694,4.8139109152,14300,2017-11-02 05:24:59,13,16.08,6068.3920091492,156.824152,1.58151658,6.383202304,75.6, 5.3, 15.1,0,0,1024,1024,1684,1133,70.1,-89.9,98,4.034,4.048,4.036,4.036,0,0,75.11,6,GPS_Atti,
0.069277303118713,36.9623924763543,6070.0324291492,158.464572,0.223694,4.8106628836,14400,2017-11-02 05:24:59,13,16.08,6070.0324291492,158.464572,1.58151658,6.383202304,77, 5.2, 15,0,0,1024,1024,1684,1132,71.4,-90,98,4.034,4.048,4.036,4.036,0,0,75.11,6,GPS_Atti,
0.0692772936493111,36.9623925913164,6071.6728491492,160.104992,0,4.7981300748,14500,2017-11-02 05:24:59,13,16.08,6071.6728491492,160.104992,1.58151658,6.383202304,78.2, 4.1, 15.5,0,0,1024,1024,1684,1129,72.7,-90,98,4.034,4.048,4.036,4.036,0,0,75.11,6,GPS_Atti,
0.0692772650587199,36.9623926864756,6072.9851851492,161.417328,0,4.7805775808,14600,2017-11-02 05:24:59,13,16.08,6072.9851851492,161.417328,1.58151658,6.383202304,78.9, 2.1, 15.1,0,0,1024,1024,1684,1129,74.1,-90,98,4.034,4.048,4.036,4.036,0,0,75.11,6,GPS_Atti,
0.0692771879339837,36.9623927679154,6074.9536891492,163.385832,0.223694,4.7469489708,14700,2017-11-02 05:24:59,13,16.08,6074.9536891492,163.385832,1.58151658,6.383202304,79.7, 0.8, 13.3,0,0,1024,1024,1684,1129,75.5,-89.9,98,4.034,4.048,4.036,4.036,0,0,75.11,6,GPS_Atti,
0.0692771490744246,36.9623929109436,6076.2660251492,164.698168,0.223694,4.7227035632,14800,2017-11-02 05:24:59,13,16.08,6076.2660251492,164.698168,1.58151658,6.383202304,81.1, 2, 13.9,0,0,1024,1024,1684,1131,76.8,-89.9,98,4.034,4.048,4.036,4.036,0,0,75.11,6,GPS_Atti,
0.0692771129408808,36.9623931113406,6077.9064451492,166.338588,0.223694,4.6961287592,14900,2017-11-02 05:24:59,13,15.948,6077.9064451492,166.338588,1.58151658,6.383202304,82.8, 3.8, 14.9,0,0,1024,1024,1684,1120,78,-90,98,4.014,4.027,4.02,4.024,0,0,75.11,6,GPS_Atti,
0.0692770772779573,36.9623933058117,6079.5468651492,167.979008,0.223694,4.6711287584,15000,2017-11-02 05:24:59,13,15.948,6079.5468651492,167.979008,1.58151658,6.383202304,84.5, 4.6, 15.3,0,0,1024,1024,1684,1102,78,-90,98,4.014,4.027,4.02,4.024,0,0,75.11,6,GPS_Atti,
0.0692769617105437,36.9623934307267,6080.8592011492,169.291344,0,4.6221786256,15100,2017-11-02 05:24:59,13,15.948,6080.8592011492,169.291344,1.58151658,6.383202304,85.5, 3.5, 13.7,0,0,1024,1024,1684,1090,80.6,-90,98,4.014,4.027,4.02,4.024,0,0,75.11,6,GPS_Atti,
0.0692768406772579,36.9623934742605,6082.4996211492,170.931764,0,4.5760828236,15200,2017-11-02 05:24:59,13,15.948,6082.4996211492,170.931764,1.58151658,6.383202304,86.2, 1.6, 12.8,0,0,1024,1024,1684,1048,80.6,-90,98,4.014,4.027,4.02,4.024,0,0,75.11,6,GPS_Atti,
0.0692767249274586,36.9623934506366,6084.1400411492,172.572184,0.223694,4.5357284916,15300,2017-11-02 05:25:00,13,15.948,6084.1400411492,172.572184,1.58151658,6.383202304,86.8, -0.4, 13.1,0,0,1024,1024,1684,1068,81.6,-90,98,4.014,4.027,4.02,4.024,0,0,75.11,6,GPS_Atti,
0.0692766494816482,36.9623934097348,6085.4523771492,173.88452,0.223694,4.5109253412,15400,2017-11-02 05:25:00,13,15.948,6085.4523771492,173.88452,1.58151658,6.383202304,87, -1.4, 13.3,0,0,1024,1024,1684,1095,82.3,-90,98,4.014,4.027,4.02,4.024,0,0,75.11,6,GPS_Atti,
0.0692765890802177,36.962393351966,6087.0927971492,175.52494,0.223694,4.4926838708,15500,2017-11-02 05:25:00,13,15.948,6087.0927971492,175.52494,1.58151658,6.383202304,87.5, -1.7, 14.6,0,0,1024,1024,1684,1121,83.1,-90,98,4.014,4.027,4.02,4.024,0,0,75.11,6,GPS_Atti,
0.0692765403807857,36.962393263098,6088.7332171492,177.16536,0.223694,4.4807088048,15600,2017-11-02 05:25:00,13,15.948,6088.7332171492,177.16536,1.58151658,6.383202304,88.3, -2.1, 15.1,0,0,1024,1024,1684,1158,84.2,-90,98,4.014,4.027,4.02,4.024,0,0,75.11,6,GPS_Atti,
0.0692764183964886,36.9623931293904,6090.0455531492,178.477696,0.50107456,4.4458006672,15700,2017-11-02 05:25:00,13,15.948,6090.0455531492,178.477696,1.58151658,6.383202304,89.1, -3, 13.7,0,0,1024,1024,1684,1163,85.5,-90,98,4.014,4.027,4.02,4.024,0,0,75.11,6,GPS_Atti,
0.0692762612036038,36.9623929835153,6091.3578891492,179.790032,0.50107456,4.3999017156,15800,2017-11-02 05:25:00,13,15.948,6091.3578891492,179.790032,1.58151658,6.383202304,90.2, -4.2, 11.9,0,0,1024,1024,1684,1164,87.2,-90,98,4.014,4.027,4.02,4.024,0,0,75.11,6,GPS_Atti,
0.0692760999078543,36.9623928057248,6092.9983091492,181.430452,0.31540854,4.3560040764,15900,2017-11-02 05:25:00,13,16.08,6092.9983091492,181.430452,1.58151658,6.383202304,91.6, -5.8, 10.1,0,0,1024,1024,1684,1167,88.8,-90,98,4.014,4.027,4.02,4.024,0,0,75.11,6,GPS_Atti,
0.0692760206181019,36.9623926648939,6094.6387291492,183.070872,0.223694,4.3393374092,16000,2017-11-02 05:25:00,13,16.08,6094.6387291492,183.070872,1.58151658,6.383202304,93.5, -5.8, 11.2,0,0,1024,1024,1684,1167,90.5,-89.9,98,4.014,4.027,4.02,4.024,0,0,75.11,6,GPS_Atti,
0.0692760168164994,36.9623925362598,6096.2791491492,184.711292,0.223694,4.349081504,16100,2017-11-02 05:25:00,13,16.08,6096.2791491492,184.711292,1.58151658,6.383202304,95.4, -5.1, 11.9,0,0,1024,1024,1684,1164,92.4,-90,98,4.014,4.027,4.02,4.024,0,0,75.11,6,GPS_Atti,
0.0692760563559338,36.962392410426,6097.9195691492,186.351712,0.223694,4.3743767804,16200,2017-11-02 05:25:00,13,16.08,6097.9195691492,186.351712,1.58151658,6.383202304,97.1, -6.3, 12.9,0,0,1024,1024,1684,1164,94.5,-90,98,4.014,4.027,4.02,4.024,0,0,75.11,6,GPS_Atti,
0.0692761166401164,36.9623922375904,6099.5599891492,187.992132,0.223694,4.4118111648,16300,2017-11-02 05:25:01,14,16.08,6099.5599891492,187.992132,1.58151658,6.383202304,98.8, -7.9, 13.7,0,0,1024,1024,1684,1163,94.5,-90,98,4.014,4.027,4.02,4.024,0,0,75.11,6,GPS_Atti,
0.0692761887117908,36.9623921023996,6101.5284931492,189.960636,0.223694,4.4503282264,16400,2017-11-02 05:25:01,14,16.08,6101.5284931492,189.960636,1.58151658,6.383202304,100.7, -8.1, 14.5,0,0,1024,1024,1684,1160,96.6,-90,98,4.014,4.027,4.02,4.024,0,0,75.11,6,GPS_Atti,
0.0692762548013762,36.9623919586051,6103.1689131492,191.601056,0.223694,4.4879922696,16500,2017-11-02 05:25:01,14,16.08,6103.1689131492,191.601056,1.58151658,6.383202304,102.7, -8.1, 14.8,0,0,1024,1024,1684,1156,98.7,-90,98,4.014,4.027,4.02,4.024,0,0,75.11,6,GPS_Atti,
0.0692763163948277,36.9623918405989,6104.8093331492,193.241476,0.223694,4.5217849216,16600,2017-11-02 05:25:01,14,16.08,6104.8093331492,193.241476,1.58151658,6.383202304,104.5, -8.7, 14.1,0,0,1024,1024,1684,1154,100.9,-90,98,4.014,4.027,4.02,4.024,0,0,75.11,6,GPS_Atti,
0.0692763490101183,36.9623916656379,6106.4497531492,194.881896,0.223694,4.5519686496,16700,2017-11-02 05:25:01,14,16.08,6106.4497531492,194.881896,1.58151658,6.383202304,106.2, -9.6, 12.3,0,0,1024,1024,1684,1156,102.9,-90,98,4.014,4.027,4.02,4.024,0,0,75.11,6,GPS_Atti,
0.0692763900900608,36.9623915421843,6108.0901731492,196.522316,0,4.5799542148,16800,2017-11-02 05:25:01,14,16.08,6108.0901731492,196.522316,1.58151658,6.383202304,107.9, -9.5, 12.1,0,0,1024,1024,1684,1156,104.8,-90,98,4.014,4.027,4.02,4.024,0,0,75.11,6,GPS_Atti,
0.0692764537703633,36.9623914054087,6109.7305931492,198.162736,0,4.617618258,16900,2017-11-02 05:25:01,14,16.001,6109.7305931492,198.162736,1.58151658,6.383202304,109.7, -9.6, 12.9,0,0,1024,1024,1684,1154,106.8,-90,97,4.013,4.023,4.016,4.019,0,0,75.11,6,GPS_Atti,Setting new Maximum Flight Altitude to 100m (328 ft)
0.0692765129154493,36.9623913327112,6111.0429291492,199.475072,0,4.6465224584,17000,2017-11-02 05:25:01,14,16.001,6111.0429291492,199.475072,1.58151658,6.383202304,111.7, -8.5, 12.6,0,0,1024,1024,1684,1152,108.7,-90,97,4.013,4.023,4.016,4.019,0,0,75.11,6,GPS_Atti,Home Point Recorded. RTH Altitude:  30m.
0.0692765851230987,36.9623911476253,6112.6833491492,201.115492,0,4.6934712788,17100,2017-11-02 05:25:01,14,16.001,6112.6833491492,201.115492,1.58151658,6.383202304,113.3, -9.8, 13,0,0,1024,1024,1684,1151,110.6,-90,97,4.013,4.023,4.016,4.019,0,0,75.11,6,GPS_Atti,
0.069276662970864,36.9623909831688,6114.3237691492,202.755912,0,4.7403872908,17200,2017-11-02 05:25:01,14,16.001,6114.3237691492,202.755912,1.58151658,6.383202304,115, -10.4, 12.7,0,0,1024,1024,1684,1150,112.6,-90,97,4.013,4.023,4.016,4.019,0,0,75.11,6,GPS_Atti,
0.0692766956056959,36.962390760328,6115.6361051492,204.068248,0,4.779855796,17300,2017-11-02 05:25:02,14,16.001,6115.6361051492,204.068248,1.58151658,6.383202304,116.6, -10.5, 10.8,0,0,1024,1024,1684,1145,114.4,-90,97,4.013,4.023,4.016,4.019,0,0,75.11,6,GPS_Atti,
0.0692767016740925,36.962390580762,6117.2765251492,205.708668,0.223694,4.8055775816,17400,2017-11-02 05:25:02,14,16.001,6117.2765251492,205.708668,1.58151658,6.383202304,118.1, -11.4, 9.4,0,0,1024,1024,1684,1136,116,-90,97,4.013,4.023,4.016,4.019,0,0,75.11,6,GPS_Atti,
0.0692767071757905,36.9623903770224,6118.5888611492,207.021004,0,4.8352035668,17500,2017-11-02 05:25:02,14,16.001,6118.5888611492,207.021004,1.58151658,6.383202304,119.6, -12.4, 8.6,0,0,1024,1024,1684,1131,117.5,-90,97,4.013,4.023,4.016,4.019,0,0,75.11,6,GPS_Atti,
0.0692767285865722,36.9623902538611,6120.2292811492,208.661424,0,4.8596786332,17600,2017-11-02 05:25:02,14,16.001,6120.2292811492,208.661424,1.58151658,6.383202304,121, -12.7, 8.7,0,0,1024,1024,1684,1128,117.5,-90,97,4.013,4.023,4.016,4.019,0,0,75.11,6,GPS_Atti,
0.0692767474463964,36.9623901169804,6121.8697011492,210.301844,0,4.8855644608,17700,2017-11-02 05:25:02,14,16.001,6121.8697011492,210.301844,1.58151658,6.383202304,122.5, -12.1, 9.3,0,0,1024,1024,1684,1128,119,-90,97,4.013,4.023,4.016,4.019,0,0,75.11,6,GPS_Atti,
0.0692767625306731,36.9623900478545,6123.5101211492,211.942264,0,4.9006235164,17800,2017-11-02 05:25:02,14,16.001,6123.5101211492,211.942264,1.58151658,6.383202304,123.9, -11.9, 9.4,0,0,1024,1024,1684,1122,120.5,-90,97,4.013,4.023,4.016,4.019,0,0,75.11,6,GPS_Atti,
0.0692767811747284,36.9623899680434,6125.1505411492,213.582684,0,4.9185697112,17900,2017-11-02 05:25:02,14,16.133,6125.1505411492,213.582684,1.58151658,6.383202304,125.1, -12.2, 9.1,0,0,1024,1024,1684,1120,122,-90,97,4.032,4.042,4.032,4.039,0,0,75.11,6,GPS_Atti,
0.0692767981528855,36.9623899446433,6126.7909611492,215.223104,0,4.9276904464,18000,2017-11-02 05:25:02,14,16.133,6126.7909611492,215.223104,1.58151658,6.383202304,126.4, -12.3, 8.5,0,0,1024,1024,1684,1111,123.3,-90,97,4.032,4.042,4.032,4.039,0,0,75.11,6,GPS_Atti,
0.069276810628395,36.9623899227073,6128.1032971492,216.53544,0.223694,4.9350723364,18100,2017-11-02 05:25:02,14,16.133,6128.1032971492,216.53544,1.58151658,6.383202304,127.6, -12.3, 8.4,0,0,1024,1024,1684,1107,124.6,-90,97,4.032,4.042,4.032,4.039,0,0,75.11,6,GPS_Atti,
0.0692768185719448,36.9623899655778,6129.7437171492,218.17586,0.223694,4.9313977956,18200,2017-11-02 05:25:02,14,16.133,6129.7437171492,218.17586,1.58151658,6.383202304,128.7, -12.2, 8.8,0,0,1024,1024,1684,1099,125.8,-90,97,4.032,4.042,4.032,4.039,0,0,75.11,6,GPS_Atti,
0.0692768529451407,36.9623900112961,6131.3841371492,219.81628,0.223694,4.936187822,18300,2017-11-02 05:25:03,14,16.133,6131.3841371492,219.81628,1.58151658,6.383202304,129.8, -11.9, 9.3,0,0,1024,1024,1684,1095,127,-89.9,97,4.032,4.042,4.032,4.039,0,0,75.11,6,GPS_Atti,
0.0692768869413518,36.9623900964982,6133.0245571492,221.4567,0.223694,4.9352691868,18400,2017-11-02 05:25:03,14,16.133,6133.0245571492,221.4567,1.58151658,6.383202304,130.7, -11.2, 9.2,0,0,1024,1024,1684,1094,128,-90,97,4.032,4.042,4.032,4.039,0,0,75.11,6,GPS_Atti,
0.069276932050879,36.96239012167,6134.3368931492,222.769036,0.223694,4.9468177436,18500,2017-11-02 05:25:03,14,16.133,6134.3368931492,222.769036,1.58151658,6.383202304,131.5, -11.3, 8.3,0,0,1024,1024,1684,1095,129,-90,97,4.032,4.042,4.032,4.039,0,0,75.11,6,GPS_Atti,
0.0692769848588751,36.9623901743063,6135.9773131492,224.409456,0.223694,4.9571195812,18600,2017-11-02 05:25:03,14,16.133,6135.9773131492,224.409456,1.58151658,6.383202304,132.2, -12.1, 8.1,0,0,1024,1024,1684,1091,129.9,-90,97,4.032,4.042,4.032,4.039,0,0,75.11,6,GPS_Atti,
0.0692770680055971,36.9623902334212,6137.6177331492,226.049876,0.223694,4.9769030464,18700,2017-11-02 05:25:03,14,16.133,6137.6177331492,226.049876,1.58151658,6.383202304,133, -12.6, 8.5,0,0,1024,1024,1684,1089,130.8,-90,97,4.032,4.042,4.032,4.039,0,0,75.11,6,GPS_Atti,
0.0692771312706464,36.9623903416577,6139.2581531492,227.690296,0.223694,4.9834647264,18800,2017-11-02 05:25:03,14,16.133,6139.2581531492,227.690296,1.58151658,6.383202304,133.9, -11.6, 8.3,0,0,1024,1024,1684,1085,130.8,-90,97,4.032,4.042,4.032,4.039,0,0,75.11,6,GPS_Atti,
0.0692772327552763,36.9623904355945,6140.5704891492,229.002632,0.223694,5.0053151208,18900,2017-11-02 05:25:03,14,16.054,6140.5704891492,229.002632,1.58151658,6.383202304,134.6, -11.9, 8.6,0,0,1024,1024,1684,1059,131.6,-90,97,4.035,4.046,4.034,4.04,0,0,75.11,6,GPS_Atti,
0.0692773318346944,36.9623905543135,6142.2109091492,230.643052,0.223694,5.0235565912,19000,2017-11-02 05:25:03,14,16.054,6142.2109091492,230.643052,1.58151658,6.383202304,135.1, -12.9, 9.4,0,0,1024,1024,1684,1052,132.4,-90,97,4.035,4.046,4.034,4.04,0,0,75.11,6,GPS_Atti,
0.0692774381720874,36.9623906485828,6143.8513291492,232.283472,0.223694,5.0479332324,19100,2017-11-02 05:25:03,14,16.054,6143.8513291492,232.283472,1.58151658,6.383202304,135.6, -12.2, 8.4,0,0,1024,1024,1684,1056,133,-90,97,4.035,4.046,4.034,4.04,0,0,75.11,6,GPS_Atti,
0.0692774998982571,36.962390773723,6145.4917491492,233.923892,0.223694,5.0536090856,19200,2017-11-02 05:25:03,14,16.054,6145.4917491492,233.923892,1.58151658,6.383202304,136, -11.3, 8,0,0,1024,1024,1684,1060,133.5,-90,97,4.035,4.046,4.034,4.04,0,0,75.11,6,GPS_Atti,
0.0692775632642699,36.9623908761924,6147.1321691492,235.564312,0.223694,5.0630250964,19300,2017-11-02 05:25:04,14,16.054,6147.1321691492,235.564312,1.58151658,6.383202304,136.2, -11.3, 7.9,0,0,1024,1024,1684,1067,133.9,-90,97,4.035,4.046,4.034,4.04,0,0,75.11,6,GPS_Atti,
0.0692776154949827,36.9623909985202,6148.7725891492,237.204732,0.223694,5.0666668288,19400,2017-11-02 05:25:04,14,16.054,6148.7725891492,237.204732,1.58151658,6.383202304,136.6, -11.5, 7.9,0,0,1024,1024,1684,1068,134.3,-90,97,4.035,4.046,4.034,4.04,0,0,75.11,6,GPS_Atti,
0.0692776846533708,36.9623911026249,6150.4130091492,238.845152,0.223694,5.0787075116,19500,2017-11-02 05:25:04,14,16.054,6150.4130091492,238.845152,1.58151658,6.383202304,137, -11.6, 8.7,0,0,1024,1024,1684,1069,134.8,-90,97,4.035,4.046,4.034,4.04,0,0,75.11,6,GPS_Atti,
0.0692777298703753,36.962391224706,6152.0534291492,240.485572,0.223694,5.0808400576,19600,2017-11-02 05:25:04,14,16.054,6152.0534291492,240.485572,1.58151658,6.383202304,137.4, -11.7, 8.3,0,0,1024,1024,1684,1070,135.3,-90,97,4.035,4.046,4.034,4.04,0,0,75.11,6,GPS_Atti,
0.069277767547684,36.9623913461266,6153.3657651492,241.797908,0.223694,5.0808072492,19700,2017-11-02 05:25:04,14,16.054,6153.3657651492,241.797908,1.58151658,6.383202304,137.8, -11.8, 7.7,0,0,1024,1024,1684,1071,135.8,-89.9,97,4.035,4.046,4.034,4.04,0,0,75.11,6,GPS_Atti,
0.0692777981152063,36.9623915138762,6155.0061851492,243.438328,0.447388,5.073983102,19800,2017-11-02 05:25:04,14,16.054,6155.0061851492,243.438328,1.58151658,6.383202304,138.2, -11.4, 7.7,0,0,1024,1024,1684,1071,136.3,-90,97,4.035,4.046,4.034,4.04,0,0,75.11,6,GPS_Atti,
0.069277851699156,36.9623917018045,6156.6466051492,245.078748,0.447388,5.0740159104,19900,2017-11-02 05:25:04,14,16.027,6156.6466051492,245.078748,1.58151658,6.383202304,138.7, -11.2, 8.6,0,0,1024,1024,1684,1072,136.8,-89.9,97,4.035,4.046,4.034,4.04,0,0,75.11,6,GPS_Atti,
0.0692778970138671,36.9623919105241,6158.2870251492,246.719168,0.447388,5.070210136,20000,2017-11-02 05:25:04,14,16.027,6158.2870251492,246.719168,1.58151658,6.383202304,139.2, -10.8, 9.1,0,0,1024,1024,1684,1072,136.8,-89.9,97,4.035,4.046,4.034,4.04,0,0,75.11,6,GPS_Atti,
0.0692779475168008,36.962392079514,6159.5993611492,248.031504,0.447388,5.0729004248,20100,2017-11-02 05:25:04,14,16.027,6159.5993611492,248.031504,1.58151658,6.383202304,139.8, -10.4, 9,0,0,1024,1024,1684,1071,137.3,-89.9,97,4.035,4.046,4.034,4.04,0,0,75.11,6,GPS_Atti,
0.0692779926914657,36.9623922366017,6161.2397811492,249.671924,0.223694,5.0755250968,20200,2017-11-02 05:25:04,14,16.027,6161.2397811492,249.671924,1.58151658,6.383202304,140.1, -10.5, 8.4,0,0,1024,1024,1684,1071,137.9,-90,97,4.035,4.046,4.034,4.04,0,0,75.11,6,GPS_Atti,
0.0692780585652823,36.9623923806979,6162.8802011492,251.312344,0.223694,5.0872048872,20300,2017-11-02 05:25:05,14,16.027,6162.8802011492,251.312344,1.58151658,6.383202304,140.5, -10.9, 8.6,0,0,1024,1024,1684,1074,138.4,-90,97,4.035,4.046,4.034,4.04,0,0,75.11,6,GPS_Atti,
0.0692781246198561,36.9623925456835,6164.5206211492,252.952764,0.223694,5.0980644676,20400,2017-11-02 05:25:05,14,16.027,6164.5206211492,252.952764,1.58151658,6.383202304,140.9, -11.3, 9.2,0,0,1024,1024,1684,1069,138.9,-90,97,4.035,4.046,4.034,4.04,0,0,75.11,6,GPS_Atti,
0.0692782034202611,36.9623926883619,6166.1610411492,254.593184,0.223694,5.115813812,20500,2017-11-02 05:25:05,14,16.027,6166.1610411492,254.593184,1.58151658,6.383202304,141.4, -10.9, 9.2,0,0,1024,1024,1684,1068,139.4,-89.9,97,4.035,4.046,4.034,4.04,0,0,75.11,6,GPS_Atti,
0.0692782714989909,36.9623928255911,6167.8014611492,256.233604,0.223694,5.130741634,20600,2017-11-02 05:25:05,14,16.027,6167.8014611492,256.233604,1.58151658,6.383202304,141.9, -10.9, 9.1,0,0,1024,1024,1684,1068,139.9,-90,97,4.035,4.046,4.034,4.04,0,0,75.11,6,GPS_Atti,
0.0692783431114441,36.9623929282178,6169.4418811492,257.874024,0.223694,5.1496720808,20700,2017-11-02 05:25:05,14,16.027,6169.4418811492,257.874024,1.58151658,6.383202304,142.3, -11.5, 9.4,0,0,1024,1024,1684,1069,140.4,-90,97,4.035,4.046,4.034,4.04,0,0,75.11,6,GPS_Atti,
0.0692784034664639,36.962393020605,6171.0823011492,259.514444,0.223694,5.1655513464,20800,2017-11-02 05:25:05,14,16.027,6171.0823011492,259.514444,1.58151658,6.383202304,142.9, -11, 9.3,0,0,1024,1024,1684,1069,140.9,-90,97,4.035,4.046,4.034,4.04,0,0,75.11,6,GPS_Atti,
0.0692784608853992,36.9623930750101,6172.7227211492,261.154864,0,5.18290699,20900,2017-11-02 05:25:05,14,16.107,6172.7227211492,261.154864,1.58151658,6.383202304,143.3, -11.4, 8.5,0,0,1024,1024,1684,1070,141.4,-90,97,4.038,4.051,4.04,4.042,0,0,76.91,6,GPS_Atti,
0.0692785174591721,36.962393119121,6174.3631411492,262.795284,0,5.2006563344,21000,2017-11-02 05:25:05,14,16.107,6174.3631411492,262.795284,1.58151658,6.383202304,143.6, -12.2, 8,0,0,1024,1024,1684,1066,141.8,-90,97,4.038,4.051,4.04,4.042,0,0,76.91,6,GPS_Atti,
0.0692786035224374,36.9623931643858,6176.3316451492,264.763788,0,5.2290356004,21100,2017-11-02 05:25:05,14,16.107,6176.3316451492,264.763788,1.58151658,6.383202304,143.9, -12.7, 7.7,0,0,1024,1024,1684,1066,142.3,-90,97,4.038,4.051,4.04,4.042,0,0,76.91,6,GPS_Atti,
0.0692786930526599,36.9623932347492,6177.9720651492,266.404208,0,5.2573492496,21200,2017-11-02 05:25:05,14,16.107,6177.9720651492,266.404208,1.58151658,6.383202304,144.3, -12.6, 7.7,0,0,1024,1024,1684,1065,142.7,-90,97,4.038,4.051,4.04,4.042,0,0,76.91,6,GPS_Atti,
0.069278816529426,36.9623933226654,6179.9405691492,268.372712,0.223694,5.2971458388,21300,2017-11-02 05:25:06,14,16.107,6179.9405691492,268.372712,1.58151658,6.383202304,144.7, -12.5, 8.4,0,0,1024,1024,1684,1061,143.1,-90,97,4.038,4.051,4.04,4.042,0,0,76.91,6,GPS_Atti,
0.069278943611567,36.9623934194644,6181.5809891492,270.013132,0.223694,5.3381235304,21400,2017-11-02 05:25:06,14,16.107,6181.5809891492,270.013132,1.58151658,6.383202304,145.1, -12.7, 9.3,0,0,1024,1024,1684,1061,143.1,-90,97,4.038,4.051,4.04,4.042,0,0,76.91,6,GPS_Atti,
0.0692790994145749,36.9623935050495,6183.5494931492,271.981636,0,5.3903216948,21500,2017-11-02 05:25:06,14,16.107,6183.5494931492,271.981636,1.58151658,6.383202304,145.5, -13.3, 9.8,0,0,1024,1024,1684,1065,143.5,-90,97,4.038,4.051,4.04,4.042,0,0,76.91,6,GPS_Atti,
0.069279233968017,36.9623935683946,6185.1899131492,273.622056,0,5.4360894128,21600,2017-11-02 05:25:06,14,16.107,6185.1899131492,273.622056,1.58151658,6.383202304,145.8, -13.5, 9.8,0,0,1024,1024,1684,1065,144,-90,97,4.038,4.051,4.04,4.042,0,0,76.91,6,GPS_Atti,
0.069279375577507,36.9623936054099,6186.8303331492,275.262476,0,5.4856957136,21700,2017-11-02 05:25:06,14,16.107,6186.8303331492,275.262476,1.58151658,6.383202304,146, -13.9, 9.1,0,0,1024,1024,1684,1066,144.5,-90,97,4.038,4.051,4.04,4.042,0,0,76.91,6,GPS_Atti,
0.069279470515792,36.9623936162856,6188.4707531492,276.902896,0,5.5196195992,21800,2017-11-02 05:25:06,14,16.107,6188.4707531492,276.902896,1.58151658,6.383202304,146.3, -13.7, 8.1,0,0,1024,1024,1684,1067,144.9,-89.9,97,4.038,4.051,4.04,4.042,0,0,76.91,6,GPS_Atti,
0.0692795470070634,36.9623935990951,6190.1111731492,278.543316,0,5.5480972904,21900,2017-11-02 05:25:06,14,15.948,6190.1111731492,278.543316,1.58151658,6.383202304,146.5, -13.5, 7.2,0,0,1024,1024,1684,1066,145.2,-90,97,4.033,4.042,4.031,4.033,0,0,76.91,6,GPS_Atti,
0.0692796009118166,36.9623935949819,6191.7515931492,280.183736,0,5.5677823304,22000,2017-11-02 05:25:06,14,15.948,6191.7515931492,280.183736,1.58151658,6.383202304,146.7, -13.3, 6.6,0,0,1024,1024,1684,1066,145.5,-89.9,97,4.033,4.042,4.031,4.033,0,0,76.91,6,GPS_Atti,
0.069279670977248,36.9623935971498,6193.7200971492,282.15224,0,5.5930776068,22100,2017-11-02 05:25:06,14,15.948,6193.7200971492,282.15224,1.58151658,6.383202304,147.1, -12.9, 6.4,0,0,1024,1024,1684,1068,145.8,-90,97,4.033,4.042,4.031,4.033,0,0,76.91,6,GPS_Atti,
0.069279748193177,36.9623936492723,6195.3605171492,283.79266,0.223694,5.6188322008,22200,2017-11-02 05:25:06,14,15.948,6195.3605171492,283.79266,1.58151658,6.383202304,147.4, -13.5, 7.8,0,0,1024,1024,1684,1068,146.1,-89.9,97,4.033,4.042,4.031,4.033,0,0,76.91,6,GPS_Atti,
0.0692798900111078,36.9623937165389,6197.0009371492,285.43308,0.223694,5.6675198664,22300,2017-11-02 05:25:07,14,15.948,6197.0009371492,285.43308,1.58151658,6.383202304,147.9, -13.4, 10,0,0,1024,1024,1684,1068,146.6,-89.9,97,4.033,4.042,4.031,4.033,0,0,76.91,6,GPS_Atti,
0.0692799972653148,36.9623937798846,6198.9694411492,287.401584,0,5.7039371904,22400,2017-11-02 05:25:07,14,15.948,6198.9694411492,287.401584,1.58151658,6.383202304,148.5, -12.6, 10.2,0,0,1024,1024,1684,1061,146.6,-89.9,97,4.033,4.042,4.031,4.033,0,0,76.91,6,GPS_Atti,
0.069280106984986,36.9623937718036,6200.6098611492,289.042004,0,5.7440618636,22500,2017-11-02 05:25:07,14,15.948,6200.6098611492,289.042004,1.58151658,6.383202304,149, -12.8, 9.8,0,0,1024,1024,1684,1059,147.1,-90,97,4.033,4.042,4.031,4.033,0,0,76.91,6,GPS_Atti,
0.0692801682535629,36.9623937243714,6201.9221971492,290.35434,0,5.7681104208,22600,2017-11-02 05:25:07,14,15.948,6201.9221971492,290.35434,1.58151658,6.383202304,149.2, -13.5, 9,0,0,1024,1024,1684,1058,147.5,-90,97,4.033,4.042,4.031,4.033,0,0,76.91,6,GPS_Atti,
0.069280220984208,36.962393616131,6203.5626171492,291.99476,0,5.7916012352,22700,2017-11-02 05:25:07,14,15.948,6203.5626171492,291.99476,1.58151658,6.383202304,149.5, -13.5, 7.4,0,0,1024,1024,1684,1054,147.9,-90,97,4.033,4.042,4.031,4.033,0,0,76.91,6,GPS_Atti,
0.0692802211486808,36.9623935258264,6204.8749531492,293.307096,0.223694,5.7954726264,22800,2017-11-02 05:25:07,14,15.948,6204.8749531492,293.307096,1.58151658,6.383202304,149.8, -12.5, 5.8,0,0,1024,1024,1684,1054,148.2,-90,97,4.033,4.042,4.031,4.033,0,0,76.91,6,GPS_Atti,
0.069280260543998,36.962393425128,6206.5153731492,294.947516,0.223694,5.8142062228,22900,2017-11-02 05:25:07,14,16.027,6206.5153731492,294.947516,1.58151658,6.383202304,150.1, -13.1, 5.9,0,0,1024,1024,1684,1031,148.4,-89.9,97,4.033,4.042,4.031,4.033,0,0,76.91,6,GPS_Atti,
0.0692802866300424,36.9623933779079,6207.8277091492,296.259852,0.223694,5.8258203964,23000,2017-11-02 05:25:07,14,16.027,6207.8277091492,296.259852,1.58151658,6.383202304,150.1, -14, 6.6,0,0,1024,1024,1677,1024,148.8,-90,97,4.033,4.042,4.031,4.033,0,0,76.91,6,GPS_Atti,
0.0692803290461232,36.9623933737807,6210.7804651492,299.212608,0,5.841371578,23200,2017-11-02 05:25:07,14,16.027,6210.7804651492,299.212608,1.58151658,6.383202304,149.8, -14.1, 9.1,0,0,1024,1024,1421,1024,149,-90,97,4.033,4.042,4.031,4.033,0,0,76.91,6,GPS_Atti,
0.0692804273927415,36.9623933802078,6212.0928011492,300.524944,0,5.8766734164,23300,2017-11-02 05:25:08,14,16.027,6212.0928011492,300.524944,1.58151658,6.383202304,149.3, -16.6, 10.9,0,0,1024,1024,1216,1024,149.3,-89.9,97,4.033,4.042,4.031,4.033,0,0,76.91,6,GPS_Atti,
0.0692805532209807,36.9623933816851,6213.4051371492,301.83728,0,5.9221458588,23400,2017-11-02 05:25:08,14,16.027,6213.4051371492,301.83728,1.58151658,6.383202304,149.1, -17, 9.9,0,0,1024,1024,1095,1024,149.5,-90,97,4.033,4.042,4.031,4.033,0,0,76.91,6,GPS_Atti,
0.0692807407737611,36.9623933553626,6214.0613051492,302.493448,0,5.9912403492,23500,2017-11-02 05:25:08,14,16.027,6214.0613051492,302.493448,1.58151658,6.383202304,149.2, -17.2, 9.8,0,0,1024,1024,1024,1024,149.7,-90,97,4.033,4.042,4.031,4.033,0,0,76.91,6,GPS_Atti,
0.0692809695701427,36.9623933522196,6214.7174731492,303.149616,0.223694,6.0742127928,23600,2017-11-02 05:25:08,14,16.027,6214.7174731492,303.149616,1.58151658,6.383202304,149, -17.7, 11,0,0,1024,1024,1024,1024,149.7,-90,97,4.033,4.042,4.031,4.033,0,0,76.91,6,GPS_Atti,
0.0692813421451016,36.9623933428436,6215.0455571492,303.4777,0.447388,6.2095474428,23700,2017-11-02 05:25:08,14,16.027,6215.0455571492,303.4777,1.58151658,6.383202304,149, -18, 11.7,0,0,1024,1024,1024,1024,149.8,-90,97,4.033,4.042,4.031,4.033,0,0,76.91,6,GPS_Atti,
0.0692817291366753,36.9623933306602,6215.0455571492,303.4777,0.447388,6.350229862,23800,2017-11-02 05:25:08,14,16.027,6215.0455571492,303.4777,1.58151658,6.383202304,149.4, -16.7, 10.9,0,0,1024,1024,1024,1024,150,-89.9,97,4.033,4.042,4.031,4.033,0,0,76.91,6,GPS_Atti,
0.0692821097121796,36.9623932623732,6215.0455571492,303.4777,0.447388,6.4910763232,23900,2017-11-02 05:25:08,14,16.213,6215.0455571492,303.4777,1.58151658,6.4910763232,149.7, -15.7, 9.8,0,0,1024,1024,1012,1024,150.2,-89.9,97,4.037,4.049,4.042,4.042,0,0,76.91,6,GPS_Atti,
0.0692824012948479,36.9623931856983,6215.0455571492,303.4777,0.447388,6.600065828,24000,2017-11-02 05:25:08,14,16.213,6215.0455571492,303.4777,1.58151658,6.600065828,149.8, -15.6, 8.8,0,0,1024,1024,979,1024,150.3,-89.9,97,4.037,4.049,4.042,4.042,0,0,76.91,6,GPS_Atti,
0.069282665739497,36.9623930895707,6214.7174731492,303.149616,0.223694,6.7001970648,24100,2017-11-02 05:25:08,14,16.213,6215.0455571492,303.4777,1.58151658,6.7001970648,149.8, -15.7, 9.2,0,0,1024,1024,901,1024,150.4,-89.9,97,4.037,4.049,4.042,4.042,0,0,76.91,6,GPS_Atti,
0.0692828427969559,36.9623930248313,6214.7174731492,303.149616,0.223694,6.7672574344,24200,2017-11-02 05:25:08,14,16.213,6215.0455571492,303.4777,1.58151658,6.7672574344,149.8, -15.8, 9.6,0,0,1024,1024,791,1024,150.5,-89.9,97,4.037,4.049,4.042,4.042,0,0,76.91,6,GPS_Atti,
0.0692828957132436,36.9623929550959,6214.7174731492,303.149616,0,6.7897311884,24300,2017-11-02 05:25:09,15,16.213,6215.0455571492,303.4777,1.58151658,6.7897311884,149.6, -16.7, 10.2,0,0,1024,1024,720,1024,150.6,-90,97,4.037,4.049,4.042,4.042,0,0,76.91,6,GPS_Atti,
0.0692828722017691,36.9623929107693,6214.3893891492,302.821532,0,6.7833991672,24400,2017-11-02 05:25:09,15,16.213,6215.0455571492,303.4777,1.58151658,6.7897311884,149.3, -18.1, 11,0,0,1024,1024,782,1024,150.7,-89.9,97,4.037,4.049,4.042,4.042,0,0,76.91,6,GPS_Atti,
