latitude,longitude,altitude(feet),ascent(feet),speed(mph),distance(feet),time(millisecond),datetime(utc),satellites,gpslevel,voltage(v),max_altitude(feet),max_ascent(feet),max_speed(mph),max_distance(feet), xSpeed(mph), ySpeed(mph), zSpeed(mph), compass_heading(degrees), pitch(degrees), roll(degrees),isPhoto,isVideo,rc_elevator,rc_aileron,rc_throttle,rc_rudder,gimbal_heading(degrees),gimbal_pitch(degrees),battery_percent,voltageCell1,voltageCell2,voltageCell3,voltageCell4,voltageCell5,voltageCell6,current(A),battery_temperature(f),flycStateRaw,flycState,message
0.08051374837988,36.8784515384398,5934.7455980483,0,0,0,0,2018-04-11 08:17:21,17,0,0,5934.7455980483,0,0,0,0,0,0,150.8, 0.3, 1.1,0,0,364,364,364,1684,155.3,0,98,4.279,4.277,4.28,4.278,0,0,0,87.71,41,Motors_Started,
0.0805137382777259,36.8784515533322,5934.7455980483,0,0,0.006565617008,100,2018-04-11 08:17:21,17,0,0,5934.7455980483,0,0,0.006565617008,0,0,0,150.8, 0.3, 1.1,0,0,364,364,364,1684,155.3,0,98,4.279,4.277,4.28,4.278,0,0,0,87.71,41,Motors_Started,
0.0805137271680739,36.8784515590789,5934.7455980483,0,0,0.0107979990332,200,2018-04-11 08:17:21,17,0,0,5934.7455980483,0,0,0.0107979990332,0,0,0,150.8, 0.3, 1.1,0,0,364,364,364,1684,155.3,0,98,4.279,4.277,4.28,4.278,0,0,0,87.71,41,Motors_Started,
0.0805137197695439,36.8784515652057,5934.7455980483,0,0,0.014294291796,300,2018-04-11 08:17:21,17,0,0,5934.7455980483,0,0,0.014294291796,0,0,0,150.8, 0.3, 1.1,0,0,364,364,364,1684,155.3,0,98,4.279,4.277,4.28,4.278,0,0,0,87.71,41,Motors_Started,
0.0805137128597507,36.8784515639412,5934.7455980483,0,0,0.0159535438176,400,2018-04-11 08:17:22,17,0,0,5934.7455980483,0,0,0.0159535438176,0,0,0,150.8, 0.3, 1.1,0,0,364,364,364,1684,155.3,0,98,4.279,4.277,4.28,4.278,0,0,0,87.71,41,Motors_Started,
0.0805137077780894,36.878451565818,5934.7455980483,0,0,0.0178667000468,500,2018-04-11 08:17:22,17,0,0,5934.7455980483,0,0,0.0178667000468,0,0,0,150.8, 0.3, 1.1,0,0,364,364,364,1684,155.3,0,98,4.279,4.277,4.28,4.278,0,0,0,87.71,41,Motors_Started,
0.0805137038702309,36.8784515922072,5934.7455980483,0,0,0.0254664706312,600,2018-04-11 08:17:22,17,0,0,5934.7455980483,0,0,0.0254664706312,0,0,0,150.8, 0.3, 1.1,0,0,364,364,364,1684,155.3,0,98,4.279,4.277,4.28,4.278,0,0,0,87.71,41,Motors_Started,
0.080513700720922,36.8784516212467,5934.7455980483,0,0,0.034858596916,700,2018-04-11 08:17:22,17,0,17.097,5934.7455980483,0,0,0.034858596916,0,0,0,150.8, 0.3, 1.1,0,0,364,364,364,1684,155.3,0,98,4.279,4.277,4.28,4.278,0,0,1.47,87.71,41,Motors_Started,Setting new Return-To-Home altitude to 30m (98 ft). Setting new Maximum Flight Altitude to 150m (492 ft)
0.080513699279342,36.8784516419422,5934.7455980483,0,0,0.041796589264,800,2018-04-11 08:17:22,17,0,17.097,5934.7455980483,0,0,0.041796589264,0,0,0,150.8, 0.3, 1.1,0,0,374,364,364,1684,155.3,0,98,4.279,4.277,4.28,4.278,0,0,1.47,87.71,41,Motors_Started,
0.0805136981030965,36.8784516581882,5934.7455980483,0,0,0.047384515952,900,2018-04-11 08:17:22,17,0,17.097,5934.7455980483,0,0,0.047384515952,0,0,0,150.8, 0.3, 1.1,0,0,388,364,364,1684,155.3,0,98,4.279,4.277,4.28,4.278,0,0,1.47,87.71,41,Motors_Started,
0.0805136994974517,36.8784516650877,5934.7455980483,0,0,0.049529857228,1000,2018-04-11 08:17:22,17,0,17.097,5934.7455980483,0,0,0.049529857228,0,0,0,150.8, 0.4, 1,0,0,407,364,364,1684,155.3,0,98,4.279,4.277,4.28,4.278,0,0,1.47,87.71,41,Motors_Started,
0.0805136999345871,36.8784516726824,5934.7455980483,0,0,0.052069883556,1100,2018-04-11 08:17:22,17,0,17.097,5934.7455980483,0,0,0.052069883556,0,0,0,150.8, 0.3, 1.1,0,0,424,364,373,1671,155.3,0,98,4.279,4.277,4.28,4.278,0,0,1.47,87.71,41,Motors_Started,
0.0805136975678473,36.8784516719401,5934.7455980483,0,0,0.0521161434,1200,2018-04-11 08:17:23,17,0,17.097,5934.7455980483,0,0,0.0521161434,0,0,0,150.8, 0.4, 1.1,0,0,530,392,429,1618,155.3,0,98,4.279,4.277,4.28,4.278,0,0,1.47,87.71,41,Motors_Started,
0.0805137012021272,36.8784516957529,5934.7455980483,0,0,0.059920933676,1400,2018-04-11 08:17:23,17,0,17.097,5934.7455980483,0,0,0.059920933676,0,0,0,150.8, 0.4, 1,0,0,623,470,463,1585,155.3,0,98,4.279,4.277,4.28,4.278,0,0,1.47,87.71,41,Motors_Started,
0.080513704485681,36.8784517231501,5934.7455980483,0,0,0.069268046836,1500,2018-04-11 08:17:23,17,0,17.097,5934.7455980483,0,0,0.069268046836,0,0,0,150.9, 0.4, 1,0,0,666,496,564,1490,155.3,0,98,4.279,4.277,4.28,4.278,0,0,1.47,87.71,10,Assisted_Takeoff,
0.0805137022674349,36.8784517426788,5934.7455980483,0,0,0.076392062812,1600,2018-04-11 08:17:23,17,0,17.097,5934.7455980483,0,0,0.076392062812,0,0,0,150.8, 0.3, 1.1,0,0,710,533,615,1456,155.3,0,98,4.279,4.277,4.28,4.278,0,0,1.47,87.71,10,Assisted_Takeoff,
0.0805137053876354,36.8784517577097,5934.7455980483,0,0,0.081523624656,1700,2018-04-11 08:17:23,17,0,17.017,5934.7455980483,0,0,0.081523624656,0,0,0,150.8, 0.3, 1.1,0,0,793,603,744,1352,155,0,98,4.277,4.277,4.28,4.278,0,0,2.37,87.71,10,Assisted_Takeoff,
0.0805137043950988,36.8784517637426,5934.7455980483,0,0,0.08375328352,1800,2018-04-11 08:17:23,17,0,17.017,5934.7455980483,0,0,0.08375328352,0,0,0,150.8, 0.3, 1.1,0,0,881,712,852,1233,154.7,0,98,4.277,4.277,4.28,4.278,0,0,2.37,87.71,10,Assisted_Takeoff,
0.0805137062814476,36.8784517704033,5934.7455980483,0,0,0.086014110364,1900,2018-04-11 08:17:23,17,0,17.017,5934.7455980483,0,0,0.086014110364,0,0,0,150.8, 0.3, 1.1,0,0,1019,905,1024,1017,154.4,0,98,4.277,4.277,4.28,4.278,0,0,2.37,87.71,10,Assisted_Takeoff,
0.0805137070280892,36.8784517675232,5934.7455980483,0,0,0.084931761248,2000,2018-04-11 08:17:23,17,0,17.017,5934.7455980483,0,0,0.086014110364,0,0,0,150.8, 0.3, 1.1,0,0,1024,1024,1024,1024,153.3,0,98,4.277,4.277,4.28,4.278,0,0,2.37,87.71,10,Assisted_Takeoff,
0.0805137080467827,36.8784517677816,5934.7455980483,0,0,0.084959320304,2100,2018-04-11 08:17:23,17,0,17.017,5934.7455980483,0,0,0.086014110364,0,0,0,150.8, 0.3, 1.1,0,0,1024,1024,1024,1024,152.6,0,98,4.277,4.277,4.28,4.278,0,0,2.37,87.71,10,Assisted_Takeoff,
0.0805137091917823,36.8784517602077,5934.7455980483,0,0,0.08216535696,2200,2018-04-11 08:17:23,17,0,17.017,5934.7455980483,0,0,0.086014110364,0,0,0,150.8, 0.3, 1.1,0,0,1024,1024,1024,1024,152.2,0,98,4.277,4.277,4.28,4.278,0,0,2.37,87.71,10,Assisted_Takeoff,
0.080513709882039,36.8784517568929,5934.7455980483,0,0,0.080930448784,2300,2018-04-11 08:17:23,17,0,17.017,5934.7455980483,0,0,0.086014110364,0,0,0,150.8, 0.3, 1.1,0,0,1024,1024,1024,1024,152,0,98,4.277,4.277,4.28,4.278,0,0,2.37,87.71,10,Assisted_Takeoff,
0.0805137110589969,36.878451782674,5934.7455980483,0,0,0.090143047504,2400,2018-04-11 08:17:24,17,0,17.017,5934.7455980483,0,0,0.090143047504,0,0,0,150.8, 0.3, 1.1,0,0,1024,1024,1024,1024,151.8,0,98,4.277,4.277,4.28,4.278,0,0,2.37,87.71,10,Assisted_Takeoff,
0.0805137124455152,36.8784518085708,5934.7455980483,0,0,0.099425200032,2500,2018-04-11 08:17:24,17,0,17.017,5934.7455980483,0,0,0.099425200032,0,0,0,150.8, 0.3, 1.1,0,0,1024,1024,1024,1024,151.7,0,98,4.277,4.277,4.28,4.278,0,0,2.37,87.71,10,Assisted_Takeoff,
0.0805137138832277,36.8784518268758,5934.7455980483,0,0,0.105985567696,2600,2018-04-11 08:17:24,17,0,17.017,5934.7455980483,0,0,0.105985567696,0,0,0,150.8, 0.3, 1.1,0,0,1024,1024,1024,1024,151.7,0,98,4.277,4.277,4.28,4.278,0,0,2.37,87.71,10,Assisted_Takeoff,
0.0805137155833233,36.8784518426659,5934.7455980483,0,0,0.111639767352,2700,2018-04-11 08:17:24,17,0,17.07,5934.7455980483,0,0,0.111639767352,0,0,0,150.8, 0.3, 1.1,0,0,1024,1024,1024,1024,151.6,0,98,4.271,4.268,4.272,4.271,0,0,3.12,87.71,10,Assisted_Takeoff,
0.0805137167510194,36.8784518512195,5934.7455980483,0,0,0.114699478736,2800,2018-04-11 08:17:24,17,0,17.07,5934.7455980483,0,0,0.114699478736,0,0,0,150.8, 0.3, 1.1,0,0,1024,1024,1024,1024,151.6,0,98,4.271,4.268,4.272,4.271,0,0,3.12,87.71,10,Assisted_Takeoff,
0.0805137176397427,36.8784518600833,5934.7455980483,0,0,0.117886158628,2900,2018-04-11 08:17:24,17,0,17.07,5934.7455980483,0,0,0.117886158628,0,0,0,150.8, 0.3, 1.1,0,0,1024,1024,1024,1024,151.5,0,98,4.271,4.268,4.272,4.271,0,0,3.12,87.71,10,Assisted_Takeoff,
0.0805137170802704,36.8784518608117,5934.7455980483,0,0,0.118170279372,3000,2018-04-11 08:17:24,17,0,17.07,5934.7455980483,0,0,0.118170279372,0,0,0,150.8, 0.3, 1.1,0,0,1024,1024,1024,1024,151.5,0,98,4.271,4.268,4.272,4.271,0,0,3.12,87.71,10,Assisted_Takeoff,
0.0805137169786962,36.8784518639771,5934.7455980483,0,0,0.119323166548,3100,2018-04-11 08:17:24,17,0,17.07,5934.7455980483,0,0,0.119323166548,0,0,0,150.8, 0.3, 1.1,0,0,1024,1024,1024,1024,151.4,0,98,4.271,4.268,4.272,4.271,0,0,3.12,87.71,10,Assisted_Takeoff,
0.0805137163685386,36.8784518612297,5934.7455980483,0,0,0.118347444732,3200,2018-04-11 08:17:24,17,0,17.07,5934.7455980483,0,0,0.119323166548,0,0,0,150.8, 0.3, 1.1,0,0,1024,1024,1024,1024,151.4,0,98,4.271,4.268,4.272,4.271,0,0,3.12,87.71,10,Assisted_Takeoff,
0.0805137159944036,36.8784518597729,5934.7455980483,0,0,0.117832024768,3300,2018-04-11 08:17:25,17,0,17.07,5934.7455980483,0,0,0.119323166548,0,0,0,150.8, 0.3, 1.1,0,0,1024,1024,1024,1024,151.4,0,98,4.271,4.268,4.272,4.271,0,0,3.12,87.71,10,Assisted_Takeoff,
0.0805137150104163,36.8784518519202,5934.7455980483,0,0,0.115019032552,3400,2018-04-11 08:17:25,17,0,17.07,5934.7455980483,0,0,0.119323166548,0,0,0,150.8, 0.3, 1.1,0,0,1024,1024,1024,1024,151.3,0,98,4.271,4.268,4.272,4.271,0,0,3.12,87.71,10,Assisted_Takeoff,
0.0805137148840083,36.8784518509078,5934.7455980483,0,0,0.114656827816,3500,2018-04-11 08:17:25,17,0,17.07,5934.7455980483,0,0,0.119323166548,0,0,0,150.8, 0.3, 1.1,0,0,1024,1024,1024,1024,151.3,0,98,4.271,4.268,4.272,4.271,0,0,3.12,87.71,10,Assisted_Takeoff,
0.0805137146572475,36.8784518456424,5934.7455980483,0,0,0.11275590912,3600,2018-04-11 08:17:25,17,0,17.07,5934.7455980483,0,0,0.119323166548,0,0,0,150.8, 0.3, 1.1,0,0,1024,1024,1024,1024,151.3,0,98,4.271,4.268,4.272,4.271,0,0,3.12,87.71,10,Assisted_Takeoff,
0.0805137145697186,36.878451844518,5934.7455980483,0,0,0.112351709632,3700,2018-04-11 08:17:25,17,0,17.07,5934.7455980483,0,0,0.119323166548,0,0,0,150.8, 0.3, 1.1,0,0,1024,1024,1024,1024,151.3,0,98,4.271,4.268,4.272,4.271,0,0,1.874,87.71,10,Assisted_Takeoff,
0.080513714382244,36.8784518397885,5934.7455980483,0,0,0.110644360496,3800,2018-04-11 08:17:25,17,0,17.07,5934.7455980483,0,0,0.119323166548,0,0,0,150.8, 0.3, 1.1,0,0,1024,1024,1024,1024,151.3,0,98,4.271,4.268,4.272,4.271,0,0,1.874,87.71,10,Assisted_Takeoff,
0.0805137148450275,36.8784518388033,5934.7455980483,0,0,0.110268376232,3900,2018-04-11 08:17:25,17,0,17.07,5934.7455980483,0,0,0.119323166548,0,0,0,150.8, 0.3, 1.1,0,0,1024,1024,1024,1024,151.3,0,98,4.271,4.268,4.272,4.271,0,0,1.874,87.71,10,Assisted_Takeoff,
0.0805137152674051,36.8784518354939,5934.7455980483,0,0,0.109051184592,4000,2018-04-11 08:17:25,17,0,17.07,5934.7455980483,0,0,0.119323166548,0,0,0,150.8, 0.3, 1.1,0,0,1024,1024,1024,1024,151.3,0,98,4.271,4.268,4.272,4.271,0,0,1.874,87.71,10,Assisted_Takeoff,
0.0805137166114821,36.8784518351235,5934.7455980483,0,0,0.108863520544,4100,2018-04-11 08:17:25,17,0,17.07,5934.7455980483,0,0,0.119323166548,0,0,0,150.8, 0.3, 1.1,0,0,1024,1024,1024,1024,151.3,0,98,4.271,4.268,4.272,4.271,0,0,1.874,87.71,10,Assisted_Takeoff,
0.0805137173788863,36.8784518326155,5934.7455980483,0,0,0.107924216052,4200,2018-04-11 08:17:25,17,0,17.07,5934.7455980483,0,0,0.119323166548,0,0,0,150.8, 0.3, 1.1,0,0,1024,1024,1024,1024,151.3,0,98,4.271,4.268,4.272,4.271,0,0,1.874,87.71,10,Assisted_Takeoff,
0.0805137184499954,36.8784518323723,5934.7455980483,0,0,0.107795607124,4300,2018-04-11 08:17:25,17,0,17.07,5934.7455980483,0,0,0.119323166548,0,0,0,150.8, 0.3, 1.1,0,1,1024,1024,1024,1024,151.3,0,98,4.271,4.268,4.272,4.271,0,0,1.874,87.71,10,Assisted_Takeoff,
0.0805137188831615,36.8784518585169,5934.7455980483,0,0,0.117274610052,4400,2018-04-11 08:17:26,17,0,17.07,5934.7455980483,0,0,0.119323166548,0,0,0,150.8, 0.3, 1.1,0,1,1024,1024,1024,1024,151.2,0,98,4.271,4.268,4.272,4.271,0,0,1.874,87.71,10,Assisted_Takeoff,
0.0805137197935634,36.8784518880738,5934.7455980483,0,0,0.127989177324,4500,2018-04-11 08:17:26,17,0,17.07,5934.7455980483,0,0,0.127989177324,0,0,0,150.8, 0.3, 1.1,0,1,1024,1024,1024,1024,151.2,0,98,4.271,4.268,4.272,4.271,0,0,1.874,87.71,10,Assisted_Takeoff,
0.0805137198466914,36.8784519148295,5934.7455980483,0,0,0.137719492596,4600,2018-04-11 08:17:26,17,0,17.07,5934.7455980483,0,0,0.137719492596,0,0,0,150.8, 0.3, 1.1,0,1,1024,1024,1024,1024,151.2,0,98,4.271,4.268,4.272,4.271,0,0,1.874,87.71,10,Assisted_Takeoff,
0.0805137208668098,36.8784519332893,5934.7455980483,0,0,0.144409781524,4700,2018-04-11 08:17:26,17,0,17.07,5934.7455980483,0,0,0.144409781524,0,0,0,150.8, 0.3, 1.1,0,1,1024,1024,1024,1024,151.2,0,98,4.271,4.268,4.272,4.271,0,0,1.874,87.71,10,Assisted_Takeoff,
0.0805136915390423,36.8784519448421,5934.7455980483,0,0,0.149718836812,4800,2018-04-11 08:17:26,17,0,17.07,5934.7455980483,0,0,0.149718836812,0,0,0,150.8, 0.3, 1.1,0,1,1024,1024,1024,1024,151.2,0,98,4.271,4.268,4.272,4.271,0,0,1.874,87.71,10,Assisted_Takeoff,
0.0805136627223009,36.8784519547143,5934.7455980483,0,0,0.155059388164,4900,2018-04-11 08:17:26,17,0,17.07,5934.7455980483,0,0,0.155059388164,0,0,0,150.8, 0.3, 1.1,0,1,1024,1024,1024,1024,151.2,0,98,4.271,4.268,4.272,4.271,0,0,1.874,87.71,10,Assisted_Takeoff,
0.0805136327299247,36.8784519569197,5934.7455980483,0,0,0.158405188796,5000,2018-04-11 08:17:26,17,0,17.07,5934.7455980483,0,0,0.158405188796,0,0,0,150.8, 0.3, 1.1,0,1,1024,1024,1024,1024,151.2,0,98,4.271,4.268,4.272,4.271,0,0,1.874,87.71,10,Assisted_Takeoff,
0.0805136147801972,36.8784519618249,5934.7455980483,0,0,0.161979663976,5100,2018-04-11 08:17:26,17,0,17.07,5934.7455980483,0,0,0.161979663976,0,0,0,150.8, 0.3, 1.1,0,1,1024,1024,1024,1024,151.2,0,98,4.271,4.268,4.272,4.271,0,0,1.874,87.71,10,Assisted_Takeoff,
0.08051360208383,36.8784519606612,5934.7455980483,0,0,0.163032157448,5200,2018-04-11 08:17:26,17,0,17.07,5934.7455980483,0,0,0.163032157448,0,0,0,150.8, 0.3, 1.1,0,1,1024,1024,1024,1024,151.2,0,98,4.271,4.268,4.272,4.271,0,0,1.874,87.71,10,Assisted_Takeoff,
0.0805135914910054,36.8784519610347,5934.7455980483,0,0,0.164465884528,5300,2018-04-11 08:17:26,17,0,17.07,5934.7455980483,0,0,0.164465884528,0,0,0,150.8, 0.3, 1.1,0,1,1024,1024,1024,1024,151.2,0,98,4.271,4.268,4.272,4.271,0,0,1.874,87.71,10,Assisted_Takeoff,
0.0805136146382172,36.8784519551749,5934.7455980483,0,0,0.15968340406,5400,2018-04-11 08:17:27,17,0,17.07,5934.7455980483,0,0,0.164465884528,0,0,0,150.8, 0.3, 1.1,0,1,1024,1024,1024,1024,151.2,0,98,4.271,4.268,4.272,4.271,0,0,1.874,87.71,10,Assisted_Takeoff,
0.0805136390327154,36.8784519534169,5934.7455980483,0,0,0.156572183488,5500,2018-04-11 08:17:27,17,0,17.07,5934.7455980483,0,0,0.164465884528,0,0,0,150.8, 0.3, 1.1,0,1,1024,1024,1024,1024,151.2,0,98,4.271,4.268,4.272,4.271,0,0,1.874,87.71,10,Assisted_Takeoff,
0.0805136361605473,36.8784519468264,5934.7455980483,0,0,0.154522314656,5600,2018-04-11 08:17:27,17,0,17.07,5934.7455980483,0,0,0.164465884528,0,0,0,150.8, 0.3, 1.1,0,1,1024,1024,1024,1024,151.2,0,98,4.271,4.268,4.272,4.271,0,0,1.874,87.71,10,Assisted_Takeoff,
0.0805136240215151,36.8784519445133,5934.7455980483,0,0,0.154947183436,5700,2018-04-11 08:17:27,17,0,17.07,5934.7455980483,0,0,0.164465884528,0,0,0,150.8, 0.3, 1.1,0,1,1024,1024,1024,1024,151.2,0,98,4.275,4.273,4.276,4.273,0,0,1.874,87.71,10,Assisted_Takeoff,
0.0805136139350347,36.8784519388306,5934.7455980483,0,0,0.15409777396,5800,2018-04-11 08:17:27,17,0,17.07,5934.7455980483,0,0,0.164465884528,0,0,0,150.8, 0.3, 1.1,0,1,1024,1024,1024,1024,151.2,0,98,4.275,4.273,4.276,4.273,0,0,1.874,87.71,10,Assisted_Takeoff,
0.0805136075751467,36.878451937472,5934.7455980483,0,0,0.154384519376,5900,2018-04-11 08:17:27,17,0,17.07,5934.7455980483,0,0,0.164465884528,0,0,0,150.8, 0.3, 1,0,1,1024,1024,1024,1024,151.2,0,98,4.275,4.273,4.276,4.273,0,0,1.874,87.71,10,Assisted_Takeoff,
0.0805136039944019,36.8784519338595,5934.7455980483,0,0,0.153585306752,6000,2018-04-11 08:17:27,17,0,17.07,5934.7455980483,0,0,0.164465884528,0,0,0,150.8, 0.3, 1,0,1,1024,1024,1024,1024,151.2,0,98,4.275,4.273,4.276,4.273,0,0,1.874,87.71,10,Assisted_Takeoff,
0.0805136016800777,36.8784519337605,5934.7455980483,0,0,0.153843180776,6100,2018-04-11 08:17:27,17,0,17.07,5934.7455980483,0,0,0.164465884528,0,0,0,150.8, 0.3, 1,0,1,1024,1024,1024,1024,151.2,0,98,4.275,4.273,4.276,4.273,0,0,1.874,87.71,10,Assisted_Takeoff,
0.0805136010059019,36.878451931823,5934.7455980483,0,0,0.153266737188,6200,2018-04-11 08:17:27,17,0,17.07,5934.7455980483,0,0,0.164465884528,0,0,0,150.8, 0.3, 1,0,1,1024,1024,1024,1024,151.2,0,98,4.275,4.273,4.276,4.273,0,0,1.874,87.71,10,Assisted_Takeoff,
0.080513600158195,36.8784519325404,5934.7455980483,0,0,0.15362041174,6300,2018-04-11 08:17:27,17,0,17.07,5934.7455980483,0,0,0.164465884528,0,0,0,150.8, 0.3, 1,0,1,1024,1024,1024,1024,151.2,0,98,4.275,4.273,4.276,4.273,0,0,1.874,87.71,10,Assisted_Takeoff,
0.0805136010601494,36.8784519308484,5934.7455980483,0,0,0.152926842164,6400,2018-04-11 08:17:28,17,0,17.07,5934.7455980483,0,0,0.164465884528,0,0,0,150.8, 0.3, 1,0,1,1024,1024,1024,1024,151.2,0,98,4.275,4.273,4.276,4.273,0,0,1.874,87.71,10,Assisted_Takeoff,
0.0805136017327985,36.8784519315375,5934.7455980483,0,0,0.153076448468,6500,2018-04-11 08:17:28,17,0,17.07,5934.7455980483,0,0,0.164465884528,0,0,0,150.8, 0.3, 1,0,1,1024,1024,1024,1024,151.2,0,98,4.275,4.273,4.276,4.273,0,0,1.874,87.71,10,Assisted_Takeoff,
0.0805136043730151,36.8784519304456,5934.7455980483,0,0,0.152368443196,6600,2018-04-11 08:17:28,17,0,17.07,5934.7455980483,0,0,0.164465884528,0,0,0,150.8, 0.3, 1,0,1,1024,1024,1024,1024,151.2,0,98,4.275,4.273,4.276,4.273,0,0,1.874,87.71,10,Assisted_Takeoff,
0.080513606787794,36.8784519320813,5934.7455980483,0,0,0.152628285724,6700,2018-04-11 08:17:28,17,0,17.07,5934.7455980483,0,0,0.164465884528,0,0,0,150.8, 0.3, 1,0,1,1024,1024,1024,1024,151.2,0,98,4.275,4.273,4.276,4.273,0,0,1.866,87.71,10,Assisted_Takeoff,
0.0805135790455203,36.8784519318403,5934.7455980483,0,0,0.156263784528,6800,2018-04-11 08:17:28,17,0,17.07,5934.7455980483,0,0,0.164465884528,0,0,0,150.8, 0.3, 1,0,1,1024,1024,1024,1024,151.2,0,98,4.275,4.273,4.276,4.273,0,0,1.866,87.71,10,Assisted_Takeoff,
0.0805135521552282,36.8784519341721,5934.7455980483,0,0,0.161157813556,6900,2018-04-11 08:17:28,17,0,17.07,5934.7455980483,0,0,0.164465884528,0,0,0,150.8, 0.3, 1,0,1,1024,1024,1024,1024,151.2,0,98,4.275,4.273,4.276,4.273,0,0,1.866,87.71,10,Assisted_Takeoff,
0.0805135584791886,36.8784519339919,5934.7455980483,0,0,0.160086619296,7000,2018-04-11 08:17:28,17,0,17.07,5934.7455980483,0,0,0.164465884528,0,0,0,150.8, 0.3, 1,0,1,1024,1024,1024,1024,151.2,0,98,4.275,4.273,4.276,4.273,0,0,1.866,87.71,10,Assisted_Takeoff,
0.0805135721116058,36.878451936016,5934.7455980483,0,0,0.158672577256,7100,2018-04-11 08:17:28,17,0,17.07,5934.7455980483,0,0,0.164465884528,0,0,0,150.8, 0.3, 1,0,1,1024,1024,1034,1024,151.2,0,98,4.275,4.273,4.276,4.273,0,0,1.866,87.71,10,Assisted_Takeoff,
0.0805135870351755,36.8784519350848,5934.7455980483,0,0,0.156229991876,7200,2018-04-11 08:17:28,17,0,17.07,5934.7455980483,0,0,0.164465884528,0,0,0,150.8, 0.3, 1,0,1,1024,1024,1024,1024,151.2,0,98,4.275,4.273,4.276,4.273,0,0,1.866,87.71,10,Assisted_Takeoff,
0.0805135983413604,36.8784519356782,5934.7455980483,0,0,0.154925529892,7300,2018-04-11 08:17:28,17,0,17.07,5934.7455980483,0,0,0.164465884528,0,0,0,150.8, 0.3, 1,0,1,1024,1024,1024,1023,151.2,0,98,4.275,4.273,4.276,4.273,0,0,1.866,87.71,10,Assisted_Takeoff,
0.0805136096245435,36.8784519334314,5934.7455980483,0,0,0.152745739796,7400,2018-04-11 08:17:29,17,0,17.07,5934.7455980483,0,0,0.164465884528,0,0,0,150.8, 0.3, 1,0,1,1024,1024,1024,1022,151.2,0,98,4.275,4.273,4.276,4.273,0,0,1.866,87.71,10,Assisted_Takeoff,
0.0805136177521075,36.8784519340797,5934.7455980483,0,0,0.152013128224,7500,2018-04-11 08:17:29,17,0,17.07,5934.7455980483,0,0,0.164465884528,0,0,0,150.8, 0.3, 1,0,1,1024,1024,1024,1024,151.2,0,98,4.275,4.273,4.276,4.273,0,0,1.866,87.71,10,Assisted_Takeoff,
0.0805136240741342,36.8784519318482,5934.7455980483,0,0,0.150529204292,7600,2018-04-11 08:17:29,17,0,17.07,5934.7455980483,0,0,0.164465884528,0,0,0,150.8, 0.3, 1,0,1,1024,1024,1024,1023,151.2,0,98,4.275,4.273,4.276,4.273,0,0,1.866,87.71,10,Assisted_Takeoff,
0.0805136292599141,36.8784519336996,5934.7455980483,0,0,0.15061680272,7700,2018-04-11 08:17:29,17,0,17.07,5934.7455980483,0,0,0.164465884528,0,0,0,150.8, 0.3, 1,0,1,1024,1024,1242,1023,151.2,0,98,4.275,4.272,4.276,4.273,0,0,1.886,87.71,10,Assisted_Takeoff,
0.0805136314846739,36.8784519334292,5934.7455980483,0,0,0.150290031056,7800,2018-04-11 08:17:29,17,0,17.07,5934.7455980483,0,0,0.164465884528,0,0,0,150.8, 0.3, 1,0,1,1024,1024,1242,1023,151.2,0,98,4.275,4.272,4.276,4.273,0,0,1.886,87.71,10,Assisted_Takeoff,
0.0805136343554171,36.8784519348161,5934.7455980483,0,0,0.15048228828,7900,2018-04-11 08:17:29,17,0,17.07,5934.7455980483,0,0,0.164465884528,0,0,0,150.8, 0.3, 1,0,1,1024,1024,1616,1024,151.2,0,98,4.275,4.272,4.276,4.273,0,0,1.886,87.71,10,Assisted_Takeoff,
0.0805136352142178,36.878451964999,5934.7455980483,0,0,0.161013456596,8000,2018-04-11 08:17:29,17,0,17.07,5934.7455980483,0,0,0.164465884528,0,0,0,150.8, 0.4, 1,0,1,1024,1024,1616,1024,151.1,0,98,4.275,4.272,4.276,4.273,0,0,1.886,87.71,10,Assisted_Takeoff,
0.0805136394477651,36.878451996383,5934.7455980483,0,0,0.17174213148,8100,2018-04-11 08:17:29,17,0,17.07,5934.7455980483,0,0,0.17174213148,0,0,0,150.7, 0.5, 0.9,0,1,1024,1024,1684,1024,151.1,0,98,4.275,4.272,4.276,4.273,0,0,1.886,87.71,10,Assisted_Takeoff,
0.0805136399025081,36.8784520208825,5934.7455980483,0,0,0.1804133916,8200,2018-04-11 08:17:29,17,0,17.07,5934.7455980483,0,0,0.1804133916,0,0,0,150.7, 0.7, 0.9,0,1,1024,1024,1684,1024,151.2,0,98,4.275,4.272,4.276,4.273,0,0,1.886,87.71,10,Assisted_Takeoff,
0.0805136422809523,36.8784520357105,5934.7455980483,0,0,0.185512473128,8300,2018-04-11 08:17:30,17,0,17.07,5934.7455980483,0,0,0.185512473128,0,0,0,150.6, 2, 1,0,1,1024,1024,1684,1024,151.2,0,98,4.275,4.272,4.276,4.273,0,0,1.886,87.71,10,Assisted_Takeoff,
0.0805136490538544,36.8784520248053,5934.7455980483,0,0,0.181112538604,8400,2018-04-11 08:17:30,17,0,17.07,5934.7455980483,0,0,0.185512473128,0,0,-0.223694,150.5, 3.5, 1.1,0,1,1024,1024,1684,1024,151.1,0,98,4.275,4.272,4.276,4.273,0,0,1.886,87.71,10,Assisted_Takeoff,
0.0805136967804947,36.8784519716775,5934.7455980483,0,0,0.159183404044,8500,2018-04-11 08:17:30,17,0,17.07,5934.7455980483,0,0,0.185512473128,0,0,-0.894776,150.5, 2.6, 0.6,0,1,1024,1024,1684,1024,151.1,0,98,4.275,4.272,4.276,4.273,0,0,1.886,87.71,6,P-GPS,
0.0805137813303247,36.8784518529717,5934.7455980483,0,0.3131716,0.115384518128,8600,2018-04-11 08:17:30,17,0,17.07,5934.7455980483,0,0.3131716,0.185512473128,0.223694,-0.223694,-1.565858,150.5, 0.7, 0.3,0,1,1024,1024,1684,1024,151.1,0,98,4.275,4.272,4.276,4.273,0,0,1.886,87.71,6,P-GPS,
0.0805138733137981,36.8784517353628,5935.0736820483,0.328084,0.223694,0.085086616896,8700,2018-04-11 08:17:30,17,0,17.07,5935.0736820483,0.328084,0.3131716,0.185512473128,0.223694,0,-2.460634,150.6, 0, 0.1,0,1,1024,1024,1684,1024,151.1,0,98,4.275,4.272,4.276,4.273,0,0,1.886,87.71,6,P-GPS,
0.0805139536496223,36.8784516412078,5935.4017660483,0.656168,0.223694,0.083754267772,8800,2018-04-11 08:17:30,17,0,17.07,5935.4017660483,0.656168,0.3131716,0.185512473128,0,0,-3.35541,150.7, -0.2, 0.3,0,1,1024,1024,1684,1024,151.1,0,98,4.275,4.272,4.276,4.273,0,0,1.886,87.71,6,P-GPS,Home Point Recorded. RTH Altitude:  30m.
0.0805140272065394,36.8784515687658,5936.0579340483,1.312336,0,0.102329727684,8900,2018-04-11 08:17:30,17,0,17.07,5936.0579340483,1.312336,0.3131716,0.185512473128,0,0,-4.250186,150.8, -0.3, 0.1,0,1,1024,1024,1684,1024,151.1,0,98,4.275,4.272,4.276,4.273,0,0,1.886,87.71,6,P-GPS,
0.0805141010667542,36.8784515603423,5936.7141020483,1.968504,0,0.12892552906,9000,2018-04-11 08:17:30,17,0,17.07,5936.7141020483,1.968504,0.3131716,0.185512473128,0,0,-5.144962,150.8, -0.2, -0.1,0,1,1024,1024,1684,1024,151.1,0,98,4.275,4.272,4.276,4.273,0,0,1.886,87.71,6,P-GPS,
0.0805141785855738,36.8784515719254,5937.6983540483,2.952756,0,0.157435044408,9100,2018-04-11 08:17:30,17,0,17.07,5937.6983540483,2.952756,0.3131716,0.185512473128,0,0,-6.263432,150.7, -0.3, 0,0,1,1024,1024,1684,1024,151.1,0,98,4.275,4.272,4.276,4.273,0,0,1.886,87.71,6,P-GPS,
0.0805142641610183,36.8784516030495,5938.6826060483,3.937008,0,0.189653221292,9200,2018-04-11 08:17:30,16,0,17.07,5938.6826060483,3.937008,0.3131716,0.189653221292,0,0,-7.381902,150.6, -0.4, 0.7,0,1,1024,1024,1684,1024,151.1,0,98,4.275,4.272,4.276,4.273,0,0,1.886,87.71,6,P-GPS,
0.0805143373336226,36.878451627402,5939.6668580483,4.92126,0,0.217316936088,9300,2018-04-11 08:17:30,16,0,17.07,5939.6668580483,4.92126,0.3131716,0.217316936088,0,0,-8.500372,150.5, -0.6, 0.9,0,1,1024,1024,1684,1024,151.1,0,98,4.275,4.272,4.276,4.273,0,0,1.886,87.71,6,P-GPS,
0.0805143757415429,36.8784515862858,5941.3072780483,6.56168,0,0.22955709396,9400,2018-04-11 08:17:31,17,0,17.07,5941.3072780483,6.56168,0.3131716,0.22955709396,0,0,-9.618842,150.5, -0.5, 0.2,0,1,1024,1024,1684,1024,151.1,0,98,4.275,4.272,4.276,4.273,0,0,1.886,87.71,6,P-GPS,
0.0805144031747685,36.8784515389623,5942.6196140483,7.874016,0,0.238901582448,9500,2018-04-11 08:17:31,17,0,17.07,5942.6196140483,7.874016,0.3131716,0.238901582448,0,0,-10.513618,150.4, -0.6, -0.3,0,1,1024,1024,1684,1024,151.1,0,98,4.275,4.272,4.276,4.273,0,0,1.886,87.71,6,P-GPS,
0.0805144657196384,36.8784515137651,5944.2600340483,9.514436,0,0.261875664548,9600,2018-04-11 08:17:31,18,0,17.07,5944.2600340483,9.514436,0.3131716,0.261875664548,0,0,-11.1847,150.4, -1.8, -0.2,0,1,1024,1024,1684,1024,151.1,0,98,4.275,4.272,4.276,4.273,0,0,1.886,87.71,6,P-GPS,
0.0805145135950777,36.8784515266239,5945.9004540483,11.154856,0,0.279221465628,9700,2018-04-11 08:17:31,18,0,16.722,5945.9004540483,11.154856,0.3131716,0.279221465628,0,0,-11.408394,150.4, -2.4, -0.2,0,1,1024,1024,1684,1024,151.1,0,98,4.275,4.272,4.275,4.272,0,0,1.894,87.71,6,P-GPS,
0.0805144979190142,36.8784515210532,5947.5408740483,12.795276,0,0.273542331588,9800,2018-04-11 08:17:31,18,0,16.722,5947.5408740483,12.795276,0.3131716,0.279221465628,0,0,-11.632088,150.4, -1.8, 0,0,1,1024,1024,1684,1024,151.1,0,98,4.275,4.272,4.275,4.272,0,0,1.894,87.71,6,P-GPS,
0.080514447215782,36.8784515474919,5949.5093780483,14.76378,0,0.254991149892,9900,2018-04-11 08:17:31,18,0,16.722,5949.5093780483,14.76378,0.3131716,0.279221465628,0,0,-11.632088,150.4, -0.9, 0.3,0,1,1024,1024,1684,1024,151.1,0,98,4.275,4.272,4.275,4.272,0,0,1.894,87.71,6,P-GPS,
0.0805143344277661,36.8784515656419,5951.1497980483,16.4042,0,0.214049547532,10000,2018-04-11 08:17:31,18,0,16.722,5951.1497980483,16.4042,0.3131716,0.279221465628,0,0,-11.408394,150.4, -0.1, 0.2,0,1,1024,1024,1684,1024,151.1,0,98,4.275,4.272,4.275,4.272,0,0,1.894,87.71,6,P-GPS,
0.0805142264078851,36.8784516007555,5952.7902180483,18.04462,0,0.175883863896,10100,2018-04-11 08:17:31,18,0,16.722,5952.7902180483,18.04462,0.3131716,0.279221465628,0,0,-11.408394,150.4, 0, -0.1,0,1,1024,1024,1684,1024,151.1,0,98,4.275,4.272,4.275,4.272,0,0,1.894,87.71,6,P-GPS,
0.0805141843510798,36.8784516008475,5954.4306380483,19.68504,0,0.160685372596,10200,2018-04-11 08:17:31,18,0,16.722,5954.4306380483,19.68504,0.3131716,0.279221465628,0,0,-11.1847,150.4, 0, -0.2,0,1,1024,1024,1684,1024,151,0,98,4.275,4.272,4.275,4.272,0,0,1.894,87.71,6,P-GPS,
0.0805141652219517,36.8784516377619,5956.0710580483,21.32546,0,0.156342196604,10300,2018-04-11 08:17:31,18,0,16.722,5956.0710580483,21.32546,0.3131716,0.279221465628,0,0,-11.1847,150.4, -0.1, 0.2,0,1,1024,1024,1684,1024,151,0,98,4.275,4.272,4.275,4.272,0,0,1.894,87.71,6,P-GPS,
0.0805142192903635,36.8784516753212,5957.7114780483,22.96588,0,0.178922577904,10400,2018-04-11 08:17:32,17,0,16.722,5957.7114780483,22.96588,0.3131716,0.279221465628,0,0,-11.1847,150.4, -0.3, 0.2,0,1,1024,1024,1684,1024,151,0,98,4.275,4.272,4.275,4.272,0,0,1.894,87.71,6,P-GPS,
0.0805142510931623,36.8784517372238,5959.3518980483,24.6063,0,0.197233274028,10500,2018-04-11 08:17:32,17,0,16.722,5959.3518980483,24.6063,0.3131716,0.279221465628,0,0,-10.961006,150.5, 0, 0.3,0,1,1024,1024,1684,1020,151,0,98,4.275,4.272,4.275,4.272,0,0,1.894,87.71,6,P-GPS,
0.0805142670959832,36.8784518544792,5960.9923180483,26.24672,0,0.221613196068,10600,2018-04-11 08:17:32,18,0,16.722,5960.9923180483,26.24672,0.3131716,0.279221465628,0,0,-10.961006,150.5, 0.4, 0.2,0,1,1024,1024,1684,1024,151,0,98,4.275,4.272,4.275,4.272,0,0,1.894,87.71,6,P-GPS,
0.0805142896370068,36.8784521443002,5964.2731580483,29.52756,0,0.29641077064,10800,2018-04-11 08:17:32,18,0,16.722,5964.2731580483,29.52756,0.3131716,0.29641077064,0,0,-10.961006,150.5, 0.2, 0.3,0,1,1024,1024,1684,1024,151,0,98,4.275,4.272,4.275,4.272,0,0,1.894,87.71,6,P-GPS,
0.0805143152214905,36.8784523016857,5965.9135780483,31.16798,0,0.346866809,10900,2018-04-11 08:17:32,18,0,16.722,5965.9135780483,31.16798,0.3131716,0.346866809,0,0,-10.961006,150.5, 0, 0.6,0,1,1024,1024,1684,1024,151,0,98,4.275,4.272,4.275,4.272,0,0,1.894,87.71,6,P-GPS,
0.0805143479391695,36.8784524512537,5967.5539980483,32.8084,0,0.39845473716,11000,2018-04-11 08:17:32,18,0,16.722,5967.5539980483,32.8084,0.3131716,0.39845473716,0,0,-10.961006,150.4, -0.1, 0.6,0,1,1024,1024,1684,1024,151,0,98,4.275,4.272,4.275,4.272,0,0,1.894,87.71,6,P-GPS,
0.0805143641076337,36.8784525858794,5969.1944180483,34.44882,0,0.44329397744,11100,2018-04-11 08:17:32,18,0,16.722,5969.1944180483,34.44882,0.3131716,0.44329397744,0,0,-10.961006,150.4, 0, 0.3,0,1,1024,1024,1684,1024,151,0,98,4.275,4.272,4.275,4.272,0,0,1.894,87.71,6,P-GPS,
0.080514316114692,36.8784527377563,5970.8348380483,36.08924,0,0.4841207504,11200,2018-04-11 08:17:32,18,0,16.722,5970.8348380483,36.08924,0.3131716,0.4841207504,0,0,-10.961006,150.4, 0.5, 0.2,0,1,1024,1024,1684,1025,151,0,98,4.275,4.272,4.275,4.272,0,0,1.894,87.71,6,P-GPS,
0.080514274169944,36.8784528889887,5972.4752580483,37.72966,0,0.5287729828,11300,2018-04-11 08:17:33,18,0,16.722,5972.4752580483,37.72966,0.3131716,0.5287729828,0,0,-10.961006,150.4, 0.6, 0.4,0,1,1024,1024,1684,1026,151,0,98,4.275,4.272,4.275,4.272,0,0,1.894,87.71,6,P-GPS,
0.0805142578309511,36.8784532162851,5975.7560980483,41.0105,0,0.63975723832,11500,2018-04-11 08:17:33,18,0,16.722,5975.7560980483,41.0105,0.3131716,0.63975723832,0,0,-10.961006,150.4, -0.1, 0.8,0,1,1024,1024,1684,1024,151,-3.4,98,4.275,4.272,4.275,4.272,0,0,1.894,87.71,6,P-GPS,
0.080514235238428,36.8784533850686,5977.3965180483,42.65092,0,0.69676183332,11600,2018-04-11 08:17:33,18,0,16.722,5977.3965180483,42.65092,0.3131716,0.69676183332,0,0,-10.961006,150.5, -0.2, 0.9,0,1,1024,1024,1684,1026,151,-8.9,98,4.275,4.272,4.275,4.272,0,0,1.894,87.71,6,P-GPS,
0.0805142170727281,36.8784535482003,5979.0369380483,44.29134,0,0.7529363758,11700,2018-04-11 08:17:33,18,0,16.588,5979.0369380483,44.29134,0.3131716,0.7529363758,0,0,-10.961006,150.5, 0.1, 1.6,0,1,1024,1024,1684,1027,151,-14.6,98,4.157,4.154,4.167,4.147,0,0,16.744,87.71,6,P-GPS,
0.0805141542521423,36.8784537042055,5980.6773580483,45.93176,0,0.80393375276,11800,2018-04-11 08:17:33,18,0,16.588,5980.6773580483,45.93176,0.3131716,0.80393375276,0,0,-10.961006,150.5, 0.3, 1.6,0,1,1024,1024,1684,1037,151,-20.2,98,4.157,4.154,4.167,4.147,0,0,16.744,87.71,6,P-GPS,
0.0805141025004974,36.8784538272915,5981.9896940483,47.244096,0,0.84501971208,11900,2018-04-11 08:17:33,18,0,16.588,5981.9896940483,47.244096,0.3131716,0.84501971208,0,0,-10.961006,150.5, 0.1, 1,0,1,1024,1024,1684,1040,151,-25.6,98,4.157,4.154,4.167,4.147,0,0,16.744,87.71,6,P-GPS,
0.0805140490606649,36.8784539406348,5983.6301140483,48.884516,0,0.88327758732,12000,2018-04-11 08:17:33,18,0,16.588,5983.6301140483,48.884516,0.3131716,0.88327758732,0,0,-10.961006,150.5, 0, 0.6,0,1,1024,1024,1684,1029,151,-25.8,98,4.157,4.154,4.167,4.147,0,0,16.744,87.71,6,P-GPS,
0.0805140063936002,36.878454048656,5985.2705340483,50.524936,0,0.92067588248,12100,2018-04-11 08:17:33,18,0,16.588,5985.2705340483,50.524936,0.3131716,0.92067588248,0,0,-10.961006,150.5, 0.1, 0.3,0,1,1024,1024,1684,1025,151,-25.8,98,4.157,4.154,4.167,4.147,0,0,16.744,87.71,6,P-GPS,
0.0805139699989964,36.8784541891222,5986.9109540483,52.165356,0,0.970472472,12200,2018-04-11 08:17:33,18,0,16.588,5986.9109540483,52.165356,0.3131716,0.970472472,0,0,-10.961006,150.5, 0.7, 0.4,0,1,1024,1024,1684,1030,151,-25.8,98,4.157,4.154,4.167,4.147,0,0,16.744,87.71,6,P-GPS,
0.0805139513711238,36.8784543268123,5988.5513740483,53.805776,0,1.02002627936,12300,2018-04-11 08:17:34,18,0,16.588,5988.5513740483,53.805776,0.3131716,1.02002627936,0,0,-10.961006,150.5, 1.1, 0.6,0,1,1024,1024,1684,1035,151,-25.8,98,4.157,4.154,4.167,4.147,0,0,16.744,87.71,6,P-GPS,
0.080513908149065,36.8784544248775,5990.1917940483,55.446196,0,1.05472772404,12400,2018-04-11 08:17:34,18,0,16.588,5990.1917940483,55.446196,0.3131716,1.05472772404,0,0,-10.961006,150.5, 0.9, 1.2,0,1,1024,1024,1684,1045,151,-25.8,98,4.157,4.154,4.167,4.147,0,0,16.744,87.71,6,P-GPS,
0.0805138868339544,36.8784545053632,5991.8322140483,57.086616,0,1.08365817116,12500,2018-04-11 08:17:34,18,0,16.588,5991.8322140483,57.086616,0.3131716,1.08365817116,0,0,-10.961006,150.5, 0.3, 1.6,0,1,1024,1024,1684,1053,150.9,-25.8,98,4.157,4.154,4.167,4.147,0,0,16.744,87.71,6,P-GPS,
0.0805139267641137,36.8784546607972,5995.1130540483,60.367456,0,1.14104662444,12700,2018-04-11 08:17:34,18,0,16.534,5995.1130540483,60.367456,0.3131716,1.14104662444,0,0,-11.1847,150.5, 0.1, 1.6,0,1,1024,1024,1684,1057,150.9,-25.8,98,4.157,4.154,4.167,4.147,0,0,16.744,87.71,6,P-GPS,
0.0805139450793251,36.8784548359546,5998.3938940483,63.648296,0,1.2052329782,12900,2018-04-11 08:17:34,18,0,16.534,5998.3938940483,63.648296,0.3131716,1.2052329782,0,0,-11.1847,150.6, 0, 1.2,0,1,1024,1024,1684,1057,150.9,-25.8,98,4.157,4.154,4.167,4.147,0,0,16.744,87.71,6,P-GPS,
0.0805139453883223,36.8784548990403,6000.0343140483,65.288716,0,1.22821854324,13000,2018-04-11 08:17:34,18,0,16.534,6000.0343140483,65.288716,0.3131716,1.22821854324,0,0,-11.1847,150.8, 0, 1.2,0,1,1024,1024,1684,1057,150.9,-25.8,98,4.157,4.154,4.167,4.147,0,0,16.744,87.71,6,P-GPS,
0.0805139445173083,36.878454945852,6002.0028180483,67.25722,0,1.24524938368,13100,2018-04-11 08:17:34,18,0,16.534,6002.0028180483,67.25722,0.3131716,1.24524938368,0,0,-11.1847,150.9, 0.3, 1.4,0,1,1024,1024,1684,1057,150.9,-25.8,98,4.157,4.154,4.167,4.147,0,0,16.744,87.71,6,P-GPS,
0.0805139150779924,36.8784549800832,6003.6432380483,68.89764,0,1.2571522712,13200,2018-04-11 08:17:34,18,0,16.534,6003.6432380483,68.89764,0.3131716,1.2571522712,0,0,-11.1847,151, 0.1, 1.6,0,1,1024,1024,1684,1061,150.9,-25.8,98,4.157,4.154,4.167,4.147,0,0,16.744,87.71,6,P-GPS,
0.0805138805987441,36.8784549992174,6005.2836580483,70.53806,0,1.2635827176,13300,2018-04-11 08:17:34,18,0,16.534,6005.2836580483,70.53806,0.3131716,1.2635827176,0,0,-11.1847,151.1, 0, 1.5,0,1,1024,1024,1684,1059,151,-25.8,98,4.157,4.154,4.167,4.147,0,0,16.744,87.71,6,P-GPS,
0.0805138666445057,36.8784550162933,6006.5959940483,71.850396,0,1.26962602488,13400,2018-04-11 08:17:35,18,0,16.534,6006.5959940483,71.850396,0.3131716,1.26962602488,0,0,-10.961006,151.3, -0.1, 1.3,0,1,1024,1024,1684,1059,151,-25.8,98,4.157,4.154,4.167,4.147,0,0,16.744,87.71,6,P-GPS,
0.0805138614388792,36.8784550311694,6008.2364140483,73.490816,0,1.27498691744,13500,2018-04-11 08:17:35,18,0,16.534,6008.2364140483,73.490816,0.3131716,1.27498691744,0,0,-10.961006,151.5, -0.2, 1.2,0,1,1024,1024,1684,1047,151,-25.8,98,4.157,4.154,4.167,4.147,0,0,16.744,87.71,6,P-GPS,
0.0805138181579928,36.8784550415129,6009.8768340483,75.131236,0,1.2783464976,13600,2018-04-11 08:17:35,18,0,16.534,6009.8768340483,75.131236,0.3131716,1.2783464976,0,0,-10.961006,151.7, 0.2, 1.4,0,1,1024,1024,1684,1056,151,-25.8,98,4.157,4.154,4.167,4.147,0,0,16.744,87.71,6,P-GPS,
0.0805137650132141,36.878455045238,6011.5172540483,76.771656,0,1.27946526404,13700,2018-04-11 08:17:35,18,0,16.508,6011.5172540483,76.771656,0.3131716,1.27946526404,0,0,-10.961006,151.8, 0.6, 1.4,0,1,1024,1024,1684,1057,151,-25.8,98,4.15,4.147,4.158,4.14,0,0,17.238,87.71,6,P-GPS,
0.0805137231656638,36.878455066336,6013.1576740483,78.412076,0,1.28718179972,13800,2018-04-11 08:17:35,18,0,16.508,6013.1576740483,78.412076,0.3131716,1.28718179972,0,0,-10.961006,151.9, 0.8, 1.6,0,1,1024,1024,1684,1058,151,-25.8,98,4.15,4.147,4.158,4.14,0,0,17.238,87.71,6,P-GPS,
0.0805136934215236,36.8784550733482,6015.1261780483,80.38058,0,1.289862246,13900,2018-04-11 08:17:35,18,0,16.508,6015.1261780483,80.38058,0.3131716,1.289862246,0,0,-10.961006,152, 0.7, 1.4,0,1,1024,1024,1684,1057,151,-25.8,98,4.15,4.147,4.158,4.14,0,0,17.238,87.71,6,P-GPS,
0.0805136879112762,36.8784550303354,6016.7665980483,82.021,0,1.27420607752,14000,2018-04-11 08:17:35,18,0,16.508,6016.7665980483,82.021,0.3131716,1.289862246,0,0,-10.961006,152.2, 0.6, 1,0,1,1024,1024,1684,1057,151.1,-25.8,98,4.15,4.147,4.158,4.14,0,0,17.238,87.71,6,P-GPS,
0.0805136868717183,36.8784549831439,6018.4070180483,83.66142,0,1.25699807172,14100,2018-04-11 08:17:35,18,0,16.508,6018.4070180483,83.66142,0.3131716,1.289862246,0,0,-11.1847,152.4, 0.4, 1.2,0,1,1024,1024,1684,1056,151.1,-25.8,98,4.15,4.147,4.158,4.14,0,0,17.238,87.71,6,P-GPS,
0.0805136763759896,36.8784549158584,6020.0474380483,85.30184,0,1.232529567,14200,2018-04-11 08:17:35,18,0,16.508,6020.0474380483,85.30184,0.3131716,1.289862246,0,0,-11.1847,152.5, 0.4, 1.5,0,1,1024,1024,1684,1053,151.2,-25.8,98,4.15,4.147,4.158,4.14,0,0,17.238,87.71,6,P-GPS,
0.0805136602817722,36.8784548481655,6021.6878580483,86.94226,0,1.20797904128,14300,2018-04-11 08:17:35,18,0,16.508,6021.6878580483,86.94226,0.3131716,1.289862246,0,0,-10.961006,152.6, 0.6, 1.4,0,1,1024,1024,1684,1050,151.2,-25.8,98,4.15,4.147,4.158,4.14,0,0,17.238,87.71,6,P-GPS,
0.0805137184745238,36.8784547867173,6023.3282780483,88.58268,0,1.18518048412,14400,2018-04-11 08:17:36,18,0,16.508,6023.3282780483,88.58268,0.3131716,1.289862246,0,0,-11.1847,152.7, 0.2, 1.1,0,1,1024,1024,1684,1050,151.3,-25.8,98,4.15,4.147,4.158,4.14,0,0,17.238,87.71,6,P-GPS,
0.0805137849395673,36.8784547306119,6024.9686980483,90.2231,0,1.16473757008,14500,2018-04-11 08:17:36,18,0,16.508,6024.9686980483,90.2231,0.3131716,1.289862246,0,0,-11.1847,152.8, -0.1, 1,0,1,1024,1024,1684,1053,151.3,-25.8,98,4.15,4.147,4.158,4.14,0,0,17.238,87.71,6,P-GPS,
0.0805138524973985,36.8784546778557,6026.6091180483,91.86352,0,1.14604334376,14600,2018-04-11 08:17:36,18,0,16.508,6026.6091180483,91.86352,0.3131716,1.289862246,0,0,-11.1847,152.9, -0.2, 1,0,1,1024,1024,1684,1052,151.4,-25.8,98,4.15,4.147,4.158,4.14,0,0,17.238,87.71,6,P-GPS,
0.0805138948365353,36.8784546327012,6028.2495380483,93.50394,0,1.13020344824,14700,2018-04-11 08:17:36,18,0,16.454,6028.2495380483,93.50394,0.3131716,1.289862246,0,0,-11.1847,152.9, -0.2, 1.1,0,1,1024,1024,1684,1050,151.4,-25.8,98,4.144,4.141,4.152,4.134,0,0,17.388,87.71,6,P-GPS,
0.0805139290732473,36.8784545990663,6029.8899580483,95.14436,0,1.11861224052,14800,2018-04-11 08:17:36,18,0,16.454,6029.8899580483,95.14436,0.3131716,1.289862246,0,0,-11.1847,153, -0.3, 1.1,0,1,1024,1024,1684,1050,151.5,-25.8,98,4.144,4.141,4.152,4.134,0,0,17.388,87.71,6,P-GPS,
0.0805139438210467,36.8784545750468,6031.5303780483,96.78478,0,1.11019688592,14900,2018-04-11 08:17:36,18,0,16.454,6031.5303780483,96.78478,0.3131716,1.289862246,0,0,-11.1847,153.2, -0.2, 1.4,0,1,1024,1024,1684,1038,151.6,-25.8,98,4.144,4.141,4.152,4.134,0,0,17.388,87.71,6,P-GPS,
0.0805139391236983,36.8784545244843,6033.1707980483,98.4252,0,1.09167654412,15000,2018-04-11 08:17:36,18,0,16.454,6033.1707980483,98.4252,0.3131716,1.289862246,0,0,-11.1847,153.3, 0.1, 1.5,0,1,1024,1024,1684,1043,151.6,-25.8,98,4.144,4.141,4.152,4.134,0,0,17.388,87.71,6,P-GPS,
0.0805139298666048,36.8784544728735,6034.8112180483,100.06562,0,1.072670638,15100,2018-04-11 08:17:36,18,0,16.454,6034.8112180483,100.06562,0.3131716,1.289862246,0,0,-11.1847,153.3, 0, 1.6,0,1,1024,1024,1684,1041,151.6,-25.8,98,4.144,4.141,4.152,4.134,0,0,17.388,87.71,6,P-GPS,
0.0805139393043538,36.878454434405,6036.4516380483,101.70604,0,1.05888454832,15200,2018-04-11 08:17:36,18,0,16.454,6036.4516380483,101.70604,0.3131716,1.289862246,0,0,-11.1847,153.3, 0, 1.4,0,1,1024,1024,1684,1027,151.7,-25.8,98,4.144,4.141,4.152,4.134,0,0,17.388,87.71,6,P-GPS,
0.0805139450085895,36.8784544013941,6038.0920580483,103.34646,0,1.04700790752,15300,2018-04-11 08:17:36,18,0,16.454,6038.0920580483,103.34646,0.3131716,1.289862246,0,0,-11.1847,153.2, 0, 1.1,0,1,1024,1024,1684,1026,151.8,-25.8,98,4.144,4.141,4.152,4.134,0,0,17.388,87.71,6,P-GPS,
0.0805139471959969,36.8784543560592,6040.0605620483,105.314964,0,1.0305610566,15400,2018-04-11 08:17:37,18,0,16.454,6040.0605620483,105.314964,0.3131716,1.289862246,0,0,-11.1847,153.2, 0.2, 0.8,0,1,1024,1024,1684,1027,151.8,-25.8,98,4.144,4.141,4.152,4.134,0,0,17.388,87.71,6,P-GPS,
0.0805139365385434,36.8784543165911,6041.7009820483,106.955384,0,1.0159285102,15500,2018-04-11 08:17:37,18,0,16.454,6041.7009820483,106.955384,0.3131716,1.289862246,0,0,-11.1847,153.3, 0.4, 0.5,0,1,1024,1024,1684,1024,151.9,-25.8,98,4.144,4.141,4.152,4.134,0,0,17.388,87.71,6,P-GPS,
0.0805139073802359,36.8784542823404,6043.3414020483,108.595804,0,1.002788746,15600,2018-04-11 08:17:37,18,0,16.454,6043.3414020483,108.595804,0.3131716,1.289862246,0,0,-11.1847,153.3, 0.4, 0.7,0,1,1024,1024,1684,1026,151.9,-25.8,98,4.144,4.141,4.152,4.134,0,0,17.388,87.71,6,P-GPS,
0.0805138826524156,36.8784542660037,6044.9818220483,110.236224,0,0.99635501876,15700,2018-04-11 08:17:37,18,0,16.454,6044.9818220483,110.236224,0.3131716,1.289862246,0,0,-11.1847,153.3, 0.6, 0.9,0,1,1024,1024,1684,1030,151.9,-25.8,97,4.144,4.141,4.152,4.134,0,0,16.972,87.71,6,P-GPS,
0.0805138536245871,36.8784541829102,6046.6222420483,111.876644,0,0.96559714376,15800,2018-04-11 08:17:37,18,0,16.454,6046.6222420483,111.876644,0.3131716,1.289862246,0,0,-11.1847,153.3, 0.4, 1.3,0,1,1024,1024,1684,1032,152,-25.8,97,4.144,4.141,4.152,4.134,0,0,16.972,87.71,6,P-GPS,
0.0805138435295574,36.8784541046342,6048.2626620483,113.517064,0,0.93691604048,15900,2018-04-11 08:17:37,18,0,16.454,6048.2626620483,113.517064,0.3131716,1.289862246,0,0,-11.1847,153.3, -0.4, 1.4,0,1,1024,1024,1684,1030,152,-25.8,97,4.144,4.141,4.152,4.134,0,0,16.972,87.71,6,P-GPS,
0.0805138258245036,36.8784540108299,6049.9030820483,115.157484,0,0.90249018636,16000,2018-04-11 08:17:37,18,0,16.454,6049.9030820483,115.157484,0.3131716,1.289862246,0,0,-10.961006,153.2, -0.2, 1.4,0,1,1024,1024,1684,1024,152.1,-25.8,97,4.144,4.141,4.152,4.134,0,0,16.972,87.71,6,P-GPS,
0.080513799266414,36.8784539491648,6051.5435020483,116.797904,0,0.87974740348,16100,2018-04-11 08:17:37,18,0,16.454,6051.5435020483,116.797904,0.3131716,1.289862246,0,0,-10.961006,153.3, 0.1, 1.3,0,1,1024,1024,1684,1024,152.1,-25.8,97,4.144,4.141,4.152,4.134,0,0,16.972,87.71,6,P-GPS,
0.0805137649916372,36.8784538748593,6053.1839220483,118.438324,0,0.8524606572,16200,2018-04-11 08:17:38,18,0,16.454,6053.1839220483,118.438324,0.3131716,1.289862246,0,0,-10.961006,153.3, 0.2, 1.4,0,1,1024,1024,1684,1025,152.2,-25.8,97,4.144,4.141,4.152,4.134,0,0,16.972,87.71,6,P-GPS,
0.08051367020551,36.8784537441474,6056.4647620483,121.719164,0,0.80525593128,16400,2018-04-11 08:17:38,18,0,16.454,6056.4647620483,121.719164,0.3131716,1.289862246,0,0,-10.961006,153.3, 0.8, 1.4,0,1,1024,1024,1684,1024,152.2,-25.8,97,4.144,4.141,4.152,4.134,0,0,16.972,87.71,6,P-GPS,
0.0805136208075773,36.8784536742347,6058.1051820483,123.359584,0,0.78062994624,16500,2018-04-11 08:17:38,18,0,16.454,6058.1051820483,123.359584,0.3131716,1.289862246,0,0,-10.961006,153.3, 0.8, 1.2,0,1,1024,1024,1684,1024,152.2,-25.8,97,4.144,4.141,4.152,4.134,0,0,16.972,87.71,6,P-GPS,
0.0805136046668475,36.8784535800385,6059.7456020483,125.000004,0,0.746719184,16600,2018-04-11 08:17:38,18,0,16.454,6059.7456020483,125.000004,0.3131716,1.289862246,0,0,-10.961006,153.2, 0.3, 0.8,0,1,1024,1024,1684,1024,152.2,-25.8,97,4.144,4.141,4.152,4.134,0,0,16.972,87.71,6,P-GPS,
0.0805135953926554,36.8784534985546,6061.3860220483,126.640424,0,0.71731957676,16700,2018-04-11 08:17:38,18,0,16.508,6061.3860220483,126.640424,0.3131716,1.289862246,0,0,-10.961006,153.2, 0.1, 0.5,0,1,1024,1024,1684,1024,152.2,-25.8,97,4.141,4.14,4.15,4.133,0,0,16.972,87.71,6,P-GPS,
0.0805135736108938,36.8784533869804,6063.0264420483,128.280844,0,0.6774442474,16800,2018-04-11 08:17:38,18,0,16.508,6063.0264420483,128.280844,0.3131716,1.289862246,0,0,-10.961006,153.2, 0.1, 0.3,0,1,1024,1024,1684,1024,152.3,-25.8,97,4.141,4.14,4.15,4.133,0,0,16.972,87.71,6,P-GPS,
0.0805135519934015,36.8784532957361,6064.6668620483,129.921264,0,0.64513781592,16900,2018-04-11 08:17:38,18,0,16.508,6064.6668620483,129.921264,0.3131716,1.289862246,0,0,-10.961006,153.2, 0.1, 0.1,0,1,1024,1024,1684,1024,152.3,-25.8,97,4.141,4.14,4.15,4.133,0,0,16.972,87.71,6,P-GPS,
0.0805135220714556,36.8784531950542,6065.9791980483,131.2336,0,0.61002626624,17000,2018-04-11 08:17:38,18,0,16.508,6065.9791980483,131.2336,0.3131716,1.289862246,0,0,-10.961006,153.3, -0.1, 0.1,0,1,1024,1024,1684,1024,152.3,-25.8,97,4.141,4.14,4.15,4.133,0,0,16.972,87.71,6,P-GPS,
0.0805134961859133,36.8784531268544,6067.6196180483,132.87402,0,0.58679135736,17100,2018-04-11 08:17:38,18,0,16.508,6067.6196180483,132.87402,0.3131716,1.289862246,0,0,-10.961006,153.3, 0, 0.2,0,1,1024,1024,1684,1024,152.3,-25.8,97,4.141,4.14,4.15,4.133,0,0,16.972,87.71,6,P-GPS,
0.0805135111642394,36.8784530568825,6069.5881220483,134.842524,0,0.56072180272,17200,2018-04-11 08:17:38,18,0,16.508,6069.5881220483,134.842524,0.3131716,1.289862246,0,0,-11.1847,153.3, 0, 0.6,0,1,1024,1024,1684,1024,152.4,-25.8,97,4.141,4.14,4.15,4.133,0,0,16.972,87.71,6,P-GPS,
0.0805135427090316,36.8784530112626,6071.2285420483,136.482944,0,0.54257219584,17300,2018-04-11 08:17:38,18,0,16.508,6071.2285420483,136.482944,0.3131716,1.289862246,0,0,-10.961006,153.3, -0.2, 1.1,0,1,1024,1024,1684,1024,152.4,-25.8,97,4.141,4.14,4.15,4.133,0,0,16.972,87.71,6,P-GPS,
0.0805135447354267,36.8784529642941,6072.8689620483,138.123364,0,0.52550198532,17400,2018-04-11 08:17:39,19,0,16.508,6072.8689620483,138.123364,0.3131716,1.289862246,0,0,-10.961006,153.2, 0.1, 0.8,0,1,1024,1024,1684,1024,152.4,-25.8,97,4.141,4.14,4.15,4.133,0,0,16.972,87.71,6,P-GPS,
0.0805135260916767,36.8784529432603,6074.5093820483,139.763784,0,0.51892390112,17500,2018-04-11 08:17:39,19,0,16.508,6074.5093820483,139.763784,0.3131716,1.289862246,0,0,-11.1847,153.2, 0.9, 0.6,0,1,1024,1024,1684,1024,152.4,-25.8,97,4.141,4.14,4.15,4.133,0,0,16.972,87.71,6,P-GPS,
0.08051349841851,36.8784529104506,6076.1498020483,141.404204,0,0.50881563308,17600,2018-04-11 08:17:39,19,0,16.508,6076.1498020483,141.404204,0.3131716,1.289862246,0,0,-10.961006,153.3, 0.7, 1.3,0,1,1024,1024,1684,1024,152.4,-25.8,97,4.141,4.14,4.15,4.133,0,0,16.972,87.71,6,P-GPS,
0.0805134948788835,36.8784528872503,6077.4621380483,142.71654,0,0.50072836248,17700,2018-04-11 08:17:39,19,0,16.347,6077.4621380483,142.71654,0.3131716,1.289862246,0,0,-10.961006,153.3, 0, 0.9,0,1,1024,1024,1684,1024,152.4,-25.8,97,4.137,4.134,4.144,4.126,0,0,16.918,87.71,6,P-GPS,
0.0805135029659399,36.8784528683168,6079.4306420483,144.685044,0,0.49339568508,17800,2018-04-11 08:17:39,19,0,16.347,6079.4306420483,144.685044,0.3131716,1.289862246,0,0,-11.1847,153.3, -0.1, 1,0,1,1024,1024,1684,1024,152.4,-25.8,97,4.137,4.134,4.144,4.126,0,0,16.918,87.71,6,P-GPS,
0.0805135341867736,36.8784528789523,6081.0710620483,146.325464,0,0.49528872976,17900,2018-04-11 08:17:39,19,0,16.347,6081.0710620483,146.325464,0.3131716,1.289862246,0,0,-11.1847,153.2, -0.1, 2.5,0,1,1024,1024,1684,1024,152.5,-25.8,97,4.137,4.134,4.144,4.126,0,0,16.918,87.71,6,P-GPS,
0.0805135501010478,36.8784528664789,6082.7114820483,147.965884,0,0.48990487132,18000,2018-04-11 08:17:39,19,0,16.347,6082.7114820483,147.965884,0.3131716,1.289862246,0,0,-10.961006,153.2, -0.4, 2.7,0,1,1024,1024,1684,1024,152.5,-25.8,97,4.137,4.134,4.144,4.126,0,0,16.918,87.71,6,P-GPS,
0.080513553607902,36.8784528227627,6084.3519020483,149.606304,0,0.47394030388,18100,2018-04-11 08:17:39,19,0,16.347,6084.3519020483,149.606304,0.3131716,1.289862246,0,0,-10.961006,153.2, -0.8, 1.7,0,1,1024,1024,1684,1024,152.5,-25.8,97,4.137,4.134,4.144,4.126,0,0,16.918,87.71,6,P-GPS,
0.0805135488692317,36.8784527563328,6085.9923220483,151.246724,0,0.45026904328,18200,2018-04-11 08:17:39,19,0,16.347,6085.9923220483,151.246724,0.3131716,1.289862246,0,0,-10.961006,153.2, -0.7, 0.9,0,1,1024,1024,1684,1024,152.5,-25.8,97,4.137,4.134,4.144,4.126,0,0,16.918,87.71,6,P-GPS,
0.0805135388790331,36.8784526949455,6087.3046580483,152.55906,0,0.42881891136,18300,2018-04-11 08:17:40,19,0,16.347,6087.3046580483,152.55906,0.3131716,1.289862246,0,0,-10.961006,153.3, -0.2, 0.4,0,1,1024,1024,1684,1027,152.5,-25.8,97,4.137,4.134,4.144,4.126,0,0,16.918,87.71,6,P-GPS,
0.0805135271295044,36.8784526263837,6088.9450780483,154.19948,0,0.40505906808,18400,2018-04-11 08:17:40,19,0,16.347,6088.9450780483,154.19948,0.3131716,1.289862246,0,0,-10.961006,153.3, -0.2, 0,0,1,1024,1024,1684,1027,152.5,-25.8,97,4.137,4.134,4.144,4.126,0,0,16.918,87.71,6,P-GPS,
0.0805135366700489,36.8784525769166,6090.5854980483,155.8399,0,0.3866798024,18500,2018-04-11 08:17:40,19,0,16.347,6090.5854980483,155.8399,0.3131716,1.289862246,0,0,-10.961006,153.2, -0.8, 0.6,0,1,1024,1024,1684,1024,152.5,-25.8,97,4.137,4.134,4.144,4.126,0,0,16.918,87.71,6,P-GPS,
0.0805135506484086,36.8784525081537,6092.2259180483,157.48032,0,0.36107940788,18600,2018-04-11 08:17:40,19,0,16.347,6092.2259180483,157.48032,0.3131716,1.289862246,0,0,-10.961006,153.2, -0.7, 0.8,0,1,1024,1024,1684,1024,152.6,-25.8,97,4.137,4.134,4.144,4.126,0,0,16.918,87.71,6,P-GPS,
0.0805135645221408,36.8784524446887,6093.8663380483,159.12074,0,0.33737861972,18700,2018-04-11 08:17:40,19,0,16.427,6093.8663380483,159.12074,0.3131716,1.289862246,0,0,-10.961006,153.2, -0.7, 1.1,0,1,1024,1024,1684,1024,152.6,-25.8,97,4.132,4.131,4.142,4.124,0,0,16.96,87.71,6,P-GPS,
0.0805135706111982,36.8784523987142,6095.5067580483,160.76116,0,0.320501650676,18800,2018-04-11 08:17:40,19,0,16.427,6095.5067580483,160.76116,0.3131716,1.289862246,0,0,-10.961006,153.2, -0.8, 0.9,0,1,1024,1024,1684,1030,152.6,-25.8,97,4.132,4.131,4.142,4.124,0,0,16.96,87.71,6,P-GPS,
0.080513574998837,36.8784523579148,6097.4752620483,162.729664,0,0.305603356236,18900,2018-04-11 08:17:40,19,0,16.427,6097.4752620483,162.729664,0.3131716,1.289862246,0,0,-11.1847,153.2, -0.9, 0.5,0,1,1024,1024,1684,1031,152.6,-25.8,97,4.132,4.131,4.142,4.124,0,0,16.96,87.71,6,P-GPS,
0.0805136046423191,36.8784523087961,6099.1156820483,164.370084,0,0.285914379228,19000,2018-04-11 08:17:40,19,0,16.427,6099.1156820483,164.370084,0.3131716,1.289862246,0,0,-10.961006,153.2, -1, 0.2,0,1,1024,1024,1684,1024,152.6,-25.8,97,4.132,4.131,4.142,4.124,0,0,16.96,87.71,6,P-GPS,
0.0805136422441087,36.8784522659647,6100.7561020483,166.010504,0,0.26824639966,19100,2018-04-11 08:17:40,19,0,16.427,6100.7561020483,166.010504,0.3131716,1.289862246,0,0,-11.1847,153.3, -1.2, 0,0,1,1024,1024,1684,1024,152.6,-25.8,97,4.132,4.131,4.142,4.124,0,0,16.96,87.71,6,P-GPS,
0.0805137016702031,36.8784522395901,6102.3965220483,167.650924,0,0.256380913716,19200,2018-04-11 08:17:40,19,0,16.427,6102.3965220483,167.650924,0.3131716,1.289862246,0,0,-11.1847,153.3, -1.6, 0.6,0,1,1024,1024,1684,1024,152.6,-25.8,97,4.132,4.131,4.142,4.124,0,0,16.96,87.71,6,P-GPS,
0.0805137484960084,36.8784522265535,6104.0369420483,169.291344,0,0.251057750816,19300,2018-04-11 08:17:40,19,0,16.427,6104.0369420483,169.291344,0.3131716,1.289862246,0,0,-10.961006,153.2, -1.5, 1,0,1,1024,1024,1684,1024,152.6,-25.8,97,4.132,4.131,4.142,4.124,0,0,16.96,87.71,6,P-GPS,
0.0805137599179146,36.8784522018078,6105.6773620483,170.931764,0,0.242065624544,19400,2018-04-11 08:17:41,19,0,16.427,6105.6773620483,170.931764,0.3131716,1.289862246,0,0,-10.961006,153.3, -1.1, 0.7,0,1,1024,1024,1684,1024,152.6,-25.8,97,4.132,4.131,4.142,4.124,0,0,16.96,87.71,6,P-GPS,
0.0805137529975365,36.8784521827281,6107.3177820483,172.572184,0,0.235074154504,19500,2018-04-11 08:17:41,19,0,16.427,6107.3177820483,172.572184,0.3131716,1.289862246,0,0,-10.961006,153.3, -1.1, 0.8,0,1,1024,1024,1684,1024,152.6,-25.8,97,4.132,4.131,4.142,4.124,0,0,16.96,87.71,6,P-GPS,
0.0805137558093504,36.8784522101576,6108.9582020483,174.212604,0,0.245090559024,19600,2018-04-11 08:17:41,19,0,16.427,6108.9582020483,174.212604,0.3131716,1.289862246,0,0,-10.961006,153.3, -0.9, 0.8,0,1,1024,1024,1684,1024,152.7,-25.8,97,4.132,4.131,4.142,4.124,0,0,16.96,87.71,6,P-GPS,
0.0805137511112895,36.8784522488166,6110.5986220483,175.853024,0,0.259182094908,19700,2018-04-11 08:17:41,19,0,16.508,6110.5986220483,175.853024,0.3131716,1.289862246,0,0,-10.961006,153.3, -0.7, 1.2,0,1,1024,1024,1684,1024,152.7,-25.8,97,4.132,4.131,4.142,4.124,0,0,16.96,87.71,6,P-GPS,
0.0805137083711484,36.8784522591495,6112.2390420483,177.493444,0,0.263354995304,19800,2018-04-11 08:17:41,19,0,16.508,6112.2390420483,177.493444,0.3131716,1.289862246,0,0,-10.961006,153.3, -0.5, 1.1,0,1,1024,1024,1684,1024,152.7,-25.8,97,4.132,4.131,4.142,4.124,0,0,16.96,87.71,6,P-GPS,
0.0805136471811438,36.8784522537461,6113.8794620483,179.133864,0,0.26357776434,19900,2018-04-11 08:17:41,19,0,16.508,6113.8794620483,179.133864,0.3131716,1.289862246,0,0,-10.961006,153.3, -0.2, 0.5,0,1,1024,1024,1684,1024,152.7,-25.8,97,4.132,4.131,4.142,4.124,0,0,16.96,87.71,6,P-GPS,
0.0805135972310669,36.8784522454493,6115.5198820483,180.774284,0,0.263780520252,20000,2018-04-11 08:17:41,19,0,16.508,6115.5198820483,180.774284,0.3131716,1.289862246,0,0,-11.1847,153.3, -0.1, 0.4,0,1,1024,1024,1684,1024,152.7,-25.8,97,4.132,4.131,4.142,4.124,0,0,16.96,87.71,6,P-GPS,
0.0805135568918629,36.8784522481253,6117.1603020483,182.414704,0,0.268188000708,20100,2018-04-11 08:17:41,19,0,16.508,6117.1603020483,182.414704,0.3131716,1.289862246,0,0,-11.1847,153.2, -0.2, 0.5,0,1,1024,1024,1684,1024,152.7,-25.8,97,4.132,4.131,4.142,4.124,0,0,16.96,87.71,6,P-GPS,
0.0805134815660485,36.8784522541495,6118.8007220483,184.055124,0,0.27868111128,20200,2018-04-11 08:17:41,19,0,16.508,6118.8007220483,184.055124,0.3131716,1.289862246,0,0,-10.961006,153.3, -0.1, 0.5,0,1,1024,1024,1684,1024,152.7,-25.8,97,4.132,4.131,4.142,4.124,0,0,16.96,87.71,6,P-GPS,
0.0805134051494819,36.8784522707397,6120.4411420483,185.695544,0,0.295070219416,20300,2018-04-11 08:17:42,19,0,16.508,6120.4411420483,185.695544,0.3131716,1.289862246,0,0,-10.961006,153.3, 0.2, 0.8,0,1,1024,1024,1684,1024,152.7,-25.8,97,4.132,4.131,4.142,4.124,0,0,16.96,87.71,6,P-GPS,
0.0805133284906843,36.8784522775231,6122.0815620483,187.335964,0,0.31013288394,20400,2018-04-11 08:17:42,19,0,16.508,6122.0815620483,187.335964,0.3131716,1.289862246,0,0,-10.961006,153.3, 0.7, 0.9,0,1,1024,1024,1684,1024,152.7,-25.8,97,4.132,4.131,4.142,4.124,0,0,16.96,87.71,6,P-GPS,
0.0805132733827146,36.8784522722688,6123.7219820483,188.976384,0,0.3189304564,20500,2018-04-11 08:17:42,19,0,16.508,6123.7219820483,188.976384,0.3131716,1.289862246,0,0,-10.961006,153.3, 0.4, 0.9,0,1,1024,1024,1684,1024,152.7,-25.8,97,4.132,4.131,4.142,4.124,0,0,16.96,87.71,6,P-GPS,
0.0805132581638876,36.8784522373218,6125.3624020483,190.616804,0,0.311459655636,20600,2018-04-11 08:17:42,19,0,16.508,6125.3624020483,190.616804,0.3131716,1.289862246,0,0,-10.961006,153.2, 0.1, 0.3,0,1,1024,1024,1684,1024,152.7,-25.8,97,4.132,4.131,4.142,4.124,0,0,16.96,87.71,6,P-GPS,
0.0805132499133761,36.8784522055351,6127.0028220483,192.257224,0,0.303830718384,20700,2018-04-11 08:17:42,19,0,16.454,6127.0028220483,192.257224,0.3131716,1.289862246,0,0,-11.1847,153.3, -0.4, 0.2,0,1,1024,1024,1684,1024,152.7,-25.8,97,4.128,4.125,4.136,4.119,0,0,17.126,87.71,6,P-GPS,
0.0805132314977101,36.8784521832356,6128.6432420483,193.897644,0,0.301509524084,20800,2018-04-11 08:17:42,19,0,16.454,6128.6432420483,193.897644,0.3131716,1.289862246,0,0,-11.1847,153.2, -0.4, 0,0,1,1024,1024,1684,1024,152.7,-25.8,97,4.128,4.125,4.136,4.119,0,0,17.126,87.71,6,P-GPS,
0.0805131987812524,36.8784521821092,6130.2836620483,195.538064,0,0.308803159488,20900,2018-04-11 08:17:42,19,0,16.454,6130.2836620483,195.538064,0.3131716,1.289862246,0,0,-11.1847,153.2, 0, 0,0,1,1024,1024,1684,1024,152.7,-25.8,97,4.128,4.125,4.136,4.119,0,0,17.126,87.71,6,P-GPS,
0.0805131530329681,36.8784522058845,6131.9240820483,197.178484,0,0.326314971072,21000,2018-04-11 08:17:42,19,0,16.454,6131.9240820483,197.178484,0.3131716,1.289862246,0,0,-11.1847,153.2, 0.3, 0.3,0,1,1024,1024,1684,1024,152.8,-25.8,97,4.128,4.125,4.136,4.119,0,0,17.126,87.71,6,P-GPS,
0.080513117122114,36.8784522382359,6133.5645020483,198.818904,0,0.3438484362,21100,2018-04-11 08:17:42,19,0,16.454,6133.5645020483,198.818904,0.3131716,1.289862246,0,0,-11.1847,153.3, 0.4, 0.8,0,1,1024,1024,1684,1024,152.8,-25.8,97,4.128,4.125,4.136,4.119,0,0,17.126,87.71,6,P-GPS,
0.0805130857405732,36.8784522602297,6135.5330060483,200.787408,0,0.35749016892,21200,2018-04-11 08:17:42,19,0,16.454,6135.5330060483,200.787408,0.3131716,1.289862246,0,0,-11.1847,153.3, 0.4, 0.9,0,1,1024,1024,1684,1024,152.8,-25.8,97,4.128,4.125,4.136,4.119,0,0,17.126,87.71,6,P-GPS,
0.0805130352115845,36.8784522954382,6138.8138460483,204.068248,0,0.37945211188,21400,2018-04-11 08:17:43,19,0,16.454,6138.8138460483,204.068248,0.3131716,1.289862246,0,0,-11.1847,153.3, -0.1, 1,0,1,1024,1024,1684,1024,152.8,-25.8,97,4.128,4.125,4.136,4.119,0,0,17.126,87.71,6,P-GPS,
0.0805130139449201,36.8784523170752,6140.4542660483,205.708668,0,0.3905183852,21500,2018-04-11 08:17:43,19,0,16.454,6140.4542660483,205.708668,0.3131716,1.289862246,0,0,-11.1847,153.3, -0.1, 0.9,0,1,1024,1024,1684,1024,152.8,-25.8,97,4.128,4.125,4.136,4.119,0,0,17.126,87.71,6,P-GPS,
0.080512998853926,36.8784523256115,6142.0946860483,207.349088,0,0.39656825416,21600,2018-04-11 08:17:43,19,0,16.454,6142.0946860483,207.349088,0.3131716,1.289862246,0,0,-11.1847,153.3, -0.3, 0.7,0,1,1024,1024,1684,1024,152.8,-25.8,97,4.128,4.125,4.136,4.119,0,0,17.126,87.71,6,P-GPS,
0.0805129878285459,36.8784523300121,6143.7351060483,208.989508,0,0.400508543,21700,2018-04-11 08:17:43,19,0,16.347,6143.7351060483,208.989508,0.3131716,1.289862246,0,0,-11.1847,153.3, -0.5, 0.6,0,1,1024,1024,1684,1024,152.8,-25.8,97,4.123,4.121,4.132,4.113,0,0,17.446,87.71,6,P-GPS,
0.080512972233752,36.8784523363047,6145.3755260483,210.629928,0,0.40611221772,21800,2018-04-11 08:17:43,19,0,16.347,6145.3755260483,210.629928,0.3131716,1.289862246,0,0,-11.1847,153.3, -0.2, 0.7,0,1,1024,1024,1684,1024,152.8,-25.8,97,4.123,4.121,4.132,4.113,0,0,17.446,87.71,6,P-GPS,
0.0805129472169846,36.8784523460448,6147.0159460483,212.270348,0,0.41504594504,21900,2018-04-11 08:17:43,19,0,16.347,6147.0159460483,212.270348,0.3131716,1.289862246,0,0,-11.1847,153.2, 0, 0.6,0,1,1024,1024,1684,1024,152.8,-25.8,97,4.123,4.121,4.132,4.113,0,0,17.446,87.71,6,P-GPS,
0.080512897161466,36.8784523206796,6148.6563660483,213.910768,0,0.42178807124,22000,2018-04-11 08:17:43,19,0,16.347,6148.6563660483,213.910768,0.3131716,1.289862246,0,0,-11.1847,153.2, 0.4, 0.5,0,1,1024,1024,1684,1024,152.8,-25.8,97,4.123,4.121,4.132,4.113,0,0,17.446,87.71,6,P-GPS,
0.0805128519283806,36.8784522984399,6150.2967860483,215.551188,0,0.42879266464,22100,2018-04-11 08:17:43,19,0,16.347,6150.2967860483,215.551188,0.3131716,1.289862246,0,0,-10.961006,153.3, 0.5, 0.7,0,1,1024,1024,1684,1024,152.8,-25.8,97,4.123,4.121,4.132,4.113,0,0,17.446,87.71,6,P-GPS,
0.0805128312921276,36.8784522968383,6151.9372060483,217.191608,0,0.43418964644,22200,2018-04-11 08:17:43,19,0,16.347,6151.9372060483,217.191608,0.3131716,1.289862246,0,0,-10.961006,153.3, 0.4, 0.6,0,1,1024,1024,1684,1024,152.8,-25.8,97,4.123,4.121,4.132,4.113,0,0,17.446,87.71,6,P-GPS,
0.0805128243753117,36.8784523031077,6153.5776260483,218.832028,0,0.43759187752,22300,2018-04-11 08:17:44,19,0,16.347,6153.5776260483,218.832028,0.3131716,1.289862246,0,0,-10.961006,153.3, 0.1, 0.7,0,1,1024,1024,1684,1024,152.8,-25.8,97,4.123,4.121,4.132,4.113,0,0,17.446,87.71,6,P-GPS,
