latitude,longitude,altitude(feet),ascent(feet),speed(mph),distance(feet),time(millisecond),datetime(utc),satellites,gpslevel,voltage(v),max_altitude(feet),max_ascent(feet),max_speed(mph),max_distance(feet), xSpeed(mph), ySpeed(mph), zSpeed(mph), compass_heading(degrees), pitch(degrees), roll(degrees),isPhoto,isVideo,rc_elevator,rc_aileron,rc_throttle,rc_rudder,gimbal_heading(degrees),gimbal_pitch(degrees),battery_percent,voltageCell1,voltageCell2,voltageCell3,voltageCell4,voltageCell5,voltageCell6,current(A),battery_temperature(f),flycStateRaw,flycState,message
0.350323561728701,36.897329502201,5791.9665810122,0,0,0,0,2018-04-06 05:37:27,17,0,0,5791.9665810122,0,0,0,0,0,0,331.9, 1.7, 0.1,0,0,364,364,364,1684,336.4,0,99,4.301,4.298,4.301,4.3,0,0,0,73.31,41,Motors_Started,
0.350323561938873,36.8973295235932,5791.9665810122,0,0,0.0078051511684,100,2018-04-06 05:37:27,17,0,0,5791.9665810122,0,0,0.0078051511684,0,0,0,331.9, 1.7, 0.1,0,0,364,364,364,1684,336.4,0,99,4.301,4.298,4.301,4.3,0,0,0,73.31,41,Motors_Started,
0.350323560543805,36.8973295391286,5791.9665810122,0,0,0.0134796920324,200,2018-04-06 05:37:27,17,0,0,5791.9665810122,0,0,0.0134796920324,0,0,0,331.9, 1.7, 0.1,0,0,364,364,364,1684,336.4,0,99,4.301,4.298,4.301,4.3,0,0,0,73.31,41,Motors_Started,
0.350323562854363,36.8973295456314,5791.9665810122,0,0,0.01585055825,300,2018-04-06 05:37:27,17,0,17.204,5791.9665810122,0,0,0.01585055825,0,0,0,331.9, 1.7, 0.1,0,0,364,364,364,1684,336.4,0,99,4.301,4.298,4.301,4.3,0,0,1.482,73.31,41,Motors_Started,Setting new Return-To-Home altitude to 30m (98 ft). Setting new Maximum Flight Altitude to 150m (492 ft)
0.35032356372212,36.8973295510208,5791.9665810122,0,0,0.0178263785232,400,2018-04-06 05:37:27,17,0,17.204,5791.9665810122,0,0,0.0178263785232,0,0,0,331.8, 1.7, 0.1,0,0,364,364,364,1684,336.4,0,99,4.301,4.298,4.301,4.3,0,0,1.482,73.31,41,Motors_Started,
0.350323567143278,36.897329548044,5791.9665810122,0,0,0.0168417328224,500,2018-04-06 05:37:27,17,0,17.204,5791.9665810122,0,0,0.0178263785232,0,0,0,331.9, 1.7, 0.1,0,0,364,364,364,1684,336.4,0,99,4.301,4.298,4.301,4.3,0,0,1.482,73.31,41,Motors_Started,
0.350323568492138,36.8973295468487,5791.9665810122,0,0,0.0164751973776,600,2018-04-06 05:37:27,17,0,17.204,5791.9665810122,0,0,0.0178263785232,0,0,0,331.8, 1.7, 0.1,0,0,364,364,364,1684,336.4,0,99,4.301,4.298,4.301,4.3,0,0,1.482,73.31,41,Motors_Started,
0.35032359996192,36.8973295399829,5791.9665810122,0,0,0.0196111226748,700,2018-04-06 05:37:28,17,0,17.204,5791.9665810122,0,0,0.0196111226748,0,0,0,331.9, 1.7, 0.1,0,0,364,364,364,1684,336.4,0,99,4.301,4.298,4.301,4.3,0,0,1.482,73.31,41,Motors_Started,
0.350323631017772,36.8973295353082,5791.9665810122,0,0,0.0280175205816,800,2018-04-06 05:37:28,17,0,17.204,5791.9665810122,0,0,0.0280175205816,0,0,0,331.8, 1.8, 0,0,0,364,364,364,1684,336.4,0,99,4.301,4.298,4.301,4.3,0,0,1.482,73.31,41,Motors_Started,
0.35032363396953,36.8973295265935,5791.9665810122,0,0,0.0278189313364,900,2018-04-06 05:37:28,17,0,17.204,5791.9665810122,0,0,0.0280175205816,0,0,0,331.9, 1.8, 0,0,0,364,364,364,1684,336.4,0,99,4.301,4.298,4.301,4.3,0,0,1.482,73.31,41,Motors_Started,
0.350323623189842,36.8973295215462,5791.9665810122,0,0,0.0235085637444,1000,2018-04-06 05:37:28,17,0,17.204,5791.9665810122,0,0,0.0280175205816,0,0,0,331.8, 1.8, 0,0,0,364,364,364,1684,336.4,0,99,4.301,4.298,4.301,4.3,0,0,1.482,73.31,41,Motors_Started,
0.350323640563304,36.8973295141275,5791.9665810122,0,0,0.0290900271776,1100,2018-04-06 05:37:28,17,0,17.204,5791.9665810122,0,0,0.0290900271776,0,0,0,331.8, 1.8, 0.1,0,0,364,364,364,1684,336.4,0,99,4.301,4.298,4.301,4.3,0,0,1.482,73.31,41,Motors_Started,
0.350323664547231,36.8973295093328,5791.9665810122,0,0,0.03760334766,1200,2018-04-06 05:37:28,17,0,17.204,5791.9665810122,0,0,0.03760334766,0,0,0,331.8, 1.8, 0,0,0,364,364,364,1684,336.4,0,99,4.301,4.298,4.301,4.3,0,0,1.482,73.31,41,Motors_Started,
0.350323683286957,36.8973295033112,5791.9665810122,0,0,0.044352363624,1300,2018-04-06 05:37:28,17,0,17.176,5791.9665810122,0,0,0.044352363624,0,0,0,331.8, 1.8, 0,0,0,364,364,364,1684,336.4,0,99,4.301,4.297,4.301,4.3,0,0,1.49,73.31,41,Motors_Started,
0.350323696560404,36.8973294987623,5791.9665810122,0,0,0.04920931916,1400,2018-04-06 05:37:28,17,0,17.176,5791.9665810122,0,0,0.04920931916,0,0,0,331.8, 1.9, 0,0,0,364,364,364,1684,336.4,0,99,4.301,4.297,4.301,4.3,0,0,1.49,73.31,41,Motors_Started,
0.350323704550161,36.8973294946506,5791.9665810122,0,0,0.052181104032,1500,2018-04-06 05:37:28,17,0,17.176,5791.9665810122,0,0,0.052181104032,0,0,0,331.9, 1.8, 0,0,0,364,364,364,1684,336.3,0,99,4.301,4.297,4.301,4.3,0,0,1.49,73.31,10,Assisted_Takeoff,
0.350323712695434,36.8973294915256,5791.9665810122,0,0,0.055217521452,1600,2018-04-06 05:37:29,17,0,17.176,5791.9665810122,0,0,0.055217521452,0,0,0,331.8, 1.8, 0,0,0,364,364,364,1684,336.4,0,99,4.301,4.297,4.301,4.3,0,0,1.49,73.31,10,Assisted_Takeoff,
0.350323713469352,36.8973294893474,5791.9665810122,0,0,0.055560697316,1700,2018-04-06 05:37:29,17,0,17.176,5791.9665810122,0,0,0.055560697316,0,0,0,331.9, 1.8, 0.1,0,0,364,364,364,1670,336.4,0,99,4.301,4.297,4.301,4.3,0,0,1.49,73.31,10,Assisted_Takeoff,
0.350323716550368,36.8973294867293,5791.9665810122,0,0,0.056768046436,1800,2018-04-06 05:37:29,17,0,17.176,5791.9665810122,0,0,0.056768046436,0,0,0,331.8, 1.8, 0,0,0,364,364,386,1641,336.4,0,99,4.301,4.297,4.301,4.3,0,0,1.49,73.31,10,Assisted_Takeoff,
0.350323714316143,36.897329485239,5791.9665810122,0,0,0.056014437488,1900,2018-04-06 05:37:29,17,0,17.176,5791.9665810122,0,0,0.056768046436,0,0,0,331.9, 1.8, 0.1,0,0,364,364,429,1586,336.3,0,99,4.301,4.297,4.301,4.3,0,0,1.49,73.31,10,Assisted_Takeoff,
0.35032371341826,36.8973294829876,5791.9665810122,0,0,0.055786091024,2000,2018-04-06 05:37:29,17,0,17.176,5791.9665810122,0,0,0.056768046436,0,0,0,331.8, 1.8, 0,0,0,369,364,510,1504,336.3,0,99,4.301,4.297,4.301,4.3,0,0,1.49,73.31,10,Assisted_Takeoff,
0.350323710102951,36.8973294824458,5791.9665810122,0,0,0.054611878388,2100,2018-04-06 05:37:29,17,0,17.176,5791.9665810122,0,0,0.056768046436,0,0,0,331.8, 1.8, 0.1,0,0,517,439,646,1344,336.1,0,99,4.301,4.297,4.301,4.3,0,0,1.49,73.31,10,Assisted_Takeoff,
0.350323707636062,36.8973294813496,5791.9665810122,0,0,0.053774936104,2200,2018-04-06 05:37:29,17,0,17.176,5791.9665810122,0,0,0.056768046436,0,0,0,331.8, 1.8, 0.1,0,0,1036,1258,1104,984,335.6,0,99,4.301,4.297,4.301,4.3,0,0,1.49,73.31,10,Assisted_Takeoff,
0.35032370430508,36.8973294827504,5791.9665810122,0,0,0.052500657848,2300,2018-04-06 05:37:29,17,0,17.176,5791.9665810122,0,0,0.056768046436,0,0,0,331.8, 1.8, 0.1,0,0,1024,1061,1024,1024,334.9,0,99,4.301,4.297,4.301,4.3,0,0,1.49,73.31,10,Assisted_Takeoff,
0.350323699945125,36.8973294837193,5791.9665810122,0,0,0.050876970132,2400,2018-04-06 05:37:29,17,0,17.176,5791.9665810122,0,0,0.056768046436,0,0,0,331.8, 1.8, 0.1,0,0,1024,1024,1024,1024,333.8,0,99,4.301,4.297,4.301,4.3,0,0,1.49,73.31,10,Assisted_Takeoff,
0.350323725273332,36.8973294859558,5791.9665810122,0,0,0.059962928428,2500,2018-04-06 05:37:29,17,0,17.176,5791.9665810122,0,0,0.059962928428,0,0,0,331.8, 1.8, 0.1,0,0,1024,1024,1024,1024,333.3,0,99,4.301,4.297,4.301,4.3,0,0,1.49,73.31,10,Assisted_Takeoff,
0.350323750837867,36.8973294874616,5791.9665810122,0,0,0.069205710876,2600,2018-04-06 05:37:29,17,0,17.176,5791.9665810122,0,0,0.069205710876,0,0,0,331.8, 1.7, 0.1,0,0,1024,1024,1024,1024,333,0,99,4.301,4.297,4.301,4.3,0,0,1.49,73.31,10,Assisted_Takeoff,
0.350323778188806,36.8973294899352,5791.9665810122,0,0,0.079102036652,2700,2018-04-06 05:37:30,17,0,17.176,5791.9665810122,0,0,0.079102036652,0,0,0,331.8, 1.7, 0.1,0,0,1024,1024,1024,1024,332.8,0,99,4.301,4.297,4.301,4.3,0,0,1.49,73.31,10,Assisted_Takeoff,
0.350323792965306,36.8973294912274,5791.9665810122,0,0,0.084461616876,2800,2018-04-06 05:37:30,17,0,17.176,5791.9665810122,0,0,0.084461616876,0,0,0,331.8, 1.7, 0.1,0,0,1024,1024,1024,1024,332.7,0,99,4.301,4.297,4.301,4.3,0,0,1.49,73.31,10,Assisted_Takeoff,
0.350323805510228,36.8973294931914,5791.9665810122,0,0,0.08900426794,2900,2018-04-06 05:37:30,17,0,17.176,5791.9665810122,0,0,0.08900426794,0,0,0,331.8, 1.7, 0.1,0,0,1024,1024,1024,1024,332.6,0,99,4.301,4.297,4.301,4.3,0,0,1.49,73.31,10,Assisted_Takeoff,
0.350323814433084,36.8973294944778,5791.9665810122,0,0,0.092242128936,3000,2018-04-06 05:37:30,17,0,17.176,5791.9665810122,0,0,0.092242128936,0,0,0,331.8, 1.7, 0.1,0,0,1024,1024,1024,1024,332.6,0,99,4.301,4.297,4.301,4.3,0,0,1.49,73.31,10,Assisted_Takeoff,
0.350323818494219,36.8973294956238,5791.9665810122,0,0,0.093711617172,3100,2018-04-06 05:37:30,17,0,17.176,5791.9665810122,0,0,0.093711617172,0,0,0,331.8, 1.7, 0.1,0,0,1024,1024,1024,1024,332.5,0,99,4.301,4.297,4.301,4.3,0,0,1.49,73.31,10,Assisted_Takeoff,
0.350323822685631,36.8973294965049,5791.9665810122,0,0,0.095232614596,3200,2018-04-06 05:37:30,17,0,17.176,5791.9665810122,0,0,0.095232614596,0,0,0,331.8, 1.7, 0.1,0,0,1024,1024,1024,1024,332.5,0,99,4.301,4.297,4.301,4.3,0,0,1.49,73.31,10,Assisted_Takeoff,
0.350323822847661,36.8973294971783,5791.9665810122,0,0,0.095286748456,3300,2018-04-06 05:37:30,17,0,17.176,5791.9665810122,0,0,0.095286748456,0,0,0,331.8, 1.7, 0.1,0,0,1024,1024,1024,1024,332.4,0,99,4.262,4.279,4.274,4.269,0,0,3.17,75.11,10,Assisted_Takeoff,
0.350323824110316,36.8973294973191,5791.9665810122,0,0,0.09574639414,3400,2018-04-06 05:37:30,17,0,17.176,5791.9665810122,0,0,0.09574639414,0,0,0,331.8, 1.7, 0.1,0,0,1024,1024,1024,1024,332.4,0,99,4.262,4.279,4.274,4.269,0,0,3.17,75.11,10,Assisted_Takeoff,
0.350323823281641,36.8973294974401,5791.9665810122,0,0,0.095443244524,3500,2018-04-06 05:37:30,17,0,17.176,5791.9665810122,0,0,0.09574639414,0,0,0,331.8, 1.7, 0.1,0,0,1024,1024,1024,1024,332.4,0,99,4.262,4.279,4.274,4.269,0,0,3.17,75.11,10,Assisted_Takeoff,
0.350323823177828,36.8973294974508,5791.9665810122,0,0,0.09540518678,3600,2018-04-06 05:37:31,17,0,17.176,5791.9665810122,0,0,0.09574639414,0,0,0,331.8, 1.7, 0.1,0,0,1024,1024,1059,1024,332.3,0,99,4.262,4.279,4.274,4.269,0,0,3.17,75.11,10,Assisted_Takeoff,
0.350323821222067,36.8973294978046,5791.9665810122,0,0,0.094689635576,3700,2018-04-06 05:37:31,17,0,17.176,5791.9665810122,0,0,0.09574639414,0,0,0,331.8, 1.7, 0.1,0,0,1024,1024,1143,1024,332.3,0,99,4.262,4.279,4.274,4.269,0,0,3.17,75.11,10,Assisted_Takeoff,
0.350323821654622,36.8973294985744,5791.9665810122,0,0,0.094843178888,3800,2018-04-06 05:37:31,17,0,17.176,5791.9665810122,0,0,0.09574639414,0,0,0,331.8, 1.7, 0.1,0,0,1024,1024,1200,1024,332.3,0,99,4.262,4.279,4.274,4.269,0,0,3.17,75.11,10,Assisted_Takeoff,
0.350323849008817,36.8973294991836,5791.9665810122,0,0,0.104819885244,3900,2018-04-06 05:37:31,17,0,17.176,5791.9665810122,0,0,0.104819885244,0,0,0,331.8, 1.7, 0.1,0,0,1024,1024,1239,1024,332.3,0,99,4.262,4.279,4.274,4.269,0,0,3.17,75.11,10,Assisted_Takeoff,
0.350323879675064,36.8973295000518,5791.9665810122,0,0,0.116005253056,4000,2018-04-06 05:37:31,17,0,17.176,5791.9665810122,0,0,0.116005253056,0,0,0,331.8, 1.7, 0.1,0,0,1024,1024,1284,1024,332.3,0,99,4.262,4.279,4.274,4.269,0,0,3.17,75.11,10,Assisted_Takeoff,
0.350323880815585,36.8973295008216,5791.9665810122,0,0,0.116419623148,4100,2018-04-06 05:37:31,17,0,17.176,5791.9665810122,0,0,0.116419623148,0,0,0,331.8, 1.4, 0.3,0,0,1024,1024,1340,1024,332.2,0,99,4.262,4.279,4.274,4.269,0,0,3.17,75.11,10,Assisted_Takeoff,
0.35032387920078,36.8973295026662,5791.9665810122,0,0,0.115829728116,4200,2018-04-06 05:37:31,17,0,17.176,5791.9665810122,0,0,0.116419623148,0,0,0,331.7, 1, 0.5,0,0,1024,1024,1414,1024,332.2,0,99,4.262,4.279,4.274,4.269,0,0,3.17,75.11,10,Assisted_Takeoff,
0.350323906326789,36.8973295049321,5791.9665810122,0,0,0.125730318984,4300,2018-04-06 05:37:31,17,0,17.121,5791.9665810122,0,0,0.125730318984,0,0,0,331.7, 0.4, 0.9,0,0,1024,1024,1443,1024,332.2,0,99,4.292,4.29,4.292,4.291,0,0,2.206,75.11,10,Assisted_Takeoff,
0.35032395810113,36.8973295119777,5791.9665810122,0,0,0.144660109616,4400,2018-04-06 05:37:31,17,0,17.121,5791.9665810122,0,0,0.144660109616,0,0,0,331.6, -0.2, 0.2,0,0,1024,1024,1436,1024,332.2,0,99,4.292,4.29,4.292,4.291,0,0,2.206,75.11,10,Assisted_Takeoff,
0.350324024100541,36.8973295366748,5791.9665810122,0,0.223694,0.169164375492,4500,2018-04-06 05:37:31,17,0,17.121,5791.9665810122,0,0.223694,0.169164375492,0.223694,0,-0.447388,331.6, -0.3, -0.5,0,0,1024,1024,1436,1024,332.2,0,99,4.292,4.29,4.292,4.291,0,0,2.206,75.11,6,P-GPS,
0.350324113005237,36.8973295287743,5791.9665810122,0,0.223694,0.20136647626,4600,2018-04-06 05:37:31,17,0,17.121,5791.9665810122,0,0.223694,0.20136647626,0.223694,0,-1.11847,331.5, 0.2, -0.7,0,0,1024,1024,1432,1024,332.2,0,99,4.292,4.29,4.292,4.291,0,0,2.206,75.11,6,P-GPS,
0.350324223736172,36.8973294472462,5792.2946650122,0.328084,0.223694,0.2423638529,4700,2018-04-06 05:37:32,17,0,17.121,5792.2946650122,0.328084,0.223694,0.2423638529,0.223694,0,-1.789552,331.5, 1, -0.3,0,0,1024,1024,1430,1024,332.2,0,99,4.292,4.29,4.292,4.291,0,0,2.206,75.11,6,P-GPS,
0.350324346430267,36.8973293266108,5792.6227490122,0.656168,0.3131716,0.29337763406,4800,2018-04-06 05:37:32,17,0,17.121,5792.6227490122,0.656168,0.3131716,0.29337763406,0.223694,-0.223694,-2.684328,331.5, 1.5, 0,0,0,1024,1024,1416,1024,332.2,0,99,4.292,4.29,4.292,4.291,0,0,2.206,75.11,6,P-GPS,
0.350324473172471,36.8973291833087,5792.9508330122,0.984252,0.3131716,0.35230644172,4900,2018-04-06 05:37:32,16,0,17.121,5792.9508330122,0.984252,0.3131716,0.35230644172,0.223694,-0.223694,-3.35541,331.5, 1.9, 0.7,0,0,1024,1024,1414,1024,332.1,0,99,4.292,4.29,4.292,4.291,0,0,2.206,75.11,6,P-GPS,
0.350324606777751,36.8973290491287,5793.6070010122,1.64042,0.3131716,0.41557416028,5000,2018-04-06 05:37:32,16,0,17.121,5793.6070010122,1.64042,0.3131716,0.41557416028,0.223694,-0.223694,-4.026492,331.6, 2.5, 0.8,0,0,1024,1024,1403,1024,332.1,0,99,4.292,4.29,4.292,4.291,0,0,2.206,75.11,6,P-GPS,
0.350324755602469,36.8973289644444,5794.2631690122,2.296588,0.223694,0.47772967408,5100,2018-04-06 05:37:32,17,0,17.121,5794.2631690122,2.296588,0.3131716,0.47772967408,0.223694,0,-4.47388,331.6, 2.9, 0.6,0,0,1024,1024,1395,1024,332.1,0,99,4.292,4.29,4.292,4.291,0,0,2.206,75.11,6,P-GPS,
0.350324890936547,36.8973289019756,5794.9193370122,2.952756,0.223694,0.53211287792,5200,2018-04-06 05:37:32,17,0,17.121,5794.9193370122,2.952756,0.3131716,0.53211287792,0.223694,0,-4.921268,331.7, 2.7, 0.5,0,0,1024,1024,1386,1024,332.1,0,99,4.292,4.29,4.292,4.291,0,0,2.206,75.11,6,P-GPS,
0.350324998744425,36.8973288556011,5795.5755050122,3.608924,0.223694,0.57492455908,5300,2018-04-06 05:37:32,16,0,17.149,5795.5755050122,3.608924,0.3131716,0.57492455908,0,0,-5.144962,331.7, 2.5, 0.4,0,0,1024,1024,1374,1024,332.1,0,99,4.292,4.29,4.292,4.291,0,0,4.806,75.11,6,P-GPS,
0.350325102993135,36.8973288061765,5796.2316730122,4.265092,0.223694,0.61700789376,5400,2018-04-06 05:37:32,16,0,17.149,5796.2316730122,4.265092,0.3131716,0.61700789376,0.223694,0,-5.144962,331.7, 2.5, 0.3,0,0,1024,1024,1363,1024,332.1,0,99,4.292,4.29,4.292,4.291,0,0,4.806,75.11,6,P-GPS,Home Point Recorded. RTH Altitude:  30m.
0.350325224718509,36.8973287779277,5797.2159250122,5.249344,0.223694,0.66178479808,5500,2018-04-06 05:37:32,17,0,17.149,5797.2159250122,5.249344,0.3131716,0.66178479808,0.223694,0,-5.144962,331.7, 2.7, 0,0,0,1024,1024,1367,1024,332.1,0,99,4.292,4.29,4.292,4.291,0,0,4.806,75.11,6,P-GPS,
0.350325341686385,36.8973287390265,5797.8720930122,5.905512,0,0.70659122996,5600,2018-04-06 05:37:33,17,0,17.149,5797.8720930122,5.905512,0.3131716,0.70659122996,0,0,-4.921268,331.7, 3, 0,0,0,1024,1024,1362,1024,332.1,0,99,4.292,4.29,4.292,4.291,0,0,4.806,75.11,6,P-GPS,
0.350325431702698,36.8973286988095,5798.5282610122,6.56168,0,0.74255907888,5700,2018-04-06 05:37:33,17,0,17.149,5798.5282610122,6.56168,0.3131716,0.74255907888,0,0,-4.697574,331.7, 2.9, 0.1,0,0,1024,1024,1360,1024,332.1,0,99,4.292,4.29,4.292,4.291,0,0,4.806,75.11,6,P-GPS,
0.350325497991768,36.8973286393475,5799.1844290122,7.217848,0,0.77341209824,5800,2018-04-06 05:37:33,17,0,17.149,5799.1844290122,7.217848,0.3131716,0.77341209824,0,0,-4.47388,331.6, 2.8, 0.6,0,0,1024,1024,1361,1024,332.1,0,99,4.292,4.29,4.292,4.291,0,0,4.806,75.11,6,P-GPS,
0.350325519242147,36.897328552005,5799.8405970122,7.874016,0,0.79388782068,5900,2018-04-06 05:37:33,17,0,17.149,5799.8405970122,7.874016,0.3131716,0.79388782068,0,0,-4.47388,331.6, 2.6, 1,0,0,1024,1024,1364,1024,332.1,0,99,4.292,4.29,4.292,4.291,0,0,4.806,75.11,6,P-GPS,
0.350325532762711,36.8973284531857,5800.4967650122,8.530184,0,0.814632572,6000,2018-04-06 05:37:33,17,0,17.149,5800.4967650122,8.530184,0.3131716,0.814632572,0,0,-4.250186,331.6, 2.4, 1.4,0,0,1024,1024,1367,1024,332.1,0,99,4.292,4.29,4.292,4.291,0,0,4.806,75.11,6,P-GPS,
0.35032553981428,36.8973283629113,5801.1529330122,9.186352,0,0.83284451484,6100,2018-04-06 05:37:33,17,0,17.149,5801.1529330122,9.186352,0.3131716,0.83284451484,0,0,-4.250186,331.6, 2.7, 1.9,0,0,1024,1024,1366,1024,332.1,0,99,4.292,4.29,4.292,4.291,0,0,4.806,75.11,6,P-GPS,
0.350325571272562,36.8973282912439,5801.8091010122,9.84252,0,0.85600724524,6200,2018-04-06 05:37:33,17,0,17.149,5801.8091010122,9.84252,0.3131716,0.85600724524,0,0,-4.026492,331.6, 2.7, 1.7,0,0,1024,1024,1363,1024,332.1,0,99,4.292,4.29,4.292,4.291,0,0,4.806,75.11,6,P-GPS,
0.350325615986784,36.8973282004809,5802.4652690122,10.498688,0,0.88729661632,6300,2018-04-06 05:37:33,17,0,16.409,5802.4652690122,10.498688,0.3131716,0.88729661632,0,0,-4.026492,331.6, 2.7, 1.5,0,0,1024,1024,1364,1024,332.1,0,99,4.264,4.249,4.254,4.253,0,0,4.806,75.11,6,P-GPS,
0.35032567755988,36.8973281218787,5803.1214370122,11.154856,0,0.9217027854,6400,2018-04-06 05:37:33,17,0,16.409,5803.1214370122,11.154856,0.3131716,0.9217027854,0,0,-4.026492,331.5, 3, 0.2,0,0,1024,1024,1365,1024,332.1,0,99,4.264,4.249,4.254,4.253,0,0,4.806,75.11,6,P-GPS,
0.350325700189959,36.8973280497713,5803.7776050122,11.811024,0,0.94315291732,6500,2018-04-06 05:37:33,17,0,16.409,5803.7776050122,11.811024,0.3131716,0.94315291732,0,0,-4.026492,331.5, 3.2, 0.3,0,0,1024,1024,1361,1024,332.1,0,99,4.264,4.249,4.254,4.253,0,0,4.806,75.11,6,P-GPS,
0.35032570366058,36.8973279698454,5804.4337730122,12.467192,0,0.96086945332,6600,2018-04-06 05:37:33,17,0,16.409,5804.4337730122,12.467192,0.3131716,0.96086945332,0,0,-4.026492,331.5, 3.1, 0.7,0,0,1024,1024,1362,1024,332.1,0,99,4.264,4.249,4.254,4.253,0,0,4.806,75.11,6,P-GPS,
0.350325691174079,36.8973278827036,5805.0899410122,13.12336,0,0.97607942756,6700,2018-04-06 05:37:33,17,0,16.409,5805.0899410122,13.12336,0.3131716,0.97607942756,0,0,-4.026492,331.5, 2.6, 1.9,0,0,1024,1024,1362,1024,332.1,0,99,4.264,4.249,4.254,4.253,0,0,4.806,75.11,6,P-GPS,
0.350325697524603,36.8973277908678,5805.4180250122,13.451444,0,0.99852693484,6800,2018-04-06 05:37:34,17,0,16.409,5805.4180250122,13.451444,0.3131716,0.99852693484,0,0,-4.026492,331.6, 2.6, 2.5,0,0,1024,1024,1386,1024,332.1,0,99,4.264,4.249,4.254,4.253,0,0,4.806,75.11,6,P-GPS,
0.350325716953162,36.8973276936185,5806.0741930122,14.107612,0,1.0265092192,6900,2018-04-06 05:37:34,17,0,16.409,5806.0741930122,14.107612,0.3131716,1.0265092192,0,0,-4.250186,331.6, 3.2, 2.3,0,0,1024,1024,1408,1024,332.1,0,99,4.264,4.249,4.254,4.253,0,0,4.806,75.11,6,P-GPS,
0.350325761415789,36.8973276068702,5806.7303610122,14.76378,0,1.05937011264,7000,2018-04-06 05:37:34,17,0,16.409,5806.7303610122,14.76378,0.3131716,1.05937011264,0,0,-4.250186,331.6, 3.3, 1.6,0,0,1024,1024,1421,1024,332.1,0,99,4.264,4.249,4.254,4.253,0,0,4.806,75.11,6,P-GPS,
0.350325826643521,36.8973275227678,5807.3865290122,15.419948,0,1.09745410336,7100,2018-04-06 05:37:34,17,0,16.409,5807.3865290122,15.419948,0.3131716,1.09745410336,0,0,-4.47388,331.6, 3.4, 1.5,0,0,1024,1024,1429,1024,332,0,99,4.264,4.249,4.254,4.253,0,0,4.806,75.11,6,P-GPS,
0.350325903434019,36.8973274388801,5808.0426970122,16.076116,0,1.13870082384,7200,2018-04-06 05:37:34,17,0,16.409,5808.0426970122,16.076116,0.3131716,1.13870082384,0,0,-4.697574,331.6, 3.5, 2.2,0,0,1024,1024,1426,1024,332,0,99,4.264,4.249,4.254,4.253,0,0,4.806,75.11,6,P-GPS,
0.350325990546409,36.8973273898762,5808.6988650122,16.732284,0,1.17438980136,7300,2018-04-06 05:37:34,17,0,16.573,5808.6988650122,16.732284,0.3131716,1.17438980136,0,0,-4.921268,331.7, 3.5, 2,0,0,1024,1024,1445,1024,332,0,99,4.156,4.157,4.15,4.16,0,0,16.39,75.11,6,P-GPS,
0.350326101933607,36.897327362831,5809.6831170122,17.716536,0.223694,1.21168310964,7400,2018-04-06 05:37:34,17,0,16.573,5809.6831170122,17.716536,0.3131716,1.21168310964,0.223694,0,-5.144962,331.7, 3.9, 1.3,0,0,1024,1024,1465,1024,332,0,99,4.156,4.157,4.15,4.16,0,0,16.39,75.11,6,P-GPS,
0.350326211691139,36.8973273284443,5810.3392850122,18.372704,0.223694,1.25049872768,7500,2018-04-06 05:37:34,17,0,16.573,5810.3392850122,18.372704,0.3131716,1.25049872768,0.223694,0,-5.368656,331.7, 4.1, 0.4,0,0,1024,1024,1469,1024,332,0,99,4.156,4.157,4.15,4.16,0,0,16.39,75.11,6,P-GPS,
0.350326328872748,36.8973272836387,5811.3235370122,19.356956,0,1.29400266608,7600,2018-04-06 05:37:35,17,0,16.573,5811.3235370122,19.356956,0.3131716,1.29400266608,0,0,-5.59235,331.7, 4.8, 0.1,0,0,1024,1024,1470,1024,332,0,99,4.156,4.157,4.15,4.16,0,0,16.39,75.11,6,P-GPS,
0.35032642638601,36.8973272509729,5811.9797050122,20.013124,0,1.32927825776,7700,2018-04-06 05:37:35,17,0,16.573,5811.9797050122,20.013124,0.3131716,1.32927825776,0,0,-5.816044,331.7, 5.1, 0,0,0,1024,1024,1471,1024,332,0,99,4.156,4.157,4.15,4.16,0,0,16.39,75.11,6,P-GPS,
0.35032650690076,36.8973272092036,5812.9639570122,20.997376,0,1.36180778636,7800,2018-04-06 05:37:35,17,0,16.573,5812.9639570122,20.997376,0.3131716,1.36180778636,0,0,-6.039738,331.7, 5.3, 1.1,0,0,1024,1024,1474,1024,332,0,99,4.156,4.157,4.15,4.16,0,0,16.39,75.11,6,P-GPS,
0.350326554040549,36.8973271595627,5813.9482090122,21.981628,0,1.38650923072,7900,2018-04-06 05:37:35,17,0,16.573,5813.9482090122,21.981628,0.3131716,1.38650923072,0,0,-6.263432,331.7, 4.9, 1.5,0,0,1024,1024,1475,1024,332,0,99,4.156,4.157,4.15,4.16,0,0,16.39,75.11,6,P-GPS,
0.350326603321743,36.8973271134829,5814.9324610122,22.96588,0,1.41103022888,8000,2018-04-06 05:37:35,17,0,16.573,5814.9324610122,22.96588,0.3131716,1.41103022888,0,0,-6.263432,331.7, 4.8, 1,0,0,1024,1024,1477,1024,332,0,99,4.156,4.157,4.15,4.16,0,0,16.39,75.11,6,P-GPS,
0.350326648720726,36.897327067505,5815.9167130122,23.950132,0,1.43442261808,8100,2018-04-06 05:37:35,17,0,16.573,5815.9167130122,23.950132,0.3131716,1.43442261808,0,0,-6.263432,331.8, 4.9, 0.7,0,0,1024,1024,1474,1024,332,0,99,4.156,4.157,4.15,4.16,0,0,16.39,75.11,6,P-GPS,
0.350326677896336,36.8973270065554,5816.5728810122,24.6063,0,1.45659125396,8200,2018-04-06 05:37:35,17,0,16.573,5816.5728810122,24.6063,0.3131716,1.45659125396,0,0,-6.487126,331.7, 4.8, 1.5,0,0,1024,1024,1472,1024,332,-0.1,99,4.156,4.157,4.15,4.16,0,0,16.39,75.11,6,P-GPS,
0.350326652892392,36.8973269418043,5817.5571330122,25.590552,0,1.4644357424,8300,2018-04-06 05:37:35,17,0,16.546,5817.5571330122,25.590552,0.3131716,1.4644357424,0,0,-6.487126,331.8, 4.6, 2.2,0,0,1024,1024,1471,1024,332,-0.5,99,4.154,4.156,4.147,4.153,0,0,13.436,75.11,6,P-GPS,
0.350326627728047,36.8973268881543,5818.5413850122,26.574804,0,1.47000004704,8400,2018-04-06 05:37:35,17,0,16.546,5818.5413850122,26.574804,0.3131716,1.47000004704,0,0,-6.263432,331.7, 4.2, 2,0,0,1024,1024,1466,1024,332,-1.5,99,4.154,4.156,4.147,4.153,0,0,13.436,75.11,6,P-GPS,
0.350326588415781,36.8973268158116,5819.5256370122,27.559056,0,1.47650267192,8500,2018-04-06 05:37:35,17,0,16.546,5819.5256370122,27.559056,0.3131716,1.47650267192,0,0,-6.487126,331.7, 4, 1.8,0,0,1024,1024,1458,1024,332,-3.2,99,4.154,4.156,4.147,4.153,0,0,13.436,75.11,6,P-GPS,
0.350326566147216,36.8973267365725,5820.5098890122,28.543308,0,1.4898622524,8600,2018-04-06 05:37:36,17,0,16.546,5820.5098890122,28.543308,0.3131716,1.4898622524,0,0,-6.263432,331.7, 4.2, 2.2,0,0,1024,1024,1444,1024,332,-5,99,4.154,4.156,4.147,4.153,0,0,13.436,75.11,6,P-GPS,
0.350326547183172,36.8973266908617,5821.4941410122,29.52756,0,1.4961614652,8700,2018-04-06 05:37:36,17,0,16.546,5821.4941410122,29.52756,0.3131716,1.4961614652,0,0,-6.263432,331.7, 4.3, 2.3,0,0,1024,1024,1441,1024,332,-6.3,99,4.154,4.156,4.147,4.153,0,0,13.436,75.11,6,P-GPS,
0.350326551176116,36.8973266534297,5822.4783930122,30.511812,0,1.5066109406,8800,2018-04-06 05:37:36,17,0,16.546,5822.4783930122,30.511812,0.3131716,1.5066109406,0,0,-6.039738,331.7, 4.8, 2.4,0,0,1024,1024,1440,1024,332,-6.3,99,4.154,4.156,4.147,4.153,0,0,13.436,75.11,6,P-GPS,
0.350326555124686,36.897326627389,5823.4626450122,31.496064,0,1.51421920856,8900,2018-04-06 05:37:36,17,0,16.546,5823.4626450122,31.496064,0.3131716,1.51421920856,0,0,-6.039738,331.7, 4.8, 2.1,0,0,1024,1024,1428,1024,332,-6.3,99,4.154,4.156,4.147,4.153,0,0,13.436,75.11,6,P-GPS,
0.350326562367598,36.8973266050007,5824.1188130122,32.152232,0,1.52178810644,9000,2018-04-06 05:37:36,17,0,16.546,5824.1188130122,32.152232,0.3131716,1.52178810644,0,0,-5.816044,331.7, 4.4, 1.5,0,0,1024,1024,1420,1024,332,-6.3,99,4.154,4.156,4.147,4.153,0,0,13.436,75.11,6,P-GPS,
0.350326524708202,36.8973265730342,5825.1030650122,33.136484,0,1.5201115972,9100,2018-04-06 05:37:36,17,0,16.546,5825.1030650122,33.136484,0.3131716,1.52178810644,0,0,-5.59235,331.7, 4.3, 1.8,0,0,1024,1024,1416,1024,332,-6.3,99,4.154,4.156,4.147,4.153,0,0,13.436,75.11,6,P-GPS,
0.350326490671687,36.8973265254633,5825.7592330122,33.792652,0,1.52362865768,9200,2018-04-06 05:37:36,17,0,16.546,5825.7592330122,33.792652,0.3131716,1.52362865768,0,0,-5.59235,331.7, 4.3, 2.4,0,0,1024,1024,1419,1024,332,-6.3,99,4.154,4.156,4.147,4.153,0,0,13.436,75.11,6,P-GPS,
0.350326457226297,36.8973264730498,5826.7434850122,34.776904,0,1.52885831664,9300,2018-04-06 05:37:36,17,0,16.437,5826.7434850122,34.776904,0.3131716,1.52885831664,0,0,-5.368656,331.7, 4, 2.5,0,0,1024,1024,1422,1024,332,-6.3,99,4.154,4.156,4.147,4.153,0,0,14.72,75.11,6,P-GPS,
0.350326455249773,36.8973264220589,5827.3996530122,35.433072,0,1.54186684724,9400,2018-04-06 05:37:36,17,0,16.437,5827.3996530122,35.433072,0.3131716,1.54186684724,0,0,-5.368656,331.7, 4.3, 2.3,0,0,1024,1024,1421,1024,332,-6.3,99,4.154,4.156,4.147,4.153,0,0,14.72,75.11,6,P-GPS,
0.350326463766942,36.8973264001034,5828.3839050122,36.417324,0,1.5498360076,9500,2018-04-06 05:37:36,17,0,16.437,5828.3839050122,36.417324,0.3131716,1.5498360076,0,0,-5.368656,331.7, 4.4, 2.4,0,0,1024,1024,1419,1024,332,-6.3,99,4.154,4.156,4.147,4.153,0,0,14.72,75.11,6,P-GPS,
0.350326487760843,36.8973263906527,5829.0400730122,37.073492,0,1.55833994488,9600,2018-04-06 05:37:37,17,0,16.437,5829.0400730122,37.073492,0.3131716,1.55833994488,0,0,-5.368656,331.7, 4.5, 2,0,0,1024,1024,1417,1024,332,-6.4,99,4.154,4.156,4.147,4.153,0,0,14.72,75.11,6,P-GPS,
0.350326507743887,36.8973263875097,5830.0243250122,38.057744,0,1.56417655924,9700,2018-04-06 05:37:37,17,0,16.437,5830.0243250122,38.057744,0.3131716,1.56417655924,0,0,-5.368656,331.7, 4.6, 1.4,0,0,1024,1024,1414,1024,332,-7.6,99,4.154,4.156,4.147,4.153,0,0,14.72,75.11,6,P-GPS,
0.35032653017326,36.8973263655424,5830.6804930122,38.713912,0,1.57562341,9800,2018-04-06 05:37:37,17,0,16.437,5830.6804930122,38.713912,0.3131716,1.57562341,0,0,-5.144962,331.8, 4.8, 1.8,0,0,1024,1024,1407,1024,332,-9.1,99,4.154,4.156,4.147,4.153,0,0,14.72,75.11,6,P-GPS,
0.350326524375999,36.8973263616181,5831.6647450122,39.698164,0,1.57521002416,9900,2018-04-06 05:37:37,17,0,16.437,5831.6647450122,39.698164,0.3131716,1.57562341,0,0,-5.144962,331.7, 4.6, 2.4,0,0,1024,1024,1405,1024,332,-10.7,99,4.154,4.156,4.147,4.153,0,0,14.72,75.11,6,P-GPS,
0.350326525535044,36.8973263669184,5832.3209130122,40.354332,0,1.57409453856,10000,2018-04-06 05:37:37,17,0,16.437,5832.3209130122,40.354332,0.3131716,1.57562341,0,0,-5.144962,331.7, 4.4, 2.7,0,0,1024,1024,1391,1024,332,-12.2,99,4.154,4.156,4.147,4.153,0,0,14.72,75.11,6,P-GPS,
0.350326490862215,36.8973263788395,5832.9770810122,41.0105,0,1.56225726784,10100,2018-04-06 05:37:37,17,0,16.437,5832.9770810122,41.0105,0.3131716,1.57562341,0,0,-4.921268,331.7, 4.1, 2.4,0,0,1024,1024,1391,1024,332,-12.7,99,4.154,4.156,4.147,4.153,0,0,14.72,75.11,6,P-GPS,
0.350326475925312,36.8973263997568,5833.6332490122,41.666668,0,1.55296264812,10200,2018-04-06 05:37:37,17,0,16.437,5833.6332490122,41.666668,0.3131716,1.57562341,0,0,-4.697574,331.7, 4.3, 1.8,0,0,1024,1024,1394,1024,332,-12.7,99,4.154,4.156,4.147,4.153,0,0,14.72,75.11,6,P-GPS,
0.350326459042826,36.8973264291179,5834.6175010122,42.65092,0,1.54093836952,10300,2018-04-06 05:37:37,17,0,16.409,5834.6175010122,42.65092,0.3131716,1.57562341,0,0,-4.921268,331.7, 4.5, 1.2,0,0,1024,1024,1401,1024,332,-12.7,99,4.136,4.139,4.126,4.135,0,0,14.72,75.11,6,P-GPS,
0.350326461000623,36.8973264579708,5835.2736690122,43.307088,0,1.53378941916,10400,2018-04-06 05:37:37,17,0,16.409,5835.2736690122,43.307088,0.3131716,1.57562341,0,0,-4.921268,331.7, 4.5, 0.9,0,0,1024,1024,1395,1024,332,-12.7,99,4.136,4.139,4.126,4.135,0,0,14.72,75.11,6,P-GPS,
0.35032644146418,36.8973265244034,5835.9298370122,43.963256,0,1.5113681586,10500,2018-04-06 05:37:38,17,0,16.409,5835.9298370122,43.963256,0.3131716,1.57562341,0,0,-4.921268,331.7, 4.6, 0.6,0,0,1024,1024,1387,1024,331.9,-12.7,99,4.136,4.139,4.126,4.135,0,0,14.72,75.11,6,P-GPS,
0.350326347340117,36.8973265975552,5837.5702570122,45.603676,0,1.4683235378,10700,2018-04-06 05:37:38,17,0,16.409,5837.5702570122,45.603676,0.3131716,1.57562341,0,0,-4.921268,331.7, 4.5, 1.3,0,0,1024,1024,1387,1024,332,-12.7,99,4.136,4.139,4.126,4.135,0,0,14.72,75.11,6,P-GPS,
0.350326275579069,36.8973265993008,5838.2264250122,46.259844,0,1.44985897028,10800,2018-04-06 05:37:38,17,0,16.409,5838.2264250122,46.259844,0.3131716,1.57562341,0,0,-4.697574,331.7, 4.3, 1.7,0,0,1024,1024,1389,1024,332,-12.7,99,4.136,4.139,4.126,4.135,0,0,14.72,75.11,6,P-GPS,
0.350326203382411,36.8973266219541,5839.2106770122,47.244096,0,1.42589571492,10900,2018-04-06 05:37:38,17,0,16.409,5839.2106770122,47.244096,0.3131716,1.57562341,0,0,-4.697574,331.7, 4.1, 1.8,0,0,1024,1024,1389,1024,331.9,-12.7,99,4.136,4.139,4.126,4.135,0,0,14.72,75.11,6,P-GPS,
0.350326156936746,36.8973266427132,5839.8668450122,47.900264,0,1.40887799784,11000,2018-04-06 05:37:38,17,0,16.409,5839.8668450122,47.900264,0.3131716,1.57562341,0,0,-4.697574,331.7, 4.3, 1.5,0,0,1024,1024,1388,1024,331.9,-12.7,99,4.136,4.139,4.126,4.135,0,0,14.72,75.11,6,P-GPS,
0.350326096905786,36.8973266914904,5840.5230130122,48.556432,0,1.380987577,11100,2018-04-06 05:37:38,17,0,16.409,5840.5230130122,48.556432,0.3131716,1.57562341,0,0,-4.921268,331.7, 4.2, 1.3,0,0,1024,1024,1388,1024,331.9,-12.7,99,4.136,4.139,4.126,4.135,0,0,14.72,75.11,6,P-GPS,
0.350326040129272,36.8973267211088,5841.1791810122,49.2126,0,1.35911421672,11200,2018-04-06 05:37:38,17,0,16.409,5841.1791810122,49.2126,0.3131716,1.57562341,0,0,-4.697574,331.7, 3.9, 1.9,0,0,1024,1024,1386,1024,331.9,-12.7,99,4.136,4.139,4.126,4.135,0,0,14.72,75.11,6,P-GPS,
0.350325976098854,36.8973267397698,5842.1634330122,50.196852,0,1.3385499116,11300,2018-04-06 05:37:38,17,0,16.437,5842.1634330122,50.196852,0.3131716,1.57562341,0,0,-4.697574,331.7, 4.1, 2.3,0,0,1024,1024,1387,1024,331.9,-12.7,99,4.14,4.141,4.131,4.139,0,0,13.332,75.11,6,P-GPS,
0.350325932630798,36.8973267511318,5842.8196010122,50.85302,0,1.32502628912,11400,2018-04-06 05:37:38,17,0,16.437,5842.8196010122,50.85302,0.3131716,1.57562341,0,0,-4.697574,331.7, 4.1, 2.2,0,0,1024,1024,1387,1024,331.9,-12.7,99,4.14,4.141,4.131,4.139,0,0,13.332,75.11,6,P-GPS,
0.350325857165447,36.8973267993908,5843.4757690122,51.509188,0,1.29374676056,11500,2018-04-06 05:37:38,17,0,16.437,5843.4757690122,51.509188,0.3131716,1.57562341,0,0,-4.47388,331.7, 4.1, 1.8,0,0,1024,1024,1394,1024,331.9,-12.7,99,4.14,4.141,4.131,4.139,0,0,13.332,75.11,6,P-GPS,
0.35032579160307,36.8973268394017,5844.1319370122,52.165356,0,1.26716539488,11600,2018-04-06 05:37:38,17,0,16.437,5844.1319370122,52.165356,0.3131716,1.57562341,0,0,-4.697574,331.8, 4, 1.9,0,0,1024,1024,1394,1024,331.9,-12.7,99,4.14,4.141,4.131,4.139,0,0,13.332,75.11,6,P-GPS,
0.350325722765078,36.8973268919083,5844.7881050122,52.821524,0,1.23637471148,11700,2018-04-06 05:37:39,19,0,16.437,5844.7881050122,52.821524,0.3131716,1.57562341,0,0,-4.697574,331.7, 4.2, 2,0,0,1024,1024,1396,1024,331.9,-12.7,99,4.14,4.141,4.131,4.139,0,0,13.332,75.11,6,P-GPS,
0.350325660283718,36.8973269479338,5845.7723570122,53.805776,0,1.20609911996,11800,2018-04-06 05:37:39,19,0,16.437,5845.7723570122,53.805776,0.3131716,1.57562341,0,0,-4.921268,331.7, 4, 1.9,0,0,1024,1024,1396,1024,331.9,-12.7,99,4.14,4.141,4.131,4.139,0,0,13.332,75.11,6,P-GPS,
0.3503255531663,36.8973270311786,5846.4285250122,54.461944,0,1.1578740528,11900,2018-04-06 05:37:39,19,0,16.437,5846.4285250122,54.461944,0.3131716,1.57562341,0,0,-4.921268,331.7, 3.8, 2,0,0,1024,1024,1391,1024,331.9,-12.7,99,4.14,4.141,4.131,4.139,0,0,13.332,75.11,6,P-GPS,
0.350325466473234,36.8973270956397,5847.0846930122,55.118112,0,1.11976053452,12000,2018-04-06 05:37:39,19,0,16.437,5847.0846930122,55.118112,0.3131716,1.57562341,0,0,-4.697574,331.7, 4, 2,0,0,1024,1024,1387,1024,331.9,-12.7,99,4.14,4.141,4.131,4.139,0,0,13.332,75.11,6,P-GPS,
0.350325344946937,36.8973271816767,5848.0689450122,56.102364,0,1.06773625464,12100,2018-04-06 05:37:39,19,0,16.437,5848.0689450122,56.102364,0.3131716,1.57562341,0,0,-4.697574,331.7, 3.6, 1.9,0,0,1024,1024,1387,1024,331.9,-12.7,99,4.14,4.141,4.131,4.139,0,0,13.332,75.11,6,P-GPS,
0.35032524494012,36.8973272574803,5848.7251130122,56.758532,0,1.02364832672,12200,2018-04-06 05:37:39,19,0,16.437,5848.7251130122,56.758532,0.3131716,1.57562341,0,0,-4.697574,331.7, 3.3, 1.7,0,0,1024,1024,1376,1024,331.9,-12.7,99,4.14,4.141,4.131,4.139,0,0,13.332,75.11,6,P-GPS,
0.350325151929912,36.8973273606141,5849.3812810122,57.4147,0,0.9731955692,12300,2018-04-06 05:37:39,19,0,16.519,5849.3812810122,57.4147,0.3131716,1.57562341,0,0,-4.47388,331.7, 3.4, 1.6,0,0,1024,1024,1379,1024,331.9,-12.7,99,4.137,4.139,4.133,4.142,0,0,13.078,75.11,6,P-GPS,
0.350325082220907,36.8973274443691,5850.0374490122,58.070868,0,0.93350068604,12400,2018-04-06 05:37:39,19,0,16.519,5850.0374490122,58.070868,0.3131716,1.57562341,0,0,-4.47388,331.7, 3.5, 1.6,0,0,1024,1024,1378,1024,331.9,-12.7,99,4.137,4.139,4.133,4.142,0,0,13.078,75.11,6,P-GPS,
0.350324977474707,36.8973275148368,5850.6936170122,58.727036,0,0.89024937232,12500,2018-04-06 05:37:39,19,0,16.519,5850.6936170122,58.727036,0.3131716,1.57562341,0,0,-4.250186,331.7, 3.4, 2.1,0,0,1024,1024,1377,1024,331.9,-12.7,99,4.137,4.139,4.133,4.142,0,0,13.078,75.11,6,P-GPS,
0.350324882966535,36.8973275580199,5851.3497850122,59.383204,0,0.85761813768,12600,2018-04-06 05:37:40,19,0,16.519,5851.3497850122,59.383204,0.3131716,1.57562341,0,0,-4.47388,331.7, 3.2, 2.3,0,0,1024,1024,1350,1024,331.9,-12.7,99,4.137,4.139,4.133,4.142,0,0,13.078,75.11,6,P-GPS,
0.350324772410251,36.8973276228135,5852.0059530122,60.039372,0,0.81564307072,12700,2018-04-06 05:37:40,19,0,16.519,5852.0059530122,60.039372,0.3131716,1.57562341,0,0,-4.250186,331.7, 2.9, 2.5,0,0,1024,1024,1345,1024,331.9,-12.7,99,4.137,4.139,4.133,4.142,0,0,13.078,75.11,6,P-GPS,
0.350324676741201,36.8973276811594,5852.6621210122,60.69554,0,0.77904858136,12800,2018-04-06 05:37:40,19,0,16.519,5852.6621210122,60.69554,0.3131716,1.57562341,0,0,-4.250186,331.7, 2.9, 3,0,0,1024,1024,1354,1024,331.9,-12.7,99,4.137,4.139,4.133,4.142,0,0,13.078,75.11,6,P-GPS,
0.350324573416633,36.8973277794964,5853.3182890122,61.351708,0,0.7288878186,12900,2018-04-06 05:37:40,19,0,16.519,5853.3182890122,61.351708,0.3131716,1.57562341,0,0,-4.026492,331.7, 3, 2.9,0,0,1024,1024,1361,1024,331.9,-12.7,99,4.137,4.139,4.133,4.142,0,0,13.078,75.11,6,P-GPS,
0.35032449841091,36.8973278721609,5853.9744570122,62.007876,0,0.6859088146,13000,2018-04-06 05:37:40,19,0,16.519,5853.9744570122,62.007876,0.3131716,1.57562341,0,0,-4.026492,331.6, 2.9, 2.3,0,0,1024,1024,1356,1024,331.9,-12.7,99,4.137,4.139,4.133,4.142,0,0,13.078,75.11,6,P-GPS,
0.350324409806051,36.8973279718104,5854.6306250122,62.664044,0,0.63835631964,13100,2018-04-06 05:37:40,19,0,16.519,5854.6306250122,62.664044,0.3131716,1.57562341,0,0,-4.026492,331.6, 2.7, 2.1,0,0,1024,1024,1344,1024,331.9,-12.7,99,4.137,4.139,4.133,4.142,0,0,13.078,75.11,6,P-GPS,
0.350324340575807,36.8973280349082,5855.2867930122,63.320212,0,0.60607613488,13200,2018-04-06 05:37:40,19,0,16.519,5855.2867930122,63.320212,0.3131716,1.57562341,0,0,-4.250186,331.7, 2.8, 2.4,0,0,1024,1024,1339,1024,331.9,-12.7,99,4.137,4.139,4.133,4.142,0,0,13.078,75.11,6,P-GPS,
0.350324253696895,36.897328119472,5855.9429610122,63.97638,0,0.5641240338,13300,2018-04-06 05:37:40,19,0,16.437,5855.9429610122,63.97638,0.3131716,1.57562341,0,0,-3.802798,331.7, 3.1, 2.6,0,0,1024,1024,1328,1024,331.9,-12.7,99,4.137,4.139,4.133,4.142,0,0,13.078,75.11,6,P-GPS,
0.350324193221574,36.8973281866755,5856.5991290122,64.632548,0,0.53239503016,13400,2018-04-06 05:37:40,19,0,16.437,5856.5991290122,64.632548,0.3131716,1.57562341,0,0,-3.802798,331.7, 3.2, 2.8,0,0,1024,1024,1322,1024,331.9,-12.7,99,4.137,4.139,4.133,4.142,0,0,13.078,75.11,6,P-GPS,
0.350324136730241,36.8973282643029,5857.2552970122,65.288716,0,0.49798558024,13500,2018-04-06 05:37:40,19,0,16.437,5857.2552970122,65.288716,0.3131716,1.57562341,0,0,-3.579104,331.7, 3.1, 2.5,0,0,1024,1024,1306,1024,331.9,-12.7,99,4.137,4.139,4.133,4.142,0,0,13.078,75.11,6,P-GPS,
0.350324107411939,36.8973283221553,5857.9114650122,65.944884,0,0.47433728552,13600,2018-04-06 05:37:41,19,0,16.437,5857.9114650122,65.944884,0.3131716,1.57562341,0,0,-3.579104,331.7, 3.2, 2.3,0,0,1024,1024,1293,1024,331.9,-12.7,99,4.137,4.139,4.133,4.142,0,0,13.078,75.11,6,P-GPS,
0.350324096236946,36.897328384933,5858.2395490122,66.272968,0,0.45187337404,13700,2018-04-06 05:37:41,19,0,16.437,5858.2395490122,66.272968,0.3131716,1.57562341,0,0,-3.35541,331.7, 3.4, 2.2,0,0,1024,1024,1285,1024,331.9,-12.7,99,4.137,4.139,4.133,4.142,0,0,13.078,75.11,6,P-GPS,
0.350324102243665,36.8973284269357,5858.8957170122,66.929136,0,0.43908137888,13800,2018-04-06 05:37:41,19,0,16.437,5858.8957170122,66.929136,0.3131716,1.57562341,0,0,-3.35541,331.7, 3.5, 2.3,0,0,1024,1024,1288,1024,331.9,-12.7,99,4.137,4.139,4.133,4.142,0,0,13.078,75.11,6,P-GPS,
0.35032405319941,36.8973284704142,5859.5518850122,67.585304,0,0.41696523644,13900,2018-04-06 05:37:41,19,0,16.437,5859.5518850122,67.585304,0.3131716,1.57562341,0,0,-3.131716,331.7, 3.4, 2.4,0,0,1024,1024,1300,1024,331.9,-12.7,99,4.137,4.139,4.133,4.142,0,0,13.078,75.11,6,P-GPS,
0.350324001322477,36.8973285022693,5859.8799690122,67.913388,0,0.39851707312,14000,2018-04-06 05:37:41,19,0,16.437,5859.8799690122,67.913388,0.3131716,1.57562341,0,0,-3.131716,331.6, 3.2, 2.2,0,0,1024,1024,1299,1024,331.9,-12.7,99,4.137,4.139,4.133,4.142,0,0,13.078,75.11,6,P-GPS,
0.350323948710912,36.8973285681025,5860.5361370122,68.569556,0,0.36888780708,14100,2018-04-06 05:37:41,19,0,16.437,5860.5361370122,68.569556,0.3131716,1.57562341,0,0,-2.908022,331.7, 3, 2.2,0,0,1024,1024,1300,1024,331.9,-12.7,99,4.137,4.139,4.133,4.142,0,0,13.078,75.11,6,P-GPS,
0.350323913721146,36.8973286176443,5860.8642210122,68.89764,0,0.34733924996,14200,2018-04-06 05:37:41,19,0,16.437,5860.8642210122,68.89764,0.3131716,1.57562341,0,0,-3.131716,331.7, 2.7, 2.4,0,0,1024,1024,1300,1024,331.9,-12.7,99,4.137,4.139,4.133,4.142,0,0,13.078,75.11,6,P-GPS,
0.350323861541526,36.8973286757842,5861.5203890122,69.553808,0,0.320741151996,14300,2018-04-06 05:37:41,19,0,16.546,5861.5203890122,69.553808,0.3131716,1.57562341,0,0,-2.908022,331.6, 2.7, 2.6,0,0,1024,1024,1311,1024,331.9,-12.7,99,4.125,4.13,4.122,4.127,0,0,13.794,75.11,6,P-GPS,
0.350323830896245,36.8973287072587,5861.8484730122,69.881892,0,0.306204406124,14400,2018-04-06 05:37:41,19,0,16.546,5861.8484730122,69.881892,0.3131716,1.57562341,0,0,-2.908022,331.6, 2.7, 3,0,0,1024,1024,1287,1024,331.9,-12.7,99,4.125,4.13,4.122,4.127,0,0,13.794,75.11,6,P-GPS,
0.350323799451399,36.897328761637,5862.5046410122,70.53806,0,0.283769037952,14500,2018-04-06 05:37:41,19,0,16.546,5862.5046410122,70.53806,0.3131716,1.57562341,0,0,-2.908022,331.6, 2.8, 2.9,0,0,1024,1024,1289,1024,331.9,-12.7,99,4.125,4.13,4.122,4.127,0,0,13.794,75.11,6,P-GPS,
0.350323799729659,36.8973288024899,5862.8327250122,70.866144,0,0.269648630676,14600,2018-04-06 05:37:42,19,0,16.546,5862.8327250122,70.866144,0.3131716,1.57562341,0,0,-2.908022,331.7, 3.2, 2.6,0,0,1024,1024,1302,1024,331.9,-12.7,99,4.125,4.13,4.122,4.127,0,0,13.794,75.11,6,P-GPS,
0.350323780573662,36.8973288353331,5863.1608090122,71.194228,0,0.256068577748,14700,2018-04-06 05:37:42,19,0,16.546,5863.1608090122,71.194228,0.3131716,1.57562341,0,0,-2.908022,331.6, 3.3, 2.7,0,0,1024,1024,1301,1024,331.9,-12.7,99,4.125,4.13,4.122,4.127,0,0,13.794,75.11,6,P-GPS,
0.350323777745258,36.897328854886,5863.8169770122,71.850396,0,0.248971792744,14800,2018-04-06 05:37:42,19,0,16.546,5863.8169770122,71.850396,0.3131716,1.57562341,0,0,-2.908022,331.6, 3.2, 2.5,0,0,1024,1024,1306,1024,331.9,-12.7,99,4.125,4.13,4.122,4.127,0,0,13.794,75.11,6,P-GPS,
0.350323767359246,36.897328898054,5864.4731450122,72.506564,0,0.232836949708,14900,2018-04-06 05:37:42,19,0,16.546,5864.4731450122,72.506564,0.3131716,1.57562341,0,0,-3.131716,331.6, 3.4, 2.4,0,0,1024,1024,1292,1024,331.9,-12.7,99,4.125,4.13,4.122,4.127,0,0,13.794,75.11,6,P-GPS,
0.350323776109079,36.8973289314979,5864.8012290122,72.834648,0,0.222423235464,15000,2018-04-06 05:37:42,19,0,16.546,5864.8012290122,72.834648,0.3131716,1.57562341,0,0,-3.131716,331.7, 3.5, 2.4,0,0,1024,1024,1289,1024,331.9,-12.7,99,4.125,4.13,4.122,4.127,0,0,13.794,75.11,6,P-GPS,
0.350323766413731,36.8973289907174,5865.4573970122,73.490816,0,0.20099902218,15100,2018-04-06 05:37:42,19,0,16.546,5865.4573970122,73.490816,0.3131716,1.57562341,0,0,-3.131716,331.7, 3.4, 2.5,0,0,1024,1024,1291,1024,331.9,-12.7,99,4.125,4.13,4.122,4.127,0,0,13.794,75.11,6,P-GPS,
0.350323770222254,36.897329030883,5865.7854810122,73.8189,0,0.188030845912,15200,2018-04-06 05:37:42,19,0,16.546,5865.7854810122,73.8189,0.3131716,1.57562341,0,0,-2.908022,331.7, 3.3, 2.8,0,0,1024,1024,1290,1024,331.9,-12.7,99,4.125,4.13,4.122,4.127,0,0,13.794,75.11,6,P-GPS,
0.350323789132356,36.8973290937008,5866.4416490122,74.475068,0,0.17057579286,15300,2018-04-06 05:37:42,19,0,16.409,5866.4416490122,74.475068,0.3131716,1.57562341,0,0,-2.908022,331.6, 3.3, 2.5,0,0,1024,1024,1292,1024,331.9,-12.7,99,4.141,4.141,4.126,4.126,0,0,12.804,75.11,6,P-GPS,
0.350323825130332,36.8973291411797,5866.7697330122,74.803152,0,0.163048233564,15400,2018-04-06 05:37:42,19,0,16.409,5866.7697330122,74.803152,0.3131716,1.57562341,0,0,-2.908022,331.7, 3.3, 2.6,0,0,1024,1024,1300,1024,331.9,-12.7,99,4.141,4.141,4.126,4.126,0,0,12.804,75.11,6,P-GPS,
0.350323849622944,36.8973291747274,5867.0978170122,75.131236,0,0.159083666508,15500,2018-04-06 05:37:42,19,0,16.409,5867.0978170122,75.131236,0.3131716,1.57562341,0,0,-2.908022,331.7, 3.3, 2.4,0,0,1024,1024,1305,1024,331.9,-12.7,99,4.141,4.141,4.126,4.126,0,0,12.804,75.11,6,P-GPS,
0.350323873563717,36.8973291958427,5867.7539850122,75.787404,0,0.159490818752,15600,2018-04-06 05:37:43,19,0,16.409,5867.7539850122,75.787404,0.3131716,1.57562341,0,0,-2.908022,331.7, 3.4, 2.1,0,0,1024,1024,1301,1024,331.9,-12.7,99,4.141,4.141,4.126,4.126,0,0,12.804,75.11,6,P-GPS,
0.350323875750921,36.8973292289461,5868.0820690122,76.115488,0,0.151873692524,15700,2018-04-06 05:37:43,19,0,16.409,5868.0820690122,76.115488,0.3131716,1.57562341,0,0,-2.908022,331.7, 3.4, 2.1,0,0,1024,1024,1300,1024,331.9,-12.7,99,4.141,4.141,4.126,4.126,0,0,12.804,75.11,6,P-GPS,
0.350323884977685,36.8973292496504,5868.7382370122,76.771656,0,0.1496637187,15800,2018-04-06 05:37:43,19,0,16.409,5868.7382370122,76.771656,0.3131716,1.57562341,0,0,-2.908022,331.7, 3.4, 2.2,0,0,1024,1024,1310,1024,331.9,-12.7,99,4.141,4.141,4.126,4.126,0,0,12.804,75.11,6,P-GPS,
0.350323869204169,36.8973292856889,5869.0663210122,77.09974,0,0.13720308838,15900,2018-04-06 05:37:43,19,0,16.409,5869.0663210122,77.09974,0.3131716,1.57562341,0,0,-2.908022,331.7, 3.5, 2.5,0,0,1024,1024,1307,1024,331.9,-12.7,99,4.141,4.141,4.126,4.126,0,0,12.804,75.11,6,P-GPS,
0.350323866997627,36.8973293089053,5869.7224890122,77.755908,0,0.131826775872,16000,2018-04-06 05:37:43,19,0,16.409,5869.7224890122,77.755908,0.3131716,1.57562341,0,0,-2.908022,331.6, 3.4, 2.4,0,0,1024,1024,1307,1024,331.8,-12.7,99,4.141,4.141,4.126,4.126,0,0,12.804,75.11,6,P-GPS,
0.350323819926232,36.8973293293783,5870.0505730122,78.083992,0,0.113357615176,16100,2018-04-06 05:37:43,19,0,16.409,5870.0505730122,78.083992,0.3131716,1.57562341,0,0,-3.131716,331.7, 3.4, 2.4,0,0,1024,1024,1324,1024,331.8,-12.7,99,4.141,4.141,4.126,4.126,0,0,12.804,75.11,6,P-GPS,
0.350323779558531,36.8973293294538,5870.7067410122,78.74016,0,0.101432417944,16200,2018-04-06 05:37:43,19,0,16.409,5870.7067410122,78.74016,0.3131716,1.57562341,0,0,-3.131716,331.7, 3.4, 2.7,0,0,1024,1024,1329,1024,331.8,-12.7,99,4.141,4.141,4.126,4.126,0,0,12.804,75.11,6,P-GPS,
0.350323725796266,36.8973293588203,5871.0348250122,79.068244,0,0.07949639362,16300,2018-04-06 05:37:43,19,0,16.738,5871.0348250122,79.068244,0.3131716,1.57562341,0,0,-3.131716,331.6, 3.3, 2.7,0,0,1024,1024,1319,1024,331.8,-12.7,99,4.115,4.138,4.137,4.133,0,0,13.572,75.11,6,P-GPS,
0.350323692474842,36.8973293875187,5871.6909930122,79.724412,0,0.063452429852,16400,2018-04-06 05:37:43,19,0,16.738,5871.6909930122,79.724412,0.3131716,1.57562341,0,0,-3.35541,331.6, 3, 2.7,0,0,1024,1024,1316,1024,331.8,-12.7,99,4.115,4.138,4.137,4.133,0,0,13.572,75.11,6,P-GPS,
0.350323658899787,36.8973294183026,5872.3471610122,80.38058,0,0.046838584176,16500,2018-04-06 05:37:43,19,0,16.738,5872.3471610122,80.38058,0.3131716,1.57562341,0,0,-3.35541,331.6, 2.9, 2.7,0,0,1024,1024,1316,1024,331.8,-12.7,99,4.115,4.138,4.137,4.133,0,0,13.572,75.11,6,P-GPS,
0.350323650196364,36.8973294294031,5872.6752450122,80.708664,0,0.041800198188,16600,2018-04-06 05:37:44,19,0,16.738,5872.6752450122,80.708664,0.3131716,1.57562341,0,0,-3.579104,331.7, 3, 2.9,0,0,1024,1024,1330,1024,331.8,-12.7,99,4.115,4.138,4.137,4.133,0,0,13.572,75.11,6,P-GPS,
0.350323655809611,36.8973294690131,5873.3314130122,81.364832,0,0.036398295128,16700,2018-04-06 05:37:44,19,0,16.738,5873.3314130122,81.364832,0.3131716,1.57562341,0,0,-3.35541,331.6, 3.1, 2.7,0,0,1024,1024,1321,1024,331.8,-12.7,99,4.115,4.138,4.137,4.133,0,0,13.572,75.11,6,P-GPS,
0.350323679365053,36.8973295027818,5873.9875810122,82.021,0,0.04291994888,16800,2018-04-06 05:37:44,19,0,16.738,5873.9875810122,82.021,0.3131716,1.57562341,0,0,-3.579104,331.7, 3.2, 2.5,0,0,1024,1024,1321,1024,331.8,-12.7,99,4.115,4.138,4.137,4.133,0,0,13.572,75.11,6,P-GPS,
0.350323674113321,36.8973295359918,5874.3156650122,82.349084,0,0.04281660242,16900,2018-04-06 05:37:44,19,0,16.738,5874.3156650122,82.349084,0.3131716,1.57562341,0,0,-3.35541,331.7, 3.5, 2.4,0,0,1024,1024,1324,1024,331.8,-12.7,99,4.115,4.138,4.137,4.133,0,0,13.572,75.11,6,P-GPS,
0.350323673859895,36.8973295530849,5874.9718330122,83.005252,0,0.04492618254,17000,2018-04-06 05:37:44,19,0,16.738,5874.9718330122,83.005252,0.3131716,1.57562341,0,0,-3.35541,331.7, 3.6, 2.4,0,0,1024,1024,1326,1024,331.8,-12.7,99,4.115,4.138,4.137,4.133,0,0,13.572,75.11,6,P-GPS,
0.350323655913017,36.8973295974023,5875.6280010122,83.66142,0,0.048859253532,17100,2018-04-06 05:37:44,19,0,16.738,5875.6280010122,83.66142,0.3131716,1.57562341,0,0,-3.35541,331.7, 3.4, 2.1,0,0,1024,1024,1327,1024,331.8,-12.7,99,4.115,4.138,4.137,4.133,0,0,13.572,75.11,6,P-GPS,
0.350323651037048,36.8973296344257,5875.9560850122,83.989504,0,0.058214568792,17200,2018-04-06 05:37:44,19,0,16.738,5875.9560850122,83.989504,0.3131716,1.57562341,0,0,-3.35541,331.7, 3.2, 2.3,0,0,1024,1024,1322,1024,331.8,-12.7,99,4.115,4.138,4.137,4.133,0,0,13.572,75.11,6,P-GPS,
0.35032363528857,36.8973296895518,5876.6122530122,84.645672,0,0.073433729384,17300,2018-04-06 05:37:44,19,0,16.464,5876.6122530122,84.645672,0.3131716,1.57562341,0,0,-3.579104,331.7, 3.3, 2.6,0,0,1024,1024,1322,1024,331.8,-12.7,99,4.115,4.138,4.137,4.133,0,0,13.572,75.11,6,P-GPS,
0.350323641312999,36.8973297323526,5877.2684210122,85.30184,0,0.088847771872,17400,2018-04-06 05:37:44,19,0,16.464,5877.2684210122,85.30184,0.3131716,1.57562341,0,0,-3.579104,331.7, 3.7, 2.3,0,0,1024,1024,1325,1024,331.8,-12.7,99,4.115,4.138,4.137,4.133,0,0,13.572,75.11,6,P-GPS,
0.350323607638507,36.8973298004008,5877.5965050122,85.629924,0,0.110077759428,17500,2018-04-06 05:37:44,19,0,16.464,5877.5965050122,85.629924,0.3131716,1.57562341,0,0,-3.35541,331.7, 3.7, 2.1,0,0,1024,1024,1326,1024,331.8,-12.7,99,4.115,4.138,4.137,4.133,0,0,13.572,75.11,6,P-GPS,
0.350323575595207,36.8973298515797,5878.2526730122,86.286092,0,0.127568573636,17600,2018-04-06 05:37:45,19,0,16.464,5878.2526730122,86.286092,0.3131716,1.57562341,0,0,-3.579104,331.7, 3.4, 2.1,0,0,1024,1024,1329,1024,331.8,-12.7,99,4.115,4.138,4.137,4.133,0,0,13.572,75.11,6,P-GPS,
0.350323524516517,36.8973299206048,5878.9088410122,86.94226,0,0.153253941912,17700,2018-04-06 05:37:45,19,0,16.464,5878.9088410122,86.94226,0.3131716,1.57562341,0,0,-3.579104,331.7, 3.2, 2.2,0,0,1024,1024,1327,1024,331.8,-12.7,99,4.115,4.138,4.137,4.133,0,0,13.572,75.11,6,P-GPS,
0.350323493085003,36.8973299681666,5879.5650090122,87.598428,0,0.17183891626,17800,2018-04-06 05:37:45,19,0,16.464,5879.5650090122,87.598428,0.3131716,1.57562341,0,0,-3.579104,331.7, 3.1, 2.5,0,0,1024,1024,1327,1024,331.8,-12.7,99,4.115,4.138,4.137,4.133,0,0,13.572,75.11,6,P-GPS,
0.350323463307989,36.8973300047698,5879.8930930122,87.926512,0,0.186841541412,17900,2018-04-06 05:37:45,19,0,16.464,5879.8930930122,87.926512,0.3131716,1.57562341,0,0,-3.579104,331.7, 3.2, 2.1,0,0,1024,1024,1326,1024,331.8,-12.7,99,4.115,4.138,4.137,4.133,0,0,13.572,75.11,6,P-GPS,
0.350323448313786,36.897330029189,5880.5492610122,88.58268,0,0.1966699538,18000,2018-04-06 05:37:45,19,0,16.464,5880.5492610122,88.58268,0.3131716,1.57562341,0,0,-3.579104,331.7, 3.2, 2,0,0,1024,1024,1326,1024,331.8,-12.7,99,4.115,4.138,4.137,4.133,0,0,13.572,75.11,6,P-GPS,
0.350323402600716,36.8973300368615,5881.2054290122,89.238848,0,0.203523300476,18100,2018-04-06 05:37:45,19,0,16.464,5881.2054290122,89.238848,0.3131716,1.57562341,0,0,-3.579104,331.7, 3.1, 2.1,0,0,1024,1024,1326,1024,331.8,-12.7,99,4.115,4.138,4.137,4.133,0,0,13.572,75.11,6,P-GPS,
0.350323363110746,36.8973300361592,5881.5335130122,89.566932,0,0.207852040772,18200,2018-04-06 05:37:45,19,0,16.464,5881.5335130122,89.566932,0.3131716,1.57562341,0,0,-3.579104,331.7, 3, 2.2,0,0,1024,1024,1330,1024,331.8,-12.7,99,4.115,4.138,4.137,4.133,0,0,13.572,75.11,6,P-GPS,
0.350323297493104,36.8973300773445,5882.1896810122,90.2231,0,0.23092356382,18300,2018-04-06 05:37:45,19,0,16.409,5882.1896810122,90.2231,0.3131716,1.57562341,0,0,-3.35541,331.7, 2.7, 2.1,0,0,1024,1024,1331,1024,331.8,-12.7,99,4.113,4.118,4.113,4.119,0,0,14.076,75.11,6,P-GPS,
0.350323248052221,36.8973301167681,5882.8458490122,90.879268,0,0.251738525116,18400,2018-04-06 05:37:45,19,0,16.409,5882.8458490122,90.879268,0.3131716,1.57562341,0,0,-3.579104,331.7, 2.7, 1.9,0,0,1024,1024,1332,1024,331.8,-12.7,99,4.113,4.118,4.113,4.119,0,0,14.076,75.11,6,P-GPS,
0.350323177952898,36.8973301364495,5883.5020170122,91.535436,0,0.270466216004,18500,2018-04-06 05:37:45,19,0,16.409,5883.5020170122,91.535436,0.3131716,1.57562341,0,0,-3.579104,331.7, 2.9, 2.1,0,0,1024,1024,1334,1024,331.8,-12.7,99,4.113,4.118,4.113,4.119,0,0,14.076,75.11,6,P-GPS,
0.350323116708442,36.8973301291678,5883.8301010122,91.86352,0,0.280510835748,18600,2018-04-06 05:37:46,19,0,16.409,5883.8301010122,91.86352,0.3131716,1.57562341,0,0,-3.579104,331.8, 3, 2.4,0,0,1024,1024,1334,1024,331.8,-12.7,99,4.113,4.118,4.113,4.119,0,0,14.076,75.11,6,P-GPS,
0.35032302812862,36.8973301467663,5884.4862690122,92.519688,0,0.30529364494,18700,2018-04-06 05:37:46,19,0,16.409,5884.4862690122,92.519688,0.3131716,1.57562341,0,0,-3.579104,331.7, 2.7, 2.7,0,0,1024,1024,1335,1024,331.8,-12.7,99,4.113,4.118,4.113,4.119,0,0,14.076,75.11,6,P-GPS,
0.350322948578826,36.8973301605042,5885.1424370122,93.175856,0,0.32822179528,18800,2018-04-06 05:37:46,19,0,16.409,5885.1424370122,93.175856,0.3131716,1.57562341,0,0,-3.579104,331.7, 2.5, 2.9,0,0,1024,1024,1335,1024,331.8,-12.7,99,4.113,4.118,4.113,4.119,0,0,14.076,75.11,6,P-GPS,
0.350322831795778,36.8973301837019,5885.4705210122,93.50394,0,0.36434384368,18900,2018-04-06 05:37:46,19,0,16.409,5885.4705210122,93.50394,0.3131716,1.57562341,0,0,-3.579104,331.7, 2.2, 2.9,0,0,1024,1024,1335,1024,331.8,-12.7,99,4.113,4.118,4.113,4.119,0,0,14.076,75.11,6,P-GPS,
0.350322731163537,36.8973301920472,5886.1266890122,94.160108,0,0.39392061628,19000,2018-04-06 05:37:46,19,0,16.409,5886.1266890122,94.160108,0.3131716,1.57562341,0,0,-3.579104,331.7, 1.9, 3.2,0,0,1024,1024,1335,1024,331.8,-12.7,99,4.113,4.118,4.113,4.119,0,0,14.076,75.11,6,P-GPS,
0.350322619012192,36.8973302062776,5886.7828570122,94.816276,0,0.42928807148,19100,2018-04-06 05:37:46,19,0,16.409,5886.7828570122,94.816276,0.3131716,1.57562341,0,0,-3.802798,331.7, 1.8, 3.2,0,0,1024,1024,1336,1024,331.8,-12.7,99,4.113,4.118,4.113,4.119,0,0,14.076,75.11,6,P-GPS,
0.350322547930764,36.897330215179,5887.4390250122,95.472444,0,0.45219161552,19200,2018-04-06 05:37:46,19,0,16.409,5887.4390250122,95.472444,0.3131716,1.57562341,0,0,-3.579104,331.7, 2.1, 2.8,0,0,1024,1024,1336,1024,331.8,-12.7,99,4.113,4.118,4.113,4.119,0,0,14.076,75.11,6,P-GPS,
0.350322460999233,36.8973302556471,5887.7671090122,95.800528,0,0.48666996308,19300,2018-04-06 05:37:46,19,0,16.464,5887.7671090122,95.800528,0.3131716,1.57562341,0,0,-3.579104,331.7, 2.1, 2.8,0,0,1024,1024,1338,1024,331.8,-12.7,99,4.118,4.119,4.111,4.12,0,0,13.32,75.11,6,P-GPS,
0.350322393357181,36.8973302864444,5888.4232770122,96.456696,0,0.5134022474,19400,2018-04-06 05:37:46,19,0,16.464,5888.4232770122,96.456696,0.3131716,1.57562341,0,0,-3.802798,331.8, 2, 3,0,0,1024,1024,1340,1024,331.8,-12.7,99,4.118,4.119,4.111,4.12,0,0,13.32,75.11,6,P-GPS,
0.350322326038375,36.8973303223774,5889.0794450122,97.112864,0,0.5411089412,19500,2018-04-06 05:37:46,19,0,16.464,5889.0794450122,97.112864,0.3131716,1.57562341,0,0,-3.579104,331.7, 2, 2.6,0,0,1024,1024,1341,1024,331.8,-12.7,99,4.118,4.119,4.111,4.12,0,0,13.32,75.11,6,P-GPS,
0.35032228300379,36.8973303437433,5889.7356130122,97.769032,0,0.55850723572,19600,2018-04-06 05:37:46,19,0,16.464,5889.7356130122,97.769032,0.3131716,1.57562341,0,0,-3.579104,331.7, 2, 2.1,0,0,1024,1024,1344,1024,331.8,-12.7,99,4.118,4.119,4.111,4.12,0,0,13.32,75.11,6,P-GPS,
0.35032222717012,36.8973303803159,5890.0636970122,98.097116,0,0.5828576302,19700,2018-04-06 05:37:47,19,0,16.464,5890.0636970122,98.097116,0.3131716,1.57562341,0,0,-3.579104,331.6, 1.7, 2.3,0,0,1024,1024,1344,1024,331.8,-12.7,99,4.118,4.119,4.111,4.12,0,0,13.32,75.11,6,P-GPS,
0.350322183519628,36.8973303925015,5890.7198650122,98.753284,0,0.59862862808,19800,2018-04-06 05:37:47,19,0,16.464,5890.7198650122,98.753284,0.3131716,1.57562341,0,0,-3.579104,331.6, 1.6, 2.7,0,0,1024,1024,1346,1024,331.8,-12.7,99,4.118,4.119,4.111,4.12,0,0,13.32,75.11,6,P-GPS,
0.350322106056684,36.8973303909191,5891.3760330122,99.409452,0,0.62225395692,19900,2018-04-06 05:37:47,19,0,16.464,5891.3760330122,99.409452,0.3131716,1.57562341,0,0,-3.802798,331.6, 1.8, 2.8,0,0,1024,1024,1346,1024,331.8,-12.7,99,4.118,4.119,4.111,4.12,0,0,13.32,75.11,6,P-GPS,
0.350322039927902,36.8973303599725,5891.7041170122,99.737536,0,0.6373523826,20000,2018-04-06 05:37:47,19,0,16.464,5891.7041170122,99.737536,0.3131716,1.57562341,0,0,-3.802798,331.6, 1.7, 3.4,0,0,1024,1024,1346,1024,331.8,-12.7,99,4.118,4.119,4.111,4.12,0,0,13.32,75.11,6,P-GPS,
0.350321941229205,36.8973303654116,5892.3602850122,100.393704,0,0.66988519204,20100,2018-04-06 05:37:47,19,0,16.464,5892.3602850122,100.393704,0.3131716,1.57562341,0,0,-3.802798,331.7, 1.7, 3.5,0,0,1024,1024,1343,1024,331.8,-12.7,99,4.118,4.119,4.111,4.12,0,0,13.32,75.11,6,P-GPS,
0.350321876414536,36.8973303672622,5893.0164530122,101.049872,0,0.69115487776,20200,2018-04-06 05:37:47,19,0,16.464,5893.0164530122,101.049872,0.3131716,1.57562341,0,0,-3.802798,331.7, 1.8, 3.3,0,0,1024,1024,1344,1024,331.8,-12.7,99,4.118,4.119,4.111,4.12,0,0,13.32,75.11,6,P-GPS,
0.350321806102007,36.8973303901874,5893.6726210122,101.70604,0,0.71780842192,20300,2018-04-06 05:37:47,19,0,16.354,5893.6726210122,101.70604,0.3131716,1.57562341,0,0,-3.802798,331.7, 2, 3.3,0,0,1024,1024,1344,1024,331.8,-12.7,99,4.112,4.112,4.105,4.115,0,0,13.568,75.11,6,P-GPS,
0.350321766104776,36.8973303905032,5894.3287890122,102.362208,0,0.73091209688,20400,2018-04-06 05:37:47,19,0,16.354,5894.3287890122,102.362208,0.3131716,1.57562341,0,0,-3.802798,331.7, 1.9, 3.5,0,0,1024,1024,1345,1024,331.8,-12.7,99,4.112,4.112,4.105,4.115,0,0,13.568,75.11,6,P-GPS,
0.350321714125505,36.8973303785693,5894.6568730122,102.690292,0,0.74608270104,20500,2018-04-06 05:37:47,19,0,16.354,5894.6568730122,102.690292,0.3131716,1.57562341,0,0,-3.802798,331.7, 1.9, 3.4,0,0,1024,1024,1346,1024,331.8,-12.7,99,4.112,4.112,4.105,4.115,0,0,13.568,75.11,6,P-GPS,
0.350321678419352,36.8973303474122,5895.3130410122,103.34646,0,0.75314634956,20600,2018-04-06 05:37:48,19,0,16.354,5895.3130410122,103.34646,0.3131716,1.57562341,0,0,-3.802798,331.6, 1.8, 3.5,0,0,1024,1024,1347,1024,331.8,-12.7,99,4.112,4.112,4.105,4.115,0,0,13.568,75.11,6,P-GPS,
0.350321593743674,36.8973303283781,5895.9692090122,104.002628,0,0.77872049736,20700,2018-04-06 05:37:48,19,0,16.354,5895.9692090122,104.002628,0.3131716,1.57562341,0,0,-3.802798,331.6, 1.8, 3.8,0,0,1024,1024,1347,1024,331.8,-12.7,99,4.112,4.112,4.105,4.115,0,0,13.568,75.11,6,P-GPS,
0.350321532185361,36.8973303070015,5896.6253770122,104.658796,0,0.79656826696,20800,2018-04-06 05:37:48,19,0,16.354,5896.6253770122,104.658796,0.3131716,1.57562341,0,0,-3.802798,331.6, 1.6, 4,0,0,1024,1024,1347,1024,331.8,-12.7,99,4.112,4.112,4.105,4.115,0,0,13.568,75.11,6,P-GPS,
0.350321488666035,36.8973302839879,5897.2815450122,105.314964,0,0.8083497634,20900,2018-04-06 05:37:48,19,0,16.354,5897.2815450122,105.314964,0.3131716,1.57562341,0,0,-4.026492,331.6, 1.6, 3.7,0,0,1024,1024,1347,1024,331.8,-12.7,99,4.112,4.112,4.105,4.115,0,0,13.568,75.11,6,P-GPS,
0.350321486186042,36.89733025215,5897.6096290122,105.643048,0,0.80517719112,21000,2018-04-06 05:37:48,19,0,16.354,5897.6096290122,105.643048,0.3131716,1.57562341,0,0,-3.802798,331.6, 1.8, 3.6,0,0,1024,1024,1352,1024,331.8,-12.7,99,4.112,4.112,4.105,4.115,0,0,13.568,75.11,6,P-GPS,
0.350321408984005,36.8973302243433,5898.9219650122,106.955384,0,0.82843834672,21200,2018-04-06 05:37:48,19,0,16.354,5898.9219650122,106.955384,0.3131716,1.57562341,0,0,-3.802798,331.6, 2, 3.5,0,0,1024,1024,1351,1024,331.8,-12.7,99,4.112,4.112,4.105,4.115,0,0,13.568,75.11,6,P-GPS,
0.350321375885219,36.897330228683,5899.5781330122,107.611552,0,0.84039700852,21300,2018-04-06 05:37:48,19,0,16.354,5899.5781330122,107.611552,0.3131716,1.57562341,0,0,-3.802798,331.6, 2, 3.3,0,0,1024,1024,1352,1024,331.8,-12.7,99,4.112,4.112,4.105,4.115,0,0,13.568,75.11,6,P-GPS,
0.350321370867984,36.8973302224735,5899.9062170122,107.939636,0,0.84142391144,21400,2018-04-06 05:37:48,19,0,16.354,5899.9062170122,107.939636,0.3131716,1.57562341,0,0,-3.802798,331.6, 1.8, 3.3,0,0,1024,1024,1354,1024,331.8,-12.7,99,4.112,4.112,4.105,4.115,0,0,13.568,75.11,6,P-GPS,
0.350321339913553,36.8973302270177,5900.5623850122,108.595804,0,0.85267063096,21500,2018-04-06 05:37:48,19,0,16.354,5900.5623850122,108.595804,0.3131716,1.57562341,0,0,-4.026492,331.6, 1.7, 3.2,0,0,1024,1024,1353,1024,331.8,-12.7,99,4.112,4.112,4.105,4.115,0,0,13.568,75.11,6,P-GPS,
0.350321319774892,36.8973302220164,5901.2185530122,109.251972,0,0.85910107736,21600,2018-04-06 05:37:48,19,0,16.354,5901.2185530122,109.251972,0.3131716,1.57562341,0,0,-4.026492,331.7, 1.9, 3.2,0,0,1024,1024,1352,1024,331.8,-12.7,99,4.112,4.112,4.105,4.115,0,0,13.568,75.11,6,P-GPS,
0.350321256997612,36.8973302329226,5901.8747210122,109.90814,0,0.88212929332,21700,2018-04-06 05:37:49,18,0,16.354,5901.8747210122,109.90814,0.3131716,1.57562341,0,0,-4.026492,331.7, 1.9, 3.3,0,0,1024,1024,1352,1024,331.8,-12.7,99,4.112,4.112,4.105,4.115,0,0,13.568,75.11,6,P-GPS,
