latitude,longitude,altitude(feet),ascent(feet),speed(mph),distance(feet),time(millisecond),datetime(utc),satellites,gpslevel,voltage(v),max_altitude(feet),max_ascent(feet),max_speed(mph),max_distance(feet), xSpeed(mph), ySpeed(mph), zSpeed(mph), compass_heading(degrees), pitch(degrees), roll(degrees),isPhoto,isVideo,rc_elevator,rc_aileron,rc_throttle,rc_rudder,gimbal_heading(degrees),gimbal_pitch(degrees),battery_percent,voltageCell1,voltageCell2,voltageCell3,voltageCell4,voltageCell5,voltageCell6,current(A),battery_temperature(f),flycStateRaw,flycState,message
0.376730013289471,36.9245185374987,5337.9302843308,0,0,0,0,2018-04-02 06:42:06,15,0,17.189,5337.9302843308,0,0,0,0,0,0,183.2, 0.9, -0.4,0,0,364,364,364,1684,187.7,0,99,4.3,4.301,4.299,4.301,0,0,1.492,80.51,41,Motors_Started,Setting new Return-To-Home altitude to 30m (98 ft). Setting new Maximum Flight Altitude to 150m (492 ft)
0.376730055321239,36.9245185362777,5337.9302843308,0,0,0.0153417327744,100,2018-04-02 06:42:06,15,0,17.189,5337.9302843308,0,0,0.0153417327744,0,0,0,183.2, 0.9, -0.4,0,0,364,364,364,1684,187.7,0,99,4.3,4.301,4.299,4.301,0,0,1.492,80.51,41,Motors_Started,
0.37673009747514,36.9245185310295,5337.9302843308,0,0,0.0308056440304,200,2018-04-02 06:42:06,15,0,17.189,5337.9302843308,0,0,0.0308056440304,0,0,0,183.2, 0.9, -0.4,0,0,364,364,364,1684,187.7,0,99,4.3,4.301,4.299,4.301,0,0,1.492,80.51,41,Motors_Started,
0.37673014316765,36.9245185284515,5337.9302843308,0,0,0.047500657688,300,2018-04-02 06:42:06,15,0,17.189,5337.9302843308,0,0,0.047500657688,0,0,0,183.2, 0.9, -0.4,0,0,364,364,364,1684,187.7,0,99,4.3,4.301,4.299,4.301,0,0,1.492,80.51,41,Motors_Started,
0.376730190438123,36.9245185230705,5337.9302843308,0,0,0.064846458768,400,2018-04-02 06:42:07,15,0,17.189,5337.9302843308,0,0,0.064846458768,0,0,0,183.1, 0.9, -0.4,0,0,364,364,364,1684,187.7,0,99,4.3,4.301,4.299,4.301,0,0,1.492,80.51,41,Motors_Started,
0.376730238688918,36.924518520326,5337.9302843308,0,0,0.082475068256,500,2018-04-02 06:42:07,15,0,17.189,5337.9302843308,0,0,0.082475068256,0,0,0,183.2, 0.9, -0.4,0,0,364,364,364,1684,187.7,0,99,4.3,4.301,4.299,4.301,0,0,1.492,80.51,41,Motors_Started,
0.376730288017744,36.9245185156554,5337.9302843308,0,0,0.100550856236,600,2018-04-02 06:42:07,15,0,17.189,5337.9302843308,0,0,0.100550856236,0,0,0,183.1, 0.9, -0.4,0,0,364,364,364,1684,187.7,0,99,4.3,4.301,4.299,4.301,0,0,1.492,80.51,41,Motors_Started,
0.376730338740518,36.9245185135302,5337.9302843308,0,0,0.119062339768,700,2018-04-02 06:42:07,15,0,17.189,5337.9302843308,0,0,0.119062339768,0,0,0,183.1, 0.9, -0.4,0,0,364,364,368,1684,187.7,0,99,4.3,4.301,4.299,4.301,0,0,1.492,80.51,41,Motors_Started,
0.376730360716369,36.9245185104992,5337.9302843308,0,0,0.1271407521,800,2018-04-02 06:42:07,15,0,17.189,5337.9302843308,0,0,0.1271407521,0,0,0,183.1, 0.9, -0.4,0,0,364,364,383,1684,187.7,0,99,4.3,4.301,4.299,4.301,0,0,1.492,80.51,41,Motors_Started,
0.376730380926988,36.92451850907,5337.9302843308,0,0,0.134532812704,900,2018-04-02 06:42:07,15,0,17.189,5337.9302843308,0,0,0.134532812704,0,0,0,183.1, 0.9, -0.4,0,0,364,364,493,1630,187.7,0,99,4.3,4.301,4.299,4.301,0,0,1.492,80.51,41,Motors_Started,
0.376730402585293,36.924518507297,5337.9302843308,0,0,0.142460962564,1000,2018-04-02 06:42:07,15,0,17.162,5337.9302843308,0,0,0.142460962564,0,0,0,183.1, 0.9, -0.4,0,0,641,604,693,1502,187.6,0,99,4.3,4.301,4.299,4.301,0,0,1.492,80.51,41,Motors_Started,
0.376730434335065,36.9245185066311,5337.9302843308,0,0,0.15403051674,1100,2018-04-02 06:42:07,15,0,17.162,5337.9302843308,0,0,0.15403051674,0,0,0,183.1, 1, -0.5,0,0,817,770,918,1313,187.2,0,99,4.3,4.301,4.299,4.301,0,0,1.492,80.51,41,Motors_Started,
0.376730467177524,36.9245185043667,5337.9302843308,0,0,0.166041343896,1200,2018-04-02 06:42:07,15,0,17.162,5337.9302843308,0,0,0.166041343896,0,0,0,183.1, 0.8, -0.4,0,0,1024,1024,1071,1024,186.4,0,99,4.3,4.301,4.299,4.301,0,0,1.492,80.51,41,Motors_Started,
0.376730507418004,36.9245185039957,5337.9302843308,0,0,0.180696528092,1300,2018-04-02 06:42:07,15,0,17.162,5337.9302843308,0,0,0.180696528092,0,0,0,183.1, 0.9, -0.4,0,0,1024,1024,1024,1024,185.2,0,99,4.3,4.301,4.299,4.301,0,0,1.492,80.51,41,Motors_Started,
0.376730550482205,36.9245185014139,5337.9302843308,0,0,0.196436029908,1400,2018-04-02 06:42:08,15,0,17.162,5337.9302843308,0,0,0.196436029908,0,0,0,183.1, 0.9, -0.4,0,0,1024,1024,1024,1024,185.2,0,99,4.3,4.301,4.299,4.301,0,0,1.492,80.51,41,Motors_Started,
0.37673059779176,36.9245185018647,5337.9302843308,0,0,0.213651253556,1500,2018-04-02 06:42:08,15,0,17.162,5337.9302843308,0,0,0.213651253556,0,0,0,183.1, 1, -0.4,0,0,1024,1024,1024,1024,184.6,0,99,4.3,4.301,4.299,4.301,0,0,1.492,80.51,41,Motors_Started,
0.376730648542217,36.9245185013625,5337.9302843308,0,0,0.232146332888,1600,2018-04-02 06:42:08,15,0,17.162,5337.9302843308,0,0,0.232146332888,0,0,0,183.1, 0.8, -0.4,0,0,1024,1024,1024,1024,184.3,0,99,4.3,4.301,4.299,4.301,0,0,1.492,80.51,10,Assisted_Takeoff,
0.37673069628331,36.924518499868,5337.9302843308,0,0,0.249567921372,1700,2018-04-02 06:42:08,15,0,17.162,5337.9302843308,0,0,0.249567921372,0,0,0,183.1, 0.9, -0.4,0,0,1024,1024,1024,1024,184.1,0,99,4.3,4.301,4.299,4.301,0,0,1.492,80.51,10,Assisted_Takeoff,
0.376730748785973,36.9245184693787,5337.9302843308,0,0,0.269493775028,1800,2018-04-02 06:42:08,15,0,17.162,5337.9302843308,0,0,0.269493775028,0,0,0,183.1, 0.9, -0.4,0,0,1024,1024,1024,1024,183.9,0,99,4.3,4.301,4.299,4.301,0,0,1.492,80.51,10,Assisted_Takeoff,
0.376730800606318,36.9245184380641,5337.9302843308,0,0,0.289533801916,1900,2018-04-02 06:42:08,15,0,17.162,5337.9302843308,0,0,0.289533801916,0,0,0,183.1, 0.8, -0.4,0,0,1024,1024,1024,1024,183.8,0,99,4.3,4.301,4.299,4.301,0,0,1.492,80.51,10,Assisted_Takeoff,
0.376730857224059,36.9245184079207,5337.9302843308,0,0,0.311517070336,2000,2018-04-02 06:42:08,15,0,17.027,5337.9302843308,0,0,0.311517070336,0,0,0,183.1, 0.8, -0.4,0,0,1024,1024,1024,1024,183.8,0,99,4.297,4.298,4.295,4.296,0,0,2.1,80.51,10,Assisted_Takeoff,
0.376730911024591,36.9245183878374,5337.9302843308,0,0,0.33205709724,2100,2018-04-02 06:42:08,15,0,17.027,5337.9302843308,0,0,0.33205709724,0,0,0,183.1, 0.8, -0.4,0,0,1024,1024,1024,1024,183.7,0,99,4.297,4.298,4.295,4.296,0,0,2.1,80.51,10,Assisted_Takeoff,
0.376730967541369,36.9245183723819,5337.9302843308,0,0,0.3533300638,2200,2018-04-02 06:42:08,15,0,17.027,5337.9302843308,0,0,0.3533300638,0,0,0,183.1, 0.8, -0.4,0,0,1024,1024,1024,1024,183.7,0,99,4.297,4.298,4.295,4.296,0,0,2.1,80.51,10,Assisted_Takeoff,
0.37673102187766,36.9245183604637,5337.9302843308,0,0,0.37360893584,2300,2018-04-02 06:42:09,15,0,17.027,5337.9302843308,0,0,0.37360893584,0,0,0,183.1, 0.8, -0.4,0,0,1024,1024,1024,1024,183.6,0,99,4.297,4.298,4.295,4.296,0,0,2.1,80.51,10,Assisted_Takeoff,
0.376731075748215,36.9245183265405,5337.9302843308,0,0,0.39520342472,2400,2018-04-02 06:42:09,15,0,17.027,5337.9302843308,0,0,0.39520342472,0,0,0,183.1, 0.8, -0.4,0,0,1024,1024,1024,1024,183.6,0,99,4.297,4.298,4.295,4.296,0,0,2.1,80.51,10,Assisted_Takeoff,
0.376731128420237,36.924518291226,5337.9302843308,0,0,0.41665683748,2500,2018-04-02 06:42:09,15,0,17.027,5337.9302843308,0,0,0.41665683748,0,0,0,183.1, 0.8, -0.4,0,0,1024,1024,1024,1024,183.6,0,99,4.297,4.298,4.295,4.296,0,0,2.1,80.51,10,Assisted_Takeoff,
0.376731181618245,36.9245182630938,5337.9302843308,0,0,0.43786418724,2600,2018-04-02 06:42:09,15,0,17.027,5337.9302843308,0,0,0.43786418724,0,0,0,183, 0.8, -0.4,0,0,1024,1024,1024,1024,183.6,0,99,4.297,4.298,4.295,4.296,0,0,2.1,80.51,10,Assisted_Takeoff,
0.376731233655173,36.9245182425667,5337.9302843308,0,0,0.45806759996,2700,2018-04-02 06:42:09,15,0,17.027,5337.9302843308,0,0,0.45806759996,0,0,0,183.1, 0.8, -0.4,0,0,1024,1024,1024,1024,183.5,0,99,4.297,4.298,4.295,4.296,0,0,2.1,80.51,10,Assisted_Takeoff,
0.376731283734711,36.9245182319258,5337.9302843308,0,0,0.4767388604,2800,2018-04-02 06:42:09,15,0,17.027,5337.9302843308,0,0,0.4767388604,0,0,0,183, 0.8, -0.4,0,0,1024,1024,1024,1024,183.5,0,99,4.297,4.298,4.295,4.296,0,0,2.1,80.51,10,Assisted_Takeoff,
0.37673133358301,36.9245182219684,5337.9302843308,0,0,0.49527232556,2900,2018-04-02 06:42:09,15,0,17.027,5337.9302843308,0,0,0.49527232556,0,0,0,183, 0.8, -0.4,0,0,1024,1024,1024,1024,183.5,0,99,4.297,4.298,4.295,4.296,0,0,2.1,80.51,10,Assisted_Takeoff,
0.376731382597546,36.9245181933352,5337.9302843308,0,0,0.51512796924,3000,2018-04-02 06:42:09,15,0,17.162,5337.9302843308,0,0,0.51512796924,0,0,0,183, 0.8, -0.4,0,1,1024,1024,1024,1024,183.5,0,99,4.294,4.294,4.289,4.291,0,0,2.704,80.51,10,Assisted_Takeoff,
0.376731431639766,36.9245181593279,5337.9302843308,0,0,0.53556104076,3100,2018-04-02 06:42:09,15,0,17.162,5337.9302843308,0,0,0.53556104076,0,0,0,183, 0.8, -0.4,0,1,1024,1024,1024,1024,183.5,0,99,4.294,4.294,4.289,4.291,0,0,2.704,80.51,10,Assisted_Takeoff,
0.376731480058291,36.9245181353984,5337.9302843308,0,0,0.55489503088,3200,2018-04-02 06:42:09,15,0,17.162,5337.9302843308,0,0,0.55489503088,0,0,0,183, 0.8, -0.4,0,1,1024,1024,1024,1024,183.5,0,99,4.294,4.294,4.289,4.291,0,0,2.704,80.51,10,Assisted_Takeoff,
0.376731529102139,36.9245181166106,5337.9302843308,0,0,0.5739665538,3300,2018-04-02 06:42:09,15,0,17.162,5337.9302843308,0,0,0.5739665538,0,0,0,183, 0.8, -0.4,0,1,1024,1024,1024,1024,183.5,0,99,4.294,4.294,4.289,4.291,0,0,2.704,80.51,10,Assisted_Takeoff,
0.376731578303946,36.9245181098753,5337.9302843308,0,0,0.59192587196,3400,2018-04-02 06:42:10,15,0,17.162,5337.9302843308,0,0,0.59192587196,0,0,0,183, 0.8, -0.4,0,1,1024,1024,1024,1024,183.5,0,99,4.294,4.294,4.289,4.291,0,0,2.704,80.51,10,Assisted_Takeoff,
0.376731627212633,36.9245181020073,5337.9302843308,0,0,0.60989831348,3500,2018-04-02 06:42:10,15,0,17.162,5337.9302843308,0,0,0.60989831348,0,0,0,183, 0.8, -0.4,0,1,1024,1024,1024,1024,183.4,0,99,4.294,4.294,4.289,4.291,0,0,2.704,80.51,10,Assisted_Takeoff,
0.376731676118063,36.9245180776672,5337.9302843308,0,0,0.62945211988,3600,2018-04-02 06:42:10,15,0,17.162,5337.9302843308,0,0,0.62945211988,0,0,0,183, 0.8, -0.4,0,1,1024,1024,1024,1024,183.4,0,99,4.294,4.294,4.289,4.291,0,0,2.704,80.51,10,Assisted_Takeoff,
0.376731725054433,36.9245180469756,5337.9302843308,0,0,0.6496719368,3700,2018-04-02 06:42:10,15,0,17.162,5337.9302843308,0,0,0.6496719368,0,0,0,183, 0.8, -0.4,0,1,1024,1024,1024,1024,183.4,0,99,4.294,4.294,4.289,4.291,0,0,2.704,80.51,10,Assisted_Takeoff,
0.376731773792134,36.9245180272189,5337.9302843308,0,0,0.66875330224,3800,2018-04-02 06:42:10,15,0,17.162,5337.9302843308,0,0,0.66875330224,0,0,0,183, 0.8, -0.4,0,1,1024,1024,1024,1024,183.4,0,99,4.294,4.294,4.289,4.291,0,0,2.704,80.51,10,Assisted_Takeoff,
0.376731822225315,36.9245180106408,5337.9302843308,0,0,0.68741143932,3900,2018-04-02 06:42:10,15,0,17.162,5337.9302843308,0,0,0.68741143932,0,0,0,183, 0.8, -0.4,0,1,1024,1024,1024,1024,183.4,0,99,4.294,4.294,4.289,4.291,0,0,2.704,80.51,10,Assisted_Takeoff,
0.376731871264278,36.9245180060007,5337.9302843308,0,0,0.70507220104,4000,2018-04-02 06:42:10,15,0,17.162,5337.9302843308,0,0,0.70507220104,0,0,0,183, 0.8, -0.4,0,1,1024,1024,1024,1024,183.4,0,99,4.294,4.294,4.289,4.291,0,0,1.898,80.51,10,Assisted_Takeoff,
0.376731919674661,36.9245179974823,5337.9302843308,0,0,0.72291012812,4100,2018-04-02 06:42:10,15,0,17.162,5337.9302843308,0,0,0.72291012812,0,0,0,183, 0.8, -0.4,0,1,1024,1024,1024,1024,183.4,0,99,4.294,4.294,4.289,4.291,0,0,1.898,80.51,10,Assisted_Takeoff,
0.376731967967796,36.924518000684,5337.9302843308,0,0,0.7395669528,4200,2018-04-02 06:42:10,15,0,17.162,5337.9302843308,0,0,0.7395669528,0,0,0,183, 0.8, -0.4,0,1,1024,1024,1024,1024,183.4,0,99,4.294,4.294,4.289,4.291,0,0,1.898,80.51,10,Assisted_Takeoff,
0.376732014928864,36.9245179980813,5337.9302843308,0,0,0.7563484494,4300,2018-04-02 06:42:11,15,0,17.162,5337.9302843308,0,0,0.7563484494,0,0,0,183, 0.8, -0.4,0,1,1024,1024,1024,1024,183.4,0,99,4.294,4.294,4.289,4.291,0,0,1.898,80.51,10,Assisted_Takeoff,
0.376732062427318,36.924517975776,5337.9302843308,0,0,0.77520671772,4400,2018-04-02 06:42:11,15,0,17.162,5337.9302843308,0,0,0.77520671772,0,0,0,183, 0.8, -0.4,0,1,1024,1024,1024,1024,183.4,0,99,4.294,4.294,4.289,4.291,0,0,1.898,80.51,10,Assisted_Takeoff,
0.376732109212515,36.92451794617,5337.9302843308,0,0,0.79454726952,4500,2018-04-02 06:42:11,15,0,17.162,5337.9302843308,0,0,0.79454726952,0,0,0,183, 0.8, -0.4,0,1,1024,1024,1024,1024,183.4,0,99,4.294,4.294,4.289,4.291,0,0,1.898,80.51,10,Assisted_Takeoff,
0.376732128413498,36.9245179271103,5337.9302843308,0,0,0.80319228292,4600,2018-04-02 06:42:11,15,0,17.162,5337.9302843308,0,0,0.80319228292,0,0,0,183, 0.8, -0.4,0,1,1024,1024,1024,1024,183.4,0,99,4.294,4.294,4.289,4.291,0,0,1.898,80.51,10,Assisted_Takeoff,
0.37673214654785,36.9245179097769,5337.9302843308,0,0,0.81131236192,4700,2018-04-02 06:42:11,15,0,17.162,5337.9302843308,0,0,0.81131236192,0,0,0,183, 0.8, -0.4,0,1,1024,1024,1024,1024,183.4,0,99,4.294,4.294,4.289,4.291,0,0,1.898,80.51,10,Assisted_Takeoff,
0.376732169158795,36.9245179052396,5337.9302843308,0,0,0.81969490812,4800,2018-04-02 06:42:11,15,0,17.162,5337.9302843308,0,0,0.81969490812,0,0,0,183, 0.8, -0.4,0,1,1024,1024,1024,1024,183.4,0,99,4.294,4.294,4.289,4.291,0,0,1.898,80.51,10,Assisted_Takeoff,
0.376732199977098,36.9245178969241,5337.9302843308,0,0,0.83133860928,4900,2018-04-02 06:42:11,15,0,17.162,5337.9302843308,0,0,0.83133860928,0,0,0,183, 0.8, -0.4,0,1,1024,1024,1024,1024,183.4,0,99,4.294,4.294,4.289,4.291,0,0,1.898,80.51,10,Assisted_Takeoff,
0.376732236107385,36.9245179000166,5337.9302843308,0,0,0.8436844102,5000,2018-04-02 06:42:11,15,0,17.135,5337.9302843308,0,0,0.8436844102,0,0,0,183, 0.8, -0.4,0,1,1024,1024,1024,1024,183.4,0,99,4.294,4.295,4.292,4.294,0,0,1.898,80.51,10,Assisted_Takeoff,
0.376732273786322,36.9245178988191,5337.9302843308,0,0,0.85702758648,5100,2018-04-02 06:42:11,15,0,17.135,5337.9302843308,0,0,0.85702758648,0,0,0,183, 0.8, -0.4,0,1,1024,1024,1024,1023,183.4,0,99,4.294,4.295,4.292,4.294,0,0,1.898,80.51,10,Assisted_Takeoff,
0.376732289494293,36.9245179081544,5337.9302843308,0,0,0.861630605,5200,2018-04-02 06:42:11,15,0,17.135,5337.9302843308,0,0,0.861630605,0,0,0,183, 0.8, -0.4,0,1,1024,1024,1024,1024,183.4,0,99,4.294,4.295,4.292,4.294,0,0,1.898,80.51,10,Assisted_Takeoff,
0.376732303554278,36.9245179094718,5337.9302843308,0,0,0.86644687812,5300,2018-04-02 06:42:11,15,0,17.135,5337.9302843308,0,0,0.86644687812,0,0,0,183, 0.8, -0.4,0,1,1024,1024,1111,1024,183.4,0,99,4.294,4.295,4.292,4.294,0,0,1.898,80.51,10,Assisted_Takeoff,
0.376732296994906,36.924517889381,5337.9302843308,0,0,0.86611223244,5400,2018-04-02 06:42:12,15,0,17.135,5337.9302843308,0,0,0.86644687812,0,0,0,183, 0.8, -0.4,0,1,1024,1024,1208,1018,183.4,0,99,4.294,4.295,4.292,4.294,0,0,1.898,80.51,10,Assisted_Takeoff,
0.376732296056922,36.9245178623204,5337.9302843308,0,0,0.86853021152,5500,2018-04-02 06:42:12,15,0,17.135,5337.9302843308,0,0,0.86853021152,0,0,0,183, 0.8, -0.4,0,1,1024,1024,1225,1022,183.4,0,99,4.294,4.295,4.292,4.294,0,0,1.898,80.51,10,Assisted_Takeoff,
0.376732308990024,36.9245178438709,5337.9302843308,0,0,0.87498034296,5600,2018-04-02 06:42:12,15,0,17.135,5337.9302843308,0,0,0.87498034296,0,0,0,183, 0.9, -0.4,0,1,1024,1024,1211,1024,183.4,0,99,4.294,4.295,4.292,4.294,0,0,1.898,80.51,10,Assisted_Takeoff,
0.376732330786747,36.9245178290637,5337.9302843308,0,0,0.88416013328,5700,2018-04-02 06:42:12,15,0,17.135,5337.9302843308,0,0,0.88416013328,0,0,0,182.9, 0.9, -0.4,0,1,1024,1024,1215,1024,183.4,0,99,4.294,4.295,4.292,4.294,0,0,1.898,80.51,10,Assisted_Takeoff,
0.376732337964928,36.9245178242089,5337.9302843308,0,0,0.88718178692,5800,2018-04-02 06:42:12,15,0,17.135,5337.9302843308,0,0,0.88718178692,0,0,0,182.9, 1, -0.5,0,1,1024,1024,1245,1024,183.4,0,99,4.294,4.295,4.292,4.294,0,0,1.898,80.51,10,Assisted_Takeoff,
0.37673234604201,36.9245178180641,5337.9302843308,0,0,0.89065947732,5900,2018-04-02 06:42:12,15,0,17.135,5337.9302843308,0,0,0.89065947732,0,0,0,182.9, 1.1, -0.5,0,1,1024,1024,1274,1024,183.4,0,99,4.294,4.295,4.292,4.294,0,0,1.898,80.51,10,Assisted_Takeoff,
0.376732371056539,36.9245178211197,5337.9302843308,0,0,0.89905842772,6000,2018-04-02 06:42:12,15,0,17.162,5337.9302843308,0,0,0.89905842772,0,0,0,182.8, 1.4, -0.3,0,1,1024,1024,1286,1024,183.4,0,99,4.293,4.295,4.291,4.294,0,0,1.918,80.51,10,Assisted_Takeoff,
0.376732409619721,36.9245178291552,5337.9302843308,0,0,0.9116962234,6100,2018-04-02 06:42:12,15,0,17.162,5337.9302843308,0,0,0.9116962234,0,0,0,182.7, 2.6, 0.1,0,1,1024,1024,1299,1024,183.4,0,99,4.293,4.295,4.291,4.294,0,0,1.918,80.51,10,Assisted_Takeoff,
0.37673247812836,36.9245178549947,5337.9302843308,0,0,0.93313323196,6200,2018-04-02 06:42:12,15,0,17.162,5337.9302843308,0,0,0.93313323196,0,0,-0.447388,182.6, 2.5, 0.2,0,1,1024,1024,1290,1024,183.4,0,99,4.293,4.295,4.291,4.294,0,0,1.918,80.51,6,P-GPS,
0.376732603700933,36.9245178835027,5337.9302843308,0,0.223694,0.97476381072,6300,2018-04-02 06:42:12,15,0,17.162,5337.9302843308,0,0.223694,0.97476381072,0.223694,0,-0.894776,182.5, 0.9, 0.4,0,1,1024,1024,1286,1024,183.3,0,99,4.293,4.295,4.291,4.294,0,0,1.918,80.51,6,P-GPS,
0.376732812407201,36.9245179164924,5337.9302843308,0,0.223694,1.04608599148,6400,2018-04-02 06:42:13,15,0,17.162,5337.9302843308,0,0.223694,1.04608599148,0.223694,0,-1.11847,182.4, 0, 0.5,0,1,1024,1024,1286,1024,183.3,0,99,4.293,4.295,4.291,4.294,0,0,1.918,80.51,6,P-GPS,
0.376733021891865,36.9245179408721,5338.2583683308,0.328084,0.223694,1.1190617156,6500,2018-04-02 06:42:13,15,0,17.162,5338.2583683308,0.328084,0.223694,1.1190617156,0.223694,0,-1.565858,182.3, -0.3, 0.3,0,1,1024,1024,1289,1024,183.3,0,99,4.293,4.295,4.291,4.294,0,0,1.918,80.51,6,P-GPS,
0.376733209819188,36.9245179848811,5338.5864523308,0.656168,0.223694,1.18354990664,6600,2018-04-02 06:42:13,15,0,17.162,5338.5864523308,0.656168,0.223694,1.18354990664,0.223694,0,-2.013246,182.2, -0.5, 0.1,0,1,1024,1024,1315,1024,183.3,0,99,4.293,4.295,4.291,4.294,0,0,1.918,80.51,6,P-GPS,
0.376733381030533,36.9245180282365,5338.9145363308,0.984252,0.223694,1.24268704764,6700,2018-04-02 06:42:13,15,0,17.162,5338.9145363308,0.984252,0.223694,1.24268704764,0.223694,0,-2.23694,182.3, -1.2, 0.4,0,1,1024,1024,1358,1024,183.3,0,99,4.293,4.295,4.291,4.294,0,0,1.918,80.51,6,P-GPS,
0.376733574582501,36.9245180868269,5339.2426203308,1.312336,0.223694,1.30969820464,6800,2018-04-02 06:42:13,15,0,17.162,5339.2426203308,1.312336,0.223694,1.30969820464,0.223694,0,-2.460634,182.3, -1.8, 1,0,1,1024,1024,1357,1024,183.3,0,99,4.293,4.295,4.291,4.294,0,0,1.918,80.51,6,P-GPS,
0.37673375134684,36.9245181171277,5339.5707043308,1.64042,0.223694,1.3724245846,6900,2018-04-02 06:42:13,15,0,17.162,5339.5707043308,1.64042,0.223694,1.3724245846,0.223694,0,-2.684328,182.3, -1.8, 0.7,0,1,1024,1024,1341,1024,183.3,0,99,4.293,4.295,4.291,4.294,0,0,1.918,80.51,6,P-GPS,
0.376733943659562,36.9245180738108,5339.8987883308,1.968504,0.223694,1.44393705408,7000,2018-04-02 06:42:13,14,0,16.595,5339.8987883308,1.968504,0.223694,1.44393705408,0.223694,0,-3.131716,182.4, -2.1, -0.3,0,1,1024,1024,1331,1024,183.2,0,99,4.207,4.218,4.207,4.203,0,0,10.224,80.51,6,P-GPS,
0.376734107389836,36.9245180195613,5340.5549563308,2.624672,0,1.50563653112,7100,2018-04-02 06:42:13,14,0,16.595,5340.5549563308,2.624672,0.223694,1.50563653112,0,0,-3.35541,182.6, -2.2, -0.8,0,1,1024,1024,1324,1024,183.2,0,99,4.207,4.218,4.207,4.203,0,0,10.224,80.51,6,P-GPS,Home Point Recorded. RTH Altitude:  30m.
0.376734237652328,36.9245180069359,5340.8830403308,2.952756,0,1.5533629106,7200,2018-04-02 06:42:13,15,0,16.595,5340.8830403308,2.952756,0.223694,1.5533629106,0,0,-3.579104,182.7, -1.8, -0.7,0,1,1024,1024,1345,1024,183.2,0,99,4.207,4.218,4.207,4.203,0,0,10.224,80.51,6,P-GPS,
0.376734342509465,36.9245180091714,5341.5392083308,3.608924,0,1.59123036588,7300,2018-04-02 06:42:13,15,0,16.595,5341.5392083308,3.608924,0.223694,1.59123036588,0,0,-3.802798,182.7, -1.6, -0.4,0,1,1024,1024,1332,1024,183.2,0,99,4.207,4.218,4.207,4.203,0,0,10.224,80.51,6,P-GPS,
0.376734424791484,36.9245179950649,5342.1953763308,4.265092,0,1.6216535952,7400,2018-04-02 06:42:14,15,0,16.595,5342.1953763308,4.265092,0.223694,1.6216535952,0,0,-4.026492,182.6, -1.8, -0.4,0,1,1024,1024,1301,1024,183.2,0,99,4.207,4.218,4.207,4.203,0,0,10.224,80.51,6,P-GPS,
0.37673449871307,36.9245179772449,5342.8515443308,4.92126,0,1.64921921288,7500,2018-04-02 06:42:14,15,0,16.595,5342.8515443308,4.92126,0.223694,1.64921921288,0,0,-4.026492,182.6, -1.9, -0.3,0,1,1024,1024,1303,1024,183.2,0,99,4.207,4.218,4.207,4.203,0,0,10.224,80.51,6,P-GPS,
0.376734559600591,36.9245179334366,5343.1796283308,5.249344,0,1.67329729764,7600,2018-04-02 06:42:14,14,0,16.595,5343.1796283308,5.249344,0.223694,1.67329729764,0,0,-3.802798,182.7, -1.9, -0.8,0,1,1024,1024,1325,1024,183.2,0,99,4.207,4.218,4.207,4.203,0,0,10.224,80.51,6,P-GPS,
0.37673461573957,36.9245179004346,5343.8357963308,5.905512,0,1.695210028,7700,2018-04-02 06:42:14,14,0,16.595,5343.8357963308,5.905512,0.223694,1.695210028,0,0,-3.579104,182.7, -2, -0.9,0,1,1024,1024,1337,1024,183.2,0,99,4.207,4.218,4.207,4.203,0,0,10.224,80.51,6,P-GPS,
0.376734703237494,36.924517895998,5344.4919643308,6.56168,0,1.72705714188,7800,2018-04-02 06:42:14,15,0,16.595,5344.4919643308,6.56168,0.223694,1.72705714188,0,0,-3.579104,182.8, -1.9, 0,0,1,1024,1024,1326,1024,183.2,0,99,4.207,4.218,4.207,4.203,0,0,10.224,80.51,6,P-GPS,
0.376734788240642,36.9245179018505,5344.8200483308,6.889764,0,1.75750661792,7900,2018-04-02 06:42:14,15,0,16.595,5344.8200483308,6.889764,0.223694,1.75750661792,0,0,-3.579104,182.9, -1.8, 0.2,0,1,1024,1024,1315,1024,183.2,0,99,4.207,4.218,4.207,4.203,0,0,10.224,80.51,6,P-GPS,
0.37673486036117,36.9245179023853,5345.4762163308,7.545932,0,1.78356633004,8000,2018-04-02 06:42:14,15,0,16.568,5345.4762163308,7.545932,0.223694,1.78356633004,0,0,-3.579104,182.9, -1.9, 0.3,0,1,1024,1024,1315,1024,183.2,0,99,4.207,4.218,4.207,4.203,0,0,14.218,80.51,6,P-GPS,
0.376734911930734,36.9245178931512,5346.1323843308,8.2021,0,1.80266081884,8100,2018-04-02 06:42:14,15,0,16.568,5346.1323843308,8.2021,0.223694,1.80266081884,0,0,-3.579104,182.9, -2.1, 0,0,1,1024,1024,1300,1024,183.2,0,99,4.207,4.218,4.207,4.203,0,0,14.218,80.51,6,P-GPS,
0.376734945365947,36.9245178689075,5346.4604683308,8.530184,0,1.81592197412,8200,2018-04-02 06:42:14,15,0,16.568,5346.4604683308,8.530184,0.223694,1.81592197412,0,0,-3.35541,182.9, -2.1, -0.4,0,1,1024,1024,1290,1024,183.2,0,99,4.207,4.218,4.207,4.203,0,0,14.218,80.51,6,P-GPS,
0.376734957488084,36.924517846297,5347.1166363308,9.186352,0,1.82143050448,8300,2018-04-02 06:42:14,15,0,16.568,5347.1166363308,9.186352,0.223694,1.82143050448,0,0,-3.35541,182.8, -1.7, -0.4,0,1,1024,1024,1290,1024,183.2,0,99,4.207,4.218,4.207,4.203,0,0,14.218,80.51,6,P-GPS,
0.376734963821102,36.9245178325694,5347.4447203308,9.514436,0,1.82441606888,8400,2018-04-02 06:42:15,15,0,16.568,5347.4447203308,9.514436,0.223694,1.82441606888,0,0,-3.131716,182.8, -1.5, -0.7,0,1,1024,1024,1293,1024,183.2,0,99,4.207,4.218,4.207,4.203,0,0,14.218,80.51,6,P-GPS,
0.376734971259835,36.9245178261232,5348.1008883308,10.170604,0,1.82743772252,8500,2018-04-02 06:42:15,15,0,16.568,5348.1008883308,10.170604,0.223694,1.82743772252,0,0,-3.131716,182.8, -1.8, -0.7,0,1,1024,1024,1300,1024,183.2,0,99,4.207,4.218,4.207,4.203,0,0,14.218,80.51,6,P-GPS,
0.376734990452676,36.9245178662475,5348.4289723308,10.498688,0,1.83235570168,8600,2018-04-02 06:42:15,15,0,16.568,5348.4289723308,10.498688,0.223694,1.83235570168,0,0,-2.908022,182.9, -1.7, -0.5,0,1,1024,1024,1305,1024,183.2,0,99,4.207,4.218,4.207,4.203,0,0,14.218,80.51,6,P-GPS,
0.376734996634249,36.9245179201469,5349.0851403308,11.154856,0,1.83206698776,8700,2018-04-02 06:42:15,15,0,16.568,5349.0851403308,11.154856,0.223694,1.83235570168,0,0,-2.908022,182.9, -1.5, 0,0,1,1024,1024,1318,1024,183.2,0,99,4.207,4.218,4.207,4.203,0,0,14.218,80.51,6,P-GPS,
0.376734992118574,36.9245179548919,5349.4132243308,11.48294,0,1.82891738136,8800,2018-04-02 06:42:15,15,0,16.568,5349.4132243308,11.48294,0.223694,1.83235570168,0,0,-2.908022,182.9, -1.4, 0.2,0,1,1024,1024,1333,1024,183.2,0,99,4.207,4.218,4.207,4.203,0,0,14.218,80.51,6,P-GPS,
0.376734968097396,36.9245179623348,5349.7413083308,11.811024,0,1.8198983522,8900,2018-04-02 06:42:15,15,0,16.568,5349.7413083308,11.811024,0.223694,1.83235570168,0,0,-3.131716,182.9, -0.8, 0.1,0,1,1024,1024,1341,1024,183.2,0,99,4.207,4.218,4.207,4.203,0,0,14.218,80.51,6,P-GPS,
0.376734948839418,36.9245180116991,5350.3974763308,12.467192,0,1.81092197396,9000,2018-04-02 06:42:15,15,0,16.73,5350.3974763308,12.467192,0.223694,1.83235570168,0,0,-3.35541,182.9, -0.9, 0.2,0,1,1024,1024,1341,1024,183.2,0,99,4.172,4.18,4.164,4.185,0,0,14.218,80.51,6,P-GPS,
0.37673492367833,36.9245180744484,5350.7255603308,12.795276,0,1.79950136992,9100,2018-04-02 06:42:15,15,0,16.73,5350.7255603308,12.795276,0.223694,1.83235570168,0,0,-3.35541,182.9, -0.8, 0.6,0,1,1024,1024,1339,1024,183.2,0,99,4.172,4.18,4.164,4.185,0,0,14.218,80.51,6,P-GPS,
0.376734899642496,36.9245181158429,5351.3817283308,13.451444,0,1.78940950608,9200,2018-04-02 06:42:15,15,0,16.73,5351.3817283308,13.451444,0.223694,1.83235570168,0,0,-3.579104,182.8, -0.3, -0.1,0,1,1024,1024,1341,1024,183.2,0,99,4.172,4.18,4.164,4.185,0,0,14.218,80.51,6,P-GPS,
0.376734880272155,36.9245181396001,5352.0378963308,14.107612,0,1.78164047696,9300,2018-04-02 06:42:16,15,0,16.73,5352.0378963308,14.107612,0.223694,1.83235570168,0,0,-3.802798,182.8, 0.1, -0.1,0,1,1024,1024,1341,1024,183.2,0,99,4.172,4.18,4.164,4.185,0,0,14.218,80.51,6,P-GPS,
0.376734899466624,36.9245181501441,5352.3659803308,14.435696,0,1.78831042468,9400,2018-04-02 06:42:16,15,0,16.73,5352.3659803308,14.435696,0.223694,1.83235570168,0,0,-3.802798,182.8, 0.1, 0.9,0,1,1024,1024,1327,1024,183.2,0,99,4.172,4.18,4.164,4.185,0,0,14.218,80.51,6,P-GPS,
0.376734973357271,36.9245181436647,5353.0221483308,15.091864,0.223694,1.81537407384,9500,2018-04-02 06:42:16,15,0,16.73,5353.0221483308,15.091864,0.223694,1.83235570168,0.223694,0,-3.802798,182.6, -1.3, 0.9,0,1,1024,1024,1316,1024,183.2,0,99,4.172,4.18,4.164,4.185,0,0,14.218,80.51,6,P-GPS,
0.376735102606871,36.924518128063,5353.6783163308,15.748032,0.223694,1.86283470528,9600,2018-04-02 06:42:16,15,0,16.73,5353.6783163308,15.748032,0.223694,1.86283470528,0.223694,0,-3.802798,182.6, -2.7, 0,0,1,1024,1024,1309,1024,183.2,0,99,4.172,4.18,4.164,4.185,0,0,14.218,80.51,6,P-GPS,
0.376735247585611,36.9245181325677,5354.3344843308,16.4042,0.223694,1.915436413,9700,2018-04-02 06:42:16,15,0,16.73,5354.3344843308,16.4042,0.223694,1.915436413,0.223694,0,-3.579104,182.6, -3.5, 0.1,0,1,1024,1024,1307,1024,183.2,-0.1,99,4.172,4.18,4.164,4.185,0,0,14.218,80.51,6,P-GPS,
0.376735429945284,36.9245181555293,5354.6625683308,16.732284,0.223694,1.98117132324,9800,2018-04-02 06:42:16,15,0,16.73,5354.6625683308,16.732284,0.223694,1.98117132324,0.223694,0,-3.579104,182.6, -4.2, 0.2,0,1,1024,1024,1306,1024,183.1,-2.2,99,4.172,4.18,4.164,4.185,0,0,14.218,80.51,6,P-GPS,
0.376735609686418,36.9245181753342,5355.3187363308,17.388452,0.223694,2.0461122702,9900,2018-04-02 06:42:16,15,0,16.73,5355.3187363308,17.388452,0.223694,2.0461122702,0.223694,0,-3.35541,182.6, -5, 0.1,0,1,1024,1024,1308,1024,183.1,-4.4,99,4.172,4.18,4.164,4.185,0,0,14.218,80.51,6,P-GPS,
0.376735753059513,36.9245181726288,5355.6468203308,17.716536,0,2.09837933224,10000,2018-04-02 06:42:16,15,0,16.46,5355.6468203308,17.716536,0.223694,2.09837933224,0,0,-3.35541,182.5, -4.9, -0.8,0,1,1024,1024,1308,1024,183.1,-6.5,99,4.161,4.176,4.157,4.172,0,0,12.97,80.51,6,P-GPS,
0.376735850665189,36.9245181528292,5356.3029883308,18.372704,0,2.1343832704,10100,2018-04-02 06:42:16,15,0,16.46,5356.3029883308,18.372704,0.223694,2.1343832704,0,0,-3.131716,182.3, -4.5, -1.6,0,1,1024,1024,1304,1024,183.1,-6.5,99,4.161,4.176,4.157,4.172,0,0,12.97,80.51,6,P-GPS,
0.376735932489615,36.9245181154629,5356.6310723308,18.700788,0,2.16509849448,10200,2018-04-02 06:42:16,15,0,16.46,5356.6310723308,18.700788,0.223694,2.16509849448,0,0,-3.131716,182.3, -3.4, -2.4,0,1,1024,1024,1302,1024,183.1,-8.3,99,4.161,4.176,4.157,4.172,0,0,12.97,80.51,6,P-GPS,
0.376736010803115,36.924518108332,5357.2872403308,19.356956,0.223694,2.1937828786,10300,2018-04-02 06:42:16,15,0,16.46,5357.2872403308,19.356956,0.223694,2.1937828786,0.223694,0,-3.131716,182.4, -3.1, -1.7,0,1,1024,1024,1302,1024,183.1,-8.4,99,4.161,4.176,4.157,4.172,0,0,12.97,80.51,6,P-GPS,
0.376736104458186,36.9245181143542,5357.6153243308,19.68504,0.223694,2.22771660672,10400,2018-04-02 06:42:17,15,0,16.46,5357.6153243308,19.68504,0.223694,2.22771660672,0.223694,0,-3.131716,182.4, -3.5, -1.7,0,1,1024,1024,1307,1024,183.1,-8.4,99,4.161,4.176,4.157,4.172,0,0,12.97,80.51,6,P-GPS,
0.376736201500421,36.9245181569897,5358.2714923308,20.341208,0.223694,2.26202763144,10500,2018-04-02 06:42:17,15,0,16.46,5358.2714923308,20.341208,0.223694,2.26202763144,0.223694,0,-3.131716,182.4, -4, -1.3,0,1,1024,1024,1311,1024,183.1,-8.4,99,4.161,4.176,4.157,4.172,0,0,12.97,80.51,6,P-GPS,
0.376736309839172,36.9245182480328,5358.5995763308,20.669292,0.3131716,2.29971792136,10600,2018-04-02 06:42:17,15,0,16.46,5358.5995763308,20.669292,0.3131716,2.29971792136,0.223694,0.223694,-3.131716,182.5, -4.6, -0.5,0,1,1024,1024,1312,1024,183.1,-8.4,99,4.161,4.176,4.157,4.172,0,0,12.97,80.51,6,P-GPS,
0.376736404476195,36.92451838417,5358.9276603308,20.997376,0.223694,2.33249023212,10700,2018-04-02 06:42:17,15,0,16.46,5358.9276603308,20.997376,0.3131716,2.33249023212,0,0.223694,-3.131716,182.5, -5, 0.9,0,1,1024,1024,1315,1024,183.1,-8.4,99,4.161,4.176,4.157,4.172,0,0,12.97,80.51,6,P-GPS,
0.376736482325588,36.9245185436281,5359.5838283308,21.653544,0.223694,2.36022645348,10800,2018-04-02 06:42:17,15,0,16.46,5359.5838283308,21.653544,0.3131716,2.36022645348,0,0.223694,-3.131716,182.6, -5, 2.4,0,1,1024,1024,1325,1024,183.1,-8.4,99,4.161,4.176,4.157,4.172,0,0,12.97,80.51,6,P-GPS,
0.376736533378936,36.92451868321,5359.9119123308,21.981628,0,2.3794456142,10900,2018-04-02 06:42:17,15,0,16.46,5359.9119123308,21.981628,0.3131716,2.3794456142,0,0,-3.131716,182.7, -4.7, 3.2,0,1,1024,1024,1326,1024,183.1,-8.4,99,4.161,4.176,4.157,4.172,0,0,12.97,80.51,6,P-GPS,
0.37673657991498,36.9245187502417,5360.5680803308,22.637796,0,2.39708669088,11000,2018-04-02 06:42:17,15,0,16.622,5360.5680803308,22.637796,0.3131716,2.39708669088,0,0,-3.131716,182.7, -4.3, 1.4,0,1,1024,1024,1327,1024,183.1,-8.4,99,4.16,4.175,4.155,4.173,0,0,12.378,80.51,6,P-GPS,
0.376736611161563,36.9245187831372,5360.8961643308,22.96588,0,2.40889771488,11100,2018-04-02 06:42:17,15,0,16.622,5360.8961643308,22.96588,0.3131716,2.40889771488,0,0,-3.35541,182.7, -3.9, 0.7,0,1,1024,1024,1327,1024,183.1,-8.4,99,4.16,4.175,4.155,4.173,0,0,12.378,80.51,6,P-GPS,
0.376736647215314,36.924518825233,5361.5523323308,23.622048,0,2.42266083868,11200,2018-04-02 06:42:17,15,0,16.622,5361.5523323308,23.622048,0.3131716,2.42266083868,0,0.223694,-3.35541,182.7, -3.8, 1.3,0,1,1024,1024,1334,1024,183.1,-8.4,99,4.16,4.175,4.155,4.173,0,0,12.378,80.51,6,P-GPS,
0.376736672741173,36.924518863519,5361.8804163308,23.950132,0.223694,2.43260834556,11300,2018-04-02 06:42:17,15,0,16.622,5361.8804163308,23.950132,0.3131716,2.43260834556,0,0.223694,-3.35541,182.7, -4.1, 1.8,0,1,1024,1024,1332,1024,183.1,-8.4,99,4.16,4.175,4.155,4.173,0,0,12.378,80.51,6,P-GPS,
0.376736707006892,36.9245188776743,5362.5365843308,24.6063,0,2.44535112812,11400,2018-04-02 06:42:18,15,0,16.622,5362.5365843308,24.6063,0.3131716,2.44535112812,0,0,-3.579104,182.6, -4, 1.7,0,1,1024,1024,1333,1024,183.1,-8.4,99,4.16,4.175,4.155,4.173,0,0,12.378,80.51,6,P-GPS,
0.376736733504933,36.9245188717559,5363.1927523308,25.262468,0,2.45489837252,11500,2018-04-02 06:42:18,15,0,16.622,5363.1927523308,25.262468,0.3131716,2.45489837252,0,0,-3.579104,182.6, -3.6, 0.6,0,1,1024,1024,1333,1024,183.1,-8.4,99,4.16,4.175,4.155,4.173,0,0,12.378,80.51,6,P-GPS,
0.376736781050612,36.9245188471519,5363.5208363308,25.590552,0,2.47179797936,11600,2018-04-02 06:42:18,15,0,16.622,5363.5208363308,25.590552,0.3131716,2.47179797936,0,0,-3.579104,182.6, -4.1, 0.2,0,1,1024,1024,1335,1024,183.1,-8.4,99,4.16,4.175,4.155,4.173,0,0,12.378,80.51,6,P-GPS,
0.376736813865387,36.9245188324399,5364.1770043308,26.24672,0,2.48351713984,11700,2018-04-02 06:42:18,15,0,16.622,5364.1770043308,26.24672,0.3131716,2.48351713984,0,0,-3.579104,182.7, -4, 0.5,0,1,1024,1024,1336,1024,183.1,-8.4,99,4.16,4.175,4.155,4.173,0,0,12.378,80.51,6,P-GPS,
0.376736829325834,36.924518824793,5364.5050883308,26.574804,0,2.48903551272,11800,2018-04-02 06:42:18,15,0,16.622,5364.5050883308,26.574804,0.3131716,2.48903551272,0,0,-3.579104,182.7, -3.9, 0.7,0,1,1024,1024,1337,1024,183.1,-8.4,99,4.16,4.175,4.155,4.173,0,0,12.378,80.51,6,P-GPS,
0.376736818459227,36.9245188290546,5365.1612563308,27.230972,0,2.48514115564,11900,2018-04-02 06:42:18,15,0,16.622,5365.1612563308,27.230972,0.3131716,2.48903551272,0,0,-3.579104,182.6, -3.9, 0.8,0,1,1024,1024,1336,1024,183.1,-8.4,99,4.16,4.175,4.155,4.173,0,0,12.378,80.51,6,P-GPS,
0.376736819687074,36.9245188112111,5365.8174243308,27.88714,0,2.485318321,12000,2018-04-02 06:42:18,15,0,16.568,5365.8174243308,27.88714,0.3131716,2.48903551272,0,0,-3.802798,182.6, -3.7, 1.4,0,1,1024,1024,1344,1024,183,-8.4,99,4.16,4.175,4.155,4.173,0,0,12.378,80.51,6,P-GPS,
0.376736814691008,36.9245187814247,5366.4735923308,28.543308,0,2.48308406896,12100,2018-04-02 06:42:18,15,0,16.568,5366.4735923308,28.543308,0.3131716,2.48903551272,0,0,-3.579104,182.6, -3.6, 1.1,0,1,1024,1024,1343,1024,183.1,-8.4,99,4.16,4.175,4.155,4.173,0,0,12.378,80.51,6,P-GPS,
0.376736794820734,36.9245187393069,5366.8016763308,28.871392,0,2.47533144404,12200,2018-04-02 06:42:18,15,0,16.568,5366.8016763308,28.871392,0.3131716,2.48903551272,0,0,-3.802798,182.6, -3.7, 1,0,1,1024,1024,1341,1024,183,-8.4,99,4.16,4.175,4.155,4.173,0,0,12.378,80.51,6,P-GPS,
0.37673675270103,36.9245186985446,5367.4578443308,29.52756,0,2.45957356952,12300,2018-04-02 06:42:18,15,0,16.568,5367.4578443308,29.52756,0.3131716,2.48903551272,0,0,-3.802798,182.7, -3.5, 0.6,0,1,1024,1024,1337,1024,183,-8.4,99,4.16,4.175,4.155,4.173,0,0,12.378,80.51,6,P-GPS,
0.376736720345477,36.9245186559627,5368.1140123308,30.183728,0,2.44744758488,12400,2018-04-02 06:42:19,15,0,16.568,5368.1140123308,30.183728,0.3131716,2.48903551272,0,0,-3.802798,182.7, -3.5, 0.6,0,1,1024,1024,1335,1024,183,-8.4,99,4.16,4.175,4.155,4.173,0,0,12.378,80.51,6,P-GPS,
0.376736694876612,36.9245186232872,5368.7701803308,30.839896,0,2.43797251896,12500,2018-04-02 06:42:19,15,0,16.568,5368.7701803308,30.839896,0.3131716,2.48903551272,0,0,-3.802798,182.6, -3.8, 0.4,0,1,1024,1024,1336,1024,183,-8.4,99,4.16,4.175,4.155,4.173,0,0,12.378,80.51,6,P-GPS,
0.376736689180315,36.9245185732046,5369.0982643308,31.16798,0,2.4357284244,12600,2018-04-02 06:42:19,15,0,16.568,5369.0982643308,31.16798,0.3131716,2.48903551272,0,0,-3.802798,182.6, -3.7, 0,0,1,1024,1024,1340,1024,183,-8.4,99,4.16,4.175,4.155,4.173,0,0,12.378,80.51,6,P-GPS,
0.37673667864754,36.9245185267074,5369.7544323308,31.824148,0,2.43185375236,12700,2018-04-02 06:42:19,15,0,16.568,5369.7544323308,31.824148,0.3131716,2.48903551272,0,0,-3.802798,182.6, -3.8, -0.3,0,1,1024,1024,1339,1024,183,-8.4,99,4.16,4.175,4.155,4.173,0,0,12.378,80.51,6,P-GPS,
0.376736688913251,36.9245184826047,5370.4106003308,32.480316,0,2.4356792118,12800,2018-04-02 06:42:19,15,0,16.568,5370.4106003308,32.480316,0.3131716,2.48903551272,0,0,-3.579104,182.6, -3.8, -0.2,0,1,1024,1024,1358,1024,183,-8.4,99,4.16,4.175,4.155,4.173,0,0,12.378,80.51,6,P-GPS,
0.376736706282234,36.924518478471,5371.3948523308,33.464568,0,2.44203091804,13000,2018-04-02 06:42:19,15,0,16.487,5371.3948523308,33.464568,0.3131716,2.48903551272,0,0,-3.802798,182.8, -3.7, 0.2,0,1,1024,1024,1350,1024,183,-8.4,99,4.143,4.157,4.132,4.154,0,0,14.416,80.51,6,P-GPS,
0.376736700390524,36.9245185281613,5372.0510203308,34.120736,0,2.43978682348,13100,2018-04-02 06:42:19,15,0,16.487,5372.0510203308,34.120736,0.3131716,2.48903551272,0,0,-4.026492,182.8, -3.6, 0.4,0,1,1024,1024,1349,1024,183,-8.4,99,4.143,4.157,4.132,4.154,0,0,14.416,80.51,6,P-GPS,
0.376736711200135,36.9245186217996,5372.7071883308,34.776904,0,2.44392068188,13200,2018-04-02 06:42:19,15,0,16.487,5372.7071883308,34.776904,0.3131716,2.48903551272,0,0,-4.026492,182.7, -3.9, 0.4,0,1,1024,1024,1348,1024,183,-8.4,99,4.143,4.157,4.132,4.154,0,0,14.416,80.51,6,P-GPS,
0.376736709084786,36.924518719752,5373.3633563308,35.433072,0,2.44386162676,13300,2018-04-02 06:42:19,15,0,16.487,5373.3633563308,35.433072,0.3131716,2.48903551272,0,0,-4.250186,182.7, -3.5, 0.6,0,1,1024,1024,1345,1024,183,-8.4,99,4.143,4.157,4.132,4.154,0,0,14.416,80.51,6,P-GPS,
0.3767367003319,36.9245188251291,5374.0195243308,36.08924,0,2.44201779468,13400,2018-04-02 06:42:20,15,0,16.487,5374.0195243308,36.08924,0.3131716,2.48903551272,0,0,-4.250186,182.7, -3.8, 1.3,0,1,1024,1024,1346,1024,183,-8.4,99,4.143,4.157,4.132,4.154,0,0,14.416,80.51,6,P-GPS,
0.376736685586339,36.9245189093053,5374.6756923308,36.745408,0,2.43815952684,13500,2018-04-02 06:42:20,15,0,16.487,5374.6756923308,36.745408,0.3131716,2.48903551272,0,0,-4.026492,182.6, -4.2, 1.4,0,1,1024,1024,1356,1024,183,-8.4,99,4.143,4.157,4.132,4.154,0,0,14.416,80.51,6,P-GPS,
0.376736683067137,36.924518980862,5375.3318603308,37.401576,0,2.43883537988,13600,2018-04-02 06:42:20,15,0,16.487,5375.3318603308,37.401576,0.3131716,2.48903551272,0,0,-4.026492,182.6, -4.2, 1.5,0,1,1024,1024,1369,1024,183,-8.4,99,4.143,4.157,4.132,4.154,0,0,14.416,80.51,6,P-GPS,
0.376736680085456,36.9245190409031,5375.9880283308,38.057744,0,2.43930125916,13700,2018-04-02 06:42:20,15,0,16.487,5375.9880283308,38.057744,0.3131716,2.48903551272,0,0,-3.802798,182.6, -4.2, 1.8,0,1,1024,1024,1394,1024,183,-8.4,99,4.143,4.157,4.132,4.154,0,0,14.416,80.51,6,P-GPS,
0.376736680414401,36.9245190458103,5376.6441963308,38.713912,0,2.43955716468,13800,2018-04-02 06:42:20,15,0,16.487,5376.6441963308,38.713912,0.3131716,2.48903551272,0,0,-4.026492,182.7, -3.9, 2,0,1,1024,1024,1390,1024,183,-8.4,99,4.143,4.157,4.132,4.154,0,0,14.416,80.51,6,P-GPS,
0.376736680891535,36.924519008854,5377.3003643308,39.37008,0,2.43874023552,13900,2018-04-02 06:42:20,15,0,16.487,5377.3003643308,39.37008,0.3131716,2.48903551272,0,0,-4.250186,182.7, -4, 0.1,0,1,1024,1024,1387,1024,183,-8.4,99,4.143,4.157,4.132,4.154,0,0,14.416,80.51,6,P-GPS,
0.376736664984894,36.9245189407902,5377.9565323308,40.026248,0,2.43132225628,14000,2018-04-02 06:42:20,15,0,16.46,5377.9565323308,40.026248,0.3131716,2.48903551272,0,0,-4.250186,182.7, -4.1, -0.3,0,1,1024,1024,1380,1024,183,-8.4,99,4.159,4.163,4.134,4.155,0,0,12.736,82.31,6,P-GPS,
0.376736634024917,36.9245189163168,5378.6127003308,40.682416,0,2.4195210748,14100,2018-04-02 06:42:20,15,0,16.46,5378.6127003308,40.682416,0.3131716,2.48903551272,0,0,-4.250186,182.7, -4.3, 1,0,1,1024,1024,1380,1024,183,-8.4,99,4.159,4.163,4.134,4.155,0,0,12.736,82.31,6,P-GPS,
0.376736597697589,36.9245188883923,5379.2688683308,41.338584,0,2.4057251426,14200,2018-04-02 06:42:20,15,0,16.46,5379.2688683308,41.338584,0.3131716,2.48903551272,0,0,-4.250186,182.6, -4.6, 2,0,1,1024,1024,1380,1024,183,-8.4,99,4.159,4.163,4.134,4.155,0,0,12.736,82.31,6,P-GPS,
0.376736549331173,36.9245188425525,5379.9250363308,41.994752,0,2.38726713676,14300,2018-04-02 06:42:21,15,0,16.46,5379.9250363308,41.994752,0.3131716,2.48903551272,0,0,-4.697574,182.5, -4.2, 1.4,0,1,1024,1024,1379,1024,183,-8.4,99,4.159,4.163,4.134,4.155,0,0,12.736,82.31,6,P-GPS,
0.376736433099355,36.9245186294342,5381.2373723308,43.307088,0.223694,2.3425033558,14500,2018-04-02 06:42:21,15,0,16.46,5381.2373723308,43.307088,0.3131716,2.48903551272,-0.223694,0,-4.47388,182.5, -3.2, 0.6,0,1,1024,1024,1373,1024,183,-8.7,99,4.159,4.163,4.134,4.155,0,0,12.736,82.31,6,P-GPS,
0.376736375652736,36.9245185080695,5381.8935403308,43.963256,0,2.32132881444,14600,2018-04-02 06:42:21,15,0,16.46,5381.8935403308,43.963256,0.3131716,2.48903551272,0,0,-4.250186,182.6, -2.8, 0,0,1,1024,1024,1369,1024,183,-9.3,99,4.159,4.163,4.134,4.155,0,0,12.736,82.31,6,P-GPS,
0.376736324060373,36.9245184125784,5382.5497083308,44.619424,0,2.30293314456,14700,2018-04-02 06:42:21,15,0,16.46,5382.5497083308,44.619424,0.3131716,2.48903551272,0,0,-4.47388,182.6, -2.5, 0,0,1,1024,1024,1373,1024,183,-9.5,99,4.159,4.163,4.134,4.155,0,0,12.736,82.31,6,P-GPS,
0.376736328947333,36.92451831395,5383.5339603308,45.603676,0,2.30570545436,14800,2018-04-02 06:42:21,15,0,16.46,5383.5339603308,45.603676,0.3131716,2.48903551272,0,0,-4.250186,182.5, -2.6, 0,0,1,1024,1024,1374,1024,183,-9.5,99,4.159,4.163,4.134,4.155,0,0,12.736,82.31,6,P-GPS,
0.376736366067714,36.9245182185628,5384.1901283308,46.259844,0,2.32072513988,14900,2018-04-02 06:42:21,15,0,16.46,5384.1901283308,46.259844,0.3131716,2.48903551272,0,0,-4.47388,182.5, -3.3, -0.5,0,1,1024,1024,1376,1024,183,-9.5,99,4.159,4.163,4.134,4.155,0,0,12.736,82.31,6,P-GPS,
0.37673644227238,36.9245181175768,5384.8462963308,46.916012,0,2.3506070306,15000,2018-04-02 06:42:21,15,0,16.514,5384.8462963308,46.916012,0.3131716,2.48903551272,0,0,-4.250186,182.6, -3.9, 0.1,0,1,1024,1024,1379,1024,183,-9.5,99,4.145,4.16,4.137,4.158,0,0,13.842,82.31,6,P-GPS,
0.376736499697829,36.9245180214076,5385.5024643308,47.57218,0,2.37404207072,15100,2018-04-02 06:42:21,15,0,16.514,5385.5024643308,47.57218,0.3131716,2.48903551272,0,0,-4.47388,182.5, -3.8, 0,0,1,1024,1024,1381,1024,183,-9.7,99,4.145,4.16,4.137,4.158,0,0,13.842,82.31,6,P-GPS,
0.376736554698525,36.9245179023874,5386.1586323308,48.228348,0,2.3978511266,15200,2018-04-02 06:42:21,15,0,16.514,5386.1586323308,48.228348,0.3131716,2.48903551272,0,0,-4.250186,182.5, -3.6, -0.6,0,1,1024,1024,1382,1024,183,-10.4,99,4.145,4.16,4.137,4.158,0,0,13.842,82.31,6,P-GPS,
0.376736599941584,36.9245178025144,5386.8148003308,48.884516,0,2.41805125848,15300,2018-04-02 06:42:22,15,0,16.514,5386.8148003308,48.884516,0.3131716,2.48903551272,0,0,-4.47388,182.6, -3.8, -0.8,0,1,1024,1024,1382,1024,183,-11.2,99,4.145,4.16,4.137,4.158,0,0,13.842,82.31,6,P-GPS,
0.376736663840098,36.9245176927718,5387.4709683308,49.540684,0,2.44594496016,15400,2018-04-02 06:42:22,15,0,16.514,5387.4709683308,49.540684,0.3131716,2.48903551272,0,0,-4.250186,182.6, -4.4, -0.8,0,1,1024,1024,1384,1024,183,-11.2,99,4.145,4.16,4.137,4.158,0,0,13.842,82.31,6,P-GPS,
0.376736718814739,36.9245176069276,5388.1271363308,50.196852,0,2.46995086644,15500,2018-04-02 06:42:22,15,0,16.514,5388.1271363308,50.196852,0.3131716,2.48903551272,0,0,-4.47388,182.7, -4.3, -0.4,0,1,1024,1024,1383,1024,183,-13.8,99,4.145,4.16,4.137,4.158,0,0,13.842,82.31,6,P-GPS,
0.376736769596137,36.9245175248349,5388.7833043308,50.85302,0,2.4925689774,15600,2018-04-02 06:42:22,15,0,16.514,5388.7833043308,50.85302,0.3131716,2.4925689774,0,0,-4.250186,182.7, -4, 0,0,1,1024,1024,1379,1024,183,-15.5,99,4.145,4.16,4.137,4.158,0,0,13.842,82.31,6,P-GPS,
0.376736807915053,36.9245174716517,5389.4394723308,51.509188,0,2.50932750812,15700,2018-04-02 06:42:22,15,0,16.514,5389.4394723308,51.509188,0.3131716,2.50932750812,0,0,-4.47388,182.7, -3.9, 0.2,0,1,1024,1024,1379,1024,183,-16,99,4.145,4.16,4.137,4.158,0,0,13.842,82.31,6,P-GPS,
0.376736861834462,36.9245173890911,5390.0956403308,52.165356,0,2.53357291572,15800,2018-04-02 06:42:22,15,0,16.514,5390.0956403308,52.165356,0.3131716,2.53357291572,0,0,-4.47388,182.7, -4.4, 0.3,0,1,1024,1024,1385,1024,183,-16,99,4.145,4.16,4.137,4.158,0,0,13.842,82.31,6,P-GPS,
0.376736917269952,36.9245173060386,5391.0798923308,53.149608,0,2.55866806088,15900,2018-04-02 06:42:22,15,0,16.514,5391.0798923308,53.149608,0.3131716,2.55866806088,0,0,-4.47388,182.7, -4.7, -0.4,0,1,1024,1024,1385,1024,183,-16,99,4.145,4.16,4.137,4.158,0,0,13.842,82.31,6,P-GPS,
0.376736984024757,36.9245172198566,5391.7360603308,53.805776,0,2.5883038886,16000,2018-04-02 06:42:22,15,0,16.514,5391.7360603308,53.805776,0.3131716,2.5883038886,0,0,-4.697574,182.6, -4.8, -0.4,0,1,1024,1024,1387,1024,183,-16,99,4.145,4.16,4.137,4.158,0,0,13.842,82.31,6,P-GPS,
0.376737044013377,36.9245171648587,5392.3922283308,54.461944,0,2.6135827608,16100,2018-04-02 06:42:22,15,0,16.514,5392.3922283308,54.461944,0.3131716,2.6135827608,0,0,-4.921268,182.5, -5.2, -0.8,0,1,1024,1024,1388,1024,183,-16,99,4.145,4.16,4.137,4.158,0,0,13.842,82.31,6,P-GPS,
0.376737098126571,36.9245171008248,5393.0483963308,55.118112,0,2.63750664608,16200,2018-04-02 06:42:22,15,0,16.514,5393.0483963308,55.118112,0.3131716,2.63750664608,0,0,-4.697574,182.7, -4.8, -0.5,0,1,1024,1024,1408,1024,183,-16,99,4.145,4.16,4.137,4.158,0,0,13.842,82.31,6,P-GPS,
0.376737139736572,36.924517067052,5394.0326483308,56.102364,0,2.65484916632,16300,2018-04-02 06:42:22,15,0,16.514,5394.0326483308,56.102364,0.3131716,2.65484916632,0,0,-4.697574,182.7, -4.8, -0.1,0,1,1024,1024,1415,1024,183,-16,99,4.145,4.16,4.137,4.158,0,0,13.842,82.31,6,P-GPS,
0.376737212213729,36.9245170087694,5394.6888163308,56.758532,0,2.6850886686,16400,2018-04-02 06:42:23,15,0,16.514,5394.6888163308,56.758532,0.3131716,2.6850886686,0,0,-4.697574,182.7, -4.9, 0.3,0,1,1024,1024,1416,1024,183,-16,99,4.145,4.16,4.137,4.158,0,0,13.842,82.31,6,P-GPS,
0.376737280942208,36.924516963527,5395.3449843308,57.4147,0,2.71306767212,16500,2018-04-02 06:42:23,15,0,16.514,5395.3449843308,57.4147,0.3131716,2.71306767212,0,0,-5.144962,182.7, -5.2, 0.6,0,1,1024,1024,1416,1024,183,-16,99,4.145,4.16,4.137,4.158,0,0,13.842,82.31,6,P-GPS,
0.376737348074812,36.92451690545,5396.3292363308,58.398952,0,2.7415355208,16600,2018-04-02 06:42:23,15,0,16.514,5396.3292363308,58.398952,0.3131716,2.7415355208,0,0,-5.144962,182.7, -5.5, 0.2,0,1,1024,1024,1417,1024,183,-16,99,4.145,4.16,4.137,4.158,0,0,13.842,82.31,6,P-GPS,
0.376737383542322,36.9245168706322,5396.9854043308,59.05512,0,2.75694234544,16700,2018-04-02 06:42:23,15,0,16.514,5396.9854043308,59.05512,0.3131716,2.75694234544,0,0,-5.144962,182.7, -5.4, -0.1,0,1,1024,1024,1421,1024,183,-16,99,4.145,4.16,4.137,4.158,0,0,13.842,82.31,6,P-GPS,
0.376737433037249,36.9245168183173,5397.9696563308,60.039372,0,2.7788058632,16800,2018-04-02 06:42:23,15,0,16.514,5397.9696563308,60.039372,0.3131716,2.7788058632,0,0,-5.144962,182.7, -5.4, -0.5,0,1,1024,1024,1422,1024,183,-16,99,4.145,4.16,4.137,4.158,0,0,13.842,82.31,6,P-GPS,
0.376737465138765,36.9245167920196,5398.6258243308,60.69554,0,2.7923885408,16900,2018-04-02 06:42:23,15,0,16.514,5398.6258243308,60.69554,0.3131716,2.7923885408,0,0,-5.144962,182.7, -5.1, -0.4,0,1,1024,1024,1422,1024,183,-16,99,4.145,4.16,4.137,4.158,0,0,13.842,82.31,6,P-GPS,
0.376737507538562,36.9245167621556,5399.6100763308,61.679792,0,2.80994431564,17000,2018-04-02 06:42:23,15,0,16.541,5399.6100763308,61.679792,0.3131716,2.80994431564,0,0,-5.368656,182.7, -5, 0.2,0,1,1024,1024,1425,1024,183,-16,99,4.145,4.16,4.137,4.158,0,0,13.842,82.31,6,P-GPS,
0.376737527599363,36.9245167514108,5400.2662443308,62.33596,0,2.81796925028,17100,2018-04-02 06:42:23,15,0,16.541,5400.2662443308,62.33596,0.3131716,2.81796925028,0,0,-5.144962,182.7, -5.6, 0,0,1,1024,1024,1432,1024,183,-16,99,4.145,4.16,4.137,4.158,0,0,13.842,82.31,6,P-GPS,
0.376737533678345,36.9245167368707,5400.9224123308,62.992128,0,2.821358358,17200,2018-04-02 06:42:23,15,0,16.541,5400.9224123308,62.992128,0.3131716,2.821358358,0,0,-5.144962,182.6, -5.3, -0.3,0,1,1024,1024,1440,1024,183,-16,99,4.145,4.16,4.137,4.158,0,0,13.842,82.31,6,P-GPS,
0.37673750726824,36.9245167565017,5401.9066643308,63.97638,0,2.81032489308,17300,2018-04-02 06:42:24,15,0,16.541,5401.9066643308,63.97638,0.3131716,2.821358358,0,0,-5.368656,182.6, -4.8, 0,0,1,1024,1024,1446,1024,183,-16,99,4.145,4.16,4.137,4.158,0,0,13.842,82.31,6,P-GPS,
0.376737511228616,36.9245167782749,5402.5628323308,64.632548,0,2.80990494556,17400,2018-04-02 06:42:24,15,0,16.541,5402.5628323308,64.632548,0.3131716,2.821358358,0,0,-5.59235,182.6, -4.4, 0.2,0,1,1024,1024,1454,1024,183,-16,99,4.145,4.16,4.137,4.158,0,0,13.842,82.31,6,P-GPS,
0.376737521886782,36.9245168207508,5403.5470843308,65.6168,0,2.81019694032,17500,2018-04-02 06:42:24,15,0,16.541,5403.5470843308,65.6168,0.3131716,2.821358358,0,0,-5.59235,182.7, -5, 0.2,0,1,1024,1024,1449,1024,183,-16,99,4.145,4.16,4.137,4.158,0,0,13.842,82.31,6,P-GPS,
0.376737557660439,36.9245168516254,5404.5313363308,66.601052,0,2.82044300364,17600,2018-04-02 06:42:24,15,0,16.541,5404.5313363308,66.601052,0.3131716,2.821358358,0,0,-5.816044,182.6, -5.5, 0.3,0,1,1024,1024,1449,1024,183,-16,99,4.145,4.16,4.137,4.158,0,0,13.842,82.31,6,P-GPS,
0.376737559704137,36.9245169017745,5405.5155883308,67.585304,0,2.81723762296,17700,2018-04-02 06:42:24,15,0,16.541,5405.5155883308,67.585304,0.3131716,2.821358358,0,0,-5.816044,182.7, -5.5, 0.7,0,1,1024,1024,1451,1024,182.9,-16,99,4.145,4.16,4.137,4.158,0,0,13.842,82.31,6,P-GPS,
0.376737560655148,36.9245169431873,5406.1717563308,68.241472,0,2.81441610056,17800,2018-04-02 06:42:24,15,0,16.541,5406.1717563308,68.241472,0.3131716,2.821358358,0,0,-5.816044,182.7, -5, 1.2,0,1,1024,1024,1451,1024,183,-16,99,4.145,4.16,4.137,4.158,0,0,13.842,82.31,6,P-GPS,
0.376737537243009,36.9245169873815,5407.1560083308,69.225724,0,2.80276255688,17900,2018-04-02 06:42:24,15,0,16.541,5407.1560083308,69.225724,0.3131716,2.821358358,0,0,-5.816044,182.6, -5, 1.3,0,1,1024,1024,1457,1024,182.9,-16,99,4.145,4.16,4.137,4.158,0,0,13.842,82.31,6,P-GPS,
0.376737527828974,36.9245169987098,5408.1402603308,70.209976,0,2.79856636252,18000,2018-04-02 06:42:24,15,0,16.487,5408.1402603308,70.209976,0.3131716,2.821358358,0,0,-6.039738,182.6, -5.3, 1,0,1,1024,1024,1457,1024,183,-16,99,4.135,4.149,4.128,4.15,0,0,13.646,82.31,6,P-GPS,
0.376737503187359,36.9245169920216,5409.1245123308,71.194228,0,2.79024943312,18100,2018-04-02 06:42:24,15,0,16.487,5409.1245123308,71.194228,0.3131716,2.821358358,0,0,-6.039738,182.6, -5, 0.1,0,1,1024,1024,1465,1024,183,-16,99,4.135,4.149,4.128,4.15,0,0,13.646,82.31,6,P-GPS,
0.376737491830591,36.9245169879029,5410.1087643308,72.17848,0,2.78649615216,18200,2018-04-02 06:42:24,15,0,16.487,5410.1087643308,72.17848,0.3131716,2.821358358,0,0,-5.816044,182.7, -4.9, -0.4,0,1,1024,1024,1467,1024,183,-16,99,4.135,4.149,4.128,4.15,0,0,13.646,82.31,6,P-GPS,
0.376737476357116,36.9245170158098,5410.7649323308,72.834648,0,2.77891741176,18300,2018-04-02 06:42:24,15,0,16.487,5410.7649323308,72.834648,0.3131716,2.821358358,0,0,-5.816044,182.7, -5.1, 0.2,0,1,1024,1024,1468,1024,182.9,-16,99,4.135,4.149,4.128,4.15,0,0,13.646,82.31,6,P-GPS,
0.376737483051649,36.9245170623905,5411.7491843308,73.8189,0,2.777969249,18400,2018-04-02 06:42:25,15,0,16.487,5411.7491843308,73.8189,0.3131716,2.821358358,0,0,-6.039738,182.6, -5, 0.9,0,1,1024,1024,1471,1024,182.9,-16,99,4.135,4.149,4.128,4.15,0,0,13.646,82.31,6,P-GPS,
0.376737463437041,36.9245171010293,5412.7334363308,74.803152,0,2.76824483924,18500,2018-04-02 06:42:25,15,0,16.487,5412.7334363308,74.803152,0.3131716,2.821358358,0,0,-6.263432,182.6, -4.8, 0.2,0,1,1024,1024,1480,1024,182.9,-16,99,4.135,4.149,4.128,4.15,0,0,13.646,82.31,6,P-GPS,
0.376737451463093,36.9245171078266,5413.7176883308,75.787404,0,2.7634843404,18600,2018-04-02 06:42:25,15,0,16.487,5413.7176883308,75.787404,0.3131716,2.821358358,0,0,-6.263432,182.7, -4.8, -0.2,0,1,1024,1024,1488,1024,182.9,-16,99,4.135,4.149,4.128,4.15,0,0,13.646,82.31,6,P-GPS,
0.376737424113376,36.9245171155223,5414.7019403308,76.771656,0,2.75315625608,18700,2018-04-02 06:42:25,15,0,16.487,5414.7019403308,76.771656,0.3131716,2.821358358,0,0,-6.487126,182.7, -5, 0.2,0,1,1024,1024,1481,1024,182.9,-16,99,4.135,4.149,4.128,4.15,0,0,13.646,82.31,6,P-GPS,
0.37673740367966,36.9245171055291,5415.6861923308,77.755908,0,2.74652567844,18800,2018-04-02 06:42:25,15,0,16.487,5415.6861923308,77.755908,0.3131716,2.821358358,0,0,-6.71082,182.6, -5.2, 0,0,1,1024,1024,1479,1024,182.9,-16,99,4.135,4.149,4.128,4.15,0,0,13.646,82.31,6,P-GPS,
0.376737368176324,36.9245170902791,5416.6704443308,78.74016,0,2.73487869644,18900,2018-04-02 06:42:25,15,0,16.487,5416.6704443308,78.74016,0.3131716,2.821358358,0,0,-6.71082,182.5, -5.6, -0.4,0,1,1024,1024,1474,1024,182.9,-16,99,4.135,4.149,4.128,4.15,0,0,13.646,82.31,6,P-GPS,
0.376737351813719,36.9245170653529,5417.6546963308,79.724412,0,2.73079733148,19000,2018-04-02 06:42:25,15,0,16.433,5417.6546963308,79.724412,0.3131716,2.821358358,0,0,-6.487126,182.6, -5.7, -0.9,0,1,1024,1024,1476,1024,182.9,-16,99,4.126,4.143,4.123,4.14,0,0,14.008,82.31,6,P-GPS,
0.376737317580569,36.9245170572483,5418.6389483308,80.708664,0,2.71913722612,19100,2018-04-02 06:42:25,15,0,16.433,5418.6389483308,80.708664,0.3131716,2.821358358,0,0,-6.487126,182.6, -5.2, -0.9,0,1,1024,1024,1479,1024,182.9,-16,99,4.126,4.143,4.123,4.14,0,0,14.008,82.31,6,P-GPS,
0.37673728254134,36.9245170645906,5419.6232003308,81.692916,0,2.70607620208,19200,2018-04-02 06:42:25,15,0,16.433,5419.6232003308,81.692916,0.3131716,2.821358358,0,0,-6.263432,182.6, -5.3, -0.8,0,1,1024,1024,1479,1024,182.9,-16,99,4.126,4.143,4.123,4.14,0,0,14.008,82.31,6,P-GPS,
0.376737230063104,36.9245170973227,5420.6074523308,82.677168,0,2.68495087332,19300,2018-04-02 06:42:26,15,0,16.433,5420.6074523308,82.677168,0.3131716,2.821358358,0,0,-6.039738,182.7, -5.3, -0.9,0,1,1024,1024,1476,1024,182.9,-16,99,4.126,4.143,4.123,4.14,0,0,14.008,82.31,6,P-GPS,
0.376737200873245,36.9245171478572,5421.5917043308,83.66142,0,2.67094496736,19400,2018-04-02 06:42:26,15,0,16.433,5421.5917043308,83.66142,0.3131716,2.821358358,0,0,-6.263432,182.7, -5.2, -0.1,0,1,1024,1024,1480,1024,182.9,-16,99,4.126,4.143,4.123,4.14,0,0,14.008,82.31,6,P-GPS,
0.376737169024137,36.9245172150827,5422.5759563308,84.645672,0,2.6549705574,19500,2018-04-02 06:42:26,15,0,16.433,5422.5759563308,84.645672,0.3131716,2.821358358,0,0,-6.487126,182.7, -5.2, 0.7,0,1,1024,1024,1480,1024,182.9,-16,99,4.126,4.143,4.123,4.14,0,0,14.008,82.31,6,P-GPS,
0.376737142224834,36.9245172688119,5423.5602083308,85.629924,0,2.64185375908,19600,2018-04-02 06:42:26,15,0,16.433,5423.5602083308,85.629924,0.3131716,2.821358358,0,0,-6.487126,182.7, -5.1, 0.5,0,1,1024,1024,1461,1024,182.9,-16,99,4.126,4.143,4.123,4.14,0,0,14.008,82.31,6,P-GPS,
0.376737080925317,36.9245173486323,5425.5287123308,87.598428,0,2.61484916504,19800,2018-04-02 06:42:26,15,0,16.433,5425.5287123308,87.598428,0.3131716,2.821358358,0,0,-6.487126,182.7, -5.4, 0.1,0,1,1024,1024,1449,1024,182.9,-16,99,4.126,4.143,4.123,4.14,0,0,14.008,82.31,6,P-GPS,
0.376737051839679,36.9245173748882,5426.5129643308,88.58268,0,2.6028052014,19900,2018-04-02 06:42:26,15,0,16.433,5426.5129643308,88.58268,0.3131716,2.821358358,0,0,-6.487126,182.7, -5.4, -0.1,0,1,1024,1024,1457,1024,182.9,-16,99,4.126,4.143,4.123,4.14,0,0,14.008,82.31,6,P-GPS,
0.376737032902504,36.924517404567,5427.4972163308,89.566932,0,2.594242209,20000,2018-04-02 06:42:26,15,0,16.406,5427.4972163308,89.566932,0.3131716,2.821358358,0,0,-6.263432,182.7, -5.7, 0,0,1,1024,1024,1482,1024,182.9,-16,98,4.118,4.134,4.108,4.129,0,0,14.428,82.31,6,P-GPS,
0.376736990903304,36.9245174427106,5428.4814683308,90.551184,0,2.57692265464,20100,2018-04-02 06:42:26,15,0,16.406,5428.4814683308,90.551184,0.3131716,2.821358358,0,0,-6.263432,182.7, -5.4, 0.1,0,1,1024,1024,1513,1024,182.9,-16,98,4.118,4.134,4.108,4.129,0,0,14.428,82.31,6,P-GPS,
0.376736976682103,36.9245174544248,5429.4657203308,91.535436,0,2.57113525288,20200,2018-04-02 06:42:26,15,0,16.406,5429.4657203308,91.535436,0.3131716,2.821358358,0,0,-6.263432,182.6, -4.9, -0.2,0,1,1024,1024,1500,1024,182.9,-16,98,4.118,4.134,4.108,4.129,0,0,14.428,82.31,6,P-GPS,
0.376736960171309,36.9245174709183,5430.4499723308,92.519688,0,2.56426517392,20300,2018-04-02 06:42:27,15,0,16.406,5430.4499723308,92.519688,0.3131716,2.821358358,0,0,-6.487126,182.6, -4.8, -0.2,0,1,1024,1024,1489,1024,182.9,-16,98,4.118,4.134,4.108,4.129,0,0,14.428,82.31,6,P-GPS,
0.376736936278779,36.924517497178,5432.4184763308,94.488192,0,2.55420611848,20500,2018-04-02 06:42:27,15,0,16.406,5432.4184763308,94.488192,0.3131716,2.821358358,0,0,-6.487126,182.6, -5.5, 0,0,1,1024,1024,1488,1024,182.9,-16,98,4.118,4.134,4.108,4.129,0,0,14.428,82.31,6,P-GPS,
0.376736946015246,36.9245175359372,5433.4027283308,95.472444,0,2.5556595306,20600,2018-04-02 06:42:27,15,0,16.406,5433.4027283308,95.472444,0.3131716,2.821358358,0,0,-6.71082,182.7, -5.8, 0.2,0,1,1024,1024,1487,1024,182.9,-16,98,4.118,4.134,4.108,4.129,0,0,14.428,82.31,6,P-GPS,
0.376736932964896,36.9245175879213,5434.3869803308,96.456696,0,2.54830060648,20700,2018-04-02 06:42:27,15,0,16.406,5434.3869803308,96.456696,0.3131716,2.821358358,0,0,-6.487126,182.7, -5.3, 0.3,0,1,1024,1024,1488,1024,182.9,-16,98,4.118,4.134,4.108,4.129,0,0,14.428,82.31,6,P-GPS,
0.376736936106164,36.9245176400478,5435.3712323308,97.440948,0,2.54691937284,20800,2018-04-02 06:42:27,15,0,16.406,5435.3712323308,97.440948,0.3131716,2.821358358,0,0,-6.487126,182.6, -5.4, 0.2,0,1,1024,1024,1498,1024,182.9,-16,98,4.118,4.134,4.108,4.129,0,0,14.428,82.31,6,P-GPS,
0.376736921126108,36.9245176965864,5436.3554843308,98.4252,0,2.53892396576,20900,2018-04-02 06:42:27,15,0,16.406,5436.3554843308,98.4252,0.3131716,2.821358358,0,0,-6.487126,182.6, -5.3, 0,0,1,1024,1024,1500,1024,182.9,-16,98,4.118,4.134,4.108,4.129,0,0,14.428,82.31,6,P-GPS,
0.37673689716844,36.924517764526,5437.3397363308,99.409452,0,2.5273622856,21000,2018-04-02 06:42:27,15,0,16.406,5437.3397363308,99.409452,0.3131716,2.821358358,0,0,-6.487126,182.7, -5, 0.4,0,1,1024,1024,1500,1024,182.9,-16,98,4.118,4.134,4.108,4.129,0,0,14.428,82.31,6,P-GPS,
0.376736852975726,36.9245178454715,5438.3239883308,100.393704,0,2.50819561832,21100,2018-04-02 06:42:27,15,0,16.406,5438.3239883308,100.393704,0.3131716,2.821358358,0,0,-6.487126,182.7, -4.6, 1,0,1,1024,1024,1500,1024,182.9,-16,98,4.118,4.134,4.108,4.129,0,0,14.428,82.31,6,P-GPS,
0.376736845318783,36.9245179139545,5439.3082403308,101.377956,0,2.50302173364,21200,2018-04-02 06:42:27,15,0,16.406,5439.3082403308,101.377956,0.3131716,2.821358358,0,0,-6.71082,182.7, -5, 1.2,0,1,1024,1024,1500,1024,182.9,-16,98,4.118,4.134,4.108,4.129,0,0,14.428,82.31,6,P-GPS,
0.376736839583403,36.9245179692163,5440.2924923308,102.362208,0,2.49918315084,21300,2018-04-02 06:42:27,15,0,16.406,5440.2924923308,102.362208,0.3131716,2.821358358,0,0,-6.71082,182.7, -5.2, 1,0,1,1024,1024,1501,1024,182.9,-16,98,4.118,4.134,4.108,4.129,0,0,14.428,82.31,6,P-GPS,
0.376736830110744,36.9245180264127,5441.2767443308,103.34646,0,2.494094568,21400,2018-04-02 06:42:28,15,0,16.406,5441.2767443308,103.34646,0.3131716,2.821358358,0,0,-6.71082,182.7, -5.4, 1.1,0,1,1024,1024,1500,1024,182.9,-16,98,4.118,4.134,4.108,4.129,0,0,14.428,82.31,6,P-GPS,
0.37673679473117,36.9245180871411,5442.2609963308,104.330712,0,2.47965559116,21500,2018-04-02 06:42:28,15,0,16.406,5442.2609963308,104.330712,0.3131716,2.821358358,0,0,-6.934514,182.6, -5.4, 1.2,0,1,1024,1024,1500,1024,182.9,-16,98,4.118,4.134,4.108,4.129,0,0,14.428,82.31,6,P-GPS,
0.37673676154511,36.9245181251825,5443.2452483308,105.314964,0,2.46668971148,21600,2018-04-02 06:42:28,15,0,16.406,5443.2452483308,105.314964,0.3131716,2.821358358,0,0,-6.934514,182.6, -5.2, 0.7,0,1,1024,1024,1500,1024,182.9,-16,98,4.118,4.134,4.108,4.129,0,0,14.428,82.31,6,P-GPS,
0.376736712809038,36.9245181493481,5444.5575843308,106.6273,0,2.44841543268,21700,2018-04-02 06:42:28,15,0,16.406,5444.5575843308,106.6273,0.3131716,2.821358358,0,0,-7.158208,182.7, -4.9, 0.2,0,1,1024,1024,1500,1024,182.9,-16,98,4.118,4.134,4.108,4.129,0,0,14.428,82.31,6,P-GPS,
0.37673665423065,36.924518157033,5445.5418363308,107.611552,0.223694,2.42691608816,21800,2018-04-02 06:42:28,15,0,16.406,5445.5418363308,107.611552,0.3131716,2.821358358,-0.223694,0,-6.934514,182.7, -4.6, 0,0,1,1024,1024,1500,1024,182.9,-16,98,4.118,4.134,4.108,4.129,0,0,14.428,82.31,6,P-GPS,
0.3767365727254,36.9245181809491,5446.5260883308,108.595804,0.223694,2.39673892184,21900,2018-04-02 06:42:28,15,0,16.406,5446.5260883308,108.595804,0.3131716,2.821358358,-0.223694,0,-6.934514,182.8, -4.2, 0.4,0,1,1024,1024,1501,1024,182.9,-16,98,4.118,4.134,4.108,4.129,0,0,14.428,82.31,6,P-GPS,
0.376736525777359,36.9245182159296,5447.5103403308,109.580056,0,2.37897317324,22000,2018-04-02 06:42:28,15,0,16.406,5447.5103403308,109.580056,0.3131716,2.821358358,0,0,-6.71082,182.7, -3.9, 0.6,0,1,1024,1024,1510,1024,182.9,-16,98,4.122,4.134,4.101,4.119,0,0,13.724,82.31,6,P-GPS,
