latitude,longitude,altitude(feet),ascent(feet),speed(mph),distance(feet),time(millisecond),datetime(utc),satellites,voltage(v),max_altitude(feet),max_ascent(feet),max_speed(mph),max_distance(feet),compass_heading(degrees), pitch(degrees), roll(degrees),isPhoto,isVideo,rc_elevator,rc_aileron,rc_throttle,rc_rudder,gimbal_heading(degrees),gimbal_pitch(degrees),battery_percent,voltageCell1,voltageCell2,voltageCell3,voltageCell4,voltageCell5,voltageCell6,battery_temperature(f),flycStateRaw,flycState,message
0.0603317509717302,36.9454250860028,5892.8331872583,0,0,0,100,2017-11-03 06:16:18,17,0,5892.8331872583,0,0,0,233.8, -0.7, 0.6,0,0,1024,1024,1024,1024,238.3,0,99,4.3,4.292,4.299,4.293,0,0,76.91,41,Motors_Started,
0.0603317499498815,36.945425069015,5892.8331872583,0,0,0.0062091865504,200,2017-11-03 06:16:18,17,0,5892.8331872583,0,0,0.0062091865504,233.8, -0.7, 0.6,0,0,1024,1024,1024,1024,238.3,0,99,4.3,4.292,4.299,4.293,0,0,76.91,41,Motors_Started,
0.0603317486324704,36.9454250492886,5892.8331872583,0,0,0.0134223101408,300,2017-11-03 06:16:18,17,0,5892.8331872583,0,0,0.0134223101408,233.8, -0.7, 0.6,0,0,1024,1024,1024,1024,238.3,0,99,4.3,4.292,4.299,4.293,0,0,76.91,41,Motors_Started,
0.0603317475389702,36.9454250138559,5892.8331872583,0,0,0.02635252709,400,2017-11-03 06:16:18,17,0,5892.8331872583,0,0,0.02635252709,233.8, -0.7, 0.6,0,0,1024,1024,1024,1024,238.3,0,99,4.3,4.292,4.299,4.293,0,0,76.91,41,Motors_Started,
0.0603317459129689,36.9454249875979,5892.8331872583,0,0,0.035950460468,500,2017-11-03 06:16:18,17,17.176,5892.8331872583,0,0,0.035950460468,233.8, -0.7, 0.6,0,0,1024,1024,1024,1024,238.3,0,99,4.3,4.292,4.299,4.293,0,0,76.91,41,Motors_Started,Setting new Return-To-Home altitude to 30m (98 ft). Setting new Maximum Flight Altitude to 100m (328 ft)
0.0603317449033336,36.94542497079,5892.8331872583,0,0,0.042093505284,600,2017-11-03 06:16:18,17,17.176,5892.8331872583,0,0,0.042093505284,233.8, -0.7, 0.6,0,0,1024,1024,1024,1024,238.3,0,99,4.3,4.292,4.299,4.293,0,0,76.91,41,Motors_Started,
0.0603317424272845,36.9454249517841,5892.8331872583,0,0,0.049068571124,700,2017-11-03 06:16:18,17,17.176,5892.8331872583,0,0,0.049068571124,233.8, -0.7, 0.6,0,0,1024,1024,1024,1024,238.4,0,99,4.3,4.292,4.299,4.293,0,0,76.91,41,Motors_Started,
0.0603317396800995,36.9454249608668,5892.8331872583,0,0,0.045841208816,800,2017-11-03 06:16:18,17,17.176,5892.8331872583,0,0,0.049068571124,233.8, -0.8, 0.6,0,0,1024,1024,1024,1024,238.4,0,99,4.3,4.292,4.299,4.293,0,0,76.91,41,Motors_Started,
0.0603317360519263,36.9454249560289,5892.8331872583,0,0,0.047732284992,900,2017-11-03 06:16:18,17,17.176,5892.8331872583,0,0,0.049068571124,233.9, -0.8, 0.6,0,0,1024,1024,1024,1024,238.4,0,99,4.3,4.292,4.299,4.293,0,0,76.91,41,Motors_Started,
0.060331730831949,36.9454249265346,5892.8331872583,0,0,0.058644030748,1000,2017-11-03 06:16:19,17,17.176,5892.8331872583,0,0,0.058644030748,233.8, -0.7, 0.6,0,0,364,364,364,1681,238.4,0,99,4.3,4.292,4.299,4.293,0,0,76.91,41,Motors_Started,
0.0603317258676375,36.9454249034328,5892.8331872583,0,0,0.067237206876,1100,2017-11-03 06:16:19,17,17.176,5892.8331872583,0,0,0.067237206876,233.8, -0.8, 0.6,0,0,666,650,704,1466,238.3,0,99,4.3,4.292,4.299,4.293,0,0,76.91,41,Motors_Started,
0.0603317191934598,36.9454248863732,5892.8331872583,0,0,0.07375164278,1200,2017-11-03 06:16:19,17,17.176,5892.8331872583,0,0,0.07375164278,233.8, -0.7, 0.6,0,0,1024,1024,899,1226,237.5,0,99,4.3,4.292,4.299,4.293,0,0,76.91,41,Motors_Started,
0.0603317139539412,36.9454248787389,5892.8331872583,0,0,0.076816603508,1300,2017-11-03 06:16:19,17,17.176,5892.8331872583,0,0,0.076816603508,233.8, -0.7, 0.6,0,0,1024,1024,1024,1024,236.5,0,99,4.3,4.292,4.299,4.293,0,0,76.91,41,Motors_Started,
0.0603317075793972,36.9454248723648,5892.8331872583,0,0,0.079537076036,1400,2017-11-03 06:16:19,17,17.176,5892.8331872583,0,0,0.079537076036,233.9, -0.8, 0.6,0,0,1024,1024,1024,1024,235.6,0,99,4.3,4.292,4.299,4.293,0,0,76.91,41,Motors_Started,
0.0603317034016241,36.9454248629191,5892.8331872583,0,0,0.08322178744,1500,2017-11-03 06:16:19,17,17.176,5892.8331872583,0,0,0.08322178744,233.9, -0.8, 0.6,0,0,1024,1024,1024,1024,235.2,0,99,4.299,4.292,4.299,4.292,0,0,76.91,41,Motors_Started,
0.0603316979373803,36.9454248312633,5892.8331872583,0,0,0.09493438624,1600,2017-11-03 06:16:19,17,17.176,5892.8331872583,0,0,0.09493438624,233.9, -0.7, 0.6,0,0,1024,1024,1024,1024,234.9,0,99,4.299,4.292,4.299,4.292,0,0,76.91,10,Assisted_Takeoff,
0.0603316896355728,36.9454247993496,5892.8331872583,0,0,0.106952759328,1700,2017-11-03 06:16:19,17,17.176,5892.8331872583,0,0,0.106952759328,233.9, -0.8, 0.6,0,0,1024,1024,1024,1024,234.8,0,99,4.299,4.292,4.299,4.292,0,0,76.91,10,Assisted_Takeoff,
0.0603316896038181,36.9454247895057,5892.8331872583,0,0,0.110469491724,1800,2017-11-03 06:16:19,17,17.176,5892.8331872583,0,0,0.110469491724,233.9, -0.8, 0.6,0,0,1024,1024,1024,1024,234.6,0,99,4.299,4.292,4.299,4.292,0,0,76.91,10,Assisted_Takeoff,
0.0603316902470535,36.9454247848316,5892.8331872583,0,0,0.112093507524,1900,2017-11-03 06:16:19,17,17.176,5892.8331872583,0,0,0.112093507524,233.9, -0.8, 0.6,0,0,1024,1024,1024,1024,234.6,0,99,4.299,4.292,4.299,4.292,0,0,76.91,10,Assisted_Takeoff,
0.0603316860114707,36.9454247766909,5892.8331872583,0,0,0.115313980068,2000,2017-11-03 06:16:20,17,17.176,5892.8331872583,0,0,0.115313980068,233.9, -0.8, 0.6,0,0,1024,1024,1024,1024,234.6,0,99,4.299,4.292,4.299,4.292,0,0,76.91,10,Assisted_Takeoff,
0.0603316704858856,36.9454247634972,5892.8331872583,0,0,0.121274938264,2100,2017-11-03 06:16:20,17,17.176,5892.8331872583,0,0,0.121274938264,233.9, -0.8, 0.6,0,0,1024,1024,1024,1024,234.5,0,99,4.299,4.292,4.299,4.292,0,0,76.91,10,Assisted_Takeoff,
0.0603316370807997,36.9454247325694,5892.8331872583,0,0,0.135479663128,2200,2017-11-03 06:16:20,17,17.176,5892.8331872583,0,0,0.135479663128,233.9, -0.8, 0.6,0,0,1024,1024,1024,1024,234.5,0,99,4.299,4.292,4.299,4.292,0,0,76.91,10,Assisted_Takeoff,
0.0603316044801651,36.9454247073681,5892.8331872583,0,0,0.14812336432,2300,2017-11-03 06:16:20,17,17.176,5892.8331872583,0,0,0.14812336432,233.9, -0.8, 0.6,0,0,1024,1024,1024,1024,234.4,0,99,4.299,4.292,4.299,4.292,0,0,76.91,10,Assisted_Takeoff,
0.0603315822706316,36.9454246896941,5892.8331872583,0,0,0.157148298992,2400,2017-11-03 06:16:20,17,17.176,5892.8331872583,0,0,0.157148298992,233.9, -0.8, 0.6,0,0,1024,1024,1024,1024,234.4,0,99,4.299,4.292,4.299,4.292,0,0,76.91,10,Assisted_Takeoff,
0.0603315653950665,36.9454246661629,5892.8331872583,0,0,0.167475070976,2500,2017-11-03 06:16:20,17,17.176,5892.8331872583,0,0,0.167475070976,233.9, -0.8, 0.6,0,0,1024,1024,1024,1024,234.4,0,99,4.284,4.274,4.275,4.269,0,0,76.91,10,Assisted_Takeoff,
0.0603315520947501,36.9454246274938,5892.8331872583,0,0,0.182345150192,2600,2017-11-03 06:16:20,17,17.176,5892.8331872583,0,0,0.182345150192,233.9, -0.8, 0.6,0,0,1024,1024,1024,1024,234.3,0,99,4.284,4.274,4.275,4.269,0,0,76.91,10,Assisted_Takeoff,
0.0603315463129597,36.9454245954741,5892.8331872583,0,0,0.193921266048,2700,2017-11-03 06:16:20,17,17.176,5892.8331872583,0,0,0.193921266048,233.9, -0.8, 0.6,0,0,1024,1024,1024,1024,234.3,0,99,4.284,4.274,4.275,4.269,0,0,76.91,10,Assisted_Takeoff,
0.0603315394270843,36.945424574235,5892.8331872583,0,0,0.202041345048,2800,2017-11-03 06:16:20,17,17.176,5892.8331872583,0,0,0.202041345048,233.9, -0.8, 0.6,0,0,1024,1024,1024,1024,234.3,0,99,4.284,4.274,4.275,4.269,0,0,76.91,10,Assisted_Takeoff,
0.0603315410905398,36.9454245640003,5892.8331872583,0,0,0.205270019692,2900,2017-11-03 06:16:20,17,17.176,5892.8331872583,0,0,0.205270019692,233.9, -0.8, 0.6,0,0,1024,1024,1024,1024,234.3,0,99,4.284,4.274,4.275,4.269,0,0,76.91,10,Assisted_Takeoff,
0.0603315386576445,36.9454245548202,5892.8331872583,0,0,0.20870899618,3000,2017-11-03 06:16:21,17,17.176,5892.8331872583,0,0,0.20870899618,233.9, -0.7, 0.6,0,0,1024,1024,1024,1024,234.3,0,99,4.284,4.274,4.275,4.269,0,0,76.91,10,Assisted_Takeoff,
0.0603315447081282,36.9454245577236,5892.8331872583,0,0,0.20691273628,3100,2017-11-03 06:16:21,17,17.176,5892.8331872583,0,0,0.20870899618,233.9, -0.7, 0.6,0,0,1024,1024,1024,1024,234.3,0,99,4.284,4.274,4.275,4.269,0,0,76.91,10,Assisted_Takeoff,
0.0603315449874063,36.94542455641,5892.8331872583,0,0,0.207322513196,3200,2017-11-03 06:16:21,17,17.176,5892.8331872583,0,0,0.20870899618,233.9, -0.7, 0.6,0,0,1024,1024,1024,1024,234.3,0,99,4.284,4.274,4.275,4.269,0,0,76.91,10,Assisted_Takeoff,
0.0603315533307391,36.9454245666789,5892.8331872583,0,0,0.202732618036,3300,2017-11-03 06:16:21,17,17.176,5892.8331872583,0,0,0.20870899618,233.9, -0.7, 0.6,0,0,1024,1024,1024,1024,234.3,0,99,4.284,4.274,4.275,4.269,0,0,76.91,10,Assisted_Takeoff,
0.0603315553687368,36.9454245690855,5892.8331872583,0,0,0.201647644248,3400,2017-11-03 06:16:21,17,17.176,5892.8331872583,0,0,0.20870899618,233.9, -0.8, 0.6,0,0,1024,1024,1024,1024,234.3,0,99,4.284,4.274,4.275,4.269,0,0,76.91,10,Assisted_Takeoff,
0.0603315639954189,36.9454245668973,5892.8331872583,0,0,0.201306436888,3500,2017-11-03 06:16:21,16,17.176,5892.8331872583,0,0,0.20870899618,233.9, -0.8, 0.6,0,0,1024,1024,1024,1024,234.3,0,99,4.284,4.274,4.275,4.269,0,0,76.91,10,Assisted_Takeoff,
0.0603315654944016,36.9454245402593,5892.8331872583,0,0,0.210299219328,3600,2017-11-03 06:16:21,16,17.176,5892.8331872583,0,0,0.210299219328,233.9, -0.8, 0.6,0,0,1024,1024,1024,1024,234.3,0,99,4.284,4.274,4.275,4.269,0,0,76.91,10,Assisted_Takeoff,
0.0603315727255071,36.9454245191027,5892.8331872583,0,0,0.21681595182,3700,2017-11-03 06:16:21,17,17.176,5892.8331872583,0,0,0.21681595182,233.9, -0.8, 0.6,0,0,1024,1024,1024,1024,234.2,0,99,4.284,4.274,4.275,4.269,0,0,76.91,10,Assisted_Takeoff,
0.0603315731472741,36.9454245043887,5892.8331872583,0,0,0.22189797298,3800,2017-11-03 06:16:21,17,17.176,5892.8331872583,0,0,0.22189797298,233.9, -0.8, 0.6,0,0,1024,1024,1024,1024,234.2,0,99,4.284,4.274,4.275,4.269,0,0,76.91,10,Assisted_Takeoff,
0.0603315783639945,36.9454244977683,5892.8331872583,0,0,0.223665689572,3900,2017-11-03 06:16:21,17,17.176,5892.8331872583,0,0,0.223665689572,233.9, -0.7, 0.6,0,0,1024,1024,1024,1024,234.2,0,99,4.284,4.274,4.275,4.269,0,0,76.91,10,Assisted_Takeoff,
0.0603315783452674,36.9454244917795,5892.8331872583,0,0,0.225765099088,4000,2017-11-03 06:16:22,17,17.176,5892.8331872583,0,0,0.225765099088,233.9, -0.7, 0.6,0,0,1024,1024,1024,1024,234.2,0,99,4.284,4.274,4.275,4.269,0,0,76.91,10,Assisted_Takeoff,
0.0603315831304501,36.945424495337,5892.8331872583,0,0,0.22403544024,4100,2017-11-03 06:16:22,17,17.176,5892.8331872583,0,0,0.225765099088,234, -0.8, 0.6,0,0,1024,1024,1024,1024,234.2,0,99,4.284,4.274,4.275,4.269,0,0,76.91,10,Assisted_Takeoff,
0.0603315824619738,36.9454244949645,5892.8331872583,0,0,0.224232946808,4200,2017-11-03 06:16:22,17,17.176,5892.8331872583,0,0,0.225765099088,234, -0.8, 0.6,0,0,1024,1024,1024,1024,234.2,0,99,4.284,4.274,4.275,4.269,0,0,76.91,10,Assisted_Takeoff,
0.0603315859737133,36.9454244885111,5892.8331872583,0,0,0.226153878628,4300,2017-11-03 06:16:22,17,17.176,5892.8331872583,0,0,0.226153878628,234, -0.8, 0.6,0,0,1024,1024,1024,1024,234.2,0,99,4.284,4.274,4.275,4.269,0,0,76.91,10,Assisted_Takeoff,
0.0603315842532622,36.945424461113,5892.8331872583,0,0,0.235965230648,4400,2017-11-03 06:16:22,17,17.176,5892.8331872583,0,0,0.235965230648,234, -0.7, 0.6,0,0,1024,1024,1024,1024,234.2,0,99,4.284,4.274,4.275,4.269,0,0,76.91,10,Assisted_Takeoff,
0.0603315872333147,36.9454244378291,5892.8331872583,0,0,0.243914705968,4500,2017-11-03 06:16:22,17,17.149,5892.8331872583,0,0,0.243914705968,234, -0.7, 0.6,0,0,1024,1024,1024,1024,234.2,0,99,4.292,4.284,4.29,4.285,0,0,76.91,10,Assisted_Takeoff,
0.0603315852343997,36.9454244228336,5892.8331872583,0,0,0.249398301944,4600,2017-11-03 06:16:22,17,17.149,5892.8331872583,0,0,0.249398301944,234, -0.7, 0.6,0,0,1024,1024,1024,1024,234.2,0,99,4.292,4.284,4.29,4.285,0,0,76.91,10,Assisted_Takeoff,
0.0603316027833264,36.9454244154916,5892.8331872583,0,0,0.250538721928,4700,2017-11-03 06:16:22,17,17.149,5892.8331872583,0,0,0.250538721928,234, -0.7, 0.6,0,0,1024,1024,1024,1024,234.2,0,99,4.292,4.284,4.29,4.285,0,0,76.91,10,Assisted_Takeoff,
0.0603316327817075,36.9454244109716,5892.8331872583,0,0,0.25003117598,4800,2017-11-03 06:16:22,17,17.149,5892.8331872583,0,0,0.250538721928,234, -0.7, 0.6,0,0,1024,1024,1024,1024,234.2,0,99,4.292,4.284,4.29,4.285,0,0,76.91,10,Assisted_Takeoff,
0.0603316697001614,36.9454244132488,5892.8331872583,0,0,0.247238196888,4900,2017-11-03 06:16:22,17,17.149,5892.8331872583,0,0,0.250538721928,234, -0.7, 0.6,0,0,1024,1024,1024,1024,234.2,0,99,4.292,4.284,4.29,4.285,0,0,76.91,10,Assisted_Takeoff,
0.0603316890916725,36.945424413359,5892.8331872583,0,0,0.246449811036,5000,2017-11-03 06:16:23,17,17.149,5892.8331872583,0,0,0.250538721928,234, -0.7, 0.6,0,0,1024,1024,1024,1024,234.2,0,99,4.292,4.284,4.29,4.285,0,0,76.91,10,Assisted_Takeoff,
0.0603317127057389,36.945424421293,5892.8331872583,0,0,0.242920283364,5100,2017-11-03 06:16:23,17,17.149,5892.8331872583,0,0,0.250538721928,234, -0.7, 0.6,0,0,1024,1024,1024,1024,234.2,0,99,4.292,4.284,4.29,4.285,0,0,76.91,10,Assisted_Takeoff,
0.060331722653089,36.9454244234427,5892.8331872583,0,0,0.241955060236,5200,2017-11-03 06:16:23,17,17.149,5892.8331872583,0,0,0.250538721928,234, -0.6, 0.6,0,0,1024,1024,1024,1024,234.2,0,99,4.292,4.284,4.29,4.285,0,0,76.91,10,Assisted_Takeoff,
0.0603317338217722,36.9454244330715,5892.8331872583,0,0,0.2383038134,5300,2017-11-03 06:16:23,17,17.149,5892.8331872583,0,0,0.250538721928,234, -0.6, 0.6,0,0,1024,1024,1024,1024,234.2,0,99,4.292,4.284,4.29,4.285,0,0,76.91,10,Assisted_Takeoff,
0.060331739003481,36.9454244380111,5892.8331872583,0,0,0.236459653236,5400,2017-11-03 06:16:23,17,17.149,5892.8331872583,0,0,0.250538721928,234, -0.6, 0.6,0,0,1024,1024,1024,1024,234.2,0,99,4.292,4.284,4.29,4.285,0,0,76.91,10,Assisted_Takeoff,
0.060331744512507,36.9454244481526,5892.8331872583,0,0,0.232730978576,5500,2017-11-03 06:16:23,17,17.149,5892.8331872583,0,0,0.250538721928,234, -0.7, 0.6,0,0,1024,1024,1024,1024,234.2,0,99,4.294,4.286,4.293,4.287,0,0,78.71,10,Assisted_Takeoff,
0.0603317466514682,36.9454244542635,5892.8331872583,0,0,0.230495086116,5600,2017-11-03 06:16:23,17,17.149,5892.8331872583,0,0,0.250538721928,234, -0.7, 0.6,0,0,1024,1024,1024,1024,234.2,0,99,4.294,4.286,4.293,4.287,0,0,78.71,10,Assisted_Takeoff,
0.0603317478801292,36.9454244640528,5892.8331872583,0,0.223694,0.22692093902,5700,2017-11-03 06:16:23,17,17.149,5892.8331872583,0,0.223694,0.250538721928,234, -0.7, 0.6,0,0,1024,1024,1024,1024,234.2,0,99,4.294,4.286,4.293,4.287,0,0,78.71,10,Assisted_Takeoff,
0.0603317469641295,36.9454244684742,5892.8331872583,0,0.223694,0.225309390412,5800,2017-11-03 06:16:23,17,17.149,5892.8331872583,0,0.223694,0.250538721928,234, -0.7, 0.7,0,0,1024,1024,1024,1024,234.2,0,99,4.294,4.286,4.293,4.287,0,0,78.71,10,Assisted_Takeoff,
0.0603317456540463,36.9454244748912,5892.8331872583,0,0.223694,0.222972119996,5900,2017-11-03 06:16:23,17,17.149,5892.8331872583,0,0.223694,0.250538721928,234, -0.8, 0.7,0,0,1024,1024,1024,1024,234.2,0,99,4.294,4.286,4.293,4.287,0,0,78.71,10,Assisted_Takeoff,
0.060331743742253,36.9454244753837,5892.8331872583,0,0,0.222799547812,6000,2017-11-03 06:16:24,17,17.149,5892.8331872583,0,0.223694,0.250538721928,234, -0.8, 0.7,0,0,1024,1024,1030,1024,234.2,0,99,4.294,4.286,4.293,4.287,0,0,78.71,10,Assisted_Takeoff,
0.0603317571125925,36.9454244763087,5892.8331872583,0,0,0.222457684284,6100,2017-11-03 06:16:24,17,17.149,5892.8331872583,0,0.223694,0.250538721928,234.1, -0.7, 0.7,0,0,1024,1024,1056,1024,234.2,0,99,4.294,4.286,4.293,4.287,0,0,78.71,10,Assisted_Takeoff,
0.0603317855989633,36.9454244736975,5892.8331872583,0,0,0.223755912672,6200,2017-11-03 06:16:24,17,17.149,5892.8331872583,0,0.223694,0.250538721928,234.1, -0.7, 0.7,0,0,1024,1024,1253,1024,234.2,0,99,4.294,4.286,4.293,4.287,0,0,78.71,10,Assisted_Takeoff,
0.0603318179691731,36.9454244725563,5892.8331872583,0,0,0.225146332664,6300,2017-11-03 06:16:24,17,17.149,5892.8331872583,0,0.223694,0.250538721928,234.1, -0.7, 0.7,0,0,1024,1024,1606,1022,234.2,0,99,4.294,4.286,4.293,4.287,0,0,78.71,10,Assisted_Takeoff,
0.0603318362085601,36.9454244693596,5892.8331872583,0,0,0.22712107026,6400,2017-11-03 06:16:24,17,17.149,5892.8331872583,0,0.223694,0.250538721928,234.1, -0.7, 0.6,0,0,1024,1024,1684,1024,234.2,0,99,4.294,4.286,4.293,4.287,0,0,78.71,10,Assisted_Takeoff,
0.060331854528555,36.9454244691401,5892.8331872583,0,0,0.228211293392,6500,2017-11-03 06:16:24,17,17.149,5892.8331872583,0,0.223694,0.250538721928,234.1, -0.6, 0.8,0,0,1024,1024,1684,1070,234.2,0,99,4.294,4.286,4.292,4.287,0,0,78.71,10,Assisted_Takeoff,
0.0603318639425898,36.94542446879,5892.8331872583,0,0,0.22893045352,6600,2017-11-03 06:16:24,17,17.149,5892.8331872583,0,0.223694,0.250538721928,234.1, -0.6, 0.7,0,0,1024,1024,1684,1024,234.2,0,99,4.294,4.286,4.292,4.287,0,0,78.71,10,Assisted_Takeoff,
0.0603318709391994,36.9454244632348,5892.8331872583,0,0,0.231393708192,6700,2017-11-03 06:16:24,17,17.149,5892.8331872583,0,0.223694,0.250538721928,234.6, -0.4, 0.6,0,0,1024,1024,1684,1024,234.3,0,99,4.294,4.286,4.292,4.287,0,0,78.71,10,Assisted_Takeoff,
0.0603318697895179,36.9454244123473,5892.8331872583,0,0,0.249576451556,6800,2017-11-03 06:16:24,17,17.149,5892.8331872583,0,0.223694,0.250538721928,235.2, 1.7, 1.3,0,0,1024,1024,1684,1024,234.3,0,99,4.294,4.286,4.292,4.287,0,0,78.71,10,Assisted_Takeoff,
0.0603319016475821,36.9454243676531,5892.8331872583,0,0,0.267792659488,6900,2017-11-03 06:16:24,17,17.149,5892.8331872583,0,0.223694,0.267792659488,235.5, 3.8, 2,0,0,1024,1024,1684,1024,234.3,0,99,4.294,4.286,4.292,4.287,0,0,78.71,6,GPS_Atti,
0.0603320153276291,36.9454243691091,5892.8331872583,0,0.223694,0.27877461522,7000,2017-11-03 06:16:25,17,17.149,5892.8331872583,0,0.223694,0.27877461522,235.4, 2.8, 1,0,0,1024,1024,1684,1024,234.3,0,99,4.294,4.286,4.292,4.287,0,0,78.71,6,GPS_Atti,
0.0603322290120503,36.9454244121461,5893.1612712583,0.328084,0.447388,0.301438329856,7100,2017-11-03 06:16:25,17,17.149,5893.1612712583,0.328084,0.447388,0.301438329856,235.6, 1.5, 0.7,0,0,1024,1024,1684,1024,234.4,0,99,4.294,4.286,4.292,4.287,0,0,78.71,6,GPS_Atti,
0.0603325206899826,36.9454244929122,5893.4893552583,0.656168,0.671082,0.3545275704,7200,2017-11-03 06:16:25,17,17.149,5893.4893552583,0.656168,0.671082,0.3545275704,235.7, 0.5, 0.9,0,0,1024,1024,1684,1024,234.4,0,99,4.294,4.286,4.292,4.287,0,0,78.71,6,GPS_Atti,
0.0603328909895982,36.9454245893568,5893.8174392583,0.984252,0.92161928,0.4536909594,7300,2017-11-03 06:16:25,17,17.149,5893.8174392583,0.984252,0.92161928,0.4536909594,235.7, -0.6, 0,0,0,1024,1024,1684,1024,234.4,0,99,4.294,4.286,4.292,4.287,0,0,78.71,6,GPS_Atti,
0.0603333165268483,36.9454246935642,5894.4736072583,1.64042,0.92161928,0.58886484824,7400,2017-11-03 06:16:25,17,17.149,5894.4736072583,1.64042,0.92161928,0.58886484824,235.8, -2, -1.4,0,0,1024,1024,1684,1024,234.5,0,99,4.294,4.286,4.292,4.287,0,0,78.71,6,GPS_Atti,
0.0603338084655309,36.945424808427,5895.1297752583,2.296588,1.1408394,0.75747705836,7500,2017-11-03 06:16:25,17,17.149,5895.1297752583,2.296588,1.1408394,0.75747705836,235.7, -2.6, -3.2,0,0,1024,1024,1684,1024,234.5,0,99,4.294,4.286,4.292,4.287,0,0,78.71,6,GPS_Atti,Home Point Recorded. RTH Altitude:  30m.
0.0603348644280052,36.945425108138,5897.0982792583,4.265092,0.92161928,1.13597116496,7700,2017-11-03 06:16:25,16,17.149,5897.0982792583,4.265092,1.1408394,1.13597116496,235.6, -5.1, -4.7,0,0,1024,1024,1684,1024,234.5,0,99,4.294,4.286,4.292,4.287,0,0,78.71,6,GPS_Atti,
0.0603353543286901,36.9454252821327,5898.4106152583,5.577428,0.92161928,1.31662733872,7800,2017-11-03 06:16:25,16,17.149,5898.4106152583,5.577428,1.1408394,1.31662733872,235.6, -5.7, -5.1,0,0,1024,1024,1684,1024,234.6,0,99,4.294,4.286,4.292,4.287,0,0,78.71,6,GPS_Atti,
0.0603357878261816,36.9454254345726,5899.7229512583,6.889764,0.894776,1.47832353812,7900,2017-11-03 06:16:25,17,17.149,5899.7229512583,6.889764,1.1408394,1.47832353812,235.8, -6.6, -4.7,0,0,1024,1024,1684,1024,234.6,0,99,4.294,4.286,4.292,4.287,0,0,78.71,6,GPS_Atti,
0.0603361468610358,36.945425517133,5901.0352872583,8.2021,0.671082,1.6115322038,8000,2017-11-03 06:16:26,17,17.149,5901.0352872583,8.2021,1.1408394,1.6115322038,236, -6.6, -5.3,0,0,1024,1024,1684,1024,234.6,0,99,4.294,4.286,4.292,4.287,0,0,78.71,6,GPS_Atti,
0.0603364637279434,36.9454255494878,5902.6757072583,9.84252,0.671082,1.72774283744,8100,2017-11-03 06:16:26,16,17.149,5902.6757072583,9.84252,1.1408394,1.72774283744,236.1, -6.1, -4.6,0,0,1024,1024,1684,1024,234.6,0,99,4.294,4.286,4.292,4.287,0,0,78.71,6,GPS_Atti,
0.0603367858225633,36.9454254909382,5904.3161272583,11.48294,0.70687304,1.84289375976,8200,2017-11-03 06:16:26,16,17.149,5904.3161272583,11.48294,1.1408394,1.84289375976,235.9, -5.1, -5,0,0,1024,1024,1684,1024,234.6,0,99,4.294,4.286,4.292,4.287,0,0,78.71,6,GPS_Atti,
0.0603371182620773,36.9454253369664,5906.2846312583,13.451444,0.80753534,1.96039376352,8300,2017-11-03 06:16:26,16,17.149,5906.2846312583,13.451444,1.1408394,1.96039376352,235.6, -2.6, -7.5,0,0,1024,1024,1684,1024,234.6,0,99,4.294,4.286,4.292,4.287,0,0,78.71,6,GPS_Atti,
0.0603374628683071,36.9454251367693,5907.9250512583,15.091864,0.99991218,2.08406502732,8400,2017-11-03 06:16:26,16,17.149,5907.9250512583,15.091864,1.1408394,2.08406502732,235.5, -1.4, -9,0,0,1024,1024,1684,1024,234.6,0,99,4.294,4.286,4.292,4.287,0,0,78.71,6,GPS_Atti,
0.0603378538695169,36.9454249608251,5909.5654712583,16.732284,0.92161928,2.22710637048,8500,2017-11-03 06:16:26,16,16.656,5909.5654712583,16.732284,1.1408394,2.22710637048,235.3, -0.4, -8.8,0,0,1024,1024,1684,1024,234.6,0,99,4.267,4.26,4.261,4.258,0,0,78.71,6,GPS_Atti,
0.0603383259625561,36.9454248291275,5911.5339752583,18.700788,1.11847,2.40071201908,8600,2017-11-03 06:16:26,16,16.656,5911.5339752583,18.700788,1.1408394,2.40071201908,235.3, -1.8, -9,0,0,1024,1024,1684,1024,234.6,0,99,4.267,4.26,4.261,4.258,0,0,78.71,6,GPS_Atti,
0.0603388885182546,36.9454247520731,5913.1743952583,20.341208,1.11847,2.60697842988,8700,2017-11-03 06:16:26,16,16.656,5913.1743952583,20.341208,1.1408394,2.60697842988,235.5, -3.9, -8.6,0,0,1024,1024,1684,1024,234.6,0,99,4.267,4.26,4.261,4.258,0,0,78.71,6,GPS_Atti,
0.0603394676115907,36.9454246827321,5914.8148152583,21.981628,1.1408394,2.81925205872,8800,2017-11-03 06:16:26,16,16.656,5914.8148152583,21.981628,1.1408394,2.81925205872,235.5, -4.2, -8.7,0,0,1024,1024,1684,1024,234.6,0,99,4.267,4.26,4.261,4.258,0,0,78.71,6,GPS_Atti,
0.0603400792240373,36.9454245952717,5916.1271512583,23.293964,1.1408394,3.04382883756,8900,2017-11-03 06:16:26,17,16.656,5916.1271512583,23.293964,1.1408394,3.04382883756,235.6, -4.2, -10,0,0,1024,1024,1684,1024,234.7,0,99,4.267,4.26,4.261,4.258,0,0,78.71,6,GPS_Atti,
0.0603406470558435,36.9454245038042,5917.7675712583,24.934384,1.11847,3.2526739886,9000,2017-11-03 06:16:27,17,16.656,5917.7675712583,24.934384,1.1408394,3.2526739886,235.6, -4.3, -10.8,0,0,1024,1024,1684,1024,234.6,0,99,4.267,4.26,4.261,4.258,0,0,78.71,6,GPS_Atti,
0.0603411874012452,36.9454244595553,5919.4079912583,26.574804,1.11847,3.450459428,9100,2017-11-03 06:16:27,16,16.656,5919.4079912583,26.574804,1.1408394,3.450459428,235.7, -5, -9.5,0,0,1024,1024,1684,1024,234.6,0,99,4.267,4.26,4.261,4.258,0,0,78.71,6,GPS_Atti,
0.0603416646505488,36.9454244792313,5921.0484112583,28.215224,1.11847,3.6237533968,9200,2017-11-03 06:16:27,16,16.656,5921.0484112583,28.215224,1.1408394,3.6237533968,235.7, -5.3, -6.7,0,0,1024,1024,1684,1024,234.6,0,99,4.267,4.26,4.261,4.258,0,0,78.71,6,GPS_Atti,
0.060342169054563,36.9454244737008,5922.6888312583,29.855644,1.342164,3.807578862,9300,2017-11-03 06:16:27,17,16.656,5922.6888312583,29.855644,1.342164,3.807578862,235.7, -5.9, -6.2,0,0,1024,1024,1684,1024,234.6,0,99,4.267,4.26,4.261,4.258,0,0,78.71,6,GPS_Atti,
0.0603427167513716,36.9454244097116,5924.3292512583,31.496064,1.58151658,4.0084646952,9400,2017-11-03 06:16:27,17,16.656,5924.3292512583,31.496064,1.58151658,4.0084646952,235.8, -5.6, -8.7,0,0,1024,1024,1684,1024,234.6,0,99,4.267,4.26,4.261,4.258,0,0,78.71,6,GPS_Atti,
0.0603432975809089,36.9454243064217,5926.2977552583,33.464568,1.58151658,4.2223754632,9500,2017-11-03 06:16:27,17,16.354,5926.2977552583,33.464568,1.58151658,4.2223754632,235.9, -5.6, -11,0,0,1024,1024,1684,1024,234.6,0,99,4.122,4.118,4.107,4.124,0,0,78.71,6,GPS_Atti,
0.0603438471270192,36.9454242194409,5927.9381752583,35.104988,1.342164,4.4245736324,9600,2017-11-03 06:16:27,17,16.354,5927.9381752583,35.104988,1.58151658,4.4245736324,235.9, -6.5, -12,0,0,1024,1024,1684,1024,234.6,0,99,4.122,4.118,4.107,4.124,0,0,78.71,6,GPS_Atti,
0.0603443553012884,36.9454241620861,5929.5785952583,36.745408,1.11847,4.6110237696,9700,2017-11-03 06:16:27,17,16.354,5929.5785952583,36.745408,1.58151658,4.6110237696,235.9, -6.2, -11.4,0,0,1024,1024,1684,1024,234.6,0,99,4.122,4.118,4.107,4.124,0,0,78.71,6,GPS_Atti,
0.0603447995689014,36.9454241541745,5931.2190152583,38.385828,1.11847,4.7729004152,9800,2017-11-03 06:16:27,17,16.354,5931.2190152583,38.385828,1.58151658,4.7729004152,235.8, -5.5, -9.5,0,0,1024,1024,1684,1024,234.6,0,99,4.122,4.118,4.107,4.124,0,0,78.71,6,GPS_Atti,
0.0603452049309518,36.9454241746824,5932.8594352583,40.026248,1.11847,4.9199148556,9900,2017-11-03 06:16:27,16,16.354,5932.8594352583,40.026248,1.58151658,4.9199148556,235.7, -5.6, -7.1,0,0,1024,1024,1684,1024,234.6,0,99,4.122,4.118,4.107,4.124,0,0,78.71,6,GPS_Atti,
0.0603456322379135,36.9454241912292,5934.4998552583,41.666668,1.342164,5.0750985876,10000,2017-11-03 06:16:28,16,16.354,5934.4998552583,41.666668,1.58151658,5.0750985876,235.6, -6, -8.1,0,0,1024,1024,1684,1024,234.6,0,99,4.122,4.118,4.107,4.124,0,0,78.71,6,GPS_Atti,
0.060346096551265,36.9454242038213,5936.1402752583,43.307088,1.565858,5.2438649972,10100,2017-11-03 06:16:28,16,16.354,5936.1402752583,43.307088,1.58151658,5.2438649972,235.9, -7.1, -10,0,0,1024,1024,1684,1024,234.6,0,99,4.122,4.118,4.107,4.124,0,0,78.71,6,GPS_Atti,
0.0603465680957221,36.9454242329794,5937.7806952583,44.947508,1.565858,5.4149608032,10200,2017-11-03 06:16:28,16,16.354,5937.7806952583,44.947508,1.58151658,5.4149608032,236, -8.1, -11.5,0,0,1024,1024,1684,1024,234.6,0,99,4.122,4.118,4.107,4.124,0,0,78.71,6,GPS_Atti,
0.0603470211190713,36.945424273947,5939.7491992583,46.916012,1.342164,5.5791668452,10300,2017-11-03 06:16:28,16,16.354,5939.7491992583,46.916012,1.58151658,5.5791668452,236.2, -8.6, -11,0,0,1024,1024,1684,1024,234.6,0,99,4.122,4.118,4.107,4.124,0,0,78.71,6,GPS_Atti,
0.0603474193460943,36.9454243307248,5941.3896192583,48.556432,1.11847,5.7232285296,10400,2017-11-03 06:16:28,16,16.354,5941.3896192583,48.556432,1.58151658,5.7232285296,236.1, -7.8, -9.9,0,0,1024,1024,1684,1024,234.6,0,99,4.122,4.118,4.107,4.124,0,0,78.71,6,GPS_Atti,
0.0603477347545268,36.9454243862393,5943.0300392583,50.196852,0.894776,5.837270528,10500,2017-11-03 06:16:28,16,16.573,5943.0300392583,50.196852,1.58151658,5.837270528,235.8, -7.4, -9.9,0,0,1024,1024,1684,1024,234.6,0,99,4.154,4.15,4.144,4.153,0,0,78.71,6,GPS_Atti,
0.0603479653022998,36.9454244426916,5944.6704592583,51.837272,0.894776,5.920439822,10600,2017-11-03 06:16:28,16,16.573,5944.6704592583,51.837272,1.58151658,5.920439822,235.7, -6.6, -8.4,0,0,1024,1024,1684,1024,234.6,0,99,4.154,4.15,4.144,4.153,0,0,78.71,6,GPS_Atti,
0.0603481665755352,36.9454245193981,5946.3108792583,53.477692,0.894776,5.992782344,10700,2017-11-03 06:16:28,15,16.573,5946.3108792583,53.477692,1.58151658,5.992782344,235.8, -7.1, -8.5,0,0,1024,1024,1684,1024,234.6,0,99,4.154,4.15,4.144,4.153,0,0,78.71,6,GPS_Atti,
0.0603483967479519,36.9454246160505,5948.2793832583,55.446196,0.92161928,6.075623554,10800,2017-11-03 06:16:28,15,16.573,5948.2793832583,55.446196,1.58151658,6.075623554,235.7, -7.4, -8.7,0,0,1024,1024,1684,1024,234.6,0,99,4.154,4.15,4.144,4.153,0,0,78.71,6,GPS_Atti,
0.0603486389097876,36.9454247200159,5949.9198032583,57.086616,0.92161928,6.1629923232,10900,2017-11-03 06:16:28,15,16.573,5949.9198032583,57.086616,1.58151658,6.1629923232,235.8, -7.7, -8.4,0,0,1024,1024,1684,1024,234.6,0,99,4.154,4.15,4.144,4.153,0,0,78.71,6,GPS_Atti,
0.0603488610026795,36.9454248444335,5951.5602232583,58.727036,0.894776,6.2432088612,11000,2017-11-03 06:16:29,17,16.573,5951.5602232583,58.727036,1.58151658,6.2432088612,235.9, -8.4, -8.6,0,0,1024,1024,1684,1024,234.6,0,99,4.154,4.15,4.144,4.153,0,0,78.71,6,GPS_Atti,
0.0603491109207939,36.9454249303641,5953.5287272583,60.69554,0.894776,6.3340225124,11100,2017-11-03 06:16:29,17,16.573,5953.5287272583,60.69554,1.58151658,6.3340225124,236.1, -8.5, -9.3,0,0,1024,1024,1684,1024,234.6,0,99,4.154,4.15,4.144,4.153,0,0,78.71,6,GPS_Atti,
0.0603493854275985,36.9454249695877,5955.1691472583,62.33596,0.894776,6.434055324,11200,2017-11-03 06:16:29,17,16.573,5955.1691472583,62.33596,1.58151658,6.434055324,236.2, -8.2, -9.5,0,0,1024,1024,1684,1024,234.6,0,99,4.154,4.15,4.144,4.153,0,0,78.71,6,GPS_Atti,
0.0603496405713897,36.9454249807345,5956.8095672583,63.97638,0.894776,6.5271327548,11300,2017-11-03 06:16:29,17,16.573,5956.8095672583,63.97638,1.58151658,6.5271327548,236.1, -7.6, -9.4,0,0,1024,1024,1684,1024,234.6,0,99,4.154,4.15,4.144,4.153,0,0,78.71,6,GPS_Atti,
0.0603499064197575,36.9454249851453,5958.4499872583,65.6168,0.894776,6.6241143852,11400,2017-11-03 06:16:29,17,16.573,5958.4499872583,65.6168,1.58151658,6.6241143852,236, -7.1, -9.3,0,0,1024,1024,1684,1024,234.6,0,99,4.154,4.15,4.144,4.153,0,0,78.71,6,GPS_Atti,
0.0603501636048033,36.945424987189,5960.0904072583,67.25722,0.671082,6.7179464092,11500,2017-11-03 06:16:29,17,16.409,5960.0904072583,67.25722,1.58151658,6.7179464092,235.9, -6.8, -9.3,0,0,1024,1024,1684,1024,234.6,0,99,4.154,4.15,4.144,4.153,0,0,78.71,6,GPS_Atti,
0.0603504187958193,36.9454250185364,5961.7308272583,68.89764,0.671082,6.8109910316,11600,2017-11-03 06:16:29,17,16.409,5961.7308272583,68.89764,1.58151658,6.8109910316,236, -7.1, -9.4,0,0,1024,1024,1684,1024,234.6,0,99,4.154,4.15,4.144,4.153,0,0,78.71,6,GPS_Atti,
0.0603506683972014,36.9454250519971,5963.3712472583,70.53806,0.671082,6.9020343416,11700,2017-11-03 06:16:29,17,16.409,5963.3712472583,70.53806,1.58151658,6.9020343416,235.9, -7.1, -9.7,0,0,1024,1024,1684,1024,234.6,0,99,4.154,4.15,4.144,4.153,0,0,78.71,6,GPS_Atti,
0.060350931780105,36.9454250923695,5965.0116672583,72.17848,0.671082,6.9980973368,11800,2017-11-03 06:16:29,17,16.409,5965.0116672583,72.17848,1.58151658,6.9980973368,236, -7.6, -9.4,0,0,1024,1024,1684,1024,234.6,0,99,4.154,4.15,4.144,4.153,0,0,78.71,6,GPS_Atti,
0.0603512198827885,36.9454251366013,5966.6520872583,73.8189,0.671082,7.1032482588,11900,2017-11-03 06:16:29,17,16.409,5966.6520872583,73.8189,1.58151658,7.1032482588,236, -8, -9.6,0,0,1024,1024,1684,1024,234.6,0,99,4.154,4.15,4.144,4.153,0,0,78.71,6,GPS_Atti,
0.060351554029726,36.9454251892306,5968.2925072583,75.45932,0.894776,7.22522989,12000,2017-11-03 06:16:30,17,16.409,5968.2925072583,75.45932,1.58151658,7.22522989,236, -8.2, -9.8,0,0,1024,1024,1684,1024,234.6,0,99,4.154,4.15,4.144,4.153,0,0,78.71,6,GPS_Atti,
0.0603518926508134,36.9454252394619,5969.9329272583,77.09974,0.671082,7.3488847496,12100,2017-11-03 06:16:30,17,16.409,5969.9329272583,77.09974,1.58151658,7.3488847496,236.1, -8.6, -10.2,0,0,1024,1024,1684,1024,234.6,0,99,4.154,4.15,4.144,4.153,0,0,78.71,6,GPS_Atti,
0.0603522050124271,36.9454252910013,5971.5733472583,78.74016,0.671082,7.4630251732,12200,2017-11-03 06:16:30,17,16.409,5971.5733472583,78.74016,1.58151658,7.4630251732,236.2, -9, -10.2,0,0,1024,1024,1684,1024,234.6,0,99,4.154,4.15,4.144,4.153,0,0,78.71,6,GPS_Atti,
0.060352478034905,36.9454253292186,5973.2137672583,80.38058,0.671082,7.5627627092,12300,2017-11-03 06:16:30,17,16.409,5973.2137672583,80.38058,1.58151658,7.5627627092,236.3, -8.9, -10.5,0,0,1024,1024,1684,1024,234.6,0,99,4.154,4.15,4.144,4.153,0,0,78.71,6,GPS_Atti,
0.0603526908977762,36.9454253633185,5974.8541872583,82.021,0.447388,7.640584234,12400,2017-11-03 06:16:30,17,16.409,5974.8541872583,82.021,1.58151658,7.640584234,236.2, -8.7, -10.1,0,0,1024,1024,1684,1024,234.6,0,99,4.154,4.15,4.144,4.153,0,0,78.71,6,GPS_Atti,
0.0603528646568218,36.9454253905228,5976.8226912583,83.989504,0.447388,7.7041012964,12500,2017-11-03 06:16:30,17,16.354,5976.8226912583,83.989504,1.58151658,7.7041012964,236.2, -8.7, -10.1,0,0,1024,1024,1684,1024,234.6,0,99,4.142,4.123,4.11,4.129,0,0,78.71,6,GPS_Atti,
0.0603530209793033,36.9454254102428,5978.4631112583,85.629924,0.223694,7.7612535292,12600,2017-11-03 06:16:30,17,16.354,5978.4631112583,85.629924,1.58151658,7.7612535292,236.2, -8.5, -9.5,0,0,1024,1024,1684,1024,234.6,0,99,4.142,4.123,4.11,4.129,0,0,78.71,6,GPS_Atti,
0.0603531541689236,36.9454254151738,5980.1035312583,87.270344,0.223694,7.809875578,12700,2017-11-03 06:16:30,17,16.354,5980.1035312583,87.270344,1.58151658,7.809875578,236.1, -7.6, -9.3,0,0,1024,1024,1684,1024,234.6,0,99,4.142,4.123,4.11,4.129,0,0,78.71,6,GPS_Atti,
0.0603532208325355,36.945425385247,5981.7439512583,88.910764,0.223694,7.8340225604,12800,2017-11-03 06:16:30,17,16.354,5981.7439512583,88.910764,1.58151658,7.8340225604,236, -7.3, -9.4,0,0,1024,1024,1684,1024,234.6,0,99,4.142,4.123,4.11,4.129,0,0,78.71,6,GPS_Atti,
0.0603532953924723,36.9454253675601,5983.3843712583,90.551184,0.223694,7.8611551072,12900,2017-11-03 06:16:30,17,16.354,5983.3843712583,90.551184,1.58151658,7.8611551072,236, -7.2, -9,0,0,1024,1024,1684,1024,234.6,0,99,4.142,4.123,4.11,4.129,0,0,78.71,6,GPS_Atti,
0.0603533934459707,36.9454253517253,5985.0247912583,92.191604,0.223694,7.8968506464,13000,2017-11-03 06:16:31,17,16.354,5985.0247912583,92.191604,1.58151658,7.8968506464,235.9, -7.1, -8.8,0,0,1024,1024,1684,1024,234.6,0,99,4.142,4.123,4.11,4.129,0,0,78.71,6,GPS_Atti,
0.0603535380550545,36.9454253516118,5986.9932952583,94.160108,0.447388,7.9496065536,13100,2017-11-03 06:16:31,17,16.354,5986.9932952583,94.160108,1.58151658,7.9496065536,235.9, -7.6, -9.6,0,0,1024,1024,1684,1024,234.6,0,99,4.142,4.123,4.11,4.129,0,0,78.71,6,GPS_Atti,
0.0603537060290528,36.9454253673867,5988.6337152583,95.800528,0.447388,8.0109582616,13200,2017-11-03 06:16:31,17,16.354,5988.6337152583,95.800528,1.58151658,8.0109582616,236.1, -8.8, -10.9,0,0,1024,1024,1684,1024,234.6,0,99,4.142,4.123,4.11,4.129,0,0,78.71,6,GPS_Atti,
0.0603538861919544,36.9454253863197,5990.2741352583,97.440948,0.447388,8.076771912,13300,2017-11-03 06:16:31,17,16.354,5990.2741352583,97.440948,1.58151658,8.076771912,236.2, -9, -11.3,0,0,1024,1024,1684,1024,234.6,0,99,4.142,4.123,4.11,4.129,0,0,78.71,6,GPS_Atti,
0.060354049927113,36.945425399825,5992.2426392583,99.409452,0.223694,8.1365816252,13400,2017-11-03 06:16:31,17,16.354,5992.2426392583,99.409452,1.58151658,8.1365816252,236.2, -9, -10.3,0,0,1024,1024,1684,1024,234.6,0,99,4.142,4.123,4.11,4.129,0,0,78.71,6,GPS_Atti,
0.0603542097377215,36.9454254124053,5993.8830592583,101.049872,0.447388,8.1949477688,13500,2017-11-03 06:16:31,17,16.354,5993.8830592583,101.049872,1.58151658,8.1949477688,236.2, -9.9, -11.2,0,0,1024,1024,1684,1024,234.6,0,99,4.111,4.104,4.094,4.109,0,0,78.71,6,GPS_Atti,
0.0603543411352392,36.9454253893313,5995.5234792583,102.690292,0.223694,8.2427496076,13600,2017-11-03 06:16:31,17,16.354,5995.5234792583,102.690292,1.58151658,8.2427496076,236.5, -10.7, -12.1,0,0,1024,1024,1684,1024,234.6,0,99,4.111,4.104,4.094,4.109,0,0,78.71,6,GPS_Atti,
0.0603544421671616,36.9454253416608,5997.1638992583,104.330712,0.223694,8.2793965904,13700,2017-11-03 06:16:31,17,16.354,5997.1638992583,104.330712,1.58151658,8.2793965904,236.5, -9.8, -12,0,0,1024,1024,1684,1024,234.6,0,99,4.111,4.104,4.094,4.109,0,0,78.71,6,GPS_Atti,
0.060354491458533,36.9454252981913,5999.1324032583,106.299216,0,8.2972115516,13800,2017-11-03 06:16:31,17,16.354,5999.1324032583,106.299216,1.58151658,8.2972115516,236.3, -8.1, -11.4,0,0,1024,1024,1684,1024,234.6,0,99,4.111,4.104,4.094,4.109,0,0,78.71,6,GPS_Atti,
0.060354518265978,36.9454252486367,6000.7728232583,107.939636,0,8.3068572212,13900,2017-11-03 06:16:31,17,16.354,6000.7728232583,107.939636,1.58151658,8.3068572212,236.1, -7.3, -10.8,0,0,1024,1024,1684,1024,234.6,0,99,4.111,4.104,4.094,4.109,0,0,78.71,6,GPS_Atti,
0.0603545172840263,36.9454251838039,6002.4132432583,109.580056,0,8.3063650952,14000,2017-11-03 06:16:32,17,16.354,6002.4132432583,109.580056,1.58151658,8.3068572212,236.1, -7.2, -10.7,0,0,1024,1024,1684,1024,234.6,0,99,4.111,4.104,4.094,4.109,0,0,78.71,6,GPS_Atti,
0.0603545188961859,36.9454251354065,6004.0536632583,111.220476,0,8.3068900296,14100,2017-11-03 06:16:32,17,16.354,6004.0536632583,111.220476,1.58151658,8.3068900296,236, -7, -10.7,0,0,1024,1024,1684,1024,234.6,0,99,4.111,4.104,4.094,4.109,0,0,78.71,6,GPS_Atti,
0.060354519839055,36.9454251074731,6005.6940832583,112.860896,0,8.3072181136,14200,2017-11-03 06:16:32,17,16.354,6005.6940832583,112.860896,1.58151658,8.3072181136,236, -7.2, -10.4,0,0,1024,1024,1684,1024,234.6,0,99,4.111,4.104,4.094,4.109,0,0,78.71,6,GPS_Atti,
0.0603545215147238,36.9454250943576,6007.3345032583,114.501316,0,8.3078086648,14300,2017-11-03 06:16:32,17,16.354,6007.3345032583,114.501316,1.58151658,8.3078086648,236.1, -7.6, -10.1,0,0,1024,1024,1684,1024,234.6,0,99,4.111,4.104,4.094,4.109,0,0,78.71,6,GPS_Atti,
0.0603545196615546,36.9454250696723,6008.9749232583,116.141736,0,8.3071524968,14400,2017-11-03 06:16:32,17,16.354,6008.9749232583,116.141736,1.58151658,8.3078086648,236.1, -7.7, -10.6,0,0,1024,1024,1684,1024,234.6,0,99,4.111,4.104,4.094,4.109,0,0,78.71,6,GPS_Atti,
0.0603545273184982,36.9454250285131,6010.9434272583,118.11024,0,8.3099740192,14500,2017-11-03 06:16:32,17,16.245,6010.9434272583,118.11024,1.58151658,8.3099740192,236, -7.6, -11.2,0,0,1024,1024,1684,1024,234.6,0,99,4.11,4.102,4.085,4.094,0,0,78.71,6,GPS_Atti,
0.0603545472995061,36.9454249817772,6012.5838472583,119.75066,0,8.3173231008,14600,2017-11-03 06:16:32,17,16.245,6012.5838472583,119.75066,1.58151658,8.3173231008,236, -7.5, -11.1,0,0,1024,1024,1684,1024,234.6,0,99,4.11,4.102,4.085,4.094,0,0,78.71,6,GPS_Atti,
0.0603545697622626,36.9454249408107,6014.2242672583,121.39108,0,8.3255908176,14700,2017-11-03 06:16:32,17,16.245,6014.2242672583,121.39108,1.58151658,8.3255908176,236, -7.6, -11.3,0,0,1024,1024,1684,1024,234.6,0,99,4.11,4.102,4.085,4.094,0,0,78.71,6,GPS_Atti,
0.0603545447216792,36.9454249247671,6015.8646872583,123.0315,0,8.3165028908,14800,2017-11-03 06:16:32,17,16.245,6015.8646872583,123.0315,1.58151658,8.3255908176,236.2, -8.1, -11.9,0,0,1024,1024,1684,1024,234.6,0,99,4.11,4.102,4.085,4.094,0,0,78.71,6,GPS_Atti,
0.0603545048703977,36.9454248974515,6017.8331912583,125.000004,0,8.3020343864,14900,2017-11-03 06:16:32,17,16.245,6017.8331912583,125.000004,1.58151658,8.3255908176,236.3, -8.2, -11.8,0,0,1024,1024,1684,1024,234.6,0,99,4.11,4.102,4.085,4.094,0,0,78.71,6,GPS_Atti,
0.0603544498973853,36.9454248514832,6019.4736112583,126.640424,0,8.2821196876,15000,2017-11-03 06:16:33,17,16.245,6019.4736112583,126.640424,1.58151658,8.3255908176,236.2, -7.6, -11.3,0,0,1024,1024,1684,1024,234.6,0,99,4.11,4.102,4.085,4.094,0,0,78.71,6,GPS_Atti,
0.060354356406787,36.9454247904874,6021.1140312583,128.280844,0,8.2482942272,15100,2017-11-03 06:16:33,17,16.245,6021.1140312583,128.280844,1.58151658,8.3255908176,236.1, -7, -11.3,0,0,1024,1024,1684,1024,234.6,0,99,4.11,4.102,4.085,4.094,0,0,78.71,6,GPS_Atti,
0.0603542465405558,36.9454247259886,6022.7544512583,129.921264,0,8.2085304464,15200,2017-11-03 06:16:33,17,16.245,6022.7544512583,129.921264,1.58151658,8.3255908176,236, -6.5, -10.6,0,0,1024,1024,1684,1024,234.6,0,99,4.11,4.102,4.085,4.094,0,0,78.71,6,GPS_Atti,
0.060354125745837,36.9454246490776,6024.3948712583,131.561684,0,8.1649936996,15300,2017-11-03 06:16:33,17,16.245,6024.3948712583,131.561684,1.58151658,8.3255908176,236, -6.3, -10.6,0,0,1024,1024,1684,1024,234.6,0,99,4.11,4.102,4.085,4.094,0,0,78.71,6,GPS_Atti,
0.0603540416041357,36.9454245671317,6026.0352912583,133.202104,0,8.1349412052,15400,2017-11-03 06:16:33,17,16.245,6026.0352912583,133.202104,1.58151658,8.3255908176,236, -6.6, -10.5,0,0,1024,1024,1684,1024,234.6,0,99,4.11,4.102,4.085,4.094,0,0,78.71,6,GPS_Atti,
0.0603539542592851,36.9454244607008,6027.6757112583,134.842524,0,8.1040685008,15500,2017-11-03 06:16:33,17,16.245,6027.6757112583,134.842524,1.58151658,8.3255908176,236.1, -6.6, -10.9,0,0,1024,1024,1684,1024,234.6,0,99,4.11,4.102,4.085,4.094,0,0,78.71,6,GPS_Atti,
0.0603538782402624,36.9454243566294,6029.6442152583,136.811028,0,8.0774936968,15600,2017-11-03 06:16:33,17,16.245,6029.6442152583,136.811028,1.58151658,8.3255908176,236, -6.2, -10.8,0,0,1024,1024,1684,1024,234.6,0,99,4.11,4.102,4.085,4.094,0,0,78.71,6,GPS_Atti,
0.0603537959517303,36.9454242326796,6031.2846352583,138.451448,0,8.0491144308,15700,2017-11-03 06:16:33,17,16.245,6031.2846352583,138.451448,1.58151658,8.3255908176,236, -5.9, -11.2,0,0,1024,1024,1684,1024,234.6,0,99,4.11,4.102,4.085,4.094,0,0,78.71,6,GPS_Atti,
0.0603537259172394,36.945424131397,6032.9250552583,140.091868,0,8.025098682,15800,2017-11-03 06:16:33,17,16.245,6032.9250552583,140.091868,1.58151658,8.3255908176,235.9, -6.1, -11.1,0,0,1024,1024,1684,1024,234.6,0,99,4.11,4.102,4.085,4.094,0,0,78.71,6,GPS_Atti,
0.0603536555244907,36.9454240386876,6034.5654752583,141.732288,0,8.000984508,15900,2017-11-03 06:16:33,17,16.245,6034.5654752583,141.732288,1.58151658,8.3255908176,236.1, -6.4, -11.5,0,0,1024,1024,1684,1024,234.6,0,99,4.11,4.102,4.085,4.094,0,0,78.71,6,GPS_Atti,
0.0603536054351818,36.9454239756266,6036.2058952583,143.372708,0,7.9838585232,16000,2017-11-03 06:16:34,17,16.245,6036.2058952583,143.372708,1.58151658,8.3255908176,236, -6.5, -11.6,0,0,1024,1024,1684,1024,234.6,0,99,4.11,4.102,4.085,4.094,0,0,78.71,6,GPS_Atti,
0.0603535441731186,36.9454239011073,6037.8463152583,145.013128,0,7.9629923808,16100,2017-11-03 06:16:34,17,16.245,6037.8463152583,145.013128,1.58151658,8.3255908176,236, -6.1, -11.1,0,0,1024,1024,1684,1024,234.6,0,99,4.11,4.102,4.085,4.094,0,0,78.71,6,GPS_Atti,
0.0603534842561502,36.945423826103,6039.4867352583,146.653548,0,7.9426839812,16200,2017-11-03 06:16:34,17,16.245,6039.4867352583,146.653548,1.58151658,8.3255908176,235.9, -5.7, -10.6,0,0,1024,1024,1684,1024,234.6,0,99,4.11,4.102,4.085,4.094,0,0,78.71,6,GPS_Atti,
0.0603534168776514,36.9454237540824,6041.4552392583,148.622052,0,7.9197181012,16300,2017-11-03 06:16:34,17,16.245,6041.4552392583,148.622052,1.58151658,8.3255908176,235.9, -5.6, -10.2,0,0,1024,1024,1684,1024,234.6,0,99,4.11,4.102,4.085,4.094,0,0,78.71,6,GPS_Atti,
0.0603533663519195,36.9454237058949,6043.0956592583,150.262472,0,7.9024280744,16400,2017-11-03 06:16:34,17,16.245,6043.0956592583,150.262472,1.58151658,8.3255908176,236, -5.9, -10.7,0,0,1024,1024,1684,1024,234.6,0,99,4.11,4.102,4.085,4.094,0,0,78.71,6,GPS_Atti,
0.0603533223139085,36.9454236445918,6044.7360792583,151.902892,0,7.8878283364,16500,2017-11-03 06:16:34,17,16.272,6044.7360792583,151.902892,1.58151658,8.3255908176,236.1, -6.5, -11.3,0,0,1024,1024,1684,1024,234.6,0,99,4.098,4.087,4.071,4.086,0,0,78.71,6,GPS_Atti,
0.0603532875922256,36.9454235714288,6046.3764992583,153.543312,0,7.8770343728,16600,2017-11-03 06:16:34,17,16.272,6046.3764992583,153.543312,1.58151658,8.3255908176,236.1, -6.6, -11.6,0,0,1024,1024,1684,1024,234.6,0,99,4.098,4.087,4.071,4.086,0,0,78.71,6,GPS_Atti,
0.0603531495376289,36.9454234690511,6049.9854232583,157.152236,0,7.8295278096,16800,2017-11-03 06:16:34,17,16.272,6049.9854232583,157.152236,1.58151658,8.3255908176,235.9, -5.4, -10.6,0,0,1024,1024,1684,1024,234.6,0,99,4.098,4.087,4.071,4.086,0,0,78.71,6,GPS_Atti,
0.0603530698497219,36.9454234493943,6051.6258432583,158.792656,0,7.8010501184,16900,2017-11-03 06:16:34,17,16.272,6051.6258432583,158.792656,1.58151658,8.3255908176,235.9, -5.3, -10.7,0,0,1024,1024,1684,1024,234.6,0,99,4.098,4.087,4.071,4.086,0,0,78.71,6,GPS_Atti,
0.0603530062199012,36.9454234453315,6053.2662632583,160.433076,0,7.7780186216,17000,2017-11-03 06:16:35,17,16.272,6053.2662632583,160.433076,1.58151658,8.3255908176,235.9, -5.9, -10.9,0,0,1024,1024,1684,1024,234.6,0,99,4.098,4.087,4.071,4.086,0,0,78.71,6,GPS_Atti,
0.0603529383439127,36.9454234669752,6054.9066832583,162.073496,0,7.7527233452,17100,2017-11-03 06:16:35,17,16.272,6054.9066832583,162.073496,1.58151658,8.3255908176,236, -6.4, -11.1,0,0,1024,1024,1684,1024,234.6,0,99,4.098,4.087,4.071,4.086,0,0,78.71,6,GPS_Atti,
0.0603528925813795,36.9454235108944,6056.5471032583,163.713916,0,7.7348755756,17200,2017-11-03 06:16:35,17,16.272,6056.5471032583,163.713916,1.58151658,8.3255908176,236, -6.4, -10.9,0,0,1024,1024,1684,1024,234.6,0,99,4.098,4.087,4.071,4.086,0,0,78.71,6,GPS_Atti,
0.0603528301199673,36.9454235671059,6058.1875232583,165.354336,0,7.7106629764,17300,2017-11-03 06:16:35,17,16.272,6058.1875232583,165.354336,1.58151658,8.3255908176,236, -6.3, -10.2,0,0,1024,1024,1684,1024,234.6,0,99,4.098,4.087,4.071,4.086,0,0,78.71,6,GPS_Atti,
0.0603527841530644,36.9454236198326,6059.8279432583,166.994756,0,7.6925527396,17400,2017-11-03 06:16:35,17,16.272,6059.8279432583,166.994756,1.58151658,8.3255908176,235.9, -6.6, -9.9,0,0,1024,1024,1684,1024,234.6,0,99,4.098,4.087,4.071,4.086,0,0,78.71,6,GPS_Atti,
0.0603527354324627,36.9454236610101,6061.7964472583,168.96326,0,7.6737863348,17500,2017-11-03 06:16:35,17,16.217,6061.7964472583,168.96326,1.58151658,8.3255908176,235.9, -6.8, -10.3,0,0,1024,1024,1684,1024,234.6,0,99,4.078,4.074,4.063,4.077,0,0,78.71,6,GPS_Atti,
0.0603526939543656,36.94542369232,6063.4368672583,170.60368,0,7.6579398776,17600,2017-11-03 06:16:35,17,16.217,6063.4368672583,170.60368,1.58151658,8.3255908176,235.9, -6.9, -10.2,0,0,1024,1024,1684,1024,234.6,0,99,4.078,4.074,4.063,4.077,0,0,78.71,6,GPS_Atti,
0.0603526764884895,36.9454237242723,6065.0772872583,172.2441,0,7.6508204548,17700,2017-11-03 06:16:35,17,16.217,6065.0772872583,172.2441,1.58151658,8.3255908176,236, -7.5, -10.5,0,0,1024,1024,1684,1024,234.6,0,99,4.078,4.074,4.063,4.077,0,0,78.71,6,GPS_Atti,
0.060352690482523,36.9454237476268,6066.7177072583,173.88452,0,7.655348014,17800,2017-11-03 06:16:35,17,16.217,6066.7177072583,173.88452,1.58151658,8.3255908176,236.1, -7.6, -10.8,0,0,1024,1024,1684,1024,234.6,0,99,4.078,4.074,4.063,4.077,0,0,78.71,6,GPS_Atti,
0.0603527186904299,36.9454237657184,6068.6862112583,175.853024,0,7.6652233424,17900,2017-11-03 06:16:35,17,16.217,6068.6862112583,175.853024,1.58151658,8.3255908176,236, -7.5, -11.2,0,0,1024,1024,1684,1024,234.6,0,99,4.078,4.074,4.063,4.077,0,0,78.71,6,GPS_Atti,
0.0603527354723596,36.9454237800737,6070.3266312583,177.493444,0,7.6709976208,18000,2017-11-03 06:16:36,17,16.217,6070.3266312583,177.493444,1.58151658,8.3255908176,236.1, -7.6, -11.5,0,0,1024,1024,1684,1024,234.6,0,99,4.078,4.074,4.063,4.077,0,0,78.71,6,GPS_Atti,
0.0603527502236195,36.9454237892122,6071.9670512583,179.133864,0,7.6761485396,18100,2017-11-03 06:16:36,17,16.217,6071.9670512583,179.133864,1.58151658,8.3255908176,236.2, -7.8, -11.4,0,0,1024,1024,1684,1024,234.6,0,99,4.078,4.074,4.063,4.077,0,0,78.71,6,GPS_Atti,
0.0603527678319844,36.9454238020879,6073.6074712583,180.774284,0,7.6822837104,18200,2017-11-03 06:16:36,17,16.217,6073.6074712583,180.774284,1.58151658,8.3255908176,236.1, -6.9, -11.3,0,0,1024,1024,1684,1024,234.6,0,99,4.078,4.074,4.063,4.077,0,0,78.71,6,GPS_Atti,
0.0603527917497556,36.9454238055577,6075.5759752583,182.742788,0,7.6909123196,18300,2017-11-03 06:16:36,17,16.217,6075.5759752583,182.742788,1.58151658,8.3255908176,236, -6.2, -11.2,0,0,1024,1024,1684,1024,234.6,0,99,4.078,4.074,4.063,4.077,0,0,78.71,6,GPS_Atti,
0.0603528035364333,36.9454238103431,6077.2163952583,184.383208,0,7.6951117948,18400,2017-11-03 06:16:36,17,16.217,6077.2163952583,184.383208,1.58151658,8.3255908176,236, -6.5, -10.9,0,0,1024,1024,1684,1024,234.6,0,99,4.078,4.074,4.063,4.077,0,0,78.71,6,GPS_Atti,
0.0603528461047736,36.9454238217158,6078.8568152583,186.023628,0,7.7103677008,18500,2017-11-03 06:16:36,17,16.217,6078.8568152583,186.023628,1.58151658,8.3255908176,236, -6.8, -11.2,0,0,1024,1024,1684,1024,234.6,0,98,4.078,4.074,4.063,4.077,0,0,78.71,6,GPS_Atti,
0.0603529632436356,36.9454238339182,6080.4972352583,187.664048,0,7.7527561536,18600,2017-11-03 06:16:36,17,16.217,6080.4972352583,187.664048,1.58151658,8.3255908176,236, -7.1, -11.9,0,0,1024,1024,1684,1024,234.6,0,98,4.078,4.074,4.063,4.077,0,0,78.71,6,GPS_Atti,
0.0603530764563192,36.9454238565747,6082.1376552583,189.304468,0,7.7935041864,18700,2017-11-03 06:16:36,17,16.217,6082.1376552583,189.304468,1.58151658,8.3255908176,236.1, -7.7, -12.5,0,0,1024,1024,1684,1024,234.6,0,98,4.078,4.074,4.063,4.077,0,0,78.71,6,GPS_Atti,
0.0603531258177136,36.9454239128493,6084.1061592583,191.272972,0,7.8103348956,18800,2017-11-03 06:16:36,17,16.217,6084.1061592583,191.272972,1.58151658,8.3255908176,236.2, -8, -12.2,0,0,1024,1024,1684,1024,234.6,0,98,4.078,4.074,4.063,4.077,0,0,78.71,6,GPS_Atti,
0.0603531533970411,36.9454239576849,6085.7465792583,192.913392,0,7.8195212476,18900,2017-11-03 06:16:36,17,16.217,6085.7465792583,192.913392,1.58151658,8.3255908176,236.2, -8, -11.4,0,0,1024,1024,1684,1024,234.6,0,98,4.078,4.074,4.063,4.077,0,0,78.71,6,GPS_Atti,
0.0603531855718376,36.9454240054613,6087.3869992583,194.553812,0,7.8303480196,19000,2017-11-03 06:16:37,17,16.217,6087.3869992583,194.553812,1.58151658,8.3255908176,236.1, -7.2, -11,0,0,1024,1024,1684,1024,234.6,0,98,4.078,4.074,4.063,4.077,0,0,78.71,6,GPS_Atti,
0.0603532270483062,36.945424028089,6089.0274192583,196.194232,0,7.8450461828,19100,2017-11-03 06:16:37,17,16.217,6089.0274192583,196.194232,1.58151658,8.3255908176,236, -6.7, -11.3,0,0,1024,1024,1684,1024,234.6,0,98,4.078,4.074,4.063,4.077,0,0,78.71,6,GPS_Atti,
0.0603532824007461,36.945424028651,6090.6678392583,197.834652,0,7.8651905404,19200,2017-11-03 06:16:37,17,16.217,6090.6678392583,197.834652,1.58151658,8.3255908176,236, -6.9, -11.8,0,0,1024,1024,1684,1024,234.6,0,98,4.078,4.074,4.063,4.077,0,0,78.71,6,GPS_Atti,
0.0603533397236033,36.9454240382669,6092.6363432583,199.803156,0,7.8859254492,19300,2017-11-03 06:16:37,17,16.217,6092.6363432583,199.803156,1.58151658,8.3255908176,236.1, -7.4, -11.9,0,0,1024,1024,1684,1024,234.6,0,98,4.078,4.074,4.063,4.077,0,0,78.71,6,GPS_Atti,
0.0603534029805103,36.9454240831142,6094.2767632583,201.443576,0,7.9082023528,19400,2017-11-03 06:16:37,17,16.163,6094.2767632583,201.443576,1.58151658,8.3255908176,236.2, -7.7, -12,0,0,1024,1024,1684,1024,234.6,0,98,4.085,4.081,4.071,4.085,0,0,78.71,6,GPS_Atti,
0.0603535069012924,36.9454241688617,6097.5576032583,204.724416,0,7.9446852936,19600,2017-11-03 06:16:37,17,16.163,6097.5576032583,204.724416,1.58151658,8.3255908176,236.2, -7.5, -11.2,0,0,1024,1024,1684,1024,234.6,0,98,4.085,4.081,4.071,4.085,0,0,78.71,6,GPS_Atti,
0.0603535560070212,36.945424206275,6099.1980232583,206.364836,0,7.9620409372,19700,2017-11-03 06:16:37,17,16.163,6099.1980232583,206.364836,1.58151658,8.3255908176,236.2, -7.3, -11,0,0,1024,1024,1684,1024,234.6,0,98,4.085,4.081,4.071,4.085,0,0,78.71,6,GPS_Atti,
0.0603536177543606,36.9454242556787,6100.8384432583,208.005256,0,7.9838257148,19800,2017-11-03 06:16:37,17,16.163,6100.8384432583,208.005256,1.58151658,8.3255908176,236, -7.1, -12,0,0,1024,1024,1684,1024,234.6,0,98,4.085,4.081,4.071,4.085,0,0,78.71,6,GPS_Atti,
0.0603536801400502,36.9454242930213,6102.8069472583,209.97376,0,8.00606981,19900,2017-11-03 06:16:37,17,16.163,6102.8069472583,209.97376,1.58151658,8.3255908176,236.1, -7.1, -12.7,0,0,1024,1024,1684,1024,234.6,0,98,4.085,4.081,4.071,4.085,0,0,78.71,6,GPS_Atti,
0.0603537393079343,36.9454243358485,6104.4473672583,211.61418,0,8.0270999944,20000,2017-11-03 06:16:38,17,16.163,6104.4473672583,211.61418,1.58151658,8.3255908176,236, -7.1, -12.4,0,0,1024,1024,1684,1024,234.6,0,98,4.085,4.081,4.071,4.085,0,0,78.71,6,GPS_Atti,
0.0603537698966264,36.9454243952481,6106.0877872583,213.2546,0,8.0375330656,20100,2017-11-03 06:16:38,17,16.163,6106.0877872583,213.2546,1.58151658,8.3255908176,236, -7.4, -11.2,0,0,1024,1024,1684,1024,234.6,0,98,4.085,4.081,4.071,4.085,0,0,78.71,6,GPS_Atti,
0.0603537996092156,36.9454244951497,6107.7282072583,214.89502,0,8.0473099688,20200,2017-11-03 06:16:38,17,16.163,6107.7282072583,214.89502,1.58151658,8.3255908176,236.2, -8.2, -10.5,0,0,1024,1024,1684,1024,234.6,0,98,4.085,4.081,4.071,4.085,0,0,78.71,6,GPS_Atti,
0.0603538305691928,36.9454245709077,6109.3686272583,216.53544,0,8.057907082,20300,2017-11-03 06:16:38,17,16.163,6109.3686272583,216.53544,1.58151658,8.3255908176,236.2, -8.5, -10.8,0,0,1024,1024,1684,1024,234.6,0,98,4.085,4.081,4.071,4.085,0,0,78.71,6,GPS_Atti,
0.0603538856936506,36.945424622051,6111.0090472583,218.17586,0,8.0776249304,20400,2017-11-03 06:16:38,17,16.163,6111.0090472583,218.17586,1.58151658,8.3255908176,236.2, -8.4, -11.5,0,0,1024,1024,1684,1024,234.6,0,98,4.085,4.081,4.071,4.085,0,0,78.71,6,GPS_Atti,
0.0603539240581627,36.9454246597266,6112.9775512583,220.144364,0,8.0913388416,20500,2017-11-03 06:16:38,17,16.3,6112.9775512583,220.144364,1.58151658,8.3255908176,236.1, -7.9, -11.9,0,0,1024,1024,1684,1024,234.6,0,98,4.087,4.08,4.068,4.084,0,0,78.71,6,GPS_Atti,
0.0603538820980462,36.9454247366943,6114.6179712583,221.784784,0,8.0755251928,20600,2017-11-03 06:16:38,17,16.3,6114.6179712583,221.784784,1.58151658,8.3255908176,236.1, -7.6, -11.1,0,0,1024,1024,1684,1024,234.6,0,98,4.087,4.08,4.068,4.084,0,0,78.71,6,GPS_Atti,
0.060353849550336,36.9454248030238,6116.2583912583,223.425204,0,8.063320468,20700,2017-11-03 06:16:38,17,16.3,6116.2583912583,223.425204,1.58151658,8.3255908176,236.1, -7.9, -10.6,0,0,1024,1024,1684,1024,234.6,0,98,4.087,4.08,4.068,4.084,0,0,78.71,6,GPS_Atti,
0.0603538553557389,36.9454248604557,6117.8988112583,225.065624,0,8.0651905468,20800,2017-11-03 06:16:38,17,16.3,6117.8988112583,225.065624,1.58151658,8.3255908176,236.2, -8.6, -11.3,0,0,1024,1024,1684,1024,234.6,0,98,4.087,4.08,4.068,4.084,0,0,78.71,6,GPS_Atti,
0.0603538577479231,36.9454248923063,6119.5392312583,226.706044,0,8.06594514,20900,2017-11-03 06:16:38,17,16.3,6119.5392312583,226.706044,1.58151658,8.3255908176,236.2, -8.5, -11.9,0,0,1024,1024,1684,1024,234.6,0,98,4.087,4.08,4.068,4.084,0,0,78.71,6,GPS_Atti,
0.0603538412713268,36.9454249517937,6121.5077352583,228.674548,0,8.0597771608,21000,2017-11-03 06:16:39,17,16.3,6121.5077352583,228.674548,1.58151658,8.3255908176,236.2, -7.7, -11.3,0,0,1024,1024,1684,1024,234.6,0,98,4.087,4.08,4.068,4.084,0,0,78.71,6,GPS_Atti,
0.060353816445698,36.9454249913011,6123.1481552583,230.314968,0,8.0506564256,21100,2017-11-03 06:16:39,17,16.3,6123.1481552583,230.314968,1.58151658,8.3255908176,236, -7, -11.1,0,0,1024,1024,1684,1024,234.6,0,98,4.087,4.08,4.068,4.084,0,0,78.71,6,GPS_Atti,
0.0603538133255993,36.9454250454602,6124.7885752583,231.955388,0,8.0494425148,21200,2017-11-03 06:16:39,17,16.3,6124.7885752583,231.955388,1.58151658,8.3255908176,236.1, -7.3, -11.9,0,0,1024,1024,1684,1024,234.6,0,98,4.087,4.08,4.068,4.084,0,0,78.71,6,GPS_Atti,
0.0603538083051065,36.9454250959666,6126.4289952583,233.595808,0,8.0476052444,21300,2017-11-03 06:16:39,17,16.3,6126.4289952583,233.595808,1.58151658,8.3255908176,236.2, -7.7, -11.8,0,0,1024,1024,1684,1024,234.6,0,98,4.087,4.08,4.068,4.084,0,0,78.71,6,GPS_Atti,
0.0603537767279489,36.945425172929,6130.0379192583,237.204732,0,8.0361551128,21500,2017-11-03 06:16:39,17,16.245,6130.0379192583,237.204732,1.58151658,8.3255908176,236.1, -7.4, -10.9,0,0,1024,1024,1684,1024,234.6,0,98,4.076,4.071,4.062,4.075,0,0,78.71,6,GPS_Atti,
0.0603537541267747,36.9454251894897,6131.6783392583,238.845152,0,8.0279202044,21600,2017-11-03 06:16:39,17,16.245,6131.6783392583,238.845152,1.58151658,8.3255908176,236.1, -7.9, -11,0,0,1024,1024,1684,1024,234.6,0,98,4.076,4.071,4.062,4.075,0,0,78.71,6,GPS_Atti,
0.0603537240298728,36.9454252054776,6133.3187592583,240.485572,0,8.0169621988,21700,2017-11-03 06:16:39,17,16.245,6133.3187592583,240.485572,1.58151658,8.3255908176,236.1, -7.3, -11.2,0,0,1024,1024,1684,1024,234.6,0,98,4.076,4.071,4.062,4.075,0,0,78.71,6,GPS_Atti,
0.0603537118719099,36.9454252479611,6134.9591792583,242.125992,0,8.01263149,21800,2017-11-03 06:16:39,17,16.245,6134.9591792583,242.125992,1.58151658,8.3255908176,236.1, -7.6, -11,0,0,1024,1024,1684,1024,234.6,0,98,4.076,4.071,4.062,4.075,0,0,78.71,6,GPS_Atti,
0.0603536850823777,36.9454252963253,6136.5995992583,243.766412,0,8.0030186288,21900,2017-11-03 06:16:39,17,16.245,6136.5995992583,243.766412,1.58151658,8.3255908176,236.1, -8.1, -10.3,0,0,1024,1024,1684,1024,234.6,0,98,4.076,4.071,4.062,4.075,0,0,78.71,6,GPS_Atti,
0.0603536405444344,36.9454253497683,6138.2400192583,245.406832,0,7.9869753212,22000,2017-11-03 06:16:40,17,16.245,6138.2400192583,245.406832,1.58151658,8.3255908176,236.2, -8.5, -10.5,0,0,1024,1024,1684,1024,234.6,0,98,4.076,4.071,4.062,4.075,0,0,78.71,6,GPS_Atti,
0.0603535931502003,36.9454253736345,6139.8804392583,247.047252,0,7.9697837196,22100,2017-11-03 06:16:40,17,16.245,6139.8804392583,247.047252,1.58151658,8.3255908176,236.2, -7.9, -10.9,0,0,1024,1024,1684,1024,234.6,0,98,4.076,4.071,4.062,4.075,0,0,78.71,6,GPS_Atti,
0.0603535762681214,36.9454254033247,6141.5208592583,248.687672,0,7.9637797824,22200,2017-11-03 06:16:40,17,16.245,6141.5208592583,248.687672,1.58151658,8.3255908176,236.1, -7.7, -10.6,0,0,1024,1024,1684,1024,234.6,0,98,4.076,4.071,4.062,4.075,0,0,78.71,6,GPS_Atti,
0.0603535533640566,36.9454254213403,6143.1612792583,250.328092,0,7.955544874,22300,2017-11-03 06:16:40,17,16.245,6143.1612792583,250.328092,1.58151658,8.3255908176,236.1, -7.8, -10.8,0,0,1024,1024,1684,1024,234.6,0,98,4.076,4.071,4.062,4.075,0,0,78.71,6,GPS_Atti,
0.0603535303183171,36.945425417316,6145.1297832583,252.296596,0,7.9471131152,22400,2017-11-03 06:16:40,17,16.245,6145.1297832583,252.296596,1.58151658,8.3255908176,236.2, -7.8, -11.2,0,0,1024,1024,1684,1024,234.6,0,98,4.076,4.071,4.062,4.075,0,0,78.71,6,GPS_Atti,
0.0603535012522202,36.945425413644,6146.7702032583,253.937016,0,7.9364831936,22500,2017-11-03 06:16:40,17,16.245,6146.7702032583,253.937016,1.58151658,8.3255908176,236.1, -7.8, -11.4,0,0,1024,1024,1684,1024,234.6,0,98,4.076,4.071,4.062,4.075,0,0,78.71,6,GPS_Atti,
0.060353493611561,36.9454254057399,6148.4106232583,255.577436,0,7.9336616712,22600,2017-11-03 06:16:40,17,16.245,6148.4106232583,255.577436,1.58151658,8.3255908176,236.1, -7.5, -10.7,0,0,1024,1024,1684,1024,234.6,0,98,4.076,4.071,4.062,4.075,0,0,78.71,6,GPS_Atti,
0.0603534683397386,36.9454253982213,6150.0510432583,257.217856,0,7.924376894,22700,2017-11-03 06:16:40,17,16.245,6150.0510432583,257.217856,1.58151658,8.3255908176,236, -7, -10.4,0,0,1024,1024,1684,1024,234.6,0,98,4.076,4.071,4.062,4.075,0,0,78.71,6,GPS_Atti,
0.0603534463199189,36.9454253989504,6151.6914632583,258.858276,0,7.9163716444,22800,2017-11-03 06:16:40,17,16.245,6151.6914632583,258.858276,1.58151658,8.3255908176,236, -7.5, -10.5,0,0,1024,1024,1684,1024,234.6,0,98,4.076,4.071,4.062,4.075,0,0,78.71,6,GPS_Atti,
0.0603534396840096,36.9454254020154,6153.3318832583,260.498696,0,7.9139438228,22900,2017-11-03 06:16:40,17,16.245,6153.3318832583,260.498696,1.58151658,8.3255908176,236.2, -8.4, -11.1,0,0,1024,1024,1684,1024,234.6,0,98,4.076,4.071,4.062,4.075,0,0,78.71,6,GPS_Atti,
0.0603534623307802,36.945425394257,6154.9723032583,262.139116,0,7.9221787312,23000,2017-11-03 06:16:41,17,16.245,6154.9723032583,262.139116,1.58151658,8.3255908176,236.2, -8.3, -11.4,0,0,1024,1024,1684,1024,234.6,0,98,4.076,4.071,4.062,4.075,0,0,78.71,6,GPS_Atti,
0.0603534656837464,36.9454253761911,6156.9408072583,264.10762,0,7.9232942168,23100,2017-11-03 06:16:41,17,16.245,6156.9408072583,264.10762,1.58151658,8.3255908176,236.2, -8, -11.2,0,0,1024,1024,1684,1024,234.6,0,98,4.076,4.071,4.062,4.075,0,0,78.71,6,GPS_Atti,
0.0603535134655502,36.9454253500156,6158.5812272583,265.74804,0,7.940617052,23200,2017-11-03 06:16:41,17,16.245,6158.5812272583,265.74804,1.58151658,8.3255908176,236.1, -7.8, -11,0,0,1024,1024,1684,1024,234.6,0,98,4.076,4.071,4.062,4.075,0,0,78.71,6,GPS_Atti,
0.0603535477149843,36.9454253185193,6160.2216472583,267.38846,0,7.9529858188,23300,2017-11-03 06:16:41,17,16.245,6160.2216472583,267.38846,1.58151658,8.3255908176,236.1, -7.5, -11.5,0,0,1024,1024,1684,1024,234.6,0,98,4.076,4.071,4.062,4.075,0,0,78.71,6,GPS_Atti,
