latitude,longitude,altitude(feet),ascent(feet),speed(mph),distance(feet),time(millisecond),datetime(utc),satellites,gpslevel,voltage(v),max_altitude(feet),max_ascent(feet),max_speed(mph),max_distance(feet), xSpeed(mph), ySpeed(mph), zSpeed(mph), compass_heading(degrees), pitch(degrees), roll(degrees),isPhoto,isVideo,rc_elevator,rc_aileron,rc_throttle,rc_rudder,gimbal_heading(degrees),gimbal_pitch(degrees),battery_percent,voltageCell1,voltageCell2,voltageCell3,voltageCell4,voltageCell5,voltageCell6,current(A),battery_temperature(f),flycStateRaw,flycState,message
0.353883705281573,36.897190488209,5805.7459489072,0,0,0,0,2018-04-15 06:49:38,12,0,17.151,5805.7459489072,0,0,0,0,0,0,295.7, 2.1, -2.1,0,0,364,364,364,1684,300.3,0,99,4.298,4.297,4.298,4.297,0,0,1.49,87.71,41,Motors_Started,
0.353883741498015,36.8971902487372,5805.7459489072,0,0,0.08836286372,100,2018-04-15 06:49:38,12,0,17.151,5805.7459489072,0,0,0.08836286372,0,0,0,295.7, 2, -2.1,0,0,364,364,364,1684,300.3,0,99,4.298,4.297,4.298,4.297,0,0,1.49,87.71,41,Motors_Started,
0.353883780051121,36.8971900234918,5805.7459489072,0,0,0.17172900812,200,2018-04-15 06:49:38,12,0,17.151,5805.7459489072,0,0,0.17172900812,0,0,0,295.7, 2, -2.1,0,0,364,364,364,1684,300.3,0,99,4.298,4.297,4.298,4.297,0,0,1.49,87.71,41,Motors_Started,
0.353883805285031,36.8971898234487,5805.7459489072,0,0,0.245261818872,300,2018-04-15 06:49:39,13,0,17.151,5805.7459489072,0,0,0.245261818872,0,0,0,295.7, 2, -2.1,0,0,364,364,364,1684,300.3,0,99,4.298,4.297,4.298,4.297,0,0,1.49,87.71,41,Motors_Started,
0.353883820010236,36.8971896428739,5805.7459489072,0,0,0.31124180786,400,2018-04-15 06:49:39,13,0,17.151,5805.7459489072,0,0,0.31124180786,0,0,0,295.7, 2, -2.1,0,0,364,364,364,1684,300.3,0,99,4.298,4.297,4.298,4.297,0,0,1.49,87.71,41,Motors_Started,
0.353883846432096,36.897189450454,5805.7459489072,0,0,0.3821030306,500,2018-04-15 06:49:39,13,0,17.151,5805.7459489072,0,0,0.3821030306,0,0,0,295.7, 2, -2.1,0,0,364,364,364,1684,300.3,0,99,4.298,4.297,4.298,4.297,0,0,1.49,87.71,41,Motors_Started,
0.353883883558075,36.8971892390766,5805.7459489072,0,0,0.46035434544,600,2018-04-15 06:49:39,13,0,17.151,5805.7459489072,0,0,0.46035434544,0,0,0,295.7, 2, -2.1,0,0,364,364,364,1684,300.3,0,99,4.298,4.297,4.298,4.297,0,0,1.49,87.71,41,Motors_Started,
0.353883934187875,36.8971890602495,5805.7459489072,0,0,0.52763125048,700,2018-04-15 06:49:39,13,0,17.151,5805.7459489072,0,0,0.52763125048,0,0,0,295.7, 2, -2.1,0,0,364,364,364,1684,300.3,0,99,4.298,4.297,4.298,4.297,0,0,1.49,87.71,41,Motors_Started,
0.353884042335181,36.8971887408419,5805.7459489072,0,0,0.64926511264,900,2018-04-15 06:49:39,13,0,17.151,5805.7459489072,0,0,0.64926511264,0,0,0,295.7, 2, -2,0,0,364,364,364,1684,300.3,0,99,4.298,4.297,4.298,4.297,0,0,1.49,87.71,41,Motors_Started,
0.35388409855889,36.8971885910666,5805.7459489072,0,0,0.7068733822,1000,2018-04-15 06:49:39,13,0,17.125,5805.7459489072,0,0,0.7068733822,0,0,0,295.7, 2.1, -1.8,0,0,364,364,364,1684,300.3,0,99,4.298,4.297,4.298,4.297,0,0,1.492,87.71,41,Motors_Started,Setting new Return-To-Home altitude to 30m (98 ft). Setting new Maximum Flight Altitude to 150m (492 ft)
0.353884134239319,36.8971884695534,5805.7459489072,0,0,0.7529363758,1100,2018-04-15 06:49:39,13,0,17.125,5805.7459489072,0,0,0.7529363758,0,0,0,295.7, 2.2, -1.7,0,0,364,364,364,1684,300.3,0,99,4.298,4.297,4.298,4.297,0,0,1.492,87.71,41,Motors_Started,
0.353884157779597,36.8971883273567,5805.7459489072,0,0,0.80547246672,1200,2018-04-15 06:49:39,13,0,17.125,5805.7459489072,0,0,0.80547246672,0,0,0,295.7, 1.8, -2.2,0,0,364,364,364,1684,300.3,0,99,4.298,4.297,4.298,4.297,0,0,1.492,87.71,41,Motors_Started,
0.353884191628841,36.8971882326684,5805.7459489072,0,0,0.8418307356,1300,2018-04-15 06:49:40,13,0,17.125,5805.7459489072,0,0,0.8418307356,0,0,0,295.7, 2, -2,0,0,364,364,364,1684,300.3,0,99,4.298,4.297,4.298,4.297,0,0,1.492,87.71,41,Motors_Started,
0.353884230224999,36.8971881356301,5805.7459489072,0,0,0.879429162,1400,2018-04-15 06:49:40,13,0,17.125,5805.7459489072,0,0,0.879429162,0,0,0,295.7, 2.2, -1.7,0,0,364,364,383,1677,300.3,0,99,4.298,4.297,4.298,4.297,0,0,1.492,87.71,41,Motors_Started,
0.353884245761474,36.8971880438222,5805.7459489072,0,0,0.91335632844,1500,2018-04-15 06:49:40,13,0,17.125,5805.7459489072,0,0,0.91335632844,0,0,0,295.7, 2.2, -1.7,0,0,364,364,417,1653,300.3,0,99,4.298,4.297,4.298,4.297,0,0,1.492,87.71,41,Motors_Started,
0.353884264824345,36.8971879343044,5805.7459489072,0,0,0.95387470244,1600,2018-04-15 06:49:40,13,0,17.125,5805.7459489072,0,0,0.95387470244,0,0,0,295.7, 2.1, -2,0,0,425,424,577,1521,300.3,0,99,4.298,4.297,4.298,4.297,0,0,1.492,87.71,10,Assisted_Takeoff,
0.353884283910523,36.8971878120209,5805.7459489072,0,0,0.9989501632,1700,2018-04-15 06:49:40,13,0,17.125,5805.7459489072,0,0,0.9989501632,0,0,0,295.7, 1.8, -2.1,0,0,675,689,976,1040,300.3,0,99,4.298,4.297,4.298,4.297,0,0,1.492,87.71,10,Assisted_Takeoff,
0.353884315091052,36.8971876912079,5805.7459489072,0,0,1.0444390098,1800,2018-04-15 06:49:40,13,0,17.125,5805.7459489072,0,0,1.0444390098,0,0,0,295.7, 2.1, -2,0,0,917,1024,1024,1024,299.5,0,99,4.298,4.297,4.298,4.297,0,0,1.492,87.71,10,Assisted_Takeoff,
0.353884358746786,36.8971875610855,5805.7459489072,0,0,1.09422903764,1900,2018-04-15 06:49:40,13,0,17.125,5805.7459489072,0,0,1.09422903764,0,0,0,295.7, 1.9, -2.2,0,0,1024,1024,1024,1024,298,0,99,4.298,4.297,4.298,4.297,0,0,1.492,87.71,10,Assisted_Takeoff,
0.353884403960636,36.8971874296355,5805.7459489072,0,0,1.14464242508,2000,2018-04-15 06:49:40,13,0,17.098,5805.7459489072,0,0,1.14464242508,0,0,0,295.7, 2.1, -2,0,0,1024,1024,1024,1024,297.3,0,99,4.298,4.297,4.298,4.297,0,0,4.094,87.71,10,Assisted_Takeoff,
0.35388442752137,36.8971873174846,5805.7459489072,0,0,1.18644688836,2100,2018-04-15 06:49:40,13,0,17.098,5805.7459489072,0,0,1.18644688836,0,0,0,295.7, 1.9, -2.1,0,0,1024,1024,1024,1024,297,0,99,4.298,4.297,4.298,4.297,0,0,4.094,87.71,10,Assisted_Takeoff,
0.353884448185103,36.8971872081457,5805.7459489072,0,0,1.2270177558,2200,2018-04-15 06:49:40,13,0,17.098,5805.7459489072,0,0,1.2270177558,0,0,0,295.7, 2, -2,0,0,1024,1024,1024,1024,296.8,0,99,4.298,4.297,4.298,4.297,0,0,4.094,87.71,10,Assisted_Takeoff,
0.353884448212074,36.8971871149824,5805.7459489072,0,0,1.26019360988,2300,2018-04-15 06:49:41,13,0,17.098,5805.7459489072,0,0,1.26019360988,0,0,0,295.6, 2, -2.1,0,0,1024,1024,1024,1024,296.6,0,99,4.298,4.297,4.298,4.297,0,0,4.094,87.71,10,Assisted_Takeoff,
0.353884454819079,36.8971870197871,5805.7459489072,0,0,1.29463914904,2400,2018-04-15 06:49:41,13,0,17.098,5805.7459489072,0,0,1.29463914904,0,0,0,295.6, 1.9, -2.1,0,0,1024,1024,1024,1024,296.5,0,99,4.298,4.297,4.298,4.297,0,0,4.094,87.71,10,Assisted_Takeoff,
0.353884443671769,36.8971869381445,5805.7459489072,0,0,1.32293639404,2500,2018-04-15 06:49:41,13,0,17.098,5805.7459489072,0,0,1.32293639404,0,0,0,295.6, 2, -2,0,0,1024,1024,1024,1024,296.4,0,99,4.298,4.297,4.298,4.297,0,0,4.094,87.71,10,Assisted_Takeoff,
0.353884441353476,36.8971868476406,5805.7459489072,0,0,1.35511159192,2600,2018-04-15 06:49:41,13,0,17.098,5805.7459489072,0,0,1.35511159192,0,0,0,295.6, 2, -2.1,0,0,1024,1024,1024,1024,296.4,0,99,4.298,4.297,4.298,4.297,0,0,4.094,87.71,10,Assisted_Takeoff,
0.353884424456435,36.8971867703066,5805.7459489072,0,0,1.3815945324,2700,2018-04-15 06:49:41,13,0,17.098,5805.7459489072,0,0,1.3815945324,0,0,0,295.6, 2, -2.1,0,0,1024,1024,1024,1024,296.3,0,99,4.298,4.297,4.298,4.297,0,0,4.094,87.71,10,Assisted_Takeoff,
0.353884416920912,36.8971866823973,5805.7459489072,0,0,1.41258862788,2800,2018-04-15 06:49:41,13,0,17.098,5805.7459489072,0,0,1.41258862788,0,0,0,295.6, 2, -2.1,0,0,1024,1024,1066,1024,296.3,0,99,4.298,4.297,4.298,4.297,0,0,4.094,87.71,10,Assisted_Takeoff,
0.353884428345058,36.8971866012718,5805.7459489072,0,0,1.44244755272,2900,2018-04-15 06:49:41,13,0,17.098,5805.7459489072,0,0,1.44244755272,0,0,0,295.6, 2, -2.1,0,0,1024,1024,1155,1024,296.3,0,99,4.298,4.297,4.298,4.297,0,0,4.094,87.71,10,Assisted_Takeoff,
0.353884448999224,36.8971865122324,5805.7459489072,0,0,1.47576448292,3000,2018-04-15 06:49:41,13,0,17.125,5805.7459489072,0,0,1.47576448292,0,0,0,295.6, 2, -2,0,0,1024,1024,1346,1024,296.2,0,99,4.284,4.284,4.28,4.276,0,0,4.094,87.71,10,Assisted_Takeoff,
0.353884461380894,36.8971863957671,5805.7459489072,0,0,1.51836619032,3100,2018-04-15 06:49:41,13,0,17.125,5805.7459489072,0,0,1.51836619032,0,0,0,295.6, 2.1, -1.8,0,0,1024,1024,1346,1024,296.2,0,99,4.284,4.284,4.28,4.276,0,0,4.094,87.71,10,Assisted_Takeoff,
0.353884477530682,36.8971862802278,5805.7459489072,0,0,1.56088915756,3200,2018-04-15 06:49:41,13,0,17.125,5805.7459489072,0,0,1.56088915756,0,0,0,295.6, 2.2, -1.3,0,0,1024,1024,1411,1024,296.2,0,99,4.284,4.284,4.28,4.276,0,0,4.094,87.71,10,Assisted_Takeoff,
0.353884485332455,36.8971861665015,5805.7459489072,0,0,1.60222117988,3300,2018-04-15 06:49:42,13,0,17.125,5805.7459489072,0,0,1.60222117988,0,0,0,295.6, 1.9, -0.7,0,0,1024,1024,1429,1024,296.2,0,99,4.284,4.284,4.28,4.276,0,0,4.094,87.71,10,Assisted_Takeoff,
0.353884503532658,36.8971860544154,5805.7459489072,0,0,1.64364506572,3400,2018-04-15 06:49:42,13,0,17.125,5805.7459489072,0,0,1.64364506572,0,0,0,295.8, 1.9, 1.1,0,0,1024,1024,1440,1024,296.2,0,99,4.284,4.284,4.28,4.276,0,0,4.094,87.71,10,Assisted_Takeoff,
0.353884548989349,36.8971859537462,5805.7459489072,0,0,1.6827592402,3500,2018-04-15 06:49:42,13,0,17.125,5805.7459489072,0,0,1.6827592402,0,0,-0.223694,295.8, 2.5, 3.5,0,0,1024,1024,1449,1024,296.1,0,99,4.284,4.284,4.28,4.276,0,0,4.094,87.71,10,Assisted_Takeoff,
0.353884651576334,36.8971859000028,5805.7459489072,0,0.3131716,1.70920609144,3600,2018-04-15 06:49:42,13,0,17.125,5805.7459489072,0,0.3131716,1.70920609144,0.223694,0.223694,-0.671082,295.6, 1.8, 2.3,0,0,1024,1024,1459,1024,296.1,0,99,4.284,4.284,4.28,4.276,0,0,4.094,87.71,6,P-GPS,Obstacle Avoided. Revise Flight Route
0.353884817929928,36.8971858922929,5805.7459489072,0,0.3131716,1.72522643316,3700,2018-04-15 06:49:42,13,0,17.125,5805.7459489072,0,0.3131716,1.72522643316,0.223694,0.223694,-1.342164,295.6, 0.6, 0.1,0,0,1024,1024,1466,1024,296.1,0,99,4.284,4.284,4.28,4.276,0,0,4.094,87.71,6,P-GPS,
0.353885005030103,36.8971858715528,5806.0740329072,0.328084,0.223694,1.74983273316,3800,2018-04-15 06:49:42,13,0,17.125,5806.0740329072,0.328084,0.3131716,1.74983273316,0.223694,0,-2.23694,295.7, 0.3, -1.1,0,0,1024,1024,1470,1024,296.1,0,99,4.284,4.284,4.28,4.276,0,0,4.094,87.71,6,P-GPS,
0.353885155885084,36.8971857786919,5806.4021169072,0.656168,0.223694,1.79789375832,3900,2018-04-15 06:49:42,13,0,17.125,5806.4021169072,0.656168,0.3131716,1.79789375832,0.223694,0,-3.131716,295.7, 0.5, -1.2,0,0,1024,1024,1464,1024,296.1,0,99,4.284,4.284,4.28,4.276,0,0,4.094,87.71,6,P-GPS,
0.353885296717603,36.8971856448005,5807.0582849072,1.312336,0.223694,1.86002958708,4000,2018-04-15 06:49:42,13,0,17.125,5807.0582849072,1.312336,0.3131716,1.86002958708,0.223694,0,-3.802798,295.7, 1, -1.1,0,0,1024,1024,1449,1024,296.1,0,99,4.293,4.292,4.293,4.278,0,0,1.92,87.71,6,P-GPS,
0.353885427140497,36.8971854848512,5807.7144529072,1.968504,0.223694,1.9305118728,4100,2018-04-15 06:49:42,13,0,17.125,5807.7144529072,1.968504,0.3131716,1.9305118728,0.223694,0,-4.47388,295.7, 1.4, -1.7,0,0,1024,1024,1449,1024,296.1,0,99,4.293,4.292,4.293,4.278,0,0,1.92,87.71,6,P-GPS,Home Point Recorded. RTH Altitude:  30m.
0.353885552047444,36.8971853179303,5808.3706209072,2.624672,0.223694,2.00306436856,4200,2018-04-15 06:49:42,13,0,17.125,5808.3706209072,2.624672,0.3131716,2.00306436856,0.223694,0,-5.144962,295.6, 1.8, -2.1,0,0,1024,1024,1463,1024,296.1,0,99,4.293,4.292,4.293,4.278,0,0,1.92,87.71,6,P-GPS,
0.353885701422576,36.897185170279,5809.0267889072,3.28084,0,2.0723917986,4300,2018-04-15 06:49:43,13,0,17.125,5809.0267889072,3.28084,0.3131716,2.0723917986,0,0,-5.59235,295.6, 2.1, -1.6,0,0,1024,1024,1481,1024,296,0,99,4.293,4.292,4.293,4.278,0,0,1.92,87.71,6,P-GPS,
0.353885836932322,36.8971850239745,5810.0110409072,4.265092,0,2.13991804748,4400,2018-04-15 06:49:43,13,0,17.125,5810.0110409072,4.265092,0.3131716,2.13991804748,0,0,-6.039738,295.6, 2.3, -1.2,0,0,1024,1024,1504,1024,296,0,99,4.293,4.292,4.293,4.278,0,0,1.92,87.71,6,P-GPS,
0.353885963655391,36.897184912185,5810.9952929072,5.249344,0,2.1948983642,4500,2018-04-15 06:49:43,13,0,17.125,5810.9952929072,5.249344,0.3131716,2.1948983642,0,0,-6.263432,295.7, 2.3, -0.8,0,0,1024,1024,1575,1024,296,0,99,4.293,4.292,4.293,4.278,0,0,1.92,87.71,6,P-GPS,
0.353886073005609,36.8971848046061,5811.9795449072,6.233596,0,2.24636490128,4600,2018-04-15 06:49:43,13,0,17.125,5811.9795449072,6.233596,0.3131716,2.24636490128,0,0,-6.71082,295.6, 2.1, -1.1,0,0,1024,1024,1597,1024,296,0,99,4.293,4.292,4.293,4.278,0,0,1.92,87.71,6,P-GPS,
0.353886170746242,36.8971847694006,5812.9637969072,7.217848,0,2.27210637192,4700,2018-04-15 06:49:43,13,0,17.125,5812.9637969072,7.217848,0.3131716,2.27210637192,0,0,-7.158208,295.6, 2.2, -1.2,0,0,1024,1024,1597,1024,296,0,99,4.293,4.292,4.293,4.278,0,0,1.92,87.71,6,P-GPS,
0.353886241325244,36.8971847314994,5813.9480489072,8.2021,0,2.29507225192,4800,2018-04-15 06:49:43,13,0,17.125,5813.9480489072,8.2021,0.3131716,2.29507225192,0,0,-7.82929,295.6, 2, -0.9,0,0,1024,1024,1618,1024,296,0,99,4.293,4.292,4.293,4.278,0,0,1.92,87.71,6,P-GPS,
0.353886305881853,36.8971846640004,5815.2603849072,9.514436,0,2.3271326204,4900,2018-04-15 06:49:43,13,0,17.125,5815.2603849072,9.514436,0.3131716,2.3271326204,0,0,-8.276678,295.7, 1.3, -0.9,0,0,1024,1024,1647,1024,296,0,99,4.293,4.292,4.293,4.278,0,0,1.92,87.71,6,P-GPS,
0.353886366897411,36.8971845602157,5816.5727209072,10.826772,0,2.37079075828,5000,2018-04-15 06:49:43,13,0,16.7,5816.5727209072,10.826772,0.3131716,2.37079075828,0,0,-8.724066,295.6, 1.8, -1,0,0,1024,1024,1674,1024,296,0,99,4.198,4.196,4.197,4.192,0,0,17.856,89.51,6,P-GPS,
0.353886411387722,36.8971844569299,5817.8850569072,12.139108,0,2.41181438164,5100,2018-04-15 06:49:43,13,0,16.7,5817.8850569072,12.139108,0.3131716,2.41181438164,0,0,-9.171454,295.6, 2.4, -0.9,0,0,1024,1024,1684,1024,296,0,99,4.198,4.196,4.197,4.192,0,0,17.856,89.51,6,P-GPS,
0.353886436565502,36.8971843742553,5819.1973929072,13.451444,0,2.44310047188,5200,2018-04-15 06:49:43,13,0,16.7,5819.1973929072,13.451444,0.3131716,2.44310047188,0,0,-9.842536,295.6, 2.2, -0.8,0,0,1024,1024,1684,1024,296,0,99,4.198,4.196,4.197,4.192,0,0,17.856,89.51,6,P-GPS,
0.353886418386774,36.8971843198401,5820.8378129072,15.091864,0,2.4585630708,5300,2018-04-15 06:49:43,13,0,16.7,5820.8378129072,15.091864,0.3131716,2.4585630708,0,0,-10.289924,295.6, 0.9, -1.1,0,0,1024,1024,1684,1024,296,0,99,4.198,4.196,4.197,4.192,0,0,17.856,89.51,6,P-GPS,
0.353886405676362,36.8971842608609,5822.1501489072,16.4042,0,2.47642396376,5400,2018-04-15 06:49:44,13,0,16.7,5822.1501489072,16.4042,0.3131716,2.47642396376,0,0,-10.513618,295.8, 0.5, -1.2,0,0,1024,1024,1684,1024,296,0,99,4.198,4.196,4.197,4.192,0,0,17.856,89.51,6,P-GPS,
0.353886390379166,36.8971841680263,5823.7905689072,18.04462,0,2.5053478492,5500,2018-04-15 06:49:44,13,0,16.7,5823.7905689072,18.04462,0.3131716,2.5053478492,0,0,-10.737312,295.7, 1.1, -1.7,0,0,1024,1024,1684,1024,296,0,99,4.198,4.196,4.197,4.192,0,0,17.856,89.51,6,P-GPS,
0.353886370733618,36.8971840741243,5825.4309889072,19.68504,0,2.53415690524,5600,2018-04-15 06:49:44,13,0,16.7,5825.4309889072,19.68504,0.3131716,2.53415690524,0,0,-10.961006,295.7, 0.7, -1.6,0,0,1024,1024,1684,1024,296,0,99,4.198,4.196,4.197,4.192,0,0,17.856,89.51,6,P-GPS,
0.353886359611345,36.8971839862872,5827.0714089072,21.32546,0,2.56224089564,5700,2018-04-15 06:49:44,13,0,16.7,5827.0714089072,21.32546,0.3131716,2.56224089564,0,0,-11.1847,295.7, 0.3, -1.5,0,0,1024,1024,1684,1024,296,0,99,4.198,4.196,4.197,4.192,0,0,17.856,89.51,6,P-GPS,
0.353886361602932,36.8971838947555,5828.7118289072,22.96588,0,2.59346136908,5800,2018-04-15 06:49:44,13,0,16.7,5828.7118289072,22.96588,0.3131716,2.59346136908,0,0,-11.1847,295.7, 0, -1.7,0,0,1024,1024,1684,1024,296,0,99,4.198,4.196,4.197,4.192,0,0,17.856,89.51,6,P-GPS,
0.353886355936354,36.8971837781505,5830.3522489072,24.6063,0,2.63220808948,5900,2018-04-15 06:49:44,13,0,16.7,5830.3522489072,24.6063,0.3131716,2.63220808948,0,0,-11.1847,295.7, 0.2, -1.6,0,0,1024,1024,1684,1024,296,0,99,4.198,4.196,4.197,4.192,0,0,17.856,89.51,6,P-GPS,
0.353886340917826,36.8971836386025,5831.9926689072,26.24672,0,2.67765428516,6000,2018-04-15 06:49:44,13,0,16.647,5831.9926689072,26.24672,0.3131716,2.67765428516,0,0,-11.1847,295.7, 0.4, -1.3,0,0,1024,1024,1684,1024,296,0,99,4.198,4.196,4.197,4.192,0,0,17.856,89.51,6,P-GPS,
0.353886330447745,36.8971835168939,5833.6330889072,27.88714,0,2.71779536256,6100,2018-04-15 06:49:44,13,0,16.647,5833.6330889072,27.88714,0.3131716,2.71779536256,0,0,-11.1847,295.7, 0.5, -1.3,0,0,1024,1024,1684,1024,296,0,99,4.198,4.196,4.197,4.192,0,0,17.856,89.51,6,P-GPS,
0.353886320494899,36.8971833898623,5835.2735089072,29.52756,0,2.7599574374,6200,2018-04-15 06:49:44,13,0,16.647,5835.2735089072,29.52756,0.3131716,2.7599574374,0,0,-10.961006,295.7, 0.5, -1.3,0,0,1024,1024,1684,1024,296,0,99,4.198,4.196,4.197,4.192,0,0,17.856,89.51,6,P-GPS,
0.35388629740336,36.8971832453382,5836.9139289072,31.16798,0,2.8066437906,6300,2018-04-15 06:49:45,13,0,16.647,5836.9139289072,31.16798,0.3131716,2.8066437906,0,0,-10.961006,295.7, 0.7, -1.4,0,0,1024,1024,1684,1026,296,0,99,4.198,4.196,4.197,4.192,0,0,17.856,89.51,6,P-GPS,
0.353886267519987,36.8971830810948,5838.5543489072,32.8084,0,2.85955061644,6400,2018-04-15 06:49:45,13,0,16.647,5838.5543489072,32.8084,0.3131716,2.85955061644,0,0,-10.961006,295.7, 0.9, -1.4,0,0,1024,1024,1684,1106,296,0,99,4.198,4.196,4.197,4.192,0,0,17.856,89.51,6,P-GPS,
0.353886235488494,36.8971829137446,5840.1947689072,34.44882,0,2.9135991746,6500,2018-04-15 06:49:45,13,0,16.647,5840.1947689072,34.44882,0.3131716,2.9135991746,0,0,-10.961006,295.7, 1, -1.3,0,0,1024,1024,1684,1024,296.3,0,99,4.198,4.196,4.197,4.192,0,0,17.856,89.51,6,P-GPS,
0.353886199472809,36.8971827458215,5841.8351889072,36.08924,0,2.96771334956,6600,2018-04-15 06:49:45,13,0,16.647,5841.8351889072,36.08924,0.3131716,2.96771334956,0,0,-10.961006,296.4, 0.9, -1.1,0,0,1024,1024,1684,1024,296.4,0,99,4.198,4.196,4.197,4.192,0,0,17.856,89.51,6,P-GPS,
0.353886139560115,36.8971825947293,5843.4756089072,37.72966,0,3.01371728804,6700,2018-04-15 06:49:45,13,0,16.647,5843.4756089072,37.72966,0.3131716,3.01371728804,0,0,-10.961006,296.5, 0.6, -1.1,0,0,1024,1024,1684,1024,296.4,0,99,4.198,4.196,4.197,4.192,0,0,17.856,89.51,6,P-GPS,
0.353886076220768,36.8971824412669,5845.1160289072,39.37008,0,3.06065298508,6800,2018-04-15 06:49:45,13,0,16.647,5845.1160289072,39.37008,0.3131716,3.06065298508,0,0,-10.961006,296.5, 0.5, -0.9,0,0,1024,1024,1684,1024,296.4,0,99,4.198,4.196,4.197,4.192,0,0,17.856,89.51,6,P-GPS,
0.353885979287232,36.8971822907142,5846.7564489072,41.0105,0,3.1037402568,6900,2018-04-15 06:49:45,13,0,16.647,5846.7564489072,41.0105,0.3131716,3.1037402568,0,0,-10.961006,296.4, 0.5, -0.9,0,0,1024,1024,1684,1024,296.4,0,99,4.198,4.196,4.197,4.192,0,0,17.856,89.51,6,P-GPS,
0.353885888679794,36.8971821343547,5848.3968689072,42.65092,0,3.15022647876,7000,2018-04-15 06:49:45,13,0,16.647,5848.3968689072,42.65092,0.3131716,3.15022647876,0,0,-10.961006,296.5, 0.3, -1,0,0,1024,1024,1684,1022,296.4,0,99,4.175,4.174,4.197,4.192,0,0,19.946,87.71,6,P-GPS,
0.35388580194622,36.8971819764707,5849.7092049072,43.963256,0,3.19827438056,7100,2018-04-15 06:49:45,13,0,16.647,5849.7092049072,43.963256,0.3131716,3.19827438056,0,0,-10.961006,296.5, 0.6, -1.1,0,0,1024,1024,1684,1024,296.4,0,99,4.175,4.174,4.197,4.192,0,0,19.946,87.71,6,P-GPS,
0.353885725943482,36.8971818091365,5851.3496249072,45.603676,0,3.25118448724,7200,2018-04-15 06:49:45,13,0,16.647,5851.3496249072,45.603676,0.3131716,3.25118448724,0,0,-10.961006,296.4, 0.7, -1,0,0,1024,1024,1684,1023,296.4,0,99,4.175,4.174,4.197,4.192,0,0,19.946,87.71,6,P-GPS,
0.353885650198038,36.8971816809015,5852.9900449072,47.244096,0,3.2907153284,7300,2018-04-15 06:49:45,13,0,16.647,5852.9900449072,47.244096,0.3131716,3.2907153284,0,0,-10.961006,296.5, 0.8, -1.1,0,0,1024,1024,1684,1024,296.4,0,99,4.175,4.174,4.197,4.192,0,0,19.946,87.71,6,P-GPS,
0.35388557886812,36.8971815535584,5854.6304649072,48.884516,0,3.3306431512,7400,2018-04-15 06:49:46,13,0,16.647,5854.6304649072,48.884516,0.3131716,3.3306431512,0,0,-10.961006,296.5, 1.7, -1.3,0,0,1024,1024,1684,1024,296.4,-0.1,99,4.175,4.174,4.197,4.192,0,0,19.946,87.71,6,P-GPS,
0.353885489026254,36.8971814607762,5856.2708849072,50.524936,0,3.357283572,7500,2018-04-15 06:49:46,13,0,16.647,5856.2708849072,50.524936,0.3131716,3.357283572,0,0,-10.961006,296.5, 1.5, -0.5,0,0,1024,1024,1684,1024,296.4,-1.5,99,4.175,4.174,4.197,4.192,0,0,19.946,87.71,6,P-GPS,
0.353885381536737,36.8971813853206,5857.9113049072,52.165356,0,3.376968612,7600,2018-04-15 06:49:46,13,0,16.647,5857.9113049072,52.165356,0.3131716,3.376968612,0,0,-10.961006,296.5, 0.5, -0.1,0,0,1024,1024,1684,1024,296.4,-1.5,99,4.175,4.174,4.197,4.192,0,0,19.946,87.71,6,P-GPS,
0.353885290764418,36.8971813274388,5859.5517249072,53.805776,0,3.3919292424,7700,2018-04-15 06:49:46,13,0,16.647,5859.5517249072,53.805776,0.3131716,3.3919292424,0,0,-10.961006,296.5, -0.4, 0.2,0,0,1024,1024,1684,1024,296.4,-4.1,99,4.175,4.174,4.197,4.192,0,0,19.946,87.71,6,P-GPS,
0.353885225119195,36.8971812557463,5861.1921449072,55.446196,0,3.4137468284,7800,2018-04-15 06:49:46,13,0,16.647,5861.1921449072,55.446196,0.3131716,3.4137468284,0,0,-11.1847,296.5, -0.8, -0.3,0,0,1024,1024,1684,1024,296.4,-7.5,99,4.175,4.174,4.197,4.192,0,0,19.946,87.71,6,P-GPS,
0.353885160622024,36.8971811642296,5862.8325649072,57.086616,0,3.4429791128,7900,2018-04-15 06:49:46,13,0,16.647,5862.8325649072,57.086616,0.3131716,3.4429791128,0,0,-10.961006,296.5, -0.3, -0.7,0,0,1024,1024,1684,1024,296.4,-11.6,99,4.175,4.174,4.197,4.192,0,0,19.946,87.71,6,P-GPS,
0.353885098483858,36.8971810418379,5864.4729849072,58.727036,0,3.4837271456,8000,2018-04-15 06:49:46,13,0,16.594,5864.4729849072,58.727036,0.3131716,3.4837271456,0,0,-10.961006,296.5, 0.4, -0.4,0,0,1024,1024,1684,1024,296.4,-15.6,99,4.179,4.177,4.177,4.173,0,0,17.16,89.51,6,P-GPS,
0.353885059211895,36.8971808787829,5866.1134049072,60.367456,0,3.5405512944,8100,2018-04-15 06:49:46,13,0,16.594,5866.1134049072,60.367456,0.3131716,3.5405512944,0,0,-10.961006,296.5, 1.3, -0.2,0,0,1024,1024,1684,1024,296.4,-19.5,99,4.179,4.177,4.177,4.173,0,0,17.16,89.51,6,P-GPS,
0.353885035248121,36.8971807175072,5867.7538249072,62.007876,0,3.5976379104,8200,2018-04-15 06:49:46,13,0,16.594,5867.7538249072,62.007876,0.3131716,3.5976379104,0,0,-11.1847,296.5, 1.8, -0.2,0,0,1024,1024,1684,1024,296.4,-21.9,99,4.179,4.177,4.177,4.173,0,0,17.16,89.51,6,P-GPS,
0.353885015634734,36.8971805898129,5869.7223289072,63.97638,0,3.6428478856,8300,2018-04-15 06:49:47,13,0,16.594,5869.7223289072,63.97638,0.3131716,3.6428478856,0,0,-10.961006,296.5, 1.8, -0.2,0,0,1024,1024,1684,1024,296.4,-21.9,99,4.179,4.177,4.177,4.173,0,0,17.16,89.51,6,P-GPS,
0.353884992743493,36.8971804870977,5871.3627489072,65.6168,0,3.6789371256,8400,2018-04-15 06:49:47,13,0,16.594,5871.3627489072,65.6168,0.3131716,3.6789371256,0,0,-11.1847,296.5, 1.8, 0,0,0,1024,1024,1684,1024,296.4,-21.9,99,4.179,4.177,4.177,4.173,0,0,17.16,89.51,6,P-GPS,
0.353884993013204,36.8971803943798,5873.0031689072,67.25722,0,3.7125001188,8500,2018-04-15 06:49:47,13,0,16.594,5873.0031689072,67.25722,0.3131716,3.7125001188,0,0,-11.1847,296.5, 1.9, -0.4,0,0,1024,1024,1684,1024,296.4,-21.9,99,4.179,4.177,4.177,4.173,0,0,17.16,89.51,6,P-GPS,
0.3538849964881,36.8971803196051,5874.6435889072,68.89764,0,3.7397310908,8600,2018-04-15 06:49:47,13,0,16.594,5874.6435889072,68.89764,0.3131716,3.7397310908,0,0,-10.961006,296.5, 1.8, -0.5,0,0,1024,1024,1684,1024,296.4,-21.9,99,4.179,4.177,4.177,4.173,0,0,17.16,89.51,6,P-GPS,
0.35388498121757,36.8971802892997,5876.2840089072,70.53806,0,3.75000012,8700,2018-04-15 06:49:47,13,0,16.594,5876.2840089072,70.53806,0.3131716,3.75000012,0,0,-11.1847,296.5, 1.6, -0.6,0,0,1024,1024,1684,1024,296.4,-21.9,99,4.179,4.177,4.177,4.173,0,0,17.16,89.51,6,P-GPS,
0.353884954476891,36.8971802741026,5877.9244289072,72.17848,0,3.7542980204,8800,2018-04-15 06:49:47,13,0,16.594,5877.9244289072,72.17848,0.3131716,3.7542980204,0,0,-11.1847,296.5, 1.5, -0.3,0,0,1024,1024,1684,1024,296.4,-21.9,99,4.179,4.177,4.177,4.173,0,0,17.16,89.51,6,P-GPS,
0.353884936492356,36.8971802725984,5879.5648489072,73.8189,0,3.7540683616,8900,2018-04-15 06:49:47,13,0,16.594,5879.5648489072,73.8189,0.3131716,3.7542980204,0,0,-11.1847,296.5, 1.4, -0.1,0,0,1024,1024,1684,1024,296.4,-21.9,99,4.179,4.177,4.177,4.173,0,0,17.16,89.51,6,P-GPS,
0.353884929396818,36.8971802739677,5881.5333529072,75.787404,0,3.7532481516,9000,2018-04-15 06:49:47,13,0,16.647,5881.5333529072,75.787404,0.3131716,3.7542980204,0,0,-11.1847,296.5, 1.2, -0.4,0,0,1024,1024,1684,1024,296.4,-21.9,99,4.169,4.165,4.166,4.163,0,0,17.954,89.51,6,P-GPS,
0.353884891946067,36.8971802589216,5884.8141929072,79.068244,0,3.7571195428,9200,2018-04-15 06:49:47,13,0,16.647,5884.8141929072,79.068244,0.3131716,3.7571195428,0,0,-11.1847,296.5, 1.8, -0.4,0,0,1024,1024,1684,1024,296.4,-21.9,99,4.169,4.165,4.166,4.163,0,0,17.954,89.51,6,P-GPS,
0.353884895833977,36.8971802952683,5886.4546129072,80.708664,0,3.744094608,9300,2018-04-15 06:49:48,13,0,16.647,5886.4546129072,80.708664,0.3131716,3.7571195428,0,0,-11.1847,296.5, 1.8, -0.2,0,0,1024,1024,1684,1024,296.4,-21.9,99,4.169,4.165,4.166,4.163,0,0,17.954,89.51,6,P-GPS,
0.353884911645048,36.8971803624825,5888.4231169072,82.677168,0,3.7204069432,9400,2018-04-15 06:49:48,13,0,16.647,5888.4231169072,82.677168,0.3131716,3.7571195428,0,0,-11.1847,296.5, 1.4, -0.5,0,0,1024,1024,1684,1024,296.4,-21.9,99,4.169,4.165,4.166,4.163,0,0,17.954,89.51,6,P-GPS,
0.353884932050978,36.8971804535495,5890.0635369072,84.317588,0,3.688320328,9500,2018-04-15 06:49:48,13,0,16.647,5890.0635369072,84.317588,0.3131716,3.7571195428,0,0,-11.1847,296.5, 0.9, -0.6,0,0,1024,1024,1684,1024,296.4,-21.9,99,4.169,4.165,4.166,4.163,0,0,17.954,89.51,6,P-GPS,
0.353884943489576,36.8971805417752,5891.7039569072,85.958008,0,3.6568898808,9600,2018-04-15 06:49:48,13,0,16.647,5891.7039569072,85.958008,0.3131716,3.7571195428,0,0,-11.1847,296.5, 0.5, -0.6,0,0,1024,1024,1684,1024,296.4,-21.9,99,4.169,4.165,4.166,4.163,0,0,17.954,89.51,6,P-GPS,
0.353884937857603,36.8971806107259,5893.3443769072,87.598428,0,3.6316602212,9700,2018-04-15 06:49:48,13,0,16.647,5893.3443769072,87.598428,0.3131716,3.7571195428,0,0,-10.961006,296.5, 0, -0.8,0,0,1024,1024,1684,1024,296.4,-21.9,99,4.169,4.165,4.166,4.163,0,0,17.954,89.51,6,P-GPS,
0.353884932848102,36.8971806625085,5895.3128809072,89.566932,0,3.612696966,9800,2018-04-15 06:49:48,13,0,16.647,5895.3128809072,89.566932,0.3131716,3.7571195428,0,0,-10.961006,296.5, 0, -0.6,0,0,1024,1024,1684,1024,296.4,-21.9,99,4.169,4.165,4.166,4.163,0,0,17.954,89.51,6,P-GPS,
0.353884939903946,36.8971806643671,5896.9533009072,91.207352,0,3.6123360736,9900,2018-04-15 06:49:48,13,0,16.647,5896.9533009072,91.207352,0.3131716,3.7571195428,0,0,-11.1847,296.5, 0.5, -0.8,0,0,1024,1024,1684,1024,296.4,-21.9,99,4.169,4.165,4.166,4.163,0,0,17.954,89.51,6,P-GPS,
0.353884964779242,36.8971806722777,5898.5937209072,92.847772,0,3.6106300368,10000,2018-04-15 06:49:48,13,0,16.647,5898.5937209072,92.847772,0.3131716,3.7571195428,0,0,-11.408394,296.5, 0.5, -1.5,0,0,1024,1024,1684,1024,296.4,-21.9,99,4.169,4.165,4.166,4.163,0,0,17.954,89.51,6,P-GPS,
0.353884976958782,36.8971806963244,5900.2341409072,94.488192,0,3.6024935536,10100,2018-04-15 06:49:48,13,0,16.647,5900.2341409072,94.488192,0.3131716,3.7571195428,0,0,-11.1847,296.5, 0.6, -1.7,0,0,1024,1024,1684,1024,296.4,-21.9,99,4.169,4.165,4.166,4.163,0,0,17.954,89.51,6,P-GPS,
0.35388498383163,36.8971807878004,5903.8430649072,98.097116,0,3.569717962,10300,2018-04-15 06:49:49,13,0,16.647,5903.8430649072,98.097116,0.3131716,3.7571195428,0,0,-10.961006,296.5, 0.5, -1.2,0,0,1024,1024,1684,1024,296.4,-21.9,99,4.169,4.165,4.166,4.163,0,0,17.954,89.51,6,P-GPS,
0.353885021374185,36.8971809324658,5907.1239049072,101.377956,0,3.5192586428,10500,2018-04-15 06:49:49,13,0,16.647,5907.1239049072,101.377956,0.3131716,3.7571195428,0,0,-11.1847,296.4, 0.5, -1.2,0,0,1024,1024,1684,1024,296.4,-21.9,99,4.169,4.165,4.166,4.163,0,0,17.954,89.51,6,P-GPS,
0.353885063788637,36.8971811206916,5910.7328289072,104.98688,0,3.453412184,10700,2018-04-15 06:49:49,13,0,16.647,5910.7328289072,104.98688,0.3131716,3.7571195428,0,0,-10.961006,296.5, 0.2, -1.4,0,0,1024,1024,1684,1024,296.4,-21.9,99,4.169,4.165,4.166,4.163,0,0,17.954,89.51,6,P-GPS,
0.353885065712237,36.8971812075384,5912.3732489072,106.6273,0,3.4221785872,10800,2018-04-15 06:49:49,13,0,16.647,5912.3732489072,106.6273,0.3131716,3.7571195428,0,0,-10.961006,296.5, 0.1, -1.2,0,0,1024,1024,1684,1024,296.4,-21.9,99,4.169,4.165,4.166,4.163,0,0,17.954,89.51,6,P-GPS,
0.353885068942459,36.8971812913104,5914.0136689072,108.26772,0,3.3920932844,10900,2018-04-15 06:49:49,13,0,16.647,5914.0136689072,108.26772,0.3131716,3.7571195428,0,0,-10.961006,296.5, 0.2, -1.1,0,0,1024,1024,1684,1024,296.4,-21.9,99,4.169,4.165,4.166,4.163,0,0,17.954,89.51,6,P-GPS,
0.35388506971027,36.8971813417848,5915.6540889072,109.90814,0,3.3739174308,11000,2018-04-15 06:49:49,13,0,16.488,5915.6540889072,109.90814,0.3131716,3.7571195428,0,0,-11.1847,296.5, 0.3, -1,0,0,1024,1024,1684,1024,296.4,-21.9,99,4.166,4.162,4.162,4.16,0,0,17.59,89.51,6,P-GPS,
0.353885105248821,36.8971813893813,5917.2945089072,111.54856,0,3.3586943332,11100,2018-04-15 06:49:49,13,0,16.488,5917.2945089072,111.54856,0.3131716,3.7571195428,0,0,-10.961006,296.6, 0.5, -1.1,0,0,1024,1024,1684,1024,296.4,-21.9,99,4.166,4.162,4.162,4.16,0,0,17.59,89.51,6,P-GPS,
0.353885142370831,36.8971814207412,5918.9349289072,113.18898,0,3.3494751728,11200,2018-04-15 06:49:49,13,0,16.488,5918.9349289072,113.18898,0.3131716,3.7571195428,0,0,-10.961006,296.5, 0.5, -1.2,0,0,1024,1024,1684,1024,296.4,-21.9,99,4.166,4.162,4.162,4.16,0,0,17.59,89.51,6,P-GPS,
0.353885207291804,36.8971814897401,5920.5753489072,114.8294,0,3.3284449884,11300,2018-04-15 06:49:50,13,0,16.488,5920.5753489072,114.8294,0.3131716,3.7571195428,0,0,-10.961006,296.6, 0.4, -1.3,0,0,1024,1024,1684,1024,296.4,-21.9,99,4.166,4.162,4.162,4.16,0,0,17.59,89.51,6,P-GPS,
0.353885258894141,36.8971815418064,5922.5438529072,116.797904,0,3.3128938068,11400,2018-04-15 06:49:50,13,0,16.488,5922.5438529072,116.797904,0.3131716,3.7571195428,0,0,-11.1847,296.5, 0.7, -1.2,0,0,1024,1024,1684,1024,296.4,-21.9,99,4.166,4.162,4.162,4.16,0,0,17.59,89.51,6,P-GPS,
0.353885354384265,36.8971816363026,5924.1842729072,118.438324,0,3.285105092,11500,2018-04-15 06:49:50,13,0,16.488,5924.1842729072,118.438324,0.3131716,3.7571195428,0,0,-11.1847,296.5, 0.7, -1.2,0,0,1024,1024,1684,1024,296.4,-21.9,99,4.166,4.162,4.162,4.16,0,0,17.59,89.51,6,P-GPS,
0.353885438747638,36.8971817277165,5925.8246929072,120.078744,0,3.25817267644,11600,2018-04-15 06:49:50,13,0,16.488,5925.8246929072,120.078744,0.3131716,3.7571195428,0,0,-11.1847,296.4, 0.2, -1.6,0,0,1024,1024,1684,1024,296.4,-21.9,99,4.166,4.162,4.162,4.16,0,0,17.59,89.51,6,P-GPS,
0.353885537832552,36.8971818993942,5929.4336169072,123.687668,0,3.2041011524,11800,2018-04-15 06:49:50,13,0,16.488,5929.4336169072,123.687668,0.3131716,3.7571195428,0,0,-11.1847,296.4, 0.5, -1.6,0,0,1024,1024,1684,1024,296.4,-21.9,99,4.166,4.162,4.162,4.16,0,0,17.59,89.51,6,P-GPS,
0.353885587234251,36.897182010901,5932.7144569072,126.968508,0,3.16818251608,12000,2018-04-15 06:49:50,13,0,16.541,5932.7144569072,126.968508,0.3131716,3.7571195428,0,0,-11.1847,296.5, -0.5, -1.7,0,0,1024,1024,1684,1024,296.4,-21.9,99,4.163,4.16,4.16,4.158,0,0,17.118,89.51,6,P-GPS,
0.353885597251828,36.8971820596549,5934.3548769072,128.608928,0,3.15161755492,12100,2018-04-15 06:49:50,13,0,16.541,5934.3548769072,128.608928,0.3131716,3.7571195428,0,0,-10.961006,296.5, -0.2, -1.6,0,0,1024,1024,1684,1024,296.4,-21.9,99,4.163,4.16,4.16,4.158,0,0,17.118,89.51,6,P-GPS,
0.353885629684936,36.8971820719839,5937.6357169072,131.889768,0,3.14984590132,12300,2018-04-15 06:49:51,13,0,16.541,5937.6357169072,131.889768,0.3131716,3.7571195428,0,0,-11.1847,296.5, 0.9, -0.8,0,0,1024,1024,1684,1024,296.4,-21.9,99,4.163,4.16,4.16,4.158,0,0,17.118,89.51,6,P-GPS,
0.35388566739176,36.8971820637628,5939.6042209072,133.858272,0,3.15586296188,12400,2018-04-15 06:49:51,13,0,16.541,5939.6042209072,133.858272,0.3131716,3.7571195428,0,0,-11.408394,296.4, 1, -1.1,0,0,1024,1024,1684,1024,296.4,-21.9,99,4.163,4.16,4.16,4.158,0,0,17.118,89.51,6,P-GPS,
0.353885731820944,36.8971820418755,5941.2446409072,135.498692,0,3.16904209616,12500,2018-04-15 06:49:51,13,0,16.541,5941.2446409072,135.498692,0.3131716,3.7571195428,0,0,-11.1847,296.4, 1.3, -1.2,0,0,1024,1024,1684,1024,296.4,-21.9,99,4.163,4.16,4.16,4.158,0,0,17.118,89.51,6,P-GPS,
0.353885782369881,36.8971819964608,5942.8850609072,137.139112,0,3.18948829104,12600,2018-04-15 06:49:51,13,0,16.541,5942.8850609072,137.139112,0.3131716,3.7571195428,0,0,-10.961006,296.4, 1.5, -1.1,0,0,1024,1024,1684,1024,296.4,-21.9,99,4.163,4.16,4.16,4.158,0,0,17.118,89.51,6,P-GPS,
0.353885813385429,36.8971819494713,5944.5254809072,138.779532,0,3.20883540452,12700,2018-04-15 06:49:51,13,0,16.541,5944.5254809072,138.779532,0.3131716,3.7571195428,0,0,-10.961006,296.4, 1.6, -0.9,0,0,1024,1024,1684,1024,296.4,-21.9,99,4.163,4.16,4.16,4.158,0,0,17.118,89.51,6,P-GPS,
0.353885829355579,36.8971819012634,5946.1659009072,140.419952,0,3.22730981456,12800,2018-04-15 06:49:51,13,0,16.541,5946.1659009072,140.419952,0.3131716,3.7571195428,0,0,-10.961006,296.4, 1.6, -0.9,0,0,1024,1024,1684,1024,296.4,-21.9,99,4.163,4.16,4.16,4.158,0,0,17.118,89.51,6,P-GPS,
0.353885864864614,36.8971818911773,5947.8063209072,142.060372,0,3.23401257068,12900,2018-04-15 06:49:51,13,0,16.541,5947.8063209072,142.060372,0.3131716,3.7571195428,0,0,-10.961006,296.4, 1.5, -1.1,0,0,1024,1024,1684,1024,296.4,-21.9,99,4.163,4.16,4.16,4.158,0,0,17.118,89.51,6,P-GPS,
0.353885897467285,36.8971818865299,5949.4467409072,143.700792,0,3.23857621912,13000,2018-04-15 06:49:51,13,0,16.461,5949.4467409072,143.700792,0.3131716,3.7571195428,0,0,-11.1847,296.5, 1, -1.2,0,0,1024,1024,1684,1024,296.4,-21.9,99,4.16,4.158,4.159,4.156,0,0,17.064,89.51,6,P-GPS,
0.35388595763198,36.8971819002828,5951.4152449072,145.669296,0,3.23921270208,13100,2018-04-15 06:49:51,13,0,16.461,5951.4152449072,145.669296,0.3131716,3.7571195428,0,0,-11.1847,296.5, 0.9, -1.5,0,0,1024,1024,1684,1024,296.4,-21.9,99,4.16,4.158,4.159,4.156,0,0,17.064,89.51,6,P-GPS,
0.353886022114495,36.8971818828931,5953.0556649072,147.309716,0,3.25138789932,13200,2018-04-15 06:49:51,13,0,16.461,5953.0556649072,147.309716,0.3131716,3.7571195428,0,0,-11.408394,296.5, 1.4, -1.6,0,0,1024,1024,1684,1024,296.4,-21.9,99,4.16,4.158,4.159,4.156,0,0,17.064,89.51,6,P-GPS,
0.353886076076854,36.8971818702044,5954.6960849072,148.950136,0,3.2610237264,13300,2018-04-15 06:49:52,13,0,16.461,5954.6960849072,148.950136,0.3131716,3.7571195428,0,0,-11.408394,296.5, 1.8, -1.7,0,0,1024,1024,1684,1024,296.4,-21.9,99,4.16,4.158,4.159,4.156,0,0,17.064,89.51,6,P-GPS,
0.353886116743579,36.8971818402426,5956.6645889072,150.91864,0,3.27551847752,13400,2018-04-15 06:49:52,13,0,16.461,5956.6645889072,150.91864,0.3131716,3.7571195428,0,0,-11.408394,296.4, 2.2, -1.9,0,0,1024,1024,1684,1024,296.4,-21.9,99,4.16,4.158,4.159,4.156,0,0,17.064,89.51,6,P-GPS,
0.353886177707433,36.8971817136018,5959.9454289072,154.19948,0,3.3260171668,13600,2018-04-15 06:49:52,13,0,16.461,5959.9454289072,154.19948,0.3131716,3.7571195428,0,0,-11.1847,296.4, 2.1, -1.8,0,0,1024,1024,1684,1024,296.4,-21.9,99,4.16,4.158,4.159,4.156,0,0,17.064,89.51,6,P-GPS,
0.353886203829914,36.8971816550905,5961.5858489072,155.8399,0,3.3491470888,13700,2018-04-15 06:49:52,13,0,16.461,5961.5858489072,155.8399,0.3131716,3.7571195428,0,0,-11.1847,296.4, 2, -1.9,0,0,1024,1024,1684,1024,296.4,-21.9,99,4.16,4.158,4.159,4.156,0,0,17.064,89.51,6,P-GPS,
0.353886217854074,36.8971815976584,5963.2262689072,157.48032,0,3.3707022076,13800,2018-04-15 06:49:52,13,0,16.461,5963.2262689072,157.48032,0.3131716,3.7571195428,0,0,-10.961006,296.5, 1.8, -1.7,0,0,1024,1024,1684,1024,296.4,-21.9,99,4.16,4.158,4.159,4.156,0,0,17.064,89.51,6,P-GPS,
0.353886241984764,36.8971815379715,5964.8666889072,159.12074,0,3.3940617884,13900,2018-04-15 06:49:52,13,0,16.461,5964.8666889072,159.12074,0.3131716,3.7571195428,0,0,-11.1847,296.5, 1.9, -1.5,0,0,1024,1024,1684,1024,296.4,-21.9,99,4.16,4.158,4.159,4.156,0,0,17.064,89.51,6,P-GPS,
0.353886261713567,36.89718147424,5966.8351929072,161.089244,0,3.4183728128,14000,2018-04-15 06:49:52,13,0,16.567,5966.8351929072,161.089244,0.3131716,3.7571195428,0,0,-11.1847,296.5, 2.2, -1.5,0,0,1024,1024,1684,1024,296.4,-21.9,99,4.16,4.158,4.159,4.156,0,0,17.064,89.51,6,P-GPS,
0.353886274984164,36.8971814195336,5968.4756129072,162.729664,0,3.4389108712,14100,2018-04-15 06:49:52,13,0,16.567,5968.4756129072,162.729664,0.3131716,3.7571195428,0,0,-10.961006,296.4, 2.3, -1.4,0,0,1024,1024,1684,1024,296.4,-21.9,99,4.16,4.158,4.159,4.156,0,0,17.064,89.51,6,P-GPS,
0.353886270954783,36.8971813691235,5970.1160329072,164.370084,0,3.456200898,14200,2018-04-15 06:49:52,13,0,16.567,5970.1160329072,164.370084,0.3131716,3.7571195428,0,0,-10.737312,296.4, 2.2, -1.4,0,0,1024,1024,1684,1024,296.4,-21.9,99,4.16,4.158,4.159,4.156,0,0,17.064,89.51,6,P-GPS,
0.353886260828507,36.897181336374,5971.7564529072,166.010504,0,3.4667323944,14300,2018-04-15 06:49:53,13,0,16.567,5971.7564529072,166.010504,0.3131716,3.7571195428,0,0,-10.961006,296.4, 2.1, -1.3,0,0,1024,1024,1684,1024,296.4,-21.9,99,4.16,4.158,4.159,4.156,0,0,17.064,89.51,6,P-GPS,
0.353886246299734,36.8971812928285,5975.0372929072,169.291344,0,3.4806103476,14500,2018-04-15 06:49:53,13,0,16.567,5975.0372929072,169.291344,0.3131716,3.7571195428,0,0,-10.961006,296.5, 1.7, -1.5,0,0,1024,1024,1684,1024,296.4,-21.9,99,4.16,4.158,4.159,4.156,0,0,17.064,89.51,6,P-GPS,
0.353886248799599,36.8971812702668,5976.6777129072,170.931764,0,3.4887796392,14600,2018-04-15 06:49:53,13,0,16.567,5976.6777129072,170.931764,0.3131716,3.7571195428,0,0,-10.961006,296.5, 1.7, -1.8,0,0,1024,1024,1684,1024,296.4,-21.9,99,4.16,4.158,4.159,4.156,0,0,17.064,89.51,6,P-GPS,
0.353886256446161,36.8971812585266,5978.3181329072,172.572184,0,3.4936680908,14700,2018-04-15 06:49:53,13,0,16.567,5978.3181329072,172.572184,0.3131716,3.7571195428,0,0,-10.737312,296.5, 2, -2,0,0,1024,1024,1684,1024,296.4,-21.9,99,4.16,4.158,4.159,4.156,0,0,17.064,89.51,6,P-GPS,
0.353886250272119,36.8971812386938,5979.9585529072,174.212604,0,3.5000329204,14800,2018-04-15 06:49:53,13,0,16.567,5979.9585529072,174.212604,0.3131716,3.7571195428,0,0,-10.961006,296.5, 1.8, -1.4,0,0,1024,1024,1684,1024,296.4,-21.9,99,4.16,4.158,4.159,4.156,0,0,17.064,89.51,6,P-GPS,
0.353886274468558,36.8971812346534,5981.5989729072,175.853024,0,3.5038058864,14900,2018-04-15 06:49:53,13,0,16.541,5981.5989729072,175.853024,0.3131716,3.7571195428,0,0,-10.961006,296.5, 1.8, -1.4,0,0,1024,1024,1684,1024,296.4,-21.9,99,4.159,4.154,4.154,4.154,0,0,16.746,89.51,6,P-GPS,
0.353886314565327,36.8971812255769,5984.8798129072,179.133864,0,3.5109253092,15100,2018-04-15 06:49:53,13,0,16.541,5984.8798129072,179.133864,0.3131716,3.7571195428,0,0,-10.961006,296.5, 2.6, -1.9,0,0,1024,1024,1684,1024,296.4,-21.9,99,4.159,4.154,4.154,4.154,0,0,16.746,89.51,6,P-GPS,
0.353886291579026,36.8971812837542,5988.1606529072,182.414704,0,3.4882218964,15300,2018-04-15 06:49:54,13,0,16.541,5988.1606529072,182.414704,0.3131716,3.7571195428,0,0,-11.1847,296.5, 1.9, -1.6,0,0,1024,1024,1684,1024,296.4,-21.9,99,4.159,4.154,4.154,4.154,0,0,16.746,89.51,6,P-GPS,
0.353886315623205,36.8971813699607,5991.4414929072,185.695544,0,3.4603675648,15500,2018-04-15 06:49:54,13,0,16.541,5991.4414929072,185.695544,0.3131716,3.7571195428,0,0,-10.961006,296.5, 1.4, -2.2,0,0,1024,1024,1684,1024,296.4,-21.9,99,4.159,4.154,4.154,4.154,0,0,16.746,89.51,6,P-GPS,
0.353886317148243,36.8971813868323,5993.0819129072,187.335964,0,3.4545932864,15600,2018-04-15 06:49:54,13,0,16.541,5993.0819129072,187.335964,0.3131716,3.7571195428,0,0,-11.1847,296.4, 1.8, -1.8,0,0,1024,1024,1684,1024,296.4,-21.9,99,4.159,4.154,4.154,4.154,0,0,16.746,89.51,6,P-GPS,
0.353886296050326,36.8971813996655,5994.7223329072,188.976384,0,3.447998798,15700,2018-04-15 06:49:54,13,0,16.541,5994.7223329072,188.976384,0.3131716,3.7571195428,0,0,-10.961006,296.4, 1.9, -1.9,0,0,1024,1024,1684,1024,296.4,-21.9,99,4.159,4.154,4.154,4.154,0,0,16.746,89.51,6,P-GPS,
0.353886262488503,36.8971814134355,5996.3627529072,190.616804,0,3.439796698,15800,2018-04-15 06:49:54,13,0,16.541,5996.3627529072,190.616804,0.3131716,3.7571195428,0,0,-10.961006,296.5, 1.2, -2,0,0,1024,1024,1684,1024,296.4,-21.9,99,4.159,4.154,4.154,4.154,0,0,16.746,89.51,6,P-GPS,
0.35388623475203,36.8971814441905,5998.0031729072,192.257224,0,3.4262796372,15900,2018-04-15 06:49:54,13,0,16.541,5998.0031729072,192.257224,0.3131716,3.7571195428,0,0,-10.961006,296.5, 1.3, -2,0,0,1024,1024,1684,1024,296.4,-21.9,99,4.159,4.154,4.154,4.154,0,0,16.746,89.51,6,P-GPS,
0.353886210619915,36.8971814606959,5999.6435929072,193.897644,0,3.4181103456,16000,2018-04-15 06:49:54,13,0,16.514,5999.6435929072,193.897644,0.3131716,3.7571195428,0,0,-10.961006,296.5, 2, -1.8,0,0,1024,1024,1684,1024,296.4,-21.9,99,4.153,4.147,4.147,4.154,0,0,17.142,89.51,6,P-GPS,
0.353886191740346,36.8971815048473,6001.2840129072,195.538064,0,3.400754702,16100,2018-04-15 06:49:54,13,0,16.514,6001.2840129072,195.538064,0.3131716,3.7571195428,0,0,-10.961006,296.5, 1.9, -1.7,0,0,1024,1024,1684,1024,296.4,-21.9,99,4.153,4.147,4.147,4.154,0,0,17.142,89.51,6,P-GPS,
0.353886166032304,36.8971815549234,6002.5963489072,196.8504,0,3.3806431528,16200,2018-04-15 06:49:54,13,0,16.514,6002.5963489072,196.8504,0.3131716,3.7571195428,0,0,-10.737312,296.5, 1.5, -1.8,0,0,1024,1024,1684,1024,296.4,-21.9,99,4.153,4.147,4.147,4.154,0,0,17.142,89.51,6,P-GPS,
0.353886064343508,36.8971816371933,6005.8771889072,200.13124,0,3.3419620492,16400,2018-04-15 06:49:55,13,0,16.514,6005.8771889072,200.13124,0.3131716,3.7571195428,0,0,-10.961006,296.5, 0.9, -1.9,0,0,1024,1024,1684,1024,296.4,-21.9,99,4.153,4.147,4.147,4.154,0,0,17.142,89.51,6,P-GPS,
0.353885995456867,36.8971816813854,6009.1580289072,203.41208,0,3.3199804212,16600,2018-04-15 06:49:55,13,0,16.514,6009.1580289072,203.41208,0.3131716,3.7571195428,0,0,-11.1847,296.5, 0.8, -1.6,0,0,1024,1024,1684,1024,296.4,-21.9,99,4.153,4.147,4.147,4.154,0,0,17.142,89.51,6,P-GPS,
0.353885964139039,36.8971816598761,6010.7984489072,205.0525,0,3.3247048308,16700,2018-04-15 06:49:55,13,0,16.514,6010.7984489072,205.0525,0.3131716,3.7571195428,0,0,-10.961006,296.5, 1.6, -1.3,0,0,1024,1024,1684,1024,296.4,-21.9,99,4.153,4.147,4.147,4.154,0,0,17.142,89.51,6,P-GPS,
0.353885925436217,36.8971816299004,6012.4388689072,206.69292,0,3.331857062,16800,2018-04-15 06:49:55,13,0,16.514,6012.4388689072,206.69292,0.3131716,3.7571195428,0,0,-11.1847,296.5, 1.9, -0.9,0,0,1024,1024,1684,1024,296.4,-21.9,99,4.153,4.147,4.147,4.154,0,0,17.142,89.51,6,P-GPS,
0.353885888759587,36.8971816204032,6014.0792889072,208.33334,0,3.3319882956,16900,2018-04-15 06:49:55,13,0,16.514,6014.0792889072,208.33334,0.3131716,3.7571195428,0,0,-11.1847,296.5, 2.1, -0.7,0,0,1024,1024,1684,1024,296.4,-21.9,99,4.153,4.147,4.147,4.154,0,0,17.142,89.51,6,P-GPS,
0.353885855219748,36.8971816338595,6015.7197089072,209.97376,0,3.32431113,17000,2018-04-15 06:49:55,13,0,16.488,6015.7197089072,209.97376,0.3131716,3.7571195428,0,0,-11.1847,296.4, 1.7, -1.2,0,0,1024,1024,1684,1024,296.4,-21.9,99,4.153,4.147,4.147,4.154,0,0,17.35,89.51,6,P-GPS,
0.353885819493722,36.897181678619,6017.6882129072,211.942264,0,3.3053806832,17100,2018-04-15 06:49:55,13,0,16.488,6017.6882129072,211.942264,0.3131716,3.7571195428,0,0,-11.1847,296.4, 1, -1.6,0,0,1024,1024,1684,1024,296.4,-21.9,99,4.153,4.147,4.147,4.154,0,0,17.35,89.51,6,P-GPS,
0.353885780810646,36.8971817194515,6019.0005489072,213.2546,0,3.2876313388,17200,2018-04-15 06:49:55,13,0,16.488,6019.0005489072,213.2546,0.3131716,3.7571195428,0,0,-10.961006,296.4, 0.7, -1.7,0,0,1024,1024,1684,1024,296.4,-21.9,99,4.153,4.147,4.147,4.154,0,0,17.35,89.51,6,P-GPS,
0.353885733244814,36.8971817732736,6020.6409689072,214.89502,0,3.26453094436,17300,2018-04-15 06:49:56,13,0,16.488,6020.6409689072,214.89502,0.3131716,3.7571195428,0,0,-10.961006,296.4, 0.7, -1.8,0,0,1024,1024,1684,1024,296.4,-21.9,99,4.153,4.147,4.147,4.154,0,0,17.35,89.51,6,P-GPS,
0.353885680670296,36.8971818134638,6022.2813889072,216.53544,0,3.24593842408,17400,2018-04-15 06:49:56,13,0,16.488,6022.2813889072,216.53544,0.3131716,3.7571195428,0,0,-10.961006,296.5, 0.8, -1.2,0,0,1024,1024,1684,1024,296.4,-21.9,99,4.153,4.147,4.147,4.154,0,0,17.35,89.51,6,P-GPS,
0.353885655823091,36.8971818665568,6023.9218089072,218.17586,0,3.22504275412,17500,2018-04-15 06:49:56,13,0,16.488,6023.9218089072,218.17586,0.3131716,3.7571195428,0,0,-10.961006,296.4, 0.9, -1.2,0,0,1024,1024,1684,1024,296.4,-21.9,99,4.153,4.147,4.147,4.154,0,0,17.35,89.51,6,P-GPS,
0.353885650072241,36.8971819214495,6025.5622289072,219.81628,0,3.20504603432,17600,2018-04-15 06:49:56,13,0,16.488,6025.5622289072,219.81628,0.3131716,3.7571195428,0,0,-10.961006,296.4, 0.8, -1.6,0,0,1024,1024,1684,1024,296.4,-21.9,99,4.153,4.147,4.147,4.154,0,0,17.35,89.51,6,P-GPS,
0.353885645242683,36.8971820048939,6027.2026489072,221.4567,0,3.17497385488,17700,2018-04-15 06:49:56,13,0,16.488,6027.2026489072,221.4567,0.3131716,3.7571195428,0,0,-11.1847,296.4, 0.3, -2.1,0,0,1024,1024,1684,1024,296.4,-21.9,99,4.153,4.147,4.147,4.154,0,0,17.35,89.51,6,P-GPS,
0.353885633760728,36.8971820737686,6028.8430689072,223.09712,0,3.14954406404,17800,2018-04-15 06:49:56,13,0,16.488,6028.8430689072,223.09712,0.3131716,3.7571195428,0,0,-10.961006,296.5, 0, -2.1,0,0,1024,1024,1684,1024,296.4,-21.9,99,4.153,4.147,4.147,4.154,0,0,17.35,89.51,6,P-GPS,
0.353885611822127,36.8971821597964,6030.4834889072,224.73754,0,3.11716217324,17900,2018-04-15 06:49:56,13,0,16.488,6030.4834889072,224.73754,0.3131716,3.7571195428,0,0,-10.961006,296.5, 0.3, -2.2,0,0,1024,1024,1684,1024,296.4,-21.9,99,4.153,4.147,4.147,4.154,0,0,17.35,89.51,6,P-GPS,
0.353885593082604,36.8971822225333,6032.1239089072,226.37796,0,3.0933235898,18000,2018-04-15 06:49:56,13,0,16.541,6032.1239089072,226.37796,0.3131716,3.7571195428,0,0,-11.1847,296.5, 0.6, -2.2,0,0,1024,1024,1684,1024,296.4,-21.9,98,4.149,4.144,4.144,4.143,0,0,17.35,89.51,6,P-GPS,
0.353885579447846,36.8971822764079,6033.7643289072,228.01838,0,3.07305456028,18100,2018-04-15 06:49:56,13,0,16.541,6033.7643289072,228.01838,0.3131716,3.7571195428,0,0,-11.1847,296.5, 0.7, -1.9,0,0,1024,1024,1684,1024,296.4,-21.9,98,4.149,4.144,4.144,4.143,0,0,17.35,89.51,6,P-GPS,
0.353885572779368,36.8971823101541,6035.4047489072,229.6588,0,3.06050862812,18200,2018-04-15 06:49:56,13,0,16.541,6035.4047489072,229.6588,0.3131716,3.7571195428,0,0,-11.1847,296.5, 0.8, -2,0,0,1024,1024,1684,1024,296.4,-21.9,98,4.149,4.144,4.144,4.143,0,0,17.35,89.51,6,P-GPS,
0.353885575134301,36.8971823808552,6037.0451689072,231.29922,0,3.03556112076,18300,2018-04-15 06:49:57,13,0,16.541,6037.0451689072,231.29922,0.3131716,3.7571195428,0,0,-11.1847,296.5, 0.8, -2.4,0,0,1024,1024,1684,1024,296.4,-21.9,98,4.149,4.144,4.144,4.143,0,0,17.35,89.51,6,P-GPS,
0.35388557701719,36.8971824429787,6038.6855889072,232.93964,0,3.01363526704,18400,2018-04-15 06:49:57,13,0,16.541,6038.6855889072,232.93964,0.3131716,3.7571195428,0,0,-11.1847,296.5, 1, -2.7,0,0,1024,1024,1684,1024,296.4,-21.9,98,4.149,4.144,4.144,4.143,0,0,17.35,89.51,6,P-GPS,
0.35388556824354,36.897182515608,6040.3260089072,234.58006,0,2.98710311396,18500,2018-04-15 06:49:57,13,0,16.541,6040.3260089072,234.58006,0.3131716,3.7571195428,0,0,-11.1847,296.4, 1, -2.5,0,0,1024,1024,1684,1024,296.4,-21.9,98,4.149,4.144,4.144,4.143,0,0,17.35,89.51,6,P-GPS,
0.353885546664215,36.8971825607272,6042.2945129072,236.548564,0,2.96928487192,18600,2018-04-15 06:49:57,13,0,16.541,6042.2945129072,236.548564,0.3131716,3.7571195428,0,0,-11.1847,296.5, 0.6, -2.1,0,0,1024,1024,1684,1024,296.4,-21.9,98,4.149,4.144,4.144,4.143,0,0,17.35,89.51,6,P-GPS,
0.353885526137271,36.8971826125152,6043.9349329072,238.188984,0,2.94918644608,18700,2018-04-15 06:49:57,13,0,16.541,6043.9349329072,238.188984,0.3131716,3.7571195428,0,0,-10.961006,296.5, 0.6, -1.8,0,0,1024,1024,1684,1024,296.4,-21.9,98,4.149,4.144,4.144,4.143,0,0,17.35,89.51,6,P-GPS,
0.353885511312528,36.8971826290259,6045.5753529072,239.829404,0,2.94210311252,18800,2018-04-15 06:49:57,13,0,16.541,6045.5753529072,239.829404,0.3131716,3.7571195428,0,0,-10.961006,296.4, 1, -1.8,0,0,1024,1024,1684,1024,296.4,-21.9,98,4.149,4.144,4.144,4.143,0,0,17.35,89.51,6,P-GPS,
0.353885487501216,36.8971826286608,6046.8876889072,241.14174,0,2.94029865052,18900,2018-04-15 06:49:57,13,0,16.541,6046.8876889072,241.14174,0.3131716,3.7571195428,0,0,-10.961006,296.4, 1.4, -1.9,0,0,1024,1024,1684,1024,296.4,-21.9,98,4.149,4.144,4.144,4.143,0,0,17.35,89.51,6,P-GPS,
0.35388545813691,36.8971826155974,6048.5281089072,242.78216,0,2.94259851936,19000,2018-04-15 06:49:57,13,0,16.514,6048.5281089072,242.78216,0.3131716,3.7571195428,0,0,-10.961006,296.4, 1.4, -1.9,0,0,1024,1024,1684,1024,296.4,-21.9,98,4.151,4.148,4.148,4.147,0,0,16.388,89.51,6,P-GPS,
0.353885436770504,36.8971826397179,6050.4966129072,244.750664,0,2.93231964764,19100,2018-04-15 06:49:57,13,0,16.514,6050.4966129072,244.750664,0.3131716,3.7571195428,0,0,-11.1847,296.4, 1.3, -1.8,0,0,1024,1024,1684,1024,296.4,-21.9,98,4.151,4.148,4.148,4.147,0,0,16.388,89.51,6,P-GPS,
0.353885423171979,36.8971826609297,6052.1370329072,246.391084,0,2.92369760012,19200,2018-04-15 06:49:57,13,0,16.514,6052.1370329072,246.391084,0.3131716,3.7571195428,0,0,-11.1847,296.4, 1.3, -1.8,0,0,1024,1024,1684,1024,296.4,-21.9,98,4.151,4.148,4.148,4.147,0,0,16.388,89.51,6,P-GPS,
0.353885423122718,36.8971827160557,6053.7774529072,248.031504,0,2.9040519302,19300,2018-04-15 06:49:58,13,0,16.514,6053.7774529072,248.031504,0.3131716,3.7571195428,0,0,-10.961006,296.4, 1.4, -1.9,0,0,1024,1024,1684,1024,296.4,-21.9,98,4.151,4.148,4.148,4.147,0,0,16.388,89.51,6,P-GPS,
0.353885418254078,36.8971827638086,6055.4178729072,249.671924,0,2.88665691652,19400,2018-04-15 06:49:58,13,0,16.514,6055.4178729072,249.671924,0.3131716,3.7571195428,0,0,-10.961006,296.4, 1.2, -1.9,0,0,1024,1024,1684,1024,296.4,-21.9,98,4.151,4.148,4.148,4.147,0,0,16.388,89.51,6,P-GPS,
0.353885415071487,36.89718284663,6057.0582929072,251.312344,0,2.85690954024,19500,2018-04-15 06:49:58,13,0,16.514,6057.0582929072,251.312344,0.3131716,3.7571195428,0,0,-10.961006,296.4, 1, -2,0,0,1024,1024,1684,1024,296.4,-21.9,98,4.151,4.148,4.148,4.147,0,0,16.388,89.51,6,P-GPS,
0.353885401424313,36.8971829078188,6058.3706289072,252.62468,0,2.8340388046,19600,2018-04-15 06:49:58,13,0,16.514,6058.3706289072,252.62468,0.3131716,3.7571195428,0,0,-10.961006,296.4, 0.7, -2,0,0,1024,1024,1684,1024,296.4,-21.9,98,4.151,4.148,4.148,4.147,0,0,16.388,89.51,6,P-GPS,
0.353885365024925,36.8971829838333,6060.0110489072,254.2651,0,2.80408145456,19700,2018-04-15 06:49:58,13,0,16.514,6060.0110489072,254.2651,0.3131716,3.7571195428,0,0,-10.961006,296.5, 0.6, -1.8,0,0,1024,1024,1684,1024,296.4,-21.9,98,4.151,4.148,4.148,4.147,0,0,16.388,89.51,6,P-GPS,
0.353885297747186,36.8971830842766,6063.2918889072,257.54594,0,2.76304798868,19900,2018-04-15 06:49:58,13,0,16.514,6063.2918889072,257.54594,0.3131716,3.7571195428,0,0,-10.737312,296.5, 0.8, -1.7,0,0,1024,1024,1684,1024,296.4,-21.9,98,4.151,4.148,4.148,4.147,0,0,16.388,89.51,6,P-GPS,
0.353885279031072,36.8971831150991,6064.9323089072,259.18636,0,2.75062016676,20000,2018-04-15 06:49:58,13,0,16.488,6064.9323089072,259.18636,0.3131716,3.7571195428,0,0,-10.961006,296.4, 1, -1.6,0,0,1024,1024,1684,1024,296.4,-21.9,98,4.15,4.146,4.145,4.145,0,0,16.464,89.51,6,P-GPS,
0.353885244692277,36.8971831686,6066.5727289072,260.82678,0,2.72892725268,20100,2018-04-15 06:49:58,13,0,16.488,6066.5727289072,260.82678,0.3131716,3.7571195428,0,0,-11.1847,296.4, 1, -1.3,0,0,1024,1024,1684,1024,296.4,-21.9,98,4.15,4.146,4.145,4.145,0,0,16.464,89.51,6,P-GPS,
0.353885206169196,36.8971832110524,6068.2131489072,262.4672,0,2.71089903688,20200,2018-04-15 06:49:58,13,0,16.488,6068.2131489072,262.4672,0.3131716,3.7571195428,0,0,-11.1847,296.4, 0.6, -1.3,0,0,1024,1024,1684,1024,296.4,-21.9,98,4.15,4.146,4.145,4.145,0,0,16.464,89.51,6,P-GPS,
0.353885189670004,36.8971832796701,6069.8535689072,264.10762,0,2.68516412792,20300,2018-04-15 06:49:59,13,0,16.488,6069.8535689072,264.10762,0.3131716,3.7571195428,0,0,-11.1847,296.3, 0.6, -1.6,0,0,1024,1024,1684,1024,296.4,-21.9,98,4.15,4.146,4.145,4.145,0,0,16.464,89.51,6,P-GPS,
0.35388517788353,36.8971833243557,6071.4939889072,265.74804,0,2.66833013788,20400,2018-04-15 06:49:59,13,0,16.488,6071.4939889072,265.74804,0.3131716,3.7571195428,0,0,-10.961006,296.3, 0.9, -1.6,0,0,1024,1024,1684,1024,296.4,-21.9,98,4.15,4.146,4.145,4.145,0,0,16.464,89.51,6,P-GPS,
0.353885146143528,36.8971833874695,6073.1344089072,267.38846,0,2.64345152816,20500,2018-04-15 06:49:59,13,0,16.488,6073.1344089072,267.38846,0.3131716,3.7571195428,0,0,-10.961006,296.3, 1.1, -1.2,0,0,1024,1024,1684,1024,296.4,-21.9,98,4.15,4.146,4.145,4.145,0,0,16.464,89.51,6,P-GPS,
0.353885106757982,36.8971834459177,6074.7748289072,269.02888,0,2.61971136992,20600,2018-04-15 06:49:59,13,0,16.488,6074.7748289072,269.02888,0.3131716,3.7571195428,0,0,-10.961006,296.4, 1, -1,0,0,1024,1024,1684,1024,296.4,-21.9,98,4.15,4.146,4.145,4.145,0,0,16.464,89.51,6,P-GPS,
0.353885087708444,36.8971835425657,6076.4152489072,270.6693,0,2.58377304856,20700,2018-04-15 06:49:59,13,0,16.488,6076.4152489072,270.6693,0.3131716,3.7571195428,0,0,-11.1847,296.4, 0.5, -1.2,0,0,1024,1024,1684,1024,296.4,-21.9,98,4.15,4.146,4.145,4.145,0,0,16.464,89.51,6,P-GPS,
0.353885078398833,36.8971836304414,6078.0556689072,272.30972,0,2.55166674832,20800,2018-04-15 06:49:59,13,0,16.488,6078.0556689072,272.30972,0.3131716,3.7571195428,0,0,-11.1847,296.5, 0, -1.6,0,0,1024,1024,1684,1024,296.4,-21.9,98,4.15,4.146,4.145,4.145,0,0,16.464,89.51,6,P-GPS,
0.353885090977545,36.8971837161822,6079.6960889072,273.95014,0,2.52191937204,20900,2018-04-15 06:49:59,13,0,16.488,6079.6960889072,273.95014,0.3131716,3.7571195428,0,0,-11.1847,296.5, -0.4, -1.8,0,0,1024,1024,1684,1024,296.4,-21.9,98,4.15,4.146,4.145,4.145,0,0,16.464,89.51,6,P-GPS,
0.353885107558362,36.8971837623613,6081.6645929072,275.918644,0,2.506643781,21000,2018-04-15 06:49:59,13,0,16.461,6081.6645929072,275.918644,0.3131716,3.7571195428,0,0,-11.1847,296.5, -0.1, -1.8,0,0,1024,1024,1684,1024,296.4,-21.9,98,4.15,4.146,4.145,4.145,0,0,16.464,89.51,6,P-GPS,
0.353885116680905,36.8971837808366,6084.9454329072,279.199484,0,2.50072842648,21200,2018-04-15 06:49:59,13,0,16.461,6084.9454329072,279.199484,0.3131716,3.7571195428,0,0,-11.1847,296.5, 0.9, -1.9,0,0,1024,1024,1684,1024,296.4,-21.9,98,4.15,4.146,4.145,4.145,0,0,16.464,89.51,6,P-GPS,
0.353885106692234,36.8971837899324,6086.5858529072,280.839904,0,2.49673236336,21300,2018-04-15 06:50:00,13,0,16.461,6086.5858529072,280.839904,0.3131716,3.7571195428,0,0,-11.1847,296.5, 1, -1.4,0,0,1024,1024,1684,1024,296.4,-21.9,98,4.15,4.146,4.145,4.145,0,0,16.464,89.51,6,P-GPS,
0.353885100807648,36.8971837918659,6088.2262729072,282.480324,0,2.49560047356,21400,2018-04-15 06:50:00,13,0,16.461,6088.2262729072,282.480324,0.3131716,3.7571195428,0,0,-10.961006,296.5, 0.9, -1.5,0,0,1024,1024,1684,1024,296.4,-21.9,98,4.15,4.146,4.145,4.145,0,0,16.464,89.51,6,P-GPS,
0.353885094102122,36.8971837923091,6089.8666929072,284.120744,0,2.49494430556,21500,2018-04-15 06:50:00,13,0,16.461,6089.8666929072,284.120744,0.3131716,3.7571195428,0,0,-10.961006,296.5, 1.1, -1.5,0,0,1024,1024,1684,1024,296.4,-21.9,98,4.15,4.146,4.145,4.145,0,0,16.464,89.51,6,P-GPS,
0.353885084309881,36.8971837790037,6091.1790289072,285.43308,0,2.49897645792,21600,2018-04-15 06:50:00,13,0,16.461,6091.1790289072,285.43308,0.3131716,3.7571195428,0,0,-10.961006,296.5, 1.1, -1.4,0,0,1024,1024,1684,1024,296.4,-21.9,98,4.15,4.146,4.145,4.145,0,0,16.464,89.51,6,P-GPS,
0.353885075189374,36.8971837760478,6093.1475329072,287.401584,0,2.49936687788,21700,2018-04-15 06:50:00,13,0,16.461,6093.1475329072,287.401584,0.3131716,3.7571195428,0,0,-11.1847,296.5, 0.9, -1.5,0,0,1024,1024,1684,1024,296.4,-21.9,98,4.15,4.146,4.145,4.145,0,0,16.464,89.51,6,P-GPS,
0.353885067705859,36.8971837571293,6094.7879529072,289.042004,0,2.50558735052,21800,2018-04-15 06:50:00,13,0,16.461,6094.7879529072,289.042004,0.3131716,3.7571195428,0,0,-11.1847,296.5, 1.1, -1.4,0,0,1024,1024,1684,1024,296.4,-21.9,98,4.15,4.146,4.145,4.145,0,0,16.464,89.51,6,P-GPS,
0.353885064795423,36.8971837476759,6096.4283729072,290.682424,0,2.50875664196,21900,2018-04-15 06:50:00,13,0,16.461,6096.4283729072,290.682424,0.3131716,3.7571195428,0,0,-11.408394,296.5, 1.3, -1.1,0,0,1024,1024,1684,1024,296.4,-21.9,98,4.15,4.146,4.145,4.145,0,0,16.464,89.51,6,P-GPS,
0.35388506405387,36.8971837343791,6098.0687929072,292.322844,0,2.51345808568,22000,2018-04-15 06:50:00,13,0,16.461,6098.0687929072,292.322844,0.3131716,3.7571195428,0,0,-10.961006,296.5, 0.9, -1,0,0,1024,1024,1684,1024,296.4,-21.9,98,4.149,4.144,4.144,4.142,0,0,16.494,89.51,6,P-GPS,
0.353885078048311,36.8971837362227,6099.7092129072,293.963264,0,2.5138124164,22100,2018-04-15 06:50:00,13,0,16.461,6099.7092129072,293.963264,0.3131716,3.7571195428,0,0,-10.961006,296.5, 1, -1.3,0,0,1024,1024,1684,1024,296.4,-21.9,98,4.149,4.144,4.144,4.142,0,0,16.494,89.51,6,P-GPS,
0.353885101212316,36.8971837170697,6101.3496329072,295.603684,0,2.52235244292,22200,2018-04-15 06:50:00,13,0,16.461,6101.3496329072,295.603684,0.3131716,3.7571195428,0,0,-11.1847,296.5, 1.5, -1.5,0,0,1024,1024,1684,1024,296.4,-21.9,98,4.149,4.144,4.144,4.142,0,0,16.494,89.51,6,P-GPS,
0.353885097242169,36.897183709871,6102.9900529072,297.244104,0,2.52463262672,22300,2018-04-15 06:50:01,13,0,16.461,6102.9900529072,297.244104,0.3131716,3.7571195428,0,0,-11.1847,296.5, 1.7, -1.3,0,0,1024,1024,1684,1024,296.4,-21.9,98,4.149,4.144,4.144,4.142,0,0,16.494,89.51,6,P-GPS,
0.353885091350256,36.8971836892653,6104.6304729072,298.884524,0,2.53156832248,22400,2018-04-15 06:50:01,13,0,16.461,6104.6304729072,298.884524,0.3131716,3.7571195428,0,0,-10.961006,296.5, 1.5, -1,0,0,1024,1024,1684,1024,296.4,-21.9,98,4.149,4.144,4.144,4.142,0,0,16.494,89.51,6,P-GPS,
0.353885118472805,36.8971836593282,6106.2708929072,300.524944,0,2.5442586116,22500,2018-04-15 06:50:01,13,0,16.461,6106.2708929072,300.524944,0.3131716,3.7571195428,0,0,-10.961006,296.5, 1.7, -1.1,0,0,1024,1024,1684,1024,296.4,-21.9,98,4.149,4.144,4.144,4.142,0,0,16.494,89.51,6,P-GPS,
0.353885222816168,36.8971835959339,6109.5517329072,303.805784,0,2.57482947872,22700,2018-04-15 06:50:01,13,0,16.461,6109.5517329072,303.805784,0.3131716,3.7571195428,0,0,-11.1847,296.5, 2.6, -1.8,0,0,1024,1024,1684,1024,296.4,-21.9,98,4.149,4.144,4.144,4.142,0,0,16.494,89.51,6,P-GPS,
0.353885261442249,36.8971835835963,6111.1921529072,305.446204,0,2.58228682804,22800,2018-04-15 06:50:01,13,0,16.461,6111.1921529072,305.446204,0.3131716,3.7571195428,0,0,-10.961006,296.5, 2.4, -2.3,0,0,1024,1024,1684,1024,296.4,-21.9,98,4.149,4.144,4.144,4.142,0,0,16.494,89.51,6,P-GPS,
0.353885291074841,36.8971835947552,6112.8325729072,307.086624,0,2.58071530568,22900,2018-04-15 06:50:01,13,0,16.461,6112.8325729072,307.086624,0.3131716,3.7571195428,0,0,-10.961006,296.5, 2.4, -2.1,0,0,1024,1024,1684,1024,296.4,-21.9,98,4.149,4.144,4.144,4.142,0,0,16.494,89.51,6,P-GPS,
0.353885316741764,36.8971835903165,6114.4729929072,308.727044,0,2.58440953152,23000,2018-04-15 06:50:01,13,0,16.408,6114.4729929072,308.727044,0.3131716,3.7571195428,0,0,-10.961006,296.5, 2.2, -1.9,0,0,1024,1024,1684,1024,296.4,-21.9,98,4.144,4.139,4.138,4.138,0,0,16.628,89.51,6,P-GPS,
0.353885318933853,36.8971836048777,6116.1134129072,310.367464,0,2.57941937388,23100,2018-04-15 06:50:01,13,0,16.408,6116.1134129072,310.367464,0.3131716,3.7571195428,0,0,-11.1847,296.5, 2.1, -1.7,0,0,1024,1024,1684,1024,296.4,-21.9,98,4.144,4.139,4.138,4.138,0,0,16.628,89.51,6,P-GPS,
