latitude,longitude,altitude(feet),ascent(feet),speed(mph),distance(feet),time(millisecond),datetime(utc),satellites,gpslevel,voltage(v),max_altitude(feet),max_ascent(feet),max_speed(mph),max_distance(feet), xSpeed(mph), ySpeed(mph), zSpeed(mph), compass_heading(degrees), pitch(degrees), roll(degrees),isPhoto,isVideo,rc_elevator,rc_aileron,rc_throttle,rc_rudder,gimbal_heading(degrees),gimbal_pitch(degrees),battery_percent,voltageCell1,voltageCell2,voltageCell3,voltageCell4,voltageCell5,voltageCell6,current(A),battery_temperature(f),flycStateRaw,flycState,message
0.313732350786408,36.8862372212019,5837.5599243347,0,0,0,0,2018-03-30 08:02:05,15,0,17.152,5837.5599243347,0,0,0,0,0,0,223.1, -3.2, 0.8,0,0,364,364,364,1684,227.6,0,98,4.286,4.281,4.293,4.289,0,0,1.478,91.31,6,P-GPS,Setting new Return-To-Home altitude to 30m (98 ft). Setting new Maximum Flight Altitude to 120m (394 ft)
0.313732349864708,36.8862372347214,5837.5599243347,0,0,0.0049439306044,100,2018-03-30 08:02:05,15,0,17.152,5837.5599243347,0,0,0.0049439306044,0,0,0,223, -3.2, 0.8,0,0,364,364,364,1684,227.6,0,98,4.286,4.281,4.293,4.289,0,0,1.478,91.31,41,Motors_Started,
0.313732346291902,36.8862372129573,5837.5599243347,0,0,0.0034259515532,200,2018-03-30 08:02:05,15,0,17.152,5837.5599243347,0,0,0.0049439306044,0,0,0,223, -3.2, 0.8,0,0,364,364,364,1684,227.6,0,98,4.286,4.281,4.293,4.289,0,0,1.478,91.31,41,Motors_Started,
0.313732339631566,36.8862371622874,5837.5599243347,0,0,0.0218765426948,400,2018-03-30 08:02:05,15,0,17.152,5837.5599243347,0,0,0.0218765426948,0,0,0,223, -3.2, 0.8,0,0,364,364,364,1684,227.6,0,98,4.286,4.281,4.293,4.289,0,0,1.478,91.31,41,Motors_Started,
0.313732338097572,36.8862371460636,5837.5599243347,0,0,0.0278019037768,500,2018-03-30 08:02:05,15,0,17.152,5837.5599243347,0,0,0.0278019037768,0,0,0,223.1, -3.2, 0.8,0,0,364,364,364,1684,227.6,0,98,4.286,4.281,4.293,4.289,0,0,1.478,91.31,41,Motors_Started,
0.313732334075315,36.8862371614138,5837.5599243347,0,0,0.0226494101736,600,2018-03-30 08:02:05,15,0,17.152,5837.5599243347,0,0,0.0278019037768,0,0,0,223, -3.2, 0.8,0,0,364,364,364,1684,227.6,0,98,4.286,4.281,4.293,4.289,0,0,1.478,91.31,41,Motors_Started,
0.313732333166644,36.8862371807636,5837.5599243347,0,0,0.0160934060268,700,2018-03-30 08:02:06,15,0,17.152,5837.5599243347,0,0,0.0278019037768,0,0,0,223.1, -3.2, 0.8,0,0,364,364,364,1684,227.6,0,98,4.286,4.281,4.293,4.289,0,0,1.478,91.31,41,Motors_Started,
0.313732330307096,36.8862371995621,5837.5599243347,0,0,0.01087024313,800,2018-03-30 08:02:06,15,0,17.152,5837.5599243347,0,0,0.0278019037768,0,0,0,223, -3.2, 0.8,0,0,364,364,364,1684,227.6,0,98,4.286,4.281,4.293,4.289,0,0,1.478,91.31,41,Motors_Started,
0.313732329971637,36.8862372122679,5837.5599243347,0,0,0.0082642063012,900,2018-03-30 08:02:06,15,0,17.152,5837.5599243347,0,0,0.0278019037768,0,0,0,223.1, -3.2, 0.8,0,0,364,364,364,1684,227.6,0,98,4.286,4.281,4.293,4.289,0,0,1.478,91.31,41,Motors_Started,
0.313732327763467,36.8862372214621,5837.5599243347,0,0,0.008400426778,1000,2018-03-30 08:02:06,15,0,17.152,5837.5599243347,0,0,0.0278019037768,0,0,0,223.1, -3.3, 0.8,0,0,364,364,364,1684,227.6,0,98,4.286,4.281,4.293,4.289,0,0,1.476,91.31,41,Motors_Started,
0.313732326538877,36.8862372269724,5837.5599243347,0,0,0.0090937666952,1100,2018-03-30 08:02:06,15,0,17.152,5837.5599243347,0,0,0.0278019037768,0,0,0,223.1, -3.4, 0.9,0,0,364,364,364,1684,227.7,0,98,4.286,4.281,4.293,4.289,0,0,1.476,91.31,41,Motors_Started,
0.313732356798623,36.8862372293909,5837.5599243347,0,0,0.0037064633732,1200,2018-03-30 08:02:06,15,0,17.152,5837.5599243347,0,0,0.0278019037768,0,0,0,223.1, -3.3, 0.8,0,0,364,364,364,1684,227.6,0,98,4.286,4.281,4.293,4.289,0,0,1.476,91.31,41,Motors_Started,
0.3137323886803,36.8862372309293,5837.5599243347,0,0,0.0142738193544,1300,2018-03-30 08:02:06,15,0,17.152,5837.5599243347,0,0,0.0278019037768,0,0,0,223, -3.3, 0.8,0,0,364,364,364,1684,227.6,0,98,4.286,4.281,4.293,4.289,0,0,1.476,91.31,41,Motors_Started,
0.31373241512623,36.8862372303084,5837.5599243347,0,0,0.0237083012836,1400,2018-03-30 08:02:06,15,0,17.152,5837.5599243347,0,0,0.0278019037768,0,0,0,223.1, -3.4, 0.8,0,0,685,613,1008,840,227.3,0,98,4.286,4.281,4.293,4.289,0,0,1.476,91.31,41,Motors_Started,
0.313732433892419,36.8862372308116,5837.5599243347,0,0,0.0305231965148,1500,2018-03-30 08:02:06,15,0,17.152,5837.5599243347,0,0,0.0305231965148,0,0,0,223.1, -3.4, 0.8,0,0,1003,1058,1024,1024,225.2,0,98,4.286,4.281,4.293,4.289,0,0,1.476,91.31,41,Motors_Started,
0.313732447818872,36.8862372295836,5837.5599243347,0,0,0.035534121872,1600,2018-03-30 08:02:06,15,0,17.152,5837.5599243347,0,0,0.035534121872,0,0,0,223.1, -3.4, 0.8,0,0,1017,1024,1024,1024,224.6,0,98,4.286,4.281,4.293,4.289,0,0,1.476,91.31,10,Assisted_Takeoff,
0.313732458468896,36.8862372301842,5837.5599243347,0,0,0.03942421386,1700,2018-03-30 08:02:07,15,0,17.152,5837.5599243347,0,0,0.03942421386,0,0,0,223, -3.2, 0.9,0,0,1024,1024,1024,1024,224.2,0,98,4.286,4.281,4.293,4.289,0,0,1.476,91.31,10,Assisted_Takeoff,
0.313732464461569,36.8862372278471,5837.5599243347,0,0,0.04154527692,1800,2018-03-30 08:02:07,15,0,17.152,5837.5599243347,0,0,0.04154527692,0,0,0,223.1, -3.2, 0.9,0,0,1024,1024,1024,1024,224.2,0,98,4.286,4.281,4.293,4.289,0,0,1.476,91.31,10,Assisted_Takeoff,
0.313732464998956,36.8862372262091,5837.5599243347,0,0,0.041710303172,1900,2018-03-30 08:02:07,15,0,17.152,5837.5599243347,0,0,0.041710303172,0,0,0,223, -3.4, 0.8,0,0,1024,1024,1024,1024,224,0,98,4.286,4.281,4.293,4.289,0,0,1.476,91.31,10,Assisted_Takeoff,
0.313732463018768,36.8862372234202,5837.5599243347,0,0,0.040956038056,2000,2018-03-30 08:02:07,15,0,17.125,5837.5599243347,0,0,0.041710303172,0,0,0,223, -3.2, 0.9,0,0,1024,1024,1024,1024,223.9,0,98,4.283,4.278,4.291,4.287,0,0,1.772,91.31,10,Assisted_Takeoff,
0.313732462986199,36.8862372217544,5837.5599243347,0,0,0.0409366811,2100,2018-03-30 08:02:07,15,0,17.125,5837.5599243347,0,0,0.041710303172,0,0,0,223, -3.3, 0.9,0,0,1024,1024,1024,1024,223.8,0,98,4.283,4.278,4.291,4.287,0,0,1.772,91.31,10,Assisted_Takeoff,
0.313732454743016,36.8862372195051,5837.5599243347,0,0,0.037933400164,2200,2018-03-30 08:02:07,15,0,17.125,5837.5599243347,0,0,0.041710303172,0,0,0,223.1, -3.3, 0.8,0,0,1024,1024,1024,1024,223.7,0,98,4.283,4.278,4.291,4.287,0,0,1.772,91.31,10,Assisted_Takeoff,
0.313732454436868,36.8862372186218,5837.5599243347,0,0,0.037828413284,2300,2018-03-30 08:02:07,15,0,17.125,5837.5599243347,0,0,0.041710303172,0,0,0,223, -3.2, 0.9,0,0,1024,1024,1024,1024,223.7,0,98,4.283,4.278,4.291,4.287,0,0,1.772,91.31,10,Assisted_Takeoff,
0.313732448274836,36.8862371845642,5837.5599243347,0,0,0.037997376544,2400,2018-03-30 08:02:07,15,0,17.125,5837.5599243347,0,0,0.041710303172,0,0,0,223.1, -3.3, 0.8,0,0,1024,1024,1024,1024,223.6,0,98,4.283,4.278,4.291,4.287,0,0,1.772,91.31,10,Assisted_Takeoff,
0.31373244402134,36.8862371540352,5837.5599243347,0,0,0.04192421394,2500,2018-03-30 08:02:07,15,0,17.125,5837.5599243347,0,0,0.04192421394,0,0,0,223.1, -3.3, 0.8,0,1,1024,1024,1024,1024,223.6,0,98,4.283,4.278,4.291,4.287,0,0,1.772,91.31,10,Assisted_Takeoff,
0.313732438904769,36.8862371275296,5837.5599243347,0,0,0.046921261344,2600,2018-03-30 08:02:07,15,0,17.125,5837.5599243347,0,0,0.046921261344,0,0,0,223.1, -3.2, 0.9,0,1,1024,1024,1024,1024,223.6,0,98,4.283,4.278,4.291,4.287,0,0,1.772,91.31,10,Assisted_Takeoff,
0.313732432944664,36.8862371083403,5837.5599243347,0,0,0.05093176016,2700,2018-03-30 08:02:08,15,0,17.125,5837.5599243347,0,0,0.05093176016,0,0,0,223.1, -3.3, 0.8,0,1,1024,1024,1024,1024,223.5,0,98,4.283,4.278,4.291,4.287,0,0,1.772,91.31,10,Assisted_Takeoff,
0.313732426499283,36.8862370944698,5837.5599243347,0,0,0.053860566028,2800,2018-03-30 08:02:08,15,0,17.125,5837.5599243347,0,0,0.053860566028,0,0,0,223.1, -3.3, 0.8,0,1,1024,1024,1024,1024,223.5,0,98,4.283,4.278,4.291,4.287,0,0,1.772,91.31,10,Assisted_Takeoff,
0.313732422597531,36.8862370841396,5837.5599243347,0,0,0.056454398132,2900,2018-03-30 08:02:08,15,0,17.125,5837.5599243347,0,0,0.056454398132,0,0,0,223.1, -3.3, 0.8,0,1,1024,1024,1024,1024,223.5,0,98,4.283,4.278,4.291,4.287,0,0,1.772,91.31,10,Assisted_Takeoff,
0.313732417145501,36.8862370796838,5837.5599243347,0,0,0.057026576628,3000,2018-03-30 08:02:08,15,0,16.934,5837.5599243347,0,0,0.057026576628,0,0,0,223.1, -3.3, 0.8,0,1,1024,1024,1024,1024,223.5,0,98,4.283,4.278,4.291,4.287,0,0,2.824,91.31,10,Assisted_Takeoff,
0.313732411257047,36.8862370766048,5837.5599243347,0,0,0.057183072696,3200,2018-03-30 08:02:08,15,0,16.934,5837.5599243347,0,0,0.057183072696,0,0,0,223.1, -3.3, 0.8,0,1,1024,1024,1024,1024,223.5,0,98,4.283,4.278,4.291,4.287,0,0,2.824,91.31,10,Assisted_Takeoff,
0.313732407739608,36.8862370755578,5837.5599243347,0,0,0.057055776104,3300,2018-03-30 08:02:08,15,0,16.934,5837.5599243347,0,0,0.057183072696,0,0,0,223.1, -3.3, 0.8,0,1,1024,1024,1024,1024,223.5,0,98,4.283,4.278,4.291,4.287,0,0,2.824,91.31,10,Assisted_Takeoff,
0.313732404863776,36.8862371121677,5837.5599243347,0,0,0.04440452898,3400,2018-03-30 08:02:08,15,0,16.934,5837.5599243347,0,0,0.057183072696,0,0,0,223.1, -3.3, 0.8,0,1,1024,1024,1024,1024,223.5,0,98,4.283,4.278,4.291,4.287,0,0,2.824,91.31,10,Assisted_Takeoff,
0.313732401062988,36.8862371432587,5837.5599243347,0,0,0.033839896096,3500,2018-03-30 08:02:08,15,0,16.934,5837.5599243347,0,0,0.057183072696,0,0,0,223.1, -3.3, 0.8,0,1,1024,1024,1024,1024,223.5,0,98,4.283,4.278,4.291,4.287,0,0,2.824,91.31,10,Assisted_Takeoff,
0.313732399473626,36.886237173611,5837.5599243347,0,0,0.0248399942332,3600,2018-03-30 08:02:09,15,0,16.934,5837.5599243347,0,0,0.057183072696,0,0,0,223.1, -3.3, 0.8,0,1,1024,1024,1024,1024,223.4,0,98,4.283,4.278,4.291,4.287,0,0,2.824,91.31,10,Assisted_Takeoff,
0.313732425333317,36.8862372127903,5837.5599243347,0,0,0.0273709982512,3800,2018-03-30 08:02:09,16,0,16.934,5837.5599243347,0,0,0.057183072696,0,0,0,223.1, -3.3, 0.8,0,1,1024,1024,1024,1024,223.4,0,98,4.283,4.278,4.291,4.287,0,0,2.824,91.31,10,Assisted_Takeoff,
0.313732454515034,36.8862372252102,5837.5599243347,0,0,0.037873688876,3900,2018-03-30 08:02:09,16,0,16.934,5837.5599243347,0,0,0.057183072696,0,0,0,223.1, -3.3, 0.8,0,1,1024,1024,1024,1024,223.4,0,98,4.283,4.278,4.291,4.287,0,0,2.824,91.31,10,Assisted_Takeoff,
0.313732485312166,36.8862372031015,5837.5599243347,0,0,0.049523951716,4000,2018-03-30 08:02:09,16,0,17.097,5837.5599243347,0,0,0.057183072696,0,0,0,223.1, -3.3, 0.8,0,1,1024,1024,1024,1024,223.4,0,98,4.28,4.275,4.284,4.279,0,0,2.824,91.31,10,Assisted_Takeoff,
0.313732503042665,36.8862371803407,5837.5599243347,0,0,0.057516077956,4100,2018-03-30 08:02:09,16,0,17.097,5837.5599243347,0,0,0.057516077956,0,0,0,223.1, -3.3, 0.8,0,1,1024,1024,1024,1024,223.4,0,98,4.28,4.275,4.284,4.279,0,0,2.824,91.31,10,Assisted_Takeoff,
0.313732518161139,36.8862371550748,5837.5599243347,0,0,0.065659779004,4200,2018-03-30 08:02:09,16,0,17.097,5837.5599243347,0,0,0.065659779004,0,0,0,223.1, -3.3, 0.8,0,1,1024,1024,1024,1024,223.4,0,98,4.28,4.275,4.284,4.279,0,0,2.824,91.31,10,Assisted_Takeoff,
0.313732529488595,36.8862371391316,5837.5599243347,0,0,0.071746393372,4300,2018-03-30 08:02:09,16,0,17.097,5837.5599243347,0,0,0.071746393372,0,0,0,223.1, -3.3, 0.8,0,1,1024,1024,1024,1024,223.4,0,98,4.28,4.275,4.284,4.279,0,0,2.824,91.31,10,Assisted_Takeoff,
0.313732535666912,36.886237123002,5837.5599243347,0,0,0.0763779552,4400,2018-03-30 08:02:09,15,0,17.097,5837.5599243347,0,0,0.0763779552,0,0,0,223.1, -3.3, 0.8,0,1,1024,1024,1024,1024,223.4,0,98,4.28,4.275,4.284,4.279,0,0,2.824,91.31,10,Assisted_Takeoff,
0.313732540861648,36.8862371125285,5837.5599243347,0,0,0.079882876572,4500,2018-03-30 08:02:09,15,0,17.097,5837.5599243347,0,0,0.079882876572,0,0,0,223.1, -3.3, 0.9,0,1,1024,1024,1024,1024,223.4,0,98,4.28,4.275,4.284,4.279,0,0,2.824,91.31,10,Assisted_Takeoff,
0.313732539483984,36.8862371052452,5837.5599243347,0,0,0.080806104948,4600,2018-03-30 08:02:09,16,0,17.097,5837.5599243347,0,0,0.080806104948,0,0,0,223.1, -3.3, 0.8,0,1,1024,1024,1148,1024,223.4,0,98,4.28,4.275,4.284,4.279,0,0,2.824,91.31,10,Assisted_Takeoff,
0.313732538145403,36.8862370995486,5837.5599243347,0,0,0.081503283448,4700,2018-03-30 08:02:10,16,0,17.097,5837.5599243347,0,0,0.081503283448,0,0,0,223.1, -3.3, 0.8,0,1,1024,1024,1684,1024,223.4,0,98,4.28,4.275,4.284,4.279,0,0,2.824,91.31,10,Assisted_Takeoff,
0.313732535513838,36.8862370968475,5837.5599243347,0,0,0.081245737508,4800,2018-03-30 08:02:10,15,0,17.097,5837.5599243347,0,0,0.081503283448,0,0,0,223.1, -3.2, 0.9,0,1,1024,1024,1684,1024,223.4,0,98,4.28,4.275,4.284,4.279,0,0,2.824,91.31,10,Assisted_Takeoff,
0.313732536168472,36.8862370943563,5837.5599243347,0,0,0.08195374278,4900,2018-03-30 08:02:10,15,0,17.097,5837.5599243347,0,0,0.08195374278,0,0,0,223.1, -3, 1,0,1,1024,1024,1684,1093,223.4,0,98,4.28,4.275,4.284,4.279,0,0,2.824,91.31,10,Assisted_Takeoff,
0.313732537963018,36.8862370941229,5837.5599243347,0,0,0.082542981644,5000,2018-03-30 08:02:10,15,0,17.097,5837.5599243347,0,0,0.082542981644,0,0,0,223.1, -2.8, 1.2,0,1,1024,1024,1684,1048,223.7,0,98,4.281,4.276,4.287,4.283,0,0,1.92,91.31,10,Assisted_Takeoff,
0.313732537979302,36.8862370795575,5837.5599243347,0,0,0.085645343948,5100,2018-03-30 08:02:10,15,0,17.097,5837.5599243347,0,0,0.085645343948,0,0,0,223.7, -1.2, 1.2,0,1,1024,1024,1684,1057,223.7,0,98,4.281,4.276,4.287,4.283,0,0,1.92,91.31,10,Assisted_Takeoff,
0.313732582403254,36.8862369088058,5837.5599243347,0,0,0.141885831312,5300,2018-03-30 08:02:10,15,0,17.097,5837.5599243347,0,0,0.141885831312,0,0,-0.671082,224.1, 1.9, 0.8,0,1,1024,1024,1684,1057,223.7,0,98,4.281,4.276,4.287,4.283,0,0,1.92,91.31,6,P-GPS,
0.313732640639669,36.8862368425224,5837.5599243347,0,0,0.173987210292,5400,2018-03-30 08:02:10,16,0,17.097,5837.5599243347,0,0,0.173987210292,0,0,-1.342164,224.3, 0.7, 0.1,0,1,1024,1024,1684,1057,223.7,0,98,4.281,4.276,4.287,4.283,0,0,1.92,91.31,6,P-GPS,Obstacle Avoided. Revise Flight Route
0.313732682523248,36.8862367768181,5837.8880083347,0.328084,0,0.202325465792,5500,2018-03-30 08:02:10,16,0,17.097,5837.8880083347,0.328084,0,0.202325465792,0,0,-2.23694,224.6, 0, 0.7,0,1,1024,1024,1684,1058,223.8,0,98,4.281,4.276,4.287,4.283,0,0,1.92,91.31,6,P-GPS,
0.313732693671576,36.8862366487755,5838.2160923347,0.656168,0.223694,0.243448498604,5600,2018-03-30 08:02:10,16,0,17.097,5838.2160923347,0.656168,0.223694,0.243448498604,0,-0.223694,-2.908022,224.8, 0, 0,0,1,1024,1024,1684,1056,223.8,0,98,4.281,4.276,4.287,4.283,0,0,1.92,91.31,6,P-GPS,
0.313732674641579,36.8862364766696,5838.5441763347,0.984252,0.223694,0.296224090844,5700,2018-03-30 08:02:11,16,0,17.097,5838.5441763347,0.984252,0.223694,0.296224090844,0,-0.223694,-3.802798,225.2, 0, -0.5,0,1,1024,1024,1684,1061,223.8,0,98,4.281,4.276,4.287,4.283,0,0,1.92,91.31,6,P-GPS,
0.313732584227112,36.8862362581129,5839.2003443347,1.64042,0.223694,0.36155184884,5800,2018-03-30 08:02:11,17,0,17.097,5839.2003443347,1.64042,0.223694,0.36155184884,-0.223694,-0.447388,-4.697574,225.6, 2, -0.7,0,1,1024,1024,1684,1055,223.8,0,98,4.281,4.276,4.287,4.283,0,0,1.92,91.31,6,P-GPS,
0.313732470799473,36.8862360408002,5840.1845963347,2.624672,0.223694,0.43288387212,5900,2018-03-30 08:02:11,17,0,17.097,5840.1845963347,2.624672,0.223694,0.43288387212,0,-0.223694,-5.816044,226.1, 3.6, -0.5,0,1,1024,1024,1684,1055,223.9,0,98,4.281,4.276,4.287,4.283,0,0,1.92,91.31,6,P-GPS,
0.313732360280236,36.8862358550742,5841.1688483347,3.608924,0.223694,0.49843505532,6000,2018-03-30 08:02:11,17,0,17.097,5841.1688483347,3.608924,0.223694,0.49843505532,0,-0.223694,-7.158208,226.6, 3.3, 0.2,0,1,1024,1024,1684,1058,224.1,0,98,4.28,4.275,4.287,4.26,0,0,2.982,91.31,6,P-GPS,
0.31373229514899,36.8862356822531,5842.1531003347,4.593176,0.223694,0.56184385,6100,2018-03-30 08:02:11,17,0,17.097,5842.1531003347,4.593176,0.223694,0.56184385,0,-0.223694,-8.276678,226.9, 2.2, -0.2,0,1,1024,1024,1684,1053,224.2,0,98,4.28,4.275,4.287,4.26,0,0,2.982,91.31,6,P-GPS,Home Point Recorded. RTH Altitude:  30m.
0.313732235427435,36.8862354463057,5843.4654363347,5.905512,0.223694,0.64892718612,6200,2018-03-30 08:02:11,17,0,17.097,5843.4654363347,5.905512,0.223694,0.64892718612,0,-0.447388,-9.395148,227.1, 2.8, -2.6,0,1,1024,1024,1684,1057,224.4,0,98,4.28,4.275,4.287,4.26,0,0,2.982,91.31,6,P-GPS,
0.313732144938059,36.8862352397074,5845.1058563347,7.545932,0.223694,0.72682745108,6300,2018-03-30 08:02:11,17,0,17.097,5845.1058563347,7.545932,0.223694,0.72682745108,0,-0.223694,-10.289924,227.1, 3.9, -2.4,0,1,1024,1024,1684,1057,224.8,0,98,4.28,4.275,4.287,4.26,0,0,2.982,91.31,6,P-GPS,
0.313731806570195,36.8862349219198,5848.0586123347,10.498688,0.3131716,0.8620571142,6500,2018-03-30 08:02:11,16,0,17.097,5848.0586123347,10.498688,0.3131716,0.8620571142,-0.223694,-0.223694,-11.1847,227.6, 2.8, -1.7,0,1,1024,1024,1684,1058,225.1,0,98,4.28,4.275,4.287,4.26,0,0,2.982,91.31,6,P-GPS,
0.313731313311251,36.8862345734812,5851.6675363347,14.107612,0.3131716,1.03751971824,6700,2018-03-30 08:02:12,17,0,17.097,5851.6675363347,14.107612,0.3131716,1.03751971824,-0.223694,-0.223694,-11.632088,227.9, 7.4, 1.6,0,1,1024,1024,1684,1059,225.3,0,98,4.28,4.275,4.287,4.26,0,0,2.982,91.31,6,P-GPS,
0.313731172203322,36.8862344202155,5853.3079563347,15.748032,0.223694,1.10870738456,6800,2018-03-30 08:02:12,17,0,17.097,5853.3079563347,15.748032,0.3131716,1.10870738456,0,-0.223694,-11.408394,228, 6.4, -0.1,0,1,1024,1024,1684,1065,225.5,0,98,4.28,4.275,4.287,4.26,0,0,2.982,91.31,6,P-GPS,
0.313731099703367,36.8862342855738,5854.9483763347,17.388452,0.223694,1.1642552866,6900,2018-03-30 08:02:12,17,0,17.097,5854.9483763347,17.388452,0.3131716,1.1642552866,0,-0.223694,-11.408394,228.3, 4.6, -1.6,0,1,1024,1024,1684,1067,225.7,0,98,4.28,4.275,4.287,4.26,0,0,2.982,91.31,6,P-GPS,
0.31373104348948,36.8862341424273,5856.5887963347,19.028872,0.3131716,1.22034452724,7000,2018-03-30 08:02:12,17,0,16.442,5856.5887963347,19.028872,0.3131716,1.22034452724,-0.223694,-0.223694,-11.408394,228.7, 4.8, -2.1,0,1,1024,1024,1684,1067,226,0,98,4.28,4.275,4.287,4.26,0,0,2.982,91.31,6,P-GPS,
0.313730977830618,36.8862339964309,5858.2292163347,20.669292,0.3131716,1.27873691756,7100,2018-03-30 08:02:12,17,0,16.442,5858.2292163347,20.669292,0.3131716,1.27873691756,-0.223694,-0.223694,-11.1847,229, 5.6, -2.1,0,1,1024,1024,1684,1062,226.3,0,98,4.28,4.275,4.287,4.26,0,0,2.982,91.31,6,P-GPS,
0.313730922268109,36.8862338558453,5859.8696363347,22.309712,0.3131716,1.33387143376,7200,2018-03-30 08:02:12,17,0,16.442,5859.8696363347,22.309712,0.3131716,1.33387143376,0,-0.223694,-10.961006,229.4, 5.9, -1.8,0,1,1024,1024,1684,1058,226.3,0,98,4.28,4.275,4.287,4.26,0,0,2.982,91.31,6,P-GPS,
0.313730868364984,36.8862337170668,5861.5100563347,23.950132,0.223694,1.38816277408,7300,2018-03-30 08:02:12,17,0,16.442,5861.5100563347,23.950132,0.3131716,1.38816277408,0,-0.223694,-10.961006,229.7, 5.8, -1.6,0,1,1024,1024,1684,1048,226.6,0,98,4.28,4.275,4.287,4.26,0,0,2.982,91.31,6,P-GPS,
0.31373086006969,36.8862335475603,5863.1504763347,25.590552,0.223694,1.4464567392,7400,2018-03-30 08:02:12,17,0,16.442,5863.1504763347,25.590552,0.3131716,1.4464567392,0,-0.223694,-10.961006,230, 6.2, -1.6,0,1,1024,1024,1684,1024,226.8,0,98,4.28,4.275,4.287,4.26,0,0,2.982,91.31,6,P-GPS,
0.313730861919603,36.8862333422767,5864.7908963347,27.230972,0.447388,1.51587603276,7500,2018-03-30 08:02:12,17,0,16.442,5864.7908963347,27.230972,0.447388,1.51587603276,0,-0.447388,-10.961006,230.1, 6.7, -2.4,0,1,1024,1024,1684,1024,227.1,0,98,4.28,4.275,4.287,4.26,0,0,2.982,91.31,6,P-GPS,
0.313730884794356,36.8862331160203,5866.4313163347,28.871392,0.447388,1.59039047084,7600,2018-03-30 08:02:12,17,0,16.442,5866.4313163347,28.871392,0.447388,1.59039047084,0,-0.447388,-10.961006,230.1, 7, -3.5,0,1,1024,1024,1684,946,227.3,0,98,4.28,4.275,4.287,4.26,0,0,2.982,91.31,6,P-GPS,
0.313730906327271,36.8862328740819,5868.0717363347,30.511812,0.447388,1.67128614272,7700,2018-03-30 08:02:13,17,0,16.442,5868.0717363347,30.511812,0.447388,1.67128614272,0,-0.447388,-10.961006,230, 6.8, -4.6,0,1,1024,1024,1684,890,227.5,0,98,4.28,4.275,4.287,4.26,0,0,2.982,91.31,6,P-GPS,
0.313730935417794,36.8862326377876,5869.7121563347,32.152232,0.447388,1.7501476938,7800,2018-03-30 08:02:13,17,0,16.442,5869.7121563347,32.152232,0.447388,1.7501476938,0,-0.447388,-10.961006,229.5, 7.6, -5.3,0,1,1024,1024,1684,870,227.3,0,98,4.28,4.275,4.287,4.26,0,0,2.982,91.31,6,P-GPS,
0.313730944426346,36.8862324060134,5871.3525763347,33.792652,0.447388,1.83019034728,7900,2018-03-30 08:02:13,17,0,16.442,5871.3525763347,33.792652,0.447388,1.83019034728,0,-0.447388,-10.961006,228.2, 7.6, -6,0,1,1024,1024,1684,868,226.8,0,98,4.28,4.275,4.287,4.26,0,0,2.982,91.31,6,P-GPS,
0.313730940187507,36.8862321826712,5872.9929963347,35.433072,0.447388,1.90896331568,8000,2018-03-30 08:02:13,17,0,16.469,5872.9929963347,35.433072,0.447388,1.90896331568,0,-0.447388,-10.961006,226.5, 8.6, -6.2,0,1,1024,1024,1684,871,226.1,0,98,4.118,4.107,4.125,4.11,0,0,21.124,91.31,6,P-GPS,
0.313730918696931,36.8862319892947,5874.6334163347,37.073492,0.447388,1.97904861976,8100,2018-03-30 08:02:13,17,0,16.469,5874.6334163347,37.073492,0.447388,1.97904861976,0,-0.223694,-11.1847,224.6, 8.5, -5.6,0,1,1024,1024,1684,888,225.2,0,98,4.118,4.107,4.125,4.11,0,0,21.124,91.31,6,P-GPS,
0.313730894776717,36.8862318592587,5876.2738363347,38.713912,0.223694,2.0271162066,8200,2018-03-30 08:02:13,17,0,16.469,5876.2738363347,38.713912,0.447388,2.0271162066,0,-0.223694,-11.1847,222.9, 7.3, -5.9,0,1,1024,1024,1684,906,224.4,0,98,4.118,4.107,4.125,4.11,0,0,21.124,91.31,6,P-GPS,
0.313730868420351,36.8862317395089,5877.9142563347,40.354332,0.223694,2.0718012474,8300,2018-03-30 08:02:13,17,0,16.469,5877.9142563347,40.354332,0.447388,2.0718012474,0,-0.223694,-11.1847,221.4, 6.7, -6.3,0,1,1024,1024,1684,903,223.6,0,98,4.118,4.107,4.125,4.11,0,0,21.124,91.31,6,P-GPS,
0.313730849787695,36.886231599011,5879.5546763347,41.994752,0.223694,2.12306765324,8400,2018-03-30 08:02:13,17,0,16.469,5879.5546763347,41.994752,0.447388,2.12306765324,0,-0.447388,-11.408394,220.2, 7, -6.9,0,1,1024,1024,1684,924,222.8,0,98,4.118,4.107,4.125,4.11,0,0,21.124,91.31,6,P-GPS,
0.313730827515466,36.8862314389043,5881.1950963347,43.635172,0.447388,2.18161424304,8500,2018-03-30 08:02:13,17,0,16.469,5881.1950963347,43.635172,0.447388,2.18161424304,0,-0.447388,-11.408394,219, 7.7, -7.7,0,1,1024,1024,1684,967,222.2,0,98,4.118,4.107,4.125,4.11,0,0,21.124,91.31,6,P-GPS,
0.313730784804637,36.88623128648,5882.8355163347,45.275592,0.447388,2.23936030788,8600,2018-03-30 08:02:13,17,0,16.469,5882.8355163347,45.275592,0.447388,2.23936030788,0,-0.223694,-11.408394,217.9, 7.7, -8.5,0,1,1024,1024,1684,974,222.2,0,98,4.118,4.107,4.125,4.11,0,0,21.124,91.31,6,P-GPS,
0.313730744000716,36.8862311658952,5884.4759363347,46.916012,0.223694,2.28569889204,8700,2018-03-30 08:02:14,17,0,16.469,5884.4759363347,46.916012,0.447388,2.28569889204,0,-0.223694,-11.1847,217.4, 7.1, -8.4,0,1,1024,1024,1684,984,221.8,0,98,4.118,4.107,4.125,4.11,0,0,21.124,91.31,6,P-GPS,
0.313730713117276,36.8862310482052,5886.1163563347,48.556432,0.223694,2.33009193808,8800,2018-03-30 08:02:14,17,0,16.469,5886.1163563347,48.556432,0.447388,2.33009193808,0,-0.223694,-11.1847,217, 7.1, -7.9,0,1,1024,1024,1684,1007,221.4,0,98,4.118,4.107,4.125,4.11,0,0,21.124,91.31,6,P-GPS,
0.313730682412964,36.8862309460709,5888.0848603347,50.524936,0.223694,2.36898301544,8900,2018-03-30 08:02:14,17,0,16.469,5888.0848603347,50.524936,0.447388,2.36898301544,0,-0.223694,-11.1847,216.7, 7.2, -7.9,0,1,1024,1024,1684,1006,221.2,0,98,4.118,4.107,4.125,4.11,0,0,21.124,91.31,6,P-GPS,
0.313730619664132,36.8862308706157,5889.3971963347,51.837272,0,2.40151582488,9000,2018-03-30 08:02:14,17,0,16.469,5889.3971963347,51.837272,0.447388,2.40151582488,0,0,-10.961006,216.7, 7, -8.8,0,1,1024,1024,1684,1008,221,0,98,4.146,4.134,4.151,4.139,0,0,16.358,91.31,6,P-GPS,
0.313730542855314,36.8862308371426,5891.0376163347,53.477692,0,2.42078747904,9100,2018-03-30 08:02:14,17,0,16.469,5891.0376163347,53.477692,0.447388,2.42078747904,0,0,-10.961006,216.8, 6.9, -8,0,1,1024,1024,1684,1016,220.8,0,98,4.146,4.134,4.151,4.139,0,0,16.358,91.31,6,P-GPS,
0.313730448032648,36.8862308597877,5892.6780363347,55.118112,0,2.4225230434,9200,2018-03-30 08:02:14,17,0,16.469,5892.6780363347,55.118112,0.447388,2.4225230434,0,0,-10.961006,216.9, 6, -7.3,0,1,1024,1024,1684,1022,220.7,0,98,4.146,4.134,4.151,4.139,0,0,16.358,91.31,6,P-GPS,
0.31373035017782,36.886230897556,5894.3184563347,56.758532,0,2.41985572048,9300,2018-03-30 08:02:14,17,0,16.469,5894.3184563347,56.758532,0.447388,2.4225230434,0,0,-10.961006,217, 6.1, -6.5,0,1,1024,1024,1684,1022,220.4,0,98,4.146,4.134,4.151,4.139,0,0,16.358,91.31,6,P-GPS,
0.313730096405993,36.8862309683499,5897.5992963347,60.039372,0,2.42506241356,9500,2018-03-30 08:02:14,17,0,16.469,5897.5992963347,60.039372,0.447388,2.42506241356,0,0,-10.961006,216.8, 7.6, -7.3,0,1,1024,1024,1684,1024,220.3,0,98,4.146,4.134,4.151,4.139,0,0,16.358,91.31,6,P-GPS,
0.313729972530258,36.8862309788181,5899.2397163347,61.679792,0,2.43719167904,9600,2018-03-30 08:02:14,17,0,16.469,5899.2397163347,61.679792,0.447388,2.43719167904,0,0,-10.961006,216.8, 7.7, -7.2,0,1,1024,1024,1684,1024,220.2,0,98,4.146,4.134,4.151,4.139,0,0,16.358,91.31,6,P-GPS,
0.313729870601063,36.8862310164943,5900.8801363347,63.320212,0,2.43790690216,9700,2018-03-30 08:02:15,17,0,16.469,5900.8801363347,63.320212,0.447388,2.43790690216,0,0,-10.961006,217, 7, -6.3,0,1,1024,1024,1684,1024,220.1,0,98,4.146,4.134,4.151,4.139,0,0,16.358,91.31,6,P-GPS,
0.313729740846645,36.8862310830743,5902.5205563347,64.960632,0,2.43350073404,9800,2018-03-30 08:02:15,17,0,16.469,5902.5205563347,64.960632,0.447388,2.43790690216,0,0,-10.961006,216.9, 6.8, -5.8,0,1,1024,1024,1684,1024,220,0,98,4.146,4.134,4.151,4.139,0,0,16.358,91.31,6,P-GPS,
0.313729629342199,36.8862311523265,5904.1609763347,66.601052,0,2.42663065508,9900,2018-03-30 08:02:15,17,0,16.469,5904.1609763347,66.601052,0.447388,2.43790690216,0,0,-10.961006,217.1, 6.4, -5.3,0,1,1024,1024,1684,1024,220,0,98,4.146,4.134,4.151,4.139,0,0,16.358,91.31,6,P-GPS,
0.31372951346701,36.8862311839453,5905.8013963347,68.241472,0,2.43378616712,10000,2018-03-30 08:02:15,17,0,16.524,5905.8013963347,68.241472,0.447388,2.43790690216,0,0,-10.961006,217, 6.8, -6,0,1,1024,1024,1684,1024,219.9,0,98,4.141,4.129,4.147,4.134,0,0,16.546,91.31,6,P-GPS,
0.313729406494524,36.8862311979465,5907.4418163347,69.881892,0,2.44605322788,10100,2018-03-30 08:02:15,17,0,16.524,5907.4418163347,69.881892,0.447388,2.44605322788,0,0,-10.961006,217, 7.7, -6,0,1,1024,1024,1684,1024,219.8,0,98,4.141,4.129,4.147,4.134,0,0,16.546,91.31,6,P-GPS,
0.313729304555558,36.886231238963,5909.0822363347,71.522312,0,2.44926845108,10200,2018-03-30 08:02:15,17,0,16.524,5909.0822363347,71.522312,0.447388,2.44926845108,0,0,-11.1847,217, 7.5, -6.2,0,1,1024,1024,1684,1024,219.8,0,98,4.141,4.129,4.147,4.134,0,0,16.546,91.31,6,P-GPS,
0.31372922179152,36.8862312781637,5910.7226563347,73.162732,0,2.45045283432,10300,2018-03-30 08:02:15,17,0,16.524,5910.7226563347,73.162732,0.447388,2.45045283432,0,0,-11.1847,217, 7.6, -6.4,0,1,1024,1024,1684,1024,219.7,0,98,4.141,4.129,4.147,4.134,0,0,16.546,91.31,6,P-GPS,
0.313729103967083,36.8862313403521,5912.3630763347,74.803152,0,2.4508859052,10400,2018-03-30 08:02:15,17,0,16.524,5912.3630763347,74.803152,0.447388,2.4508859052,0,0,-10.961006,216.9, 8.1, -6.5,0,1,1024,1024,1684,1024,219.6,0,98,4.141,4.129,4.147,4.134,0,0,16.546,91.31,6,P-GPS,
0.313729004765532,36.8862314042364,5914.0034963347,76.443572,0,2.44835309672,10500,2018-03-30 08:02:15,17,0,16.524,5914.0034963347,76.443572,0.447388,2.4508859052,0,0,-10.961006,216.9, 8, -6.3,0,1,1024,1024,1684,1024,219.6,0,98,4.141,4.129,4.147,4.134,0,0,16.546,91.31,6,P-GPS,
0.313728894148588,36.8862315239627,5915.6439163347,78.083992,0,2.43127632452,10600,2018-03-30 08:02:15,17,0,16.524,5915.6439163347,78.083992,0.447388,2.4508859052,0,0,-10.961006,216.9, 7.6, -5.1,0,1,1024,1024,1684,1024,219.5,0,98,4.141,4.129,4.147,4.134,0,0,16.546,91.31,6,P-GPS,
0.313728814428112,36.8862316232942,5917.2843363347,79.724412,0,2.41577435552,10700,2018-03-30 08:02:16,17,0,16.524,5917.2843363347,79.724412,0.447388,2.4508859052,0,0,-10.961006,216.9, 7.6, -5.1,0,1,1024,1024,1684,1024,219.4,0,98,4.141,4.129,4.147,4.134,0,0,16.546,91.31,6,P-GPS,
0.313728660940752,36.8862318718124,5922.5336803347,84.973756,0,2.37096136196,11000,2018-03-30 08:02:16,17,0,16.415,5922.5336803347,84.973756,0.447388,2.4508859052,0,0,-11.1847,216.9, 7.5, -6.4,0,1,1024,1024,1684,1024,219.3,0,98,4.141,4.129,4.147,4.134,0,0,16.546,91.31,6,P-GPS,
0.313728614929067,36.8862319245818,5924.1741003347,86.614176,0,2.36477369772,11100,2018-03-30 08:02:16,17,0,16.415,5924.1741003347,86.614176,0.447388,2.4508859052,0,0,-11.1847,216.9, 7.6, -6.7,0,1,1024,1024,1684,1049,219.3,0,98,4.141,4.129,4.147,4.134,0,0,16.546,91.31,6,P-GPS,
0.313728547312815,36.8862320348205,5925.8145203347,88.254596,0,2.34652894648,11200,2018-03-30 08:02:16,17,0,16.415,5925.8145203347,88.254596,0.447388,2.4508859052,0,0,-11.1847,216.9, 7.8, -5.8,0,1,1024,1024,1684,1049,219.3,0,98,4.141,4.129,4.147,4.134,0,0,16.546,91.31,6,P-GPS,
0.313728500276838,36.8862321275165,5927.4549403347,89.895016,0,2.32965230552,11300,2018-03-30 08:02:16,17,0,16.415,5927.4549403347,89.895016,0.447388,2.4508859052,0,0,-11.1847,216.9, 8.3, -5.3,0,1,1024,1024,1684,1073,219.3,0,98,4.141,4.129,4.147,4.134,0,0,16.546,91.31,6,P-GPS,
0.313728461400995,36.8862322555355,5929.0953603347,91.535436,0,2.30128288204,11400,2018-03-30 08:02:16,17,0,16.415,5929.0953603347,91.535436,0.447388,2.4508859052,0,0,-10.961006,217.1, 7.8, -5.4,0,1,1024,1024,1684,1071,219.3,0,98,4.141,4.129,4.147,4.134,0,0,16.546,91.31,6,P-GPS,
0.313728454095795,36.8862323542718,5930.7357803347,93.175856,0,2.27469823552,11500,2018-03-30 08:02:16,17,0,16.415,5930.7357803347,93.175856,0.447388,2.4508859052,0,0,-10.961006,217.5, 7.7, -5.7,0,1,1024,1024,1684,1061,219.4,0,98,4.141,4.129,4.147,4.134,0,0,16.546,91.31,6,P-GPS,
0.313728464073271,36.8862324897935,5932.3762003347,94.816276,0,2.23400269616,11600,2018-03-30 08:02:16,17,0,16.415,5932.3762003347,94.816276,0.447388,2.4508859052,0,0,-10.961006,217.9, 7.6, -5.2,0,1,1024,1024,1684,1051,219.4,0,98,4.141,4.129,4.147,4.134,0,0,16.546,91.31,6,P-GPS,
0.313728494790611,36.8862326023468,5934.0166203347,96.456696,0,2.1952264482,11700,2018-03-30 08:02:17,17,0,16.415,5934.0166203347,96.456696,0.447388,2.4508859052,0,0,-10.961006,218.2, 7.1, -5.5,0,1,1024,1024,1684,1075,219.4,0,98,4.141,4.129,4.147,4.134,0,0,16.546,91.31,6,P-GPS,
0.313728515131505,36.8862326967536,5935.6570403347,98.097116,0,2.1640912766,11800,2018-03-30 08:02:17,17,0,16.415,5935.6570403347,98.097116,0.447388,2.4508859052,0,0,-11.1847,218.4, 7.1, -5.4,0,1,1024,1024,1684,1098,219.5,0,98,4.141,4.129,4.147,4.134,0,0,16.546,91.31,6,P-GPS,
0.313728526835132,36.8862327377016,5937.2974603347,99.737536,0,2.14994429452,11900,2018-03-30 08:02:17,17,0,16.415,5937.2974603347,99.737536,0.447388,2.4508859052,0,0,-11.1847,218.9, 7.5, -5.3,0,1,1024,1024,1684,1089,219.7,0,98,4.141,4.129,4.147,4.134,0,0,16.546,91.31,6,P-GPS,
0.313728524130286,36.886232804121,5938.9378803347,101.377956,0,2.13221135432,12000,2018-03-30 08:02:17,17,0,16.387,5938.9378803347,101.377956,0.447388,2.4508859052,0,0,-10.961006,219.4, 8.8, -6,0,1,1024,1024,1684,1074,220,0,98,4.13,4.116,4.132,4.121,0,0,17.164,91.31,6,P-GPS,
0.313728543485971,36.8862328709644,5940.5783003347,103.018376,0,2.10917985752,12100,2018-03-30 08:02:17,17,0,16.387,5940.5783003347,103.018376,0.447388,2.4508859052,0,0,-10.961006,219.9, 8.7, -5.3,0,1,1024,1024,1684,1075,220.1,0,98,4.13,4.116,4.132,4.121,0,0,17.164,91.31,6,P-GPS,
0.313728588528732,36.8862329725719,5942.5468043347,104.98688,0,2.07049547308,12200,2018-03-30 08:02:17,17,0,16.387,5942.5468043347,104.98688,0.447388,2.4508859052,0.223694,0,-11.1847,220.5, 7.3, -5,0,1,1024,1024,1684,1092,220.3,0,98,4.13,4.116,4.132,4.121,0,0,17.164,91.31,6,P-GPS,
0.313728663901263,36.8862330262042,5944.1872243347,106.6273,0.223694,2.0376312988,12300,2018-03-30 08:02:17,17,0,16.387,5944.1872243347,106.6273,0.447388,2.4508859052,0.223694,0,-11.1847,221, 6.8, -5.7,0,1,1024,1024,1684,1088,220.6,0,98,4.13,4.116,4.132,4.121,0,0,17.164,91.31,6,P-GPS,
0.313728747227114,36.886233073338,5945.8276443347,108.26772,0.223694,2.00467854184,12400,2018-03-30 08:02:17,17,0,16.387,5945.8276443347,108.26772,0.447388,2.4508859052,0.223694,0,-11.1847,221.6, 6.8, -6.3,0,1,1024,1024,1684,1062,220.8,0,98,4.13,4.116,4.132,4.121,0,0,17.164,91.31,6,P-GPS,
0.31372882308492,36.886233092887,5947.4680643347,109.90814,0,1.98120741248,12500,2018-03-30 08:02:17,17,0,16.387,5947.4680643347,109.90814,0.447388,2.4508859052,0,0,-11.1847,222.2, 7, -6.2,0,1,1024,1024,1684,1060,221,0,98,4.13,4.116,4.132,4.121,0,0,17.164,91.31,6,P-GPS,
0.313728895011663,36.8862331127015,5949.1084843347,111.54856,0,1.95872381596,12600,2018-03-30 08:02:17,17,0,16.387,5949.1084843347,111.54856,0.447388,2.4508859052,0,0,-11.1847,222.5, 7.3, -6.3,0,1,1024,1024,1684,1066,221,0,98,4.13,4.116,4.132,4.121,0,0,17.164,91.31,6,P-GPS,
0.313728965568885,36.8862330950667,5950.7489043347,113.18898,0,1.94722119092,12700,2018-03-30 08:02:18,17,0,16.387,5950.7489043347,113.18898,0.447388,2.4508859052,0,0,-11.1847,222.8, 7.8, -6.5,0,1,1024,1024,1684,1061,221.2,0,98,4.13,4.116,4.132,4.121,0,0,17.164,91.31,6,P-GPS,
0.313729040877906,36.8862330635507,5952.7174083347,115.157484,0,1.938894419,12800,2018-03-30 08:02:18,17,0,16.387,5952.7174083347,115.157484,0.447388,2.4508859052,0,0,-11.1847,223.1, 8.3, -6.9,0,1,1024,1024,1684,1061,221.4,0,98,4.13,4.116,4.132,4.121,0,0,17.164,91.31,6,P-GPS,
0.313729110896112,36.8862330122823,5954.3578283347,116.797904,0,1.93787407776,12900,2018-03-30 08:02:18,17,0,16.387,5954.3578283347,116.797904,0.447388,2.4508859052,0,0,-10.961006,223.5, 8.4, -7,0,1,1024,1024,1684,1062,221.6,0,98,4.13,4.116,4.132,4.121,0,0,17.164,91.31,6,P-GPS,
0.313729189173787,36.886232991956,5955.9982483347,118.438324,0,1.92652237136,13000,2018-03-30 08:02:18,17,0,16.36,5955.9982483347,118.438324,0.447388,2.4508859052,0,0,-10.961006,223.9, 8.4, -6.9,0,1,1024,1024,1684,1066,221.9,0,98,4.127,4.113,4.129,4.115,0,0,16.99,91.31,6,P-GPS,
0.313729243972556,36.8862329597313,5957.6386683347,120.078744,0,1.92410439228,13100,2018-03-30 08:02:18,17,0,16.36,5957.6386683347,120.078744,0.447388,2.4508859052,0,0,-10.961006,224.2, 8.9, -6.5,0,1,1024,1024,1684,1069,222.2,0,98,4.127,4.113,4.129,4.115,0,0,16.99,91.31,6,P-GPS,
0.313729319869445,36.8862329427967,5959.2790883347,121.719164,0,1.91296265964,13200,2018-03-30 08:02:18,17,0,16.36,5959.2790883347,121.719164,0.447388,2.4508859052,0,0,-10.961006,224.5, 9.1, -6.3,0,1,1024,1024,1684,1059,222.5,0,98,4.127,4.113,4.129,4.115,0,0,16.99,91.31,6,P-GPS,
0.313729396743401,36.8862329257058,5960.9195083347,123.359584,0,1.90202105824,13300,2018-03-30 08:02:18,17,0,16.36,5960.9195083347,123.359584,0.447388,2.4508859052,0,0,-10.737312,224.9, 8.9, -6.4,0,1,1024,1024,1684,1073,222.8,0,98,4.127,4.113,4.129,4.115,0,0,16.99,91.31,6,P-GPS,
0.313729486609083,36.8862329243868,5962.5599283347,125.000004,0,1.88403549336,13400,2018-03-30 08:02:18,17,0,16.36,5962.5599283347,125.000004,0.447388,2.4508859052,0,0,-10.961006,225.2, 8.6, -6.3,0,1,1024,1024,1684,1063,223.1,0,98,4.127,4.113,4.129,4.115,0,0,16.99,91.31,6,P-GPS,
0.313729564546413,36.8862329264231,5964.2003483347,126.640424,0,1.86778877368,13500,2018-03-30 08:02:18,17,0,16.36,5964.2003483347,126.640424,0.447388,2.4508859052,0,0,-10.961006,225.5, 8.2, -6.3,0,1,1024,1024,1684,1052,223.4,0,98,4.127,4.113,4.129,4.115,0,0,16.99,91.31,6,P-GPS,
0.313729656778224,36.8862329626047,5965.8407683347,128.280844,0,1.83852040004,13600,2018-03-30 08:02:18,17,0,16.36,5965.8407683347,128.280844,0.447388,2.4508859052,0,0,-10.961006,225.7, 8.2, -6,0,1,1024,1024,1684,1025,223.6,0,98,4.127,4.113,4.129,4.115,0,0,16.99,91.31,6,P-GPS,
0.313729741371004,36.8862330140145,5967.1531043347,129.59318,0,1.80624349612,13700,2018-03-30 08:02:19,17,0,16.36,5967.1531043347,129.59318,0.447388,2.4508859052,0,0,-10.961006,225.9, 8, -5.8,0,1,1024,1024,1684,1024,223.8,0,98,4.127,4.113,4.129,4.115,0,0,16.99,91.31,6,P-GPS,
0.313729812524236,36.8862330860031,5968.7935243347,131.2336,0,1.770259243,13800,2018-03-30 08:02:19,17,0,16.36,5968.7935243347,131.2336,0.447388,2.4508859052,0,0,-10.961006,225.9, 7.9, -5.5,0,1,1024,1024,1684,1024,224,0,98,4.127,4.113,4.129,4.115,0,0,16.99,91.31,6,P-GPS,
0.313729854749789,36.8862331622891,5970.7620283347,133.202104,0,1.73847774592,13900,2018-03-30 08:02:19,17,0,16.36,5970.7620283347,133.202104,0.447388,2.4508859052,0,0,-10.961006,226, 7.4, -5,0,1,1024,1024,1684,1024,224,0,98,4.127,4.113,4.129,4.115,0,0,16.99,91.31,6,P-GPS,
0.313729913344461,36.8862332469771,5972.4024483347,134.842524,0,1.70096134052,14000,2018-03-30 08:02:19,17,0,16.333,5972.4024483347,134.842524,0.447388,2.4508859052,0,0,-10.961006,226, 7.7, -4.7,0,1,1024,1024,1684,1024,224.2,0,98,4.12,4.11,4.128,4.115,0,0,16.786,91.31,6,P-GPS,
0.313729965329278,36.8862333295581,5974.0428683347,136.482944,0,1.66536094568,14100,2018-03-30 08:02:19,17,0,16.333,5974.0428683347,136.482944,0.447388,2.4508859052,0,0,-10.961006,225.9, 7.4, -4.1,0,1,1024,1024,1684,1024,224.3,0,98,4.12,4.11,4.128,4.115,0,0,16.786,91.31,6,P-GPS,
0.313730061490525,36.8862334648829,5977.3237083347,139.763784,0,1.6049377154,14300,2018-03-30 08:02:19,17,0,16.333,5977.3237083347,139.763784,0.447388,2.4508859052,0,0,-10.961006,226, 6.9, -5,0,1,1024,1024,1684,1024,224.5,0,98,4.12,4.11,4.128,4.115,0,0,16.786,91.31,6,P-GPS,
0.313730065154524,36.8862335681991,5978.9641283347,141.404204,0,1.57216540464,14400,2018-03-30 08:02:19,16,0,16.333,5978.9641283347,141.404204,0.447388,2.4508859052,0,0.223694,-11.1847,226, 7.3, -3.7,0,1,1024,1024,1684,1024,224.6,0,98,4.12,4.11,4.128,4.115,0,0,16.786,91.31,6,P-GPS,
0.313730043680233,36.8862336778575,5980.6045483347,143.044624,0.223694,1.54265424884,14500,2018-03-30 08:02:19,16,0,16.333,5980.6045483347,143.044624,0.447388,2.4508859052,0,0.223694,-11.1847,226, 7, -3,0,1,1024,1024,1684,1024,224.7,0,98,4.12,4.11,4.128,4.115,0,0,16.786,91.31,6,P-GPS,
0.313730016262121,36.8862337613828,5982.2449683347,144.685044,0,1.52278220096,14600,2018-03-30 08:02:19,17,0,16.333,5982.2449683347,144.685044,0.447388,2.4508859052,0,0,-11.1847,226.1, 6.8, -3,0,1,1024,1024,1684,1024,224.7,0,98,4.12,4.11,4.128,4.115,0,0,16.786,91.31,6,P-GPS,
0.313729971178649,36.8862337974553,5983.8853883347,146.325464,0,1.52121724028,14700,2018-03-30 08:02:20,17,0,16.333,5983.8853883347,146.325464,0.447388,2.4508859052,0,0,-11.1847,226.1, 7.8, -3.4,0,1,1024,1024,1684,1024,224.9,0,98,4.12,4.11,4.128,4.115,0,0,16.786,91.31,6,P-GPS,
0.313729904560634,36.8862338281149,5985.5258083347,147.965884,0,1.5261319386,14800,2018-03-30 08:02:20,17,0,16.333,5985.5258083347,147.965884,0.447388,2.4508859052,0,0,-11.1847,226, 8.4, -3.5,0,1,1024,1024,1684,1024,224.9,0,98,4.12,4.11,4.128,4.115,0,0,16.786,91.31,6,P-GPS,
0.313729829451911,36.8862338757925,5987.1662283347,149.606304,0,1.52838915652,14900,2018-03-30 08:02:20,17,0,16.333,5987.1662283347,149.606304,0.447388,2.4508859052,0,0,-11.1847,226.1, 8.4, -2.9,0,1,1024,1024,1684,1024,225,0,98,4.12,4.11,4.128,4.115,0,0,16.786,91.31,6,P-GPS,
0.313729803737152,36.8862339403363,5989.1347323347,151.574808,0,1.5153871876,15000,2018-03-30 08:02:20,17,0,16.333,5989.1347323347,151.574808,0.447388,2.4508859052,0,0,-11.1847,226, 8.2, -3.1,0,1,1024,1024,1684,1024,225.1,0,98,4.12,4.11,4.128,4.115,0,0,16.786,91.31,6,P-GPS,
0.31372979450876,36.8862340044754,5990.7751523347,153.215228,0,1.4990650086,15100,2018-03-30 08:02:20,17,0,16.333,5990.7751523347,153.215228,0.447388,2.4508859052,0,0,-11.1847,226, 8.2, -3.7,0,1,1024,1024,1684,1024,225.1,0,98,4.12,4.11,4.128,4.115,0,0,16.786,91.31,6,P-GPS,
0.313729765734155,36.8862340907114,5992.4155723347,154.855648,0.223694,1.48122380068,15200,2018-03-30 08:02:20,17,0,16.333,5992.4155723347,154.855648,0.447388,2.4508859052,0,0.223694,-10.961006,226.1, 7.6, -3.2,0,1,1024,1024,1684,1024,225.2,0,98,4.12,4.11,4.128,4.115,0,0,16.786,91.31,6,P-GPS,
0.313729729227697,36.8862341855379,5994.0559923347,156.496068,0.223694,1.4633858736,15300,2018-03-30 08:02:20,17,0,16.333,5994.0559923347,156.496068,0.447388,2.4508859052,0,0.223694,-10.961006,226.1, 7.1, -2.9,0,1,1024,1024,1684,1024,225.2,0,98,4.12,4.11,4.128,4.115,0,0,16.786,91.31,6,P-GPS,
0.313729712111122,36.8862342947017,5995.6964123347,158.136488,0.223694,1.43765424548,15400,2018-03-30 08:02:20,17,0,16.333,5995.6964123347,158.136488,0.447388,2.4508859052,0,0.223694,-10.961006,226.2, 7, -2.6,0,1,1024,1024,1684,1024,225.2,0,98,4.12,4.11,4.128,4.115,0,0,16.786,91.31,6,P-GPS,
0.313729697178291,36.8862343881942,5997.3368323347,159.776908,0,1.4162237986,15500,2018-03-30 08:02:20,17,0,16.333,5997.3368323347,159.776908,0.447388,2.4508859052,0,0,-11.1847,226.2, 6.6, -2.2,0,1,1024,1024,1684,1024,225.2,0,98,4.12,4.11,4.128,4.115,0,0,16.786,91.31,6,P-GPS,
0.313729672662066,36.8862344548085,5998.9772523347,161.417328,0,1.4047900712,15600,2018-03-30 08:02:20,17,0,16.333,5998.9772523347,161.417328,0.447388,2.4508859052,0,0,-11.1847,226.2, 6.9, -2.6,0,1,1024,1024,1684,1024,225.3,0,98,4.12,4.11,4.128,4.115,0,0,16.786,91.31,6,P-GPS,
0.313729640604518,36.8862344873994,6000.6176723347,163.057748,0,1.40448167224,15700,2018-03-30 08:02:21,17,0,16.333,6000.6176723347,163.057748,0.447388,2.4508859052,0,0,-11.1847,226.2, 7.4, -3.3,0,1,1024,1024,1684,1024,225.3,0,98,4.12,4.11,4.128,4.115,0,0,16.786,91.31,6,P-GPS,
0.313729612228881,36.8862345054195,6002.2580923347,164.698168,0,1.407152276,15800,2018-03-30 08:02:21,17,0,16.333,6002.2580923347,164.698168,0.447388,2.4508859052,0,0,-10.961006,226.1, 7.9, -3.6,0,1,1024,1024,1684,1024,225.4,0,98,4.12,4.11,4.128,4.115,0,0,16.786,91.31,6,P-GPS,
0.313729575466758,36.8862345309317,6003.8985123347,166.338588,0,1.41021329972,15900,2018-03-30 08:02:21,17,0,16.333,6003.8985123347,166.338588,0.447388,2.4508859052,0,0,-10.961006,226.1, 7.7, -3.2,0,1,1024,1024,1684,1024,225.4,0,98,4.12,4.11,4.128,4.115,0,0,16.786,91.31,6,P-GPS,
0.313729450252442,36.8862346372756,6007.1793523347,169.619428,0,1.41726710572,16100,2018-03-30 08:02:21,17,0,16.333,6007.1793523347,169.619428,0.447388,2.4508859052,0,0,-11.1847,226.1, 7.5, -1.9,0,1,1024,1024,1684,1024,225.4,0,98,4.12,4.11,4.128,4.115,0,0,16.786,91.31,6,P-GPS,
0.313729390426667,36.8862346784676,6009.1478563347,171.587932,0,1.423802539,16200,2018-03-30 08:02:21,17,0,16.333,6009.1478563347,171.587932,0.447388,2.4508859052,0,0,-11.1847,226.2, 7.7, -2.3,0,1,1024,1024,1684,1018,225.4,0,98,4.12,4.11,4.128,4.115,0,0,16.786,91.31,6,P-GPS,
0.313729341000134,36.8862346897859,6010.7882763347,173.228352,0,1.43486881232,16300,2018-03-30 08:02:21,17,0,16.333,6010.7882763347,173.228352,0.447388,2.4508859052,0,0,-11.1847,226.1, 8.2, -2.8,0,1,1024,1024,1684,1019,225.5,0,98,4.12,4.11,4.128,4.115,0,0,16.786,91.31,6,P-GPS,
0.313729303900923,36.8862347052581,6012.4286963347,174.868772,0,1.44165358944,16400,2018-03-30 08:02:21,17,0,16.333,6012.4286963347,174.868772,0.447388,2.4508859052,0,0,-11.1847,226.1, 8.5, -3.1,0,1,1024,1024,1684,1007,225.5,0,98,4.12,4.11,4.128,4.115,0,0,16.786,91.31,6,P-GPS,
0.313729275943797,36.8862347232761,6014.0691163347,176.509192,0,1.44538062368,16500,2018-03-30 08:02:21,17,0,16.333,6014.0691163347,176.509192,0.447388,2.4508859052,0,0,-11.1847,226.1, 8.4, -3.2,0,1,1024,1024,1684,991,225.5,0,98,4.12,4.11,4.128,4.115,0,0,16.786,91.31,6,P-GPS,
0.313729277717172,36.8862347536123,6015.7095363347,178.149612,0,1.43792327436,16600,2018-03-30 08:02:21,17,0,16.333,6015.7095363347,178.149612,0.447388,2.4508859052,0,0,-10.961006,226.1, 8.3, -3,0,1,1024,1024,1684,975,225.5,0,98,4.12,4.11,4.128,4.115,0,0,16.786,91.31,6,P-GPS,
0.313729284014365,36.8862347905648,6017.3499563347,179.790032,0,1.42771986196,16700,2018-03-30 08:02:22,17,0,16.333,6017.3499563347,179.790032,0.447388,2.4508859052,0,0,-11.1847,225.9, 8, -3,0,1,1024,1024,1684,981,225.5,0,98,4.12,4.11,4.128,4.115,0,0,16.786,91.31,6,P-GPS,
0.313729282630188,36.8862348588556,6018.9903763347,181.430452,0,1.4127789166,16800,2018-03-30 08:02:22,16,0,16.333,6018.9903763347,181.430452,0.447388,2.4508859052,0,0,-10.961006,225.5, 7.8, -3.1,0,1,1024,1024,1684,991,225.4,0,98,4.12,4.11,4.128,4.115,0,0,16.786,91.31,6,P-GPS,
0.313729262132963,36.8862349346963,6020.6307963347,183.070872,0,1.40207353568,16900,2018-03-30 08:02:22,16,0,16.333,6020.6307963347,183.070872,0.447388,2.4508859052,0,0,-11.1847,225.2, 7.3, -2.6,0,1,1024,1024,1684,991,225.4,0,98,4.12,4.11,4.128,4.115,0,0,16.786,91.31,6,P-GPS,
0.313729240981104,36.8862349926687,6022.2712163347,184.711292,0,1.39585634388,17000,2018-03-30 08:02:22,17,0,16.415,6022.2712163347,184.711292,0.447388,2.4508859052,0,0,-11.1847,225.1, 7.5, -2.1,0,1,1024,1024,1684,973,225.4,0,98,4.114,4.105,4.123,4.111,0,0,16.224,91.31,6,P-GPS,
0.313729222850009,36.8862350329957,6023.9116363347,186.351712,0,1.39275595008,17100,2018-03-30 08:02:22,17,0,16.415,6023.9116363347,186.351712,0.447388,2.4508859052,0,0,-11.1847,224.9, 7.6, -2.2,0,1,1024,1024,1684,982,225.3,0,98,4.114,4.105,4.123,4.111,0,0,16.224,91.31,6,P-GPS,
0.313729194703983,36.886235099019,6025.5520563347,187.992132,0,1.3875984696,17200,2018-03-30 08:02:22,16,0,16.415,6025.5520563347,187.992132,0.447388,2.4508859052,0,0,-11.1847,224.5, 7.6, -2.5,0,1,1024,1024,1684,1002,225.2,0,98,4.114,4.105,4.123,4.111,0,0,16.224,91.31,6,P-GPS,
0.31372916403224,36.8862351681171,6027.5205603347,189.960636,0,1.38308403376,17300,2018-03-30 08:02:22,16,0,16.415,6027.5205603347,189.960636,0.447388,2.4508859052,0,0,-11.1847,224.2, 7.6, -2.4,0,1,1024,1024,1684,1006,225.2,0,98,4.114,4.105,4.123,4.111,0,0,16.224,91.31,6,P-GPS,
0.313729144902908,36.8862352416067,6029.1609803347,191.601056,0,1.37468180252,17400,2018-03-30 08:02:22,16,0,16.415,6029.1609803347,191.601056,0.447388,2.4508859052,0,0,-11.1847,224.1, 7.5, -2.2,0,1,1024,1024,1684,1004,225.2,0,98,4.114,4.105,4.123,4.111,0,0,16.224,91.31,6,P-GPS,
0.313729131007396,36.8862353040221,6030.8014003347,193.241476,0,1.367208049,17500,2018-03-30 08:02:22,16,0,16.415,6030.8014003347,193.241476,0.447388,2.4508859052,0,0,-11.1847,224.1, 7.7, -2,0,1,1024,1024,1684,1006,225.2,0,98,4.114,4.105,4.123,4.111,0,0,16.224,91.31,6,P-GPS,
0.313729105343118,36.8862353373645,6032.4418203347,194.881896,0,1.36911749788,17600,2018-03-30 08:02:22,17,0,16.415,6032.4418203347,194.881896,0.447388,2.4508859052,0,0,-10.961006,224, 7.5, -2,0,1,1024,1024,1684,1008,225.2,0,98,4.114,4.105,4.123,4.111,0,0,16.224,91.31,6,P-GPS,
0.313729083307014,36.8862353661977,6034.0822403347,196.522316,0,1.37085306224,17700,2018-03-30 08:02:23,17,0,16.415,6034.0822403347,196.522316,0.447388,2.4508859052,0,0,-10.961006,224, 7.6, -2.2,0,1,1024,1024,1684,1005,225.2,0,98,4.114,4.105,4.123,4.111,0,0,16.224,91.31,6,P-GPS,
0.313729046645854,36.8862354069058,6035.7226603347,198.162736,0,1.37528875792,17800,2018-03-30 08:02:23,17,0,16.415,6035.7226603347,198.162736,0.447388,2.4508859052,0,0,-10.961006,224, 7.3, -2.1,0,1,1024,1024,1684,1003,225.2,0,98,4.114,4.105,4.123,4.111,0,0,16.224,91.31,6,P-GPS,
0.313729011531717,36.8862354698586,6037.0349963347,199.475072,0,1.37571526712,17900,2018-03-30 08:02:23,17,0,16.415,6037.0349963347,199.475072,0.447388,2.4508859052,0,0,-10.961006,224, 7.2, -1.6,0,1,1024,1024,1684,1005,225.1,0,98,4.114,4.105,4.123,4.111,0,0,16.224,91.31,6,P-GPS,
0.313728956827397,36.8862355581053,6038.6754163347,201.115492,0,1.37895673704,18000,2018-03-30 08:02:23,17,0,16.36,6038.6754163347,201.115492,0.447388,2.4508859052,0,0,-10.961006,223.9, 7.1, -1.6,0,1,1024,1024,1684,1005,225.1,0,98,4.114,4.105,4.123,4.111,0,0,15.786,91.31,6,P-GPS,
0.313728909848417,36.8862356519382,6040.3158363347,202.755912,0,1.37981303628,18100,2018-03-30 08:02:23,17,0,16.36,6040.3158363347,202.755912,0.447388,2.4508859052,0,0,-10.961006,223.9, 6.9, -1.5,0,1,1024,1024,1684,1005,225.1,0,98,4.114,4.105,4.123,4.111,0,0,15.786,91.31,6,P-GPS,
0.313728873566684,36.8862357394611,6041.9562563347,204.396332,0,1.37904203888,18200,2018-03-30 08:02:23,17,0,16.36,6041.9562563347,204.396332,0.447388,2.4508859052,0,0,-10.961006,223.9, 6.2, -1.3,0,1,1024,1024,1684,1005,225.1,0,98,4.114,4.105,4.123,4.111,0,0,15.786,91.31,6,P-GPS,
0.313728832008793,36.8862358108588,6043.5966763347,206.036752,0,1.38310043796,18300,2018-03-30 08:02:23,17,0,16.36,6043.5966763347,206.036752,0.447388,2.4508859052,0,0,-11.1847,223.9, 6.6, -0.7,0,1,1024,1024,1684,1005,225.1,0,98,4.114,4.105,4.123,4.111,0,0,15.786,91.31,6,P-GPS,
0.31372876745076,36.8862358493786,6045.2370963347,207.677172,0,1.39990818128,18400,2018-03-30 08:02:23,17,0,16.36,6045.2370963347,207.677172,0.447388,2.4508859052,0,0,-11.1847,223.9, 7, -0.5,0,1,1024,1024,1684,1005,225.1,0,98,4.114,4.105,4.123,4.111,0,0,15.786,91.31,6,P-GPS,
0.313728714487247,36.8862358640585,6046.8775163347,209.317592,0,1.41608928416,18500,2018-03-30 08:02:23,17,0,16.36,6046.8775163347,209.317592,0.447388,2.4508859052,0,0,-11.1847,223.9, 7.7, -1,0,1,1024,1024,1684,1002,225,0,98,4.114,4.105,4.123,4.111,0,0,15.786,91.31,6,P-GPS,
0.313728693729471,36.8862358657672,6048.5179363347,210.958012,0,1.42296920564,18600,2018-03-30 08:02:23,17,0,16.36,6048.5179363347,210.958012,0.447388,2.4508859052,0,0,-11.1847,223.8, 7.4, -1.4,0,1,1024,1024,1684,996,225,0,98,4.114,4.105,4.123,4.111,0,0,15.786,91.31,6,P-GPS,
0.313728675326426,36.8862358747473,6050.1583563347,212.598432,0,1.42813652864,18700,2018-03-30 08:02:24,17,0,16.36,6050.1583563347,212.598432,0.447388,2.4508859052,0,0,-11.1847,223.8, 8, -1.1,0,1,1024,1024,1684,1002,225,0,98,4.114,4.105,4.123,4.111,0,0,15.786,91.31,6,P-GPS,
0.313728653431996,36.8862359119867,6051.7987763347,214.238852,0,1.43104663372,18800,2018-03-30 08:02:24,17,0,16.36,6051.7987763347,214.238852,0.447388,2.4508859052,0,0,-10.961006,223.7, 8, -0.7,0,1,1024,1024,1684,1004,225,0,98,4.114,4.105,4.123,4.111,0,0,15.786,91.31,6,P-GPS,
0.313728653360345,36.8862359649231,6053.4391963347,215.879272,0,1.42474414008,18900,2018-03-30 08:02:24,17,0,16.36,6053.4391963347,215.879272,0.447388,2.4508859052,0,0,-10.961006,223.5, 7.7, -1.4,0,1,1024,1024,1684,1005,225,0,98,4.114,4.105,4.123,4.111,0,0,15.786,91.31,6,P-GPS,
0.313728693039011,36.8862360212811,6055.0796163347,217.519692,0,1.40449807644,19000,2018-03-30 08:02:24,17,0,16.251,6055.0796163347,217.519692,0.447388,2.4508859052,0,0,-10.961006,223.5, 7.1, -1.2,0,1,1024,1024,1684,1005,224.9,0,98,4.116,4.107,4.125,4.111,0,0,15.786,91.31,6,P-GPS,
0.313728750718498,36.8862360952825,6056.7200363347,219.160112,0,1.37622051648,19100,2018-03-30 08:02:24,17,0,16.251,6056.7200363347,219.160112,0.447388,2.4508859052,0,0,-10.961006,223.6, 6.4, -0.2,0,1,1024,1024,1684,1004,224.9,0,98,4.116,4.107,4.125,4.111,0,0,15.786,91.31,6,P-GPS,
0.313728830308698,36.8862361588477,6058.3604563347,220.800532,0,1.3416503054,19200,2018-03-30 08:02:24,17,0,16.251,6058.3604563347,220.800532,0.447388,2.4508859052,0,0,-11.1847,223.6, 5.7, -0.4,0,1,1024,1024,1684,1004,224.9,0,98,4.116,4.107,4.125,4.111,0,0,15.786,91.31,6,P-GPS,
0.313728923200029,36.8862362022109,6060.0008763347,222.440952,0.223694,1.30464571104,19300,2018-03-30 08:02:24,17,0,16.251,6060.0008763347,222.440952,0.447388,2.4508859052,0.223694,0,-11.1847,223.6, 5.4, -1,0,1,1024,1024,1684,1004,224.9,0,98,4.116,4.107,4.125,4.111,0,0,15.786,91.31,6,P-GPS,
0.313729020338342,36.8862362111204,6061.6412963347,224.081372,0.223694,1.269767101,19400,2018-03-30 08:02:24,17,0,16.251,6061.6412963347,224.081372,0.447388,2.4508859052,0.223694,0,-11.1847,223.7, 5.4, -1.7,0,1,1024,1024,1684,1005,224.9,0,98,4.116,4.107,4.125,4.111,0,0,15.786,91.31,6,P-GPS,
0.313729112036023,36.8862362131095,6063.6098003347,226.049876,0,1.23757221808,19500,2018-03-30 08:02:24,17,0,16.251,6063.6098003347,226.049876,0.447388,2.4508859052,0,0,-11.1847,223.7, 5.4, -2.1,0,1,1024,1024,1684,1004,224.8,0,98,4.116,4.107,4.125,4.111,0,0,15.786,91.31,6,P-GPS,
0.313729171265788,36.8862362186252,6065.2502203347,227.690296,0,1.21634846412,19600,2018-03-30 08:02:24,17,0,16.251,6065.2502203347,227.690296,0.447388,2.4508859052,0,0,-11.1847,223.7, 5.5, -2.3,0,1,1024,1024,1684,1004,224.8,0,98,4.116,4.107,4.125,4.111,0,0,15.786,91.31,6,P-GPS,
0.313729213294299,36.8862362275154,6066.8906403347,229.330716,0,1.20075135076,19700,2018-03-30 08:02:24,17,0,16.251,6066.8906403347,229.330716,0.447388,2.4508859052,0,0,-11.1847,223.7, 5.5, -2.3,0,1,1024,1024,1684,1005,224.8,0,98,4.116,4.107,4.125,4.111,0,0,15.786,91.31,6,P-GPS,
0.313729252279249,36.8862362238668,6068.5310603347,230.971136,0,1.18760502488,19800,2018-03-30 08:02:25,17,0,16.251,6068.5310603347,230.971136,0.447388,2.4508859052,0,0,-11.1847,223.7, 5.5, -2.1,0,1,1024,1024,1684,1005,224.8,0,98,4.116,4.107,4.125,4.111,0,0,15.786,91.31,6,P-GPS,
0.313729293837139,36.8862362061443,6070.1714803347,232.611556,0,1.17520344968,19900,2018-03-30 08:02:25,17,0,16.251,6070.1714803347,232.611556,0.447388,2.4508859052,0,0,-11.1847,223.8, 6, -2.3,0,1,1024,1024,1684,1005,224.8,0,98,4.116,4.107,4.125,4.111,0,0,15.786,91.31,6,P-GPS,
0.313729318175863,36.8862361569207,6071.8119003347,234.251976,0,1.17260174356,20000,2018-03-30 08:02:25,17,0,16.333,6071.8119003347,234.251976,0.447388,2.4508859052,0,0,-11.1847,223.8, 6.5, -2.6,0,1,1024,1024,1684,1005,224.8,0,97,4.115,4.102,4.12,4.105,0,0,16.034,91.31,6,P-GPS,
0.313729338226894,36.8862360991388,6073.4523203347,235.892396,0,1.17289373832,20100,2018-03-30 08:02:25,17,0,16.333,6073.4523203347,235.892396,0.447388,2.4508859052,0,0,-11.1847,223.8, 6.9, -3,0,1,1024,1024,1684,1006,224.8,0,97,4.115,4.102,4.12,4.105,0,0,16.034,91.31,6,P-GPS,
0.313729355854801,36.8862360646872,6075.0927403347,237.532816,0,1.17133862016,20200,2018-03-30 08:02:25,17,0,16.333,6075.0927403347,237.532816,0.447388,2.4508859052,0,0,-11.1847,223.8, 7.1, -2.1,0,1,1024,1024,1684,1007,224.8,0,97,4.115,4.102,4.12,4.105,0,0,16.034,91.31,6,P-GPS,
0.313729381102196,36.8862360358626,6076.7331603347,239.173236,0,1.16660764888,20300,2018-03-30 08:02:25,17,0,16.333,6076.7331603347,239.173236,0.447388,2.4508859052,0,0,-11.1847,223.8, 6.5, -2.5,0,1,1024,1024,1684,1009,224.8,0,97,4.115,4.102,4.12,4.105,0,0,16.034,91.31,6,P-GPS,
0.313729410749648,36.8862359895596,6078.3735803347,240.813656,0,1.16298888236,20400,2018-03-30 08:02:25,17,0,16.333,6078.3735803347,240.813656,0.447388,2.4508859052,0,0,-11.1847,223.8, 6.6, -2.6,0,1,1024,1024,1684,1010,224.7,0,97,4.115,4.102,4.12,4.105,0,0,16.034,91.31,6,P-GPS,
0.313729421556002,36.886235924806,6080.0140003347,242.454076,0,1.16871394816,20500,2018-03-30 08:02:25,17,0,16.333,6080.0140003347,242.454076,0.447388,2.4508859052,0,0,-11.1847,223.8, 7.4, -2.6,0,1,1024,1024,1684,1014,224.7,0,97,4.115,4.102,4.12,4.105,0,0,16.034,91.31,6,P-GPS,
0.313729444308622,36.8862358167898,6081.6544203347,244.094496,0,1.17772969648,20600,2018-03-30 08:02:25,17,0,16.333,6081.6544203347,244.094496,0.447388,2.4508859052,0,0,-11.1847,223.7, 7.5, -2.9,0,1,1024,1024,1684,1014,224.7,0,97,4.115,4.102,4.12,4.105,0,0,16.034,91.31,6,P-GPS,
0.313729462542309,36.8862357051508,6083.2948403347,245.734916,0,1.19011814832,20700,2018-03-30 08:02:26,17,0,16.333,6083.2948403347,245.734916,0.447388,2.4508859052,0,0,-10.961006,223.7, 7.8, -3.1,0,1,1024,1024,1351,1024,224.7,0,97,4.115,4.102,4.12,4.105,0,0,16.034,91.31,6,P-GPS,
0.313729501072923,36.8862355710423,6084.9352603347,247.375336,0,1.20144688884,20800,2018-03-30 08:02:26,17,0,16.333,6084.9352603347,247.375336,0.447388,2.4508859052,0,0,-10.961006,223.7, 8.1, -3.1,0,1,1024,1024,1024,1024,224.7,0,97,4.115,4.102,4.12,4.105,0,0,16.034,91.31,6,P-GPS,
0.313729523936276,36.8862354524016,6086.5756803347,249.015756,0.223694,1.21663061636,20900,2018-03-30 08:02:26,17,0,16.333,6086.5756803347,249.015756,0.447388,2.4508859052,0,-0.223694,-10.737312,223.5, 9.2, -3.8,0,1,1024,1024,1024,1024,224.7,0,97,4.115,4.102,4.12,4.105,0,0,16.034,91.31,6,P-GPS,
0.313729530130877,36.8862353024697,6088.2161003347,250.656176,0.223694,1.24463914744,21000,2018-03-30 08:02:26,17,0,16.469,6088.2161003347,250.656176,0.447388,2.4508859052,0,-0.223694,-9.395148,223.3, 11.6, -4.7,0,1,1024,1024,1024,1024,224.7,0,97,4.12,4.11,4.125,4.11,0,0,14.888,91.31,6,P-GPS,
0.313729515554675,36.8862351611025,6089.5284363347,251.968512,0.223694,1.27866145824,21100,2018-03-30 08:02:26,17,0,16.469,6089.5284363347,251.968512,0.447388,2.4508859052,0,-0.223694,-7.82929,223.3, 11.6, -4.7,0,1,1024,1024,1024,1024,224.7,0,97,4.12,4.11,4.125,4.11,0,0,14.888,91.31,6,P-GPS,
0.313729470700814,36.886235016635,6090.5126883347,252.952764,0.223694,1.3232940056,21200,2018-03-30 08:02:26,17,0,16.469,6090.5126883347,252.952764,0.447388,2.4508859052,0,-0.223694,-6.263432,223.3, 11.1, -4.1,0,1,1024,1024,1024,1024,224.7,0,97,4.12,4.11,4.125,4.11,0,0,14.888,91.31,6,P-GPS,
0.313729411146988,36.8862348606906,6091.1688563347,253.608932,0.223694,1.37550201252,21300,2018-03-30 08:02:26,17,0,16.469,6091.1688563347,253.608932,0.447388,2.4508859052,0,-0.223694,-4.697574,223.3, 11.5, -4.3,0,1,1024,1024,1024,1024,224.7,0,97,4.12,4.11,4.125,4.11,0,0,14.888,91.31,6,P-GPS,
0.313729366270328,36.8862346690207,6091.4969403347,253.937016,0.223694,1.43273626632,21400,2018-03-30 08:02:26,17,0,16.469,6091.4969403347,253.937016,0.447388,2.4508859052,0,-0.223694,-2.908022,223.4, 11.4, -4.7,0,1,1024,1024,1024,1024,224.7,0,97,4.12,4.11,4.125,4.11,0,0,14.888,91.31,6,P-GPS,
0.313729327558958,36.886234497176,6091.8250243347,254.2651,0.223694,1.48471789528,21500,2018-03-30 08:02:26,17,0,16.469,6091.8250243347,254.2651,0.447388,2.4508859052,0,-0.223694,-1.565858,223.6, 9.7, -4,0,1,1024,1024,1024,1024,224.7,0,97,4.12,4.11,4.125,4.11,0,0,14.888,91.31,6,P-GPS,
0.313729317066893,36.8862343233657,6091.8250243347,254.2651,0.223694,1.53065621696,21600,2018-03-30 08:02:26,16,0,16.469,6091.8250243347,254.2651,0.447388,2.4508859052,0,-0.223694,-0.671082,223.7, 9.2, -3.6,0,1,1024,1024,1024,1024,224.7,0,97,4.12,4.11,4.125,4.11,0,0,14.888,91.31,6,P-GPS,
0.313729313070692,36.8862341753073,6092.1531083347,254.593184,0.223694,1.56948495836,21700,2018-03-30 08:02:27,16,0,16.469,6092.1531083347,254.593184,0.447388,2.4508859052,0,-0.223694,-0.223694,223.8, 8.6, -3.4,0,1,1024,1024,1024,1024,224.7,0,97,4.12,4.11,4.125,4.11,0,0,14.888,91.31,6,P-GPS,
0.313729339998641,36.8862340170484,6092.1531083347,254.593184,0.223694,1.60414047128,21800,2018-03-30 08:02:27,17,0,16.469,6092.1531083347,254.593184,0.447388,2.4508859052,0,-0.223694,0,223.9, 8.3, -3.5,0,1,1024,1024,1024,1024,224.7,0,97,4.12,4.11,4.125,4.11,0,0,14.888,91.31,6,P-GPS,
0.313729352703762,36.8862339000436,6092.1531083347,254.593184,0,1.63240162704,21900,2018-03-30 08:02:27,17,0,16.469,6092.1531083347,254.593184,0.447388,2.4508859052,0,0,0,224, 8.5, -3.1,0,1,1024,1024,1005,1024,224.7,0,97,4.12,4.11,4.125,4.11,0,0,14.888,91.31,6,P-GPS,
0.313729355473745,36.8862337975881,6092.1531083347,254.593184,0,1.65967196912,22000,2018-03-30 08:02:27,17,0,16.442,6092.1531083347,254.593184,0.447388,2.4508859052,0,0,0,224, 9.2, -2.5,0,1,1024,1024,847,1024,224.7,0,97,4.12,4.11,4.125,4.11,0,0,8.27,93.11,6,P-GPS,
0.313729370180223,36.8862337379134,6092.1531083347,254.593184,0,1.67262472544,22100,2018-03-30 08:02:27,17,0,16.442,6092.1531083347,254.593184,0.447388,2.4508859052,0,0,0,223.8, 9.4, -2.4,0,1,1024,1024,821,1024,224.7,0,97,4.12,4.11,4.125,4.11,0,0,8.27,93.11,6,P-GPS,
0.313729418683427,36.8862336792986,6092.1531083347,254.593184,0,1.6775919172,22200,2018-03-30 08:02:27,17,0,16.442,6092.1531083347,254.593184,0.447388,2.4508859052,0,0,0.223694,223.8, 10.5, -3.1,0,1,1024,1024,807,1024,224.7,0,97,4.12,4.11,4.125,4.11,0,0,8.27,93.11,6,P-GPS,
0.313729486670964,36.8862336800458,6091.8250243347,254.2651,0.223694,1.66167000068,22300,2018-03-30 08:02:27,17,0,16.442,6092.1531083347,254.593184,0.447388,2.4508859052,0,0.223694,0.223694,223.9, 8.6, -2.6,0,1,1024,1024,795,1024,224.7,0,97,4.12,4.11,4.125,4.11,0,0,8.27,93.11,6,P-GPS,
0.313729560050279,36.886233746097,6091.8250243347,254.2651,0.223694,1.62610569508,22400,2018-03-30 08:02:27,17,0,16.442,6092.1531083347,254.593184,0.447388,2.4508859052,0,0.223694,0.447388,223.9, 8, -1.6,0,1,1024,1024,772,1024,224.7,0,97,4.12,4.11,4.125,4.11,0,0,8.27,93.11,6,P-GPS,
