latitude,longitude,altitude(feet),ascent(feet),speed(mph),distance(feet),time(millisecond),datetime(utc),satellites,gpslevel,voltage(v),max_altitude(feet),max_ascent(feet),max_speed(mph),max_distance(feet), xSpeed(mph), ySpeed(mph), zSpeed(mph), compass_heading(degrees), pitch(degrees), roll(degrees),isPhoto,isVideo,rc_elevator,rc_aileron,rc_throttle,rc_rudder,gimbal_heading(degrees),gimbal_pitch(degrees),battery_percent,voltageCell1,voltageCell2,voltageCell3,voltageCell4,voltageCell5,voltageCell6,current(A),battery_temperature(f),flycStateRaw,flycState,message
0.307529460022083,36.8793965965448,5809.0900667964,0,0,0,0,2018-03-31 05:44:40,16,0,0,5809.0900667964,0,0,0,0,0,0,341.9, -1.5, 2.4,0,0,364,364,364,1684,346.5,0,98,4.263,4.261,4.263,4.26,0,0,0,75.11,41,Motors_Started,
0.307529457006204,36.8793965963521,5809.0900667964,0,0,0.00110258533712,100,2018-03-31 05:44:40,16,0,0,5809.0900667964,0,0,0.00110258533712,0,0,0,341.9, -1.5, 2.4,0,0,364,364,364,1684,346.5,0,98,4.263,4.261,4.263,4.26,0,0,0,75.11,41,Motors_Started,
0.307529452870771,36.8793966329567,5809.0900667964,0,0,0.0135384518768,200,2018-03-31 05:44:40,16,0,0,5809.0900667964,0,0,0.0135384518768,0,0,0,341.9, -1.5, 2.4,0,0,364,364,364,1684,346.5,0,98,4.263,4.261,4.263,4.26,0,0,0,75.11,41,Motors_Started,
0.307529449903746,36.8793966631843,5809.0900667964,0,0,0.024591700262,300,2018-03-31 05:44:40,16,0,0,5809.0900667964,0,0,0.024591700262,0,0,0,342, -1.5, 2.5,0,0,364,364,364,1684,346.5,0,98,4.263,4.261,4.263,4.26,0,0,0,75.11,41,Motors_Started,
0.307529447180173,36.8793966881154,5809.0900667964,0,0,0.033735893468,400,2018-03-31 05:44:40,16,0,0,5809.0900667964,0,0,0.033735893468,0,0,0,341.9, -1.5, 2.5,0,0,364,364,364,1684,346.5,0,98,4.263,4.261,4.263,4.26,0,0,0,75.11,41,Motors_Started,
0.307529445298506,36.8793967071706,5809.0900667964,0,0,0.040717192904,500,2018-03-31 05:44:40,16,0,0,5809.0900667964,0,0,0.040717192904,0,0,0,341.9, -1.5, 2.5,0,0,364,364,364,1684,346.5,0,98,4.263,4.261,4.263,4.26,0,0,0,75.11,41,Motors_Started,
0.307529444055189,36.8793967188047,5809.0900667964,0,0,0.044984581492,600,2018-03-31 05:44:41,16,0,0,5809.0900667964,0,0,0.044984581492,0,0,0,342, -1.5, 2.5,0,0,364,364,364,1684,346.5,0,98,4.263,4.261,4.263,4.26,0,0,0,75.11,41,Motors_Started,
0.307529443595154,36.8793967285091,5809.0900667964,0,0,0.048518046172,700,2018-03-31 05:44:41,16,0,0,5809.0900667964,0,0,0.048518046172,0,0,0,342, -1.5, 2.5,0,0,364,364,383,1680,346.5,0,98,4.263,4.261,4.263,4.26,0,0,0,75.11,41,Motors_Started,
0.307529481302589,36.8793967674516,5809.0900667964,0,0,0.062835960016,800,2018-03-31 05:44:41,16,0,16.997,5809.0900667964,0,0,0.062835960016,0,0,0,341.9, -1.5, 2.5,0,0,471,409,551,1553,346.5,0,98,4.263,4.261,4.263,4.26,0,0,1.476,75.11,41,Motors_Started,
0.307529512210456,36.879396801313,5809.0900667964,0,0,0.077096787244,900,2018-03-31 05:44:41,16,0,16.997,5809.0900667964,0,0,0.077096787244,0,0,0,342, -1.5, 2.5,0,0,616,516,716,1403,346.3,0,98,4.263,4.261,4.263,4.26,0,0,1.476,75.11,41,Motors_Started,
0.307529538307899,36.8793968237066,5809.0900667964,0,0,0.08766240438,1000,2018-03-31 05:44:41,16,0,16.997,5809.0900667964,0,0,0.08766240438,0,0,0,342, -1.5, 2.5,0,0,1023,987,1024,1024,345.8,0,98,4.263,4.261,4.263,4.26,0,0,1.476,75.11,41,Motors_Started,
0.307529558367072,36.8793968424339,5809.0900667964,0,0,0.096620738,1100,2018-03-31 05:44:41,16,0,16.997,5809.0900667964,0,0,0.096620738,0,0,0,342, -1.5, 2.5,0,0,1024,1024,1024,1024,345.8,0,98,4.263,4.261,4.263,4.26,0,0,1.476,75.11,41,Motors_Started,
0.307529569882614,36.8793968502778,5809.0900667964,0,0,0.100877955984,1200,2018-03-31 05:44:41,16,0,16.997,5809.0900667964,0,0,0.100877955984,0,0,0,342, -1.5, 2.5,0,0,1024,1024,1024,1024,344.3,0,98,4.263,4.261,4.263,4.26,0,0,1.476,75.11,41,Motors_Started,
0.307529580912065,36.8793968588364,5809.0900667964,0,0,0.105371066364,1300,2018-03-31 05:44:41,16,0,16.997,5809.0900667964,0,0,0.105371066364,0,0,0,342, -1.5, 2.5,0,0,1024,1024,1024,1024,343.6,0,98,4.263,4.261,4.263,4.26,0,0,1.476,75.11,41,Motors_Started,
0.307529584401821,36.879396856961,5809.0900667964,0,0,0.105292326204,1400,2018-03-31 05:44:41,16,0,16.997,5809.0900667964,0,0,0.105371066364,0,0,0,342, -1.6, 2.5,0,0,1024,1024,1024,1024,343.3,0,98,4.263,4.261,4.263,4.26,0,0,1.476,75.11,41,Motors_Started,
0.307529589813954,36.8793968598816,5809.0900667964,0,0,0.107113192404,1500,2018-03-31 05:44:41,16,0,16.997,5809.0900667964,0,0,0.107113192404,0,0,0,342, -1.6, 2.5,0,0,1024,1024,1024,1024,343.1,0,98,4.263,4.261,4.263,4.26,0,0,1.476,75.11,41,Motors_Started,
0.307529588683,36.879396854379,5809.0900667964,0,0,0.10513123696,1600,2018-03-31 05:44:42,16,0,16.997,5809.0900667964,0,0,0.107113192404,0,0,0,342, -1.5, 2.5,0,0,1024,1024,1024,1024,342.9,0,98,4.263,4.261,4.263,4.26,0,0,1.476,75.11,10,Assisted_Takeoff,
0.307529591225815,36.879396853514,5809.0900667964,0,0,0.10526739182,1700,2018-03-31 05:44:42,16,0,16.997,5809.0900667964,0,0,0.107113192404,0,0,0,342, -1.5, 2.5,0,0,1024,1024,1024,1024,342.8,0,98,4.263,4.261,4.263,4.26,0,0,1.476,75.11,10,Assisted_Takeoff,
0.30752958730208,36.8793968461777,5809.0900667964,0,0,0.10223261482,1800,2018-03-31 05:44:42,16,0,16.943,5809.0900667964,0,0,0.107113192404,0,0,0,342, -1.5, 2.5,0,0,1024,1024,1024,1024,342.7,0,98,4.237,4.232,4.23,4.22,0,0,2.142,75.11,10,Assisted_Takeoff,Setting new Return-To-Home altitude to 45m (148 ft). Setting new Maximum Flight Altitude to 150m (492 ft)
0.3075295879559,36.8793968448092,5809.0900667964,0,0,0.101897312972,1900,2018-03-31 05:44:42,16,0,16.943,5809.0900667964,0,0,0.107113192404,0,0,0,342, -1.5, 2.5,0,0,1024,1024,1024,1024,342.7,0,98,4.237,4.232,4.23,4.22,0,0,2.142,75.11,10,Assisted_Takeoff,
0.307529584476729,36.8793968741408,5809.0900667964,0,0,0.11099245762,2000,2018-03-31 05:44:42,16,0,16.943,5809.0900667964,0,0,0.11099245762,0,0,0,342, -1.5, 2.5,0,0,1024,1024,1024,1024,342.6,0,98,4.237,4.232,4.23,4.22,0,0,2.142,75.11,10,Assisted_Takeoff,
0.307529585991996,36.8793969014229,5809.0900667964,0,0,0.120354006476,2100,2018-03-31 05:44:42,16,0,16.943,5809.0900667964,0,0,0.120354006476,0,0,0,342, -1.6, 2.5,0,0,1024,1024,1024,1024,342.6,0,98,4.237,4.232,4.23,4.22,0,0,2.142,75.11,10,Assisted_Takeoff,
0.30752958400448,36.8793969199851,5809.0900667964,0,0,0.126378284884,2200,2018-03-31 05:44:42,16,0,16.943,5809.0900667964,0,0,0.126378284884,0,0,0,342, -1.5, 2.5,0,0,1024,1024,1024,1024,342.6,0,98,4.237,4.232,4.23,4.22,0,0,2.142,75.11,10,Assisted_Takeoff,
0.307529586382009,36.8793969363384,5809.0900667964,0,0,0.132266408432,2300,2018-03-31 05:44:42,16,0,16.943,5809.0900667964,0,0,0.132266408432,0,0,0,342, -1.6, 2.5,0,0,1024,1024,1024,1024,342.5,0,98,4.237,4.232,4.23,4.22,0,0,2.142,75.11,10,Assisted_Takeoff,
0.30752958472751,36.8793969435563,5809.0900667964,0,0,0.13453248462,2400,2018-03-31 05:44:42,16,0,16.943,5809.0900667964,0,0,0.13453248462,0,0,0,342, -1.6, 2.5,0,0,1024,1024,1024,1024,342.5,0,98,4.237,4.232,4.23,4.22,0,0,2.142,75.11,10,Assisted_Takeoff,
0.30752958723857,36.8793969523488,5809.0900667964,0,0,0.137861224884,2500,2018-03-31 05:44:42,16,0,16.943,5809.0900667964,0,0,0.137861224884,0,0,0,342, -1.6, 2.5,0,0,1024,1024,1024,1024,342.5,0,98,4.237,4.232,4.23,4.22,0,0,2.142,75.11,10,Assisted_Takeoff,
0.307529585623968,36.8793969516251,5809.0900667964,0,0,0.137415030644,2600,2018-03-31 05:44:43,16,0,16.943,5809.0900667964,0,0,0.137861224884,0,0,0,342, -1.6, 2.5,0,0,1024,1024,1024,1024,342.5,0,98,4.237,4.232,4.23,4.22,0,0,2.142,75.11,10,Assisted_Takeoff,
0.307529588465603,36.879396954976,5809.0900667964,0,0,0.138914702608,2700,2018-03-31 05:44:43,16,0,16.943,5809.0900667964,0,0,0.138914702608,0,0,0,342, -1.6, 2.5,0,0,1024,1024,1024,1024,342.5,0,98,4.237,4.232,4.23,4.22,0,0,2.142,75.11,10,Assisted_Takeoff,
0.30752958697232,36.8793969500631,5809.0900667964,0,0,0.137043639556,2800,2018-03-31 05:44:43,16,0,16.596,5809.0900667964,0,0,0.138914702608,0,0,0,342, -1.6, 2.5,0,0,1024,1024,1024,1024,342.5,0,98,4.237,4.232,4.23,4.22,0,0,2.142,75.11,10,Assisted_Takeoff,
0.307529590018324,36.8793969504139,5809.0900667964,0,0,0.137543311488,2900,2018-03-31 05:44:43,16,0,16.596,5809.0900667964,0,0,0.138914702608,0,0,0,342, -1.6, 2.5,0,0,1024,1024,1024,1024,342.5,0,98,4.237,4.232,4.23,4.22,0,0,2.142,75.11,10,Assisted_Takeoff,
0.307529625384871,36.8793969444417,5809.0900667964,0,0,0.140537406072,3000,2018-03-31 05:44:43,16,0,16.596,5809.0900667964,0,0,0.140537406072,0,0,0,342, -1.6, 2.5,0,0,1024,1024,1024,1024,342.5,0,98,4.237,4.232,4.23,4.22,0,0,2.142,75.11,10,Assisted_Takeoff,
0.307529658487066,36.8793969437294,5809.0900667964,0,0,0.145904204144,3100,2018-03-31 05:44:43,16,0,16.596,5809.0900667964,0,0,0.145904204144,0,0,0,342, -1.6, 2.5,0,0,1024,1024,1024,1024,342.4,0,98,4.237,4.232,4.23,4.22,0,0,2.142,75.11,10,Assisted_Takeoff,
0.307529682715056,36.8793969380997,5809.0900667964,0,0,0.148762143868,3200,2018-03-31 05:44:43,16,0,16.596,5809.0900667964,0,0,0.148762143868,0,0,0,342, -1.6, 2.5,0,0,1024,1024,1024,1024,342.4,0,98,4.237,4.232,4.23,4.22,0,0,2.142,75.11,10,Assisted_Takeoff,
0.307529718073461,36.8793969303208,5809.0900667964,0,0,0.153927498364,3400,2018-03-31 05:44:43,16,0,16.596,5809.0900667964,0,0,0.153927498364,0,0,0,342, -1.6, 2.5,0,0,1024,1024,1024,1024,342.4,0,98,4.237,4.232,4.23,4.22,0,0,2.142,75.11,10,Assisted_Takeoff,
0.307529733328724,36.879396928875,5809.0900667964,0,0,0.156985569328,3500,2018-03-31 05:44:43,16,0,16.596,5809.0900667964,0,0,0.156985569328,0,0,0,342, -1.6, 2.5,0,0,1024,1024,1024,1024,342.4,0,98,4.237,4.232,4.23,4.22,0,0,2.142,75.11,10,Assisted_Takeoff,
0.307529735052432,36.8793969241143,5809.0900667964,0,0,0.156051842264,3600,2018-03-31 05:44:44,16,0,16.596,5809.0900667964,0,0,0.156985569328,0,0,0,342, -1.6, 2.5,0,0,1024,1024,1024,1024,342.4,0,98,4.237,4.232,4.23,4.22,0,0,2.142,75.11,10,Assisted_Takeoff,
0.307529743391694,36.8793969230676,5809.0900667964,0,0,0.157736553604,3700,2018-03-31 05:44:44,16,0,16.596,5809.0900667964,0,0,0.157736553604,0,0,0,342, -1.6, 2.5,0,0,1024,1024,1024,1024,342.4,0,98,4.237,4.232,4.23,4.22,0,0,2.142,75.11,10,Assisted_Takeoff,
0.307529739266845,36.879396919563,5809.0900667964,0,0,0.155784781888,3800,2018-03-31 05:44:44,16,0,16.97,5809.0900667964,0,0,0.157736553604,0,0,0,342, -1.6, 2.5,0,0,1024,1024,1024,1024,342.4,0,98,4.252,4.247,4.246,4.241,0,0,2.54,75.11,10,Assisted_Takeoff,
0.307529742470808,36.8793969187328,5809.0900667964,0,0,0.1563238239,3900,2018-03-31 05:44:44,16,0,16.97,5809.0900667964,0,0,0.157736553604,0,0,0,342, -1.6, 2.5,0,0,1024,1024,1026,1024,342.4,0,98,4.252,4.247,4.246,4.241,0,0,2.54,75.11,10,Assisted_Takeoff,
0.307529734940069,36.8793969155344,5809.0900667964,0,0,0.153640752948,4000,2018-03-31 05:44:44,16,0,16.97,5809.0900667964,0,0,0.157736553604,0,0,0,342, -1.6, 2.5,0,0,1024,1024,1035,1024,342.4,0,98,4.252,4.247,4.246,4.241,0,0,2.54,75.11,10,Assisted_Takeoff,
0.307529736003443,36.879396914634,5809.0900667964,0,0,0.153646002292,4100,2018-03-31 05:44:44,16,0,16.97,5809.0900667964,0,0,0.157736553604,0,0,0,342, -1.6, 2.5,0,0,1024,1024,1058,1024,342.4,0,98,4.252,4.247,4.246,4.241,0,0,2.54,75.11,10,Assisted_Takeoff,
0.307529727479353,36.8793969112156,5809.0900667964,0,0,0.150673561252,4200,2018-03-31 05:44:44,16,0,16.97,5809.0900667964,0,0,0.157736553604,0,0,0,342, -1.6, 2.5,0,0,1024,1024,1091,1024,342.4,0,98,4.252,4.247,4.246,4.241,0,0,2.54,75.11,10,Assisted_Takeoff,
0.3075297277912,36.8793969101699,5809.0900667964,0,0,0.150457025812,4300,2018-03-31 05:44:44,16,0,16.97,5809.0900667964,0,0,0.157736553604,0,0,0,342, -1.6, 2.5,0,0,1024,1024,1121,1024,342.4,0,98,4.252,4.247,4.246,4.241,0,0,2.54,75.11,10,Assisted_Takeoff,
0.307529720579636,36.8793969076155,5809.0900667964,0,0,0.14804626458,4400,2018-03-31 05:44:44,16,0,16.97,5809.0900667964,0,0,0.157736553604,0,0,0,342, -1.6, 2.5,0,0,1024,1024,1134,1024,342.4,0,98,4.252,4.247,4.246,4.241,0,0,2.54,75.11,10,Assisted_Takeoff,
0.30752972196707,36.879396907047,5809.0900667964,0,0,0.148213259336,4500,2018-03-31 05:44:44,16,0,16.97,5809.0900667964,0,0,0.157736553604,0,0,0,342, -1.6, 2.5,0,0,1024,1024,1133,1024,342.4,0,98,4.252,4.247,4.246,4.241,0,0,2.54,75.11,10,Assisted_Takeoff,
0.307529716229248,36.8793969052856,5809.0900667964,0,0,0.146376973188,4600,2018-03-31 05:44:45,16,0,16.97,5809.0900667964,0,0,0.157736553604,0,0,0,342, -1.6, 2.5,0,0,1024,1024,1136,1024,342.4,0,98,4.252,4.247,4.246,4.241,0,0,2.54,75.11,10,Assisted_Takeoff,
0.307529717652508,36.8793969051164,5809.0900667964,0,0,0.1466617501,4700,2018-03-31 05:44:45,16,0,16.97,5809.0900667964,0,0,0.157736553604,0,0,0,342.1, -1.6, 2.5,0,0,1024,1024,1130,1024,342.4,0,98,4.252,4.247,4.246,4.241,0,0,2.54,75.11,10,Assisted_Takeoff,
0.307529711157459,36.8793969042118,5809.0900667964,0,0,0.144898626684,4800,2018-03-31 05:44:45,16,0,16.943,5809.0900667964,0,0,0.157736553604,0,0,0,342.1, -1.6, 2.5,0,0,1024,1024,1147,1024,342.4,0,98,4.252,4.25,4.252,4.249,0,0,1.932,75.11,10,Assisted_Takeoff,
0.307529712382863,36.8793969046446,5809.0900667964,0,0,0.145303810424,4900,2018-03-31 05:44:45,16,0,16.943,5809.0900667964,0,0,0.157736553604,0,0,0,342.1, -1.6, 2.5,0,0,1024,1024,1155,1024,342.4,0,98,4.252,4.25,4.252,4.249,0,0,1.932,75.11,10,Assisted_Takeoff,
0.307529745056778,36.8793969045881,5809.0900667964,0,0,0.153120739808,5000,2018-03-31 05:44:45,16,0,16.943,5809.0900667964,0,0,0.157736553604,0,0,0,342.1, -1.6, 2.5,0,0,1024,1024,1149,1024,342.4,0,98,4.252,4.25,4.252,4.249,0,0,1.932,75.11,10,Assisted_Takeoff,
0.307529777358593,36.8793969054917,5809.0900667964,0,0,0.161586619344,5100,2018-03-31 05:44:45,16,0,16.943,5809.0900667964,0,0,0.161586619344,0,0,0,341.9, -1.6, 2.5,0,0,1024,1024,1143,1024,342.4,0,98,4.252,4.25,4.252,4.249,0,0,1.932,75.11,10,Assisted_Takeoff,
0.307529802076744,36.8793969077177,5809.0900667964,0,0,0.168711619572,5200,2018-03-31 05:44:45,16,0,16.943,5809.0900667964,0,0,0.168711619572,0,0,0,341.8, -1.6, 2.5,0,0,1024,1024,1142,1024,342.4,0,98,4.252,4.25,4.252,4.249,0,0,1.932,75.11,10,Assisted_Takeoff,
0.307529836195089,36.8793969135029,5809.0900667964,0,0,0.179469493932,5300,2018-03-31 05:44:45,16,0,16.943,5809.0900667964,0,0,0.179469493932,0,0,0,341.4, -1.4, 2,0,0,1024,1024,1158,1024,342.4,0,98,4.252,4.25,4.252,4.249,0,0,1.932,75.11,10,Assisted_Takeoff,
0.307529895696804,36.8793969284556,5809.0900667964,0,0,0.1998277623,5400,2018-03-31 05:44:45,16,0,16.943,5809.0900667964,0,0,0.1998277623,0,0,0,341.3, -0.7, 0.5,0,0,1024,1024,1175,1024,342.4,0,98,4.252,4.25,4.252,4.249,0,0,1.932,75.11,10,Assisted_Takeoff,
0.307529993293524,36.8793969445032,5809.0900667964,0,0,0.232317592736,5500,2018-03-31 05:44:45,16,0,16.943,5809.0900667964,0,0,0.232317592736,0.223694,0,-0.223694,341.2, 0.3, -1,0,0,1024,1024,1179,1024,342.3,0,98,4.252,4.25,4.252,4.249,0,0,1.932,75.11,10,Assisted_Takeoff,
0.307530105632547,36.8793969300989,5809.0900667964,0,0.223694,0.265129929744,5600,2018-03-31 05:44:46,16,0,16.943,5809.0900667964,0,0.223694,0.265129929744,0.223694,0,-0.447388,341.2, 0.4, -0.6,0,0,1024,1024,1189,1024,342.3,0,98,4.252,4.25,4.252,4.249,0,0,1.932,75.11,6,P-GPS,
0.307530218171055,36.8793968946653,5809.0900667964,0,0.223694,0.297226387464,5700,2018-03-31 05:44:46,16,0,16.943,5809.0900667964,0,0.223694,0.297226387464,0.223694,0,-0.671082,341.2, 0.1, 0.2,0,0,1024,1024,1206,1024,342.3,0,98,4.252,4.25,4.252,4.249,0,0,1.932,75.11,6,P-GPS,
0.307530354515785,36.8793968522705,5809.0900667964,0,0.223694,0.33942914472,5800,2018-03-31 05:44:46,16,0,16.756,5809.0900667964,0,0.223694,0.33942914472,0.223694,0,-0.894776,341.2, 0.9, -0.1,0,0,1024,1024,1243,1024,342.3,0,98,4.252,4.25,4.252,4.249,0,0,5.258,75.11,6,P-GPS,Home Point Recorded. RTH Altitude:  45m.
0.307530500833921,36.8793968070458,5809.4181507964,0.328084,0.223694,0.38742783392,5900,2018-03-31 05:44:46,16,0,16.756,5809.4181507964,0.328084,0.223694,0.38742783392,0.223694,0,-0.894776,341.1, 1.7, -0.3,0,0,1024,1024,1238,1024,342.3,0,98,4.252,4.25,4.252,4.249,0,0,5.258,75.11,6,P-GPS,
0.307530626928411,36.8793967371303,5809.4181507964,0.328084,0.223694,0.4288221922,6000,2018-03-31 05:44:46,16,0,16.756,5809.4181507964,0.328084,0.223694,0.4288221922,0.223694,0,-1.11847,341, 1.2, 0.2,0,0,1024,1024,1243,1024,342.2,0,98,4.252,4.25,4.252,4.249,0,0,5.258,75.11,6,P-GPS,
0.307530916291917,36.8793966890214,5809.7462347964,0.656168,0.223694,0.53238846848,6200,2018-03-31 05:44:46,16,0,16.756,5809.7462347964,0.656168,0.223694,0.53238846848,0.223694,0,-1.342164,341.1, 1.4, -0.5,0,0,1024,1024,1252,1024,342.2,0,98,4.252,4.25,4.252,4.249,0,0,5.258,75.11,6,P-GPS,
0.307531082316668,36.879396694282,5810.0743187964,0.984252,0.223694,0.59296589824,6300,2018-03-31 05:44:46,16,0,16.756,5810.0743187964,0.984252,0.223694,0.59296589824,0.223694,0,-1.565858,341.1, 2, -0.4,0,0,1024,1024,1228,1024,342.2,0,98,4.252,4.25,4.252,4.249,0,0,5.258,75.11,6,P-GPS,
0.307531241708359,36.8793966419607,5810.4024027964,1.312336,0.223694,0.65025920716,6400,2018-03-31 05:44:46,16,0,16.756,5810.4024027964,1.312336,0.223694,0.65025920716,0.223694,0,-1.789552,341.1, 1.8, 0.9,0,0,1024,1024,1214,1024,342.2,0,98,4.252,4.25,4.252,4.249,0,0,5.258,75.11,6,P-GPS,
0.307531408322607,36.8793966089715,5810.4024027964,1.312336,0.223694,0.71084976028,6500,2018-03-31 05:44:46,16,0,16.756,5810.4024027964,1.312336,0.223694,0.71084976028,0.223694,0,-1.789552,341.1, 1.6, -0.1,0,0,1024,1024,1221,1024,342.1,0,98,4.252,4.25,4.252,4.249,0,0,5.258,75.11,6,P-GPS,
0.307531582581585,36.8793966000845,5810.7304867964,1.64042,0.223694,0.77441603528,6600,2018-03-31 05:44:47,16,0,16.756,5810.7304867964,1.64042,0.223694,0.77441603528,0.223694,0,-1.789552,341.1, 3, -0.4,0,0,1024,1024,1221,1024,342.1,0,98,4.252,4.25,4.252,4.249,0,0,5.258,75.11,6,P-GPS,
0.307531754738648,36.8793965812217,5811.0585707964,1.968504,0.223694,0.83724412128,6700,2018-03-31 05:44:47,16,0,16.756,5811.0585707964,1.968504,0.223694,0.83724412128,0.223694,0,-1.789552,341.3, 3.9, -0.6,0,0,1024,1024,1208,1024,342.1,0,98,4.252,4.25,4.252,4.249,0,0,5.258,75.11,6,P-GPS,
0.307531892509489,36.8793965676796,5811.3866547964,2.296588,0,0.88755252184,6800,2018-03-31 05:44:47,17,0,16.008,5811.3866547964,2.296588,0.223694,0.88755252184,0,0,-2.013246,341.4, 4.1, -0.4,0,0,1024,1024,1195,1024,342.1,0,98,4.155,4.149,4.143,4.129,0,0,5.258,75.11,6,P-GPS,
0.307532004740628,36.8793965436084,5811.7147387964,2.624672,0,0.92863848116,6900,2018-03-31 05:44:47,17,0,16.008,5811.7147387964,2.624672,0.223694,0.92863848116,0,0,-2.013246,341.4, 3.7, -0.4,0,0,1024,1024,1195,1024,342.1,0,98,4.155,4.149,4.143,4.129,0,0,5.258,75.11,6,P-GPS,
0.30753208233802,36.8793964997131,5812.0428227964,2.952756,0,0.95740160544,7000,2018-03-31 05:44:47,17,0,16.008,5812.0428227964,2.952756,0.223694,0.95740160544,0,0,-1.789552,341.4, 3.1, 0.3,0,0,1024,1024,1225,1024,342.1,0,98,4.155,4.149,4.143,4.129,0,0,5.258,75.11,6,P-GPS,
0.307532157344964,36.8793964657909,5812.3709067964,3.28084,0,0.98527234124,7100,2018-03-31 05:44:47,17,0,16.008,5812.3709067964,3.28084,0.223694,0.98527234124,0,0,-1.789552,341.4, 2.6, 0.5,0,0,1024,1024,1270,1024,342.1,0,98,4.155,4.149,4.143,4.129,0,0,5.258,75.11,6,P-GPS,
0.307532252503496,36.879396410349,5812.6989907964,3.608924,0,1.0210958332,7200,2018-03-31 05:44:47,17,0,16.008,5812.6989907964,3.608924,0.223694,1.0210958332,0,0,-1.789552,341.5, 2.3, 0,0,0,1024,1024,1271,1024,342.1,0,98,4.155,4.149,4.143,4.129,0,0,5.258,75.11,6,P-GPS,
0.307532351251119,36.8793963702634,5812.6989907964,3.608924,0,1.0580873042,7300,2018-03-31 05:44:47,17,0,16.008,5812.6989907964,3.608924,0.223694,1.0580873042,0,0,-2.013246,341.5, 2.8, -0.1,0,0,1024,1024,1256,1024,342.1,0,98,4.155,4.149,4.143,4.129,0,0,5.258,75.11,6,P-GPS,
0.307532451052752,36.8793963624928,5813.0270747964,3.937008,0,1.09461289592,7400,2018-03-31 05:44:47,18,0,16.008,5813.0270747964,3.937008,0.223694,1.09461289592,0,0,-2.013246,341.5, 3.2, -0.2,0,0,1024,1024,1277,1023,342.1,0,98,4.155,4.149,4.143,4.129,0,0,5.258,75.11,6,P-GPS,
0.307532536905948,36.8793963705463,5813.3551587964,4.265092,0,1.1256233956,7500,2018-03-31 05:44:47,18,0,16.008,5813.3551587964,4.265092,0.223694,1.1256233956,0,0,-2.23694,341.5, 3.1, -0.6,0,0,1024,1024,1298,1024,342.1,0,98,4.155,4.149,4.143,4.129,0,0,5.258,75.11,6,P-GPS,
0.307532577607684,36.8793963914641,5814.0113267964,4.92126,0,1.13990817296,7600,2018-03-31 05:44:47,18,0,16.008,5814.0113267964,4.92126,0.223694,1.13990817296,0,0,-2.460634,341.4, 2.4, -0.8,0,0,1024,1024,1301,1024,342.1,0,98,4.155,4.149,4.143,4.129,0,0,5.258,75.11,6,P-GPS,
0.307532616505919,36.8793963986525,5814.3394107964,5.249344,0,1.15390095556,7700,2018-03-31 05:44:48,18,0,16.008,5814.3394107964,5.249344,0.223694,1.15390095556,0,0,-2.684328,341.4, 2, -0.2,0,0,1024,1024,1300,1023,342,0,98,4.155,4.149,4.143,4.129,0,0,5.258,75.11,6,P-GPS,
0.307532682746136,36.879396392988,5814.6674947964,5.577428,0,1.17815292484,7800,2018-03-31 05:44:48,18,0,16.141,5814.6674947964,5.577428,0.223694,1.17815292484,0,0,-2.908022,341.3, 2.2, 0.3,0,0,1024,1024,1289,1024,342.1,0,98,4.043,4.041,4.044,4.034,0,0,13.668,75.11,6,P-GPS,
0.307532772117585,36.8793963911086,5814.9955787964,5.905512,0,1.21073822772,7900,2018-03-31 05:44:48,18,0,16.141,5814.9955787964,5.905512,0.223694,1.21073822772,0,0,-2.908022,341.3, 2.8, 0.7,0,0,1024,1024,1289,1024,342,0,98,4.043,4.041,4.044,4.034,0,0,13.668,75.11,6,P-GPS,
0.307532875388211,36.8793964094545,5815.6517467964,6.56168,0,1.24796263836,8000,2018-03-31 05:44:48,17,0,16.141,5815.6517467964,6.56168,0.223694,1.24796263836,0,0,-2.908022,341.3, 3.7, -0.2,0,0,1024,1024,1284,1024,342,0,98,4.043,4.041,4.044,4.034,0,0,13.668,75.11,6,P-GPS,
0.307532978202465,36.8793964440084,5815.9798307964,6.889764,0,1.28481303324,8100,2018-03-31 05:44:48,17,0,16.141,5815.9798307964,6.889764,0.223694,1.28481303324,0,0,-2.908022,341.3, 4, -1.1,0,0,1024,1024,1274,1024,342,0,98,4.043,4.041,4.044,4.034,0,0,13.668,75.11,6,P-GPS,
0.307533078223124,36.8793964734523,5816.6359987964,7.545932,0,1.32086290316,8200,2018-03-31 05:44:48,18,0,16.141,5816.6359987964,7.545932,0.223694,1.32086290316,0,0,-2.908022,341.3, 4, -1.3,0,0,1024,1024,1275,1024,342,0,98,4.043,4.041,4.044,4.034,0,0,13.668,75.11,6,P-GPS,
0.307533165703949,36.8793964912613,5816.9640827964,7.874016,0,1.35256237924,8300,2018-03-31 05:44:48,18,0,16.141,5816.9640827964,7.874016,0.223694,1.35256237924,0,0,-2.908022,341.3, 4.1, -1.1,0,0,1024,1024,1279,1024,342,0,98,4.043,4.041,4.044,4.034,0,0,13.668,75.11,6,P-GPS,
0.307533244976603,36.8793964794388,5817.2921667964,8.2021,0,1.38159781324,8400,2018-03-31 05:44:48,18,0,16.141,5817.2921667964,8.2021,0.223694,1.38159781324,0,0,-2.684328,341.3, 4, -1.1,0,0,1024,1024,1273,1024,342,0,98,4.043,4.041,4.044,4.034,0,0,13.668,75.11,6,P-GPS,
0.307533314647137,36.8793964592263,5817.6202507964,8.530184,0,1.4072507012,8500,2018-03-31 05:44:48,18,0,16.141,5817.6202507964,8.530184,0.223694,1.4072507012,0,0,-2.684328,341.2, 3.9, -0.6,0,1,1024,1024,1283,1024,342,0,98,4.043,4.041,4.044,4.034,0,0,13.668,75.11,6,P-GPS,
0.307533392935803,36.8793964175027,5818.2764187964,9.186352,0,1.43640752628,8600,2018-03-31 05:44:49,18,0,16.141,5818.2764187964,9.186352,0.223694,1.43640752628,0,0,-2.460634,341.2, 4, 0.2,0,1,1024,1024,1300,1024,342,0,98,4.043,4.041,4.044,4.034,0,0,13.668,75.11,6,P-GPS,
0.307533468706081,36.8793963954574,5818.6045027964,9.514436,0,1.46440621484,8700,2018-03-31 05:44:49,18,0,16.141,5818.6045027964,9.514436,0.223694,1.46440621484,0,0,-2.460634,341.2, 4, 0.2,0,1,1024,1024,1295,1024,342,0,98,4.043,4.041,4.044,4.034,0,0,13.668,75.11,6,P-GPS,
0.307533527365077,36.879396396749,5818.9325867964,9.84252,0,1.48575792156,8800,2018-03-31 05:44:49,18,0,15.847,5818.9325867964,9.84252,0.223694,1.48575792156,0,0,-2.684328,341.3, 3.7, -0.1,0,1,1024,1024,1282,1024,341.9,0,98,4.031,4.03,4.032,4.02,0,0,13.494,75.11,6,P-GPS,
0.307533585141048,36.8793964085435,5819.2606707964,10.170604,0,1.5066109406,8900,2018-03-31 05:44:49,18,0,15.847,5819.2606707964,10.170604,0.223694,1.5066109406,0,0,-2.684328,341.2, 3.9, -0.7,0,1,1024,1024,1289,1024,341.9,0,98,4.031,4.03,4.032,4.02,0,0,13.494,75.11,6,P-GPS,
0.307533627546137,36.8793963806966,5819.9168387964,10.826772,0,1.522555823,9000,2018-03-31 05:44:49,18,0,15.847,5819.9168387964,10.826772,0.223694,1.522555823,0,0,-2.684328,341.2, 4.3, -0.6,0,1,1024,1024,1296,1024,341.9,0,98,4.031,4.03,4.032,4.02,0,0,13.494,75.11,6,P-GPS,
0.307533663079192,36.8793963589593,5820.2449227964,11.154856,0,1.53593180768,9100,2018-03-31 05:44:49,18,0,15.847,5820.2449227964,11.154856,0.223694,1.53593180768,0,0,-2.684328,341.3, 3.8, -0.9,0,1,1024,1024,1290,1024,341.9,0,98,4.031,4.03,4.032,4.02,0,0,13.494,75.11,6,P-GPS,
0.307533684375983,36.8793963569669,5820.5730067964,11.48294,0,1.54373036436,9200,2018-03-31 05:44:49,18,0,15.847,5820.5730067964,11.48294,0.223694,1.54373036436,0,0,-2.908022,341.2, 3.7, -0.8,0,1,1024,1024,1294,1024,341.9,0,98,4.031,4.03,4.032,4.02,0,0,13.494,75.11,6,P-GPS,
0.307533711871853,36.8793963334059,5820.9010907964,11.811024,0,1.55425201824,9300,2018-03-31 05:44:49,18,0,15.847,5820.9010907964,11.811024,0.223694,1.55425201824,0,0,-2.908022,341.3, 3.9, -0.1,0,1,1024,1024,1295,1024,341.9,0,98,4.031,4.03,4.032,4.02,0,0,13.494,75.11,6,P-GPS,
0.307533741052755,36.8793962645169,5821.5572587964,12.467192,0,1.56662078504,9400,2018-03-31 05:44:49,17,0,15.847,5821.5572587964,12.467192,0.223694,1.56662078504,0,0,-2.908022,341.3, 3.6, 0.7,0,1,1024,1024,1301,1024,341.9,0,98,4.031,4.03,4.032,4.02,0,0,13.494,75.11,6,P-GPS,
0.30753378178421,36.8793962077177,5821.8853427964,12.795276,0,1.58315949948,9500,2018-03-31 05:44:49,17,0,15.847,5821.8853427964,12.795276,0.223694,1.58315949948,0,0,-2.908022,341.4, 3.6, 1.2,0,1,1024,1024,1325,1024,341.9,0,98,4.031,4.03,4.032,4.02,0,0,13.494,75.11,6,P-GPS,
0.307533848738092,36.8793961636795,5822.2134267964,13.12336,0,1.6089895528,9600,2018-03-31 05:44:49,18,0,15.847,5822.2134267964,13.12336,0.223694,1.6089895528,0,0,-2.908022,341.4, 3.5, 0.7,0,1,1024,1024,1346,1024,341.9,0,98,4.031,4.03,4.032,4.02,0,0,13.494,75.11,6,P-GPS,
0.307533941295185,36.8793961444854,5822.8695947964,13.779528,0,1.64328745416,9700,2018-03-31 05:44:50,18,0,15.847,5822.8695947964,13.779528,0.223694,1.64328745416,0,0,-3.131716,341.4, 4.3, -0.3,0,1,1024,1024,1340,1024,341.9,0,98,4.031,4.03,4.032,4.02,0,0,13.494,75.11,6,P-GPS,
0.307534045099126,36.8793961105308,5823.1976787964,14.107612,0,1.6822343058,9800,2018-03-31 05:44:50,18,0,16.061,5823.1976787964,14.107612,0.223694,1.6822343058,0,0,-3.35541,341.3, 5, 0.1,0,1,1024,1024,1343,1024,341.9,0,98,4.031,4.03,4.032,4.02,0,0,13.352,75.11,6,P-GPS,
0.307534138243273,36.879396086617,5823.8538467964,14.76378,0,1.71695543552,9900,2018-03-31 05:44:50,18,0,16.061,5823.8538467964,14.76378,0.223694,1.71695543552,0,0,-3.579104,341.3, 5, 0.8,0,1,1024,1024,1355,1024,341.9,0,98,4.031,4.03,4.032,4.02,0,0,13.352,75.11,6,P-GPS,
0.307534210687251,36.8793961003273,5824.5100147964,15.419948,0,1.74270674868,10000,2018-03-31 05:44:50,18,0,16.061,5824.5100147964,15.419948,0.223694,1.74270674868,0,0,-3.579104,341.3, 5, 0.4,0,1,1024,1024,1355,1024,341.9,0,98,4.031,4.03,4.032,4.02,0,0,13.352,75.11,6,P-GPS,
0.307534286836345,36.8793961438832,5824.8380987964,15.748032,0,1.76878614584,10100,2018-03-31 05:44:50,18,0,16.061,5824.8380987964,15.748032,0.223694,1.76878614584,0,0,-3.802798,341.3, 4.8, -0.2,0,1,1024,1024,1359,1024,341.9,0,98,4.031,4.03,4.032,4.02,0,0,13.352,75.11,6,P-GPS,
0.307534334529399,36.8793962003143,5825.4942667964,16.4042,0,1.78432748492,10200,2018-03-31 05:44:50,18,0,16.061,5825.4942667964,16.4042,0.223694,1.78432748492,0,0,-3.802798,341.2, 5, -0.7,0,1,1024,1024,1345,1024,341.9,0,98,4.031,4.03,4.032,4.02,0,0,13.352,75.11,6,P-GPS,
0.307534386640217,36.8793962578441,5826.1504347964,17.060368,0,1.80171593692,10300,2018-03-31 05:44:50,18,0,16.061,5826.1504347964,17.060368,0.223694,1.80171593692,0,0,-4.026492,341.2, 5.3, -0.9,0,1,1024,1024,1344,1024,341.9,0,98,4.031,4.03,4.032,4.02,0,0,13.352,75.11,6,P-GPS,
0.307534401532541,36.8793963231882,5826.8066027964,17.716536,0,1.80566278744,10400,2018-03-31 05:44:50,18,0,16.061,5826.8066027964,17.716536,0.223694,1.80566278744,0,0,-4.026492,341.2, 5.2, -1,0,1,1024,1024,1339,1024,341.8,0,98,4.031,4.03,4.032,4.02,0,0,13.352,75.11,6,P-GPS,
0.307534414977789,36.8793963883703,5827.4627707964,18.372704,0,1.80940622588,10500,2018-03-31 05:44:50,18,0,16.061,5827.4627707964,18.372704,0.223694,1.80940622588,0,0,-3.802798,341.2, 5, -1,0,1,1024,1024,1340,1024,341.9,0,98,4.031,4.03,4.032,4.02,0,0,13.352,75.11,6,P-GPS,
0.307534407366035,36.8793964851766,5827.7908547964,18.700788,0,1.80549218376,10600,2018-03-31 05:44:51,17,0,16.061,5827.7908547964,18.700788,0.223694,1.80940622588,0,0,-3.802798,341.2, 4.8, -1.2,0,1,1024,1024,1366,1024,341.8,0,98,4.031,4.03,4.032,4.02,0,0,13.352,75.11,6,P-GPS,
0.307534413544148,36.8793965634028,5828.4470227964,19.356956,0,1.80732945416,10700,2018-03-31 05:44:51,17,0,16.061,5828.4470227964,19.356956,0.223694,1.80940622588,0,0,-3.802798,341.2, 4.6, -0.9,0,1,1024,1024,1400,1024,341.9,0,98,4.031,4.03,4.032,4.02,0,0,13.352,75.11,6,P-GPS,
0.307534398102835,36.8793965868579,5829.1031907964,20.013124,0,1.80166016264,10800,2018-03-31 05:44:51,18,0,15.954,5829.1031907964,20.013124,0.223694,1.80940622588,0,0,-3.802798,341.3, 4.5, -0.7,0,1,1024,1024,1410,1024,341.8,0,98,4.03,4.034,4.043,4.024,0,0,13.352,75.11,6,P-GPS,
0.307534396658608,36.8793966109151,5829.7593587964,20.669292,0,1.80113522824,10900,2018-03-31 05:44:51,18,0,15.954,5829.7593587964,20.669292,0.223694,1.80940622588,0,0,-4.026492,341.3, 4.4, -0.5,0,1,1024,1024,1413,1024,341.8,0,98,4.03,4.034,4.043,4.024,0,0,13.352,75.11,6,P-GPS,
0.307534386020595,36.8793966018507,5830.0874427964,20.997376,0,1.79724743284,11000,2018-03-31 05:44:51,18,0,15.954,5830.0874427964,20.997376,0.223694,1.80940622588,0,0,-4.250186,341.2, 4.5, -0.8,0,1,1024,1024,1421,1024,341.8,0,98,4.03,4.034,4.043,4.024,0,0,13.352,75.11,6,P-GPS,
0.307534392226595,36.8793966087937,5830.7436107964,21.653544,0,1.79951777412,11100,2018-03-31 05:44:51,18,0,15.954,5830.7436107964,21.653544,0.223694,1.80940622588,0,0,-4.47388,341.2, 4.9, -1.2,0,1,1024,1024,1406,1024,341.8,0,98,4.03,4.034,4.043,4.024,0,0,13.352,75.11,6,P-GPS,
0.307534375030633,36.879396619084,5831.7278627964,22.637796,0,1.7932579314,11200,2018-03-31 05:44:51,17,0,15.954,5831.7278627964,22.637796,0.223694,1.80940622588,0,0,-4.921268,341.2, 5, -1.2,0,1,1024,1024,1369,1024,341.8,0,98,4.03,4.034,4.043,4.024,0,0,13.352,75.11,6,P-GPS,
0.307534356732622,36.8793966300402,5832.3840307964,23.293964,0,1.78660438788,11300,2018-03-31 05:44:51,17,0,15.954,5832.3840307964,23.293964,0.223694,1.80940622588,0,0,-4.921268,341.2, 4.8, -1,0,1,1024,1024,1334,1024,341.8,0,98,4.03,4.034,4.043,4.024,0,0,13.352,75.11,6,P-GPS,
0.307534356954701,36.8793966138911,5833.0401987964,23.950132,0,1.78665360048,11400,2018-03-31 05:44:51,18,0,15.954,5833.0401987964,23.950132,0.223694,1.80940622588,0,0,-4.921268,341.2, 5.1, -1.1,0,1,1024,1024,1346,1024,341.8,0,98,4.03,4.034,4.043,4.024,0,0,13.352,75.11,6,P-GPS,
0.30753436400566,36.8793966014872,5833.6963667964,24.6063,0,1.78921593652,11500,2018-03-31 05:44:51,18,0,15.954,5833.6963667964,24.6063,0.223694,1.80940622588,0,0,-4.47388,341.2, 5.6, -1.1,0,1,1024,1024,1383,1024,341.8,0,98,4.03,4.034,4.043,4.024,0,0,13.352,75.11,6,P-GPS,
0.307534356383932,36.8793965729506,5834.3525347964,25.262468,0,1.78645675008,11600,2018-03-31 05:44:52,18,0,15.954,5834.3525347964,25.262468,0.223694,1.80940622588,0,0,-4.250186,341.2, 4.6, -0.8,0,1,1024,1024,1383,1024,341.8,0,98,4.03,4.034,4.043,4.024,0,0,13.352,75.11,6,P-GPS,
0.307534344040733,36.8793965499067,5835.0087027964,25.918636,0,1.78201121188,11700,2018-03-31 05:44:52,18,0,15.954,5835.0087027964,25.918636,0.223694,1.80940622588,0,0,-4.250186,341.2, 3.7, -0.4,0,1,1024,1024,1421,1024,341.8,0,98,4.03,4.034,4.043,4.024,0,0,13.352,75.11,6,P-GPS,
0.307534311138633,36.8793965200059,5835.6648707964,26.574804,0,1.77014769444,11800,2018-03-31 05:44:52,18,0,15.928,5835.6648707964,26.574804,0.223694,1.80940622588,0,0,-4.47388,341.3, 3.5, 0,0,1,1024,1024,1425,1024,341.8,0,98,4.025,4.015,4.005,3.978,0,0,14.336,75.11,6,P-GPS,
0.307534308930463,36.8793964999698,5836.3210387964,27.230972,0,1.7694718414,11900,2018-03-31 05:44:52,18,0,15.928,5836.3210387964,27.230972,0.223694,1.80940622588,0,0,-4.697574,341.2, 4.2, -0.2,0,1,1024,1024,1446,1024,341.8,0,98,4.025,4.015,4.005,3.978,0,0,14.336,75.11,6,P-GPS,
0.307534327685252,36.8793964551476,5837.3052907964,28.215224,0,1.77671265528,12000,2018-03-31 05:44:52,18,0,15.928,5837.3052907964,28.215224,0.223694,1.80940622588,0,0,-4.921268,341.2, 4.8, -0.6,0,1,1024,1024,1454,1024,341.8,0,98,4.025,4.015,4.005,3.978,0,0,14.336,75.11,6,P-GPS,
0.307534349601259,36.8793964212757,5837.9614587964,28.871392,0,1.785105044,12100,2018-03-31 05:44:52,18,0,15.928,5837.9614587964,28.871392,0.223694,1.80940622588,0,0,-5.144962,341.3, 4.9, -0.5,0,1,1024,1024,1454,1024,341.8,0,98,4.025,4.015,4.005,3.978,0,0,14.336,75.11,6,P-GPS,
0.307534310762055,36.8793963963952,5838.6176267964,29.52756,0,1.77129598844,12200,2018-03-31 05:44:52,18,0,15.928,5838.6176267964,29.52756,0.223694,1.80940622588,0,0,-5.368656,341.2, 4.5, -0.2,0,1,1024,1024,1456,1024,341.8,0,98,4.025,4.015,4.005,3.978,0,0,14.336,75.11,6,P-GPS,
0.307534279969401,36.8793963837215,5839.6018787964,30.511812,0,1.7602690852,12300,2018-03-31 05:44:52,18,0,15.928,5839.6018787964,30.511812,0.223694,1.80940622588,0,0,-5.59235,341.2, 4.1, -0.2,0,1,1024,1024,1457,1024,341.8,0,98,4.025,4.015,4.005,3.978,0,0,14.336,75.11,6,P-GPS,
0.307534277339056,36.8793963813074,5840.5861307964,31.496064,0,1.75934716916,12400,2018-03-31 05:44:52,18,0,15.928,5840.5861307964,31.496064,0.223694,1.80940622588,0,0,-5.816044,341.2, 4, -0.4,0,1,1024,1024,1466,1024,341.8,0,98,4.025,4.015,4.005,3.978,0,0,14.336,75.11,6,P-GPS,
0.307534294892461,36.8793963778012,5841.2422987964,32.152232,0,1.76580386228,12500,2018-03-31 05:44:52,18,0,15.928,5841.2422987964,32.152232,0.223694,1.80940622588,0,0,-5.816044,341.2, 4.2, -0.4,0,1,1024,1024,1502,1024,341.8,0,98,4.025,4.015,4.005,3.978,0,0,14.336,75.11,6,P-GPS,
0.307534278407926,36.879396373431,5842.2265507964,33.136484,0,1.75986882272,12600,2018-03-31 05:44:53,18,0,15.928,5842.2265507964,33.136484,0.223694,1.80940622588,0,0,-6.039738,341.2, 4.2, -0.2,0,1,1024,1024,1517,1024,341.8,0,98,4.025,4.015,4.005,3.978,0,0,14.336,75.11,6,P-GPS,
0.307534273171258,36.8793963699315,5843.2108027964,34.120736,0,1.75801842896,12700,2018-03-31 05:44:53,18,0,15.928,5843.2108027964,34.120736,0.223694,1.80940622588,0,0,-6.487126,341.2, 3.8, 0,0,1,1024,1024,1513,1023,341.7,0,98,4.025,4.015,4.005,3.978,0,0,14.336,75.11,6,P-GPS,
0.307534264200974,36.8793963368318,5844.1950547964,35.104988,0,1.75536094856,12800,2018-03-31 05:44:53,18,0,15.634,5844.1950547964,35.104988,0.223694,1.80940622588,0,0,-6.71082,341.2, 3.9, -0.1,0,1,1024,1024,1518,1023,341.8,0,98,3.992,3.99,3.981,3.964,0,0,15.016,75.11,6,P-GPS,
0.307534280841432,36.8793963082087,5845.1793067964,36.08924,0,1.76201777292,12900,2018-03-31 05:44:53,18,0,15.634,5845.1793067964,36.08924,0.223694,1.80940622588,0,0,-6.934514,341.2, 4.8, -0.3,0,1,1024,1024,1518,1023,341.7,0,98,3.992,3.99,3.981,3.964,0,0,15.016,75.11,6,P-GPS,
0.307534277590447,36.8793962925538,5846.4916427964,37.401576,0,1.76118115872,13000,2018-03-31 05:44:53,18,0,15.634,5846.4916427964,37.401576,0.223694,1.80940622588,0,0,-7.158208,341.2, 4.8, -0.6,0,1,1024,1024,1516,1023,341.7,0,98,3.992,3.99,3.981,3.964,0,0,15.016,75.11,6,P-GPS,
0.307534268561133,36.8793962837848,5847.4758947964,38.385828,0,1.75810044996,13100,2018-03-31 05:44:53,18,0,15.634,5847.4758947964,38.385828,0.223694,1.80940622588,0,0,-7.381902,341.1, 4.5, -0.7,0,1,1024,1024,1516,1024,341.7,0,98,3.992,3.99,3.981,3.964,0,0,15.016,75.11,6,P-GPS,
0.307534267644115,36.8793962755573,5848.4601467964,39.37008,0,1.75796265468,13200,2018-03-31 05:44:53,18,0,15.634,5848.4601467964,39.37008,0.223694,1.80940622588,0,0,-7.381902,341.2, 4.2, -0.4,0,1,1024,1024,1515,1024,341.7,-0.1,98,3.992,3.99,3.981,3.964,0,0,15.016,75.11,6,P-GPS,
0.307534268865448,36.8793962657454,5849.7724827964,40.682416,0,1.75864835024,13300,2018-03-31 05:44:53,18,0,15.634,5849.7724827964,40.682416,0.223694,1.80940622588,0,0,-7.381902,341.2, 4.1, -0.2,0,1,1024,1024,1516,1024,341.7,-0.3,98,3.992,3.99,3.981,3.964,0,0,15.016,75.11,6,P-GPS,
0.307534300477414,36.8793962988229,5850.7567347964,41.666668,0,1.7693734162,13400,2018-03-31 05:44:53,19,0,15.634,5850.7567347964,41.666668,0.223694,1.80940622588,0,0,-7.605596,341.2, 4, -0.2,0,1,1024,1024,1513,1024,341.7,-0.5,98,3.992,3.99,3.981,3.964,0,0,15.016,75.11,6,P-GPS,
0.30753433385848,36.8793963281517,5852.0690707964,42.979004,0,1.78090884964,13500,2018-03-31 05:44:53,19,0,15.634,5852.0690707964,42.979004,0.223694,1.80940622588,0,0,-7.605596,341.2, 4.1, -0.5,0,1,1024,1024,1516,1024,341.7,-1.1,98,3.992,3.99,3.981,3.964,0,0,15.016,75.11,6,P-GPS,
0.30753436562698,36.8793963561113,5853.0533227964,43.963256,0,1.79195543792,13600,2018-03-31 05:44:54,18,0,15.634,5853.0533227964,43.963256,0.223694,1.80940622588,0,0,-7.605596,341.2, 4.3, -0.5,0,1,1024,1024,1517,1024,341.7,-1.8,98,3.992,3.99,3.981,3.964,0,0,15.016,75.11,6,P-GPS,
0.307534391228562,36.8793963714767,5854.3656587964,45.275592,0,1.80102039884,13700,2018-03-31 05:44:54,18,0,15.634,5854.3656587964,45.275592,0.223694,1.80940622588,0,0,-7.605596,341.2, 4.6, -0.4,0,1,1024,1024,1513,1024,341.7,-2.7,98,3.992,3.99,3.981,3.964,0,0,15.016,75.11,6,P-GPS,
0.307534398966928,36.8793964198936,5855.3499107964,46.259844,0,1.80312341728,13800,2018-03-31 05:44:54,19,0,15.527,5855.3499107964,46.259844,0.223694,1.80940622588,0,0,-7.605596,341.2, 4.6, -0.3,0,1,1024,1024,1496,1024,341.7,-3.7,98,3.992,3.99,3.981,3.964,0,0,15.016,75.11,6,P-GPS,
0.30753439899624,36.8793964611475,5856.6622467964,47.57218,0,1.802657538,13900,2018-03-31 05:44:54,19,0,15.527,5856.6622467964,47.57218,0.223694,1.80940622588,0,0,-7.605596,341.2, 4.3, -0.5,0,1,1024,1024,1496,1024,341.7,-4.8,98,3.992,3.99,3.981,3.964,0,0,15.016,75.11,6,P-GPS,
0.307534383186898,36.8793964571994,5857.6464987964,48.556432,0,1.7969324722,14000,2018-03-31 05:44:54,19,0,15.527,5857.6464987964,48.556432,0.223694,1.80940622588,0,0,-7.381902,341.2, 4, -0.3,0,1,1024,1024,1485,1024,341.7,-6,98,3.992,3.99,3.981,3.964,0,0,15.016,75.11,6,P-GPS,
0.307534379246064,36.8793964442399,5858.9588347964,49.868768,0,1.7956365404,14100,2018-03-31 05:44:54,19,0,15.527,5858.9588347964,49.868768,0.223694,1.80940622588,0,0,-7.158208,341.2, 4.3, -0.2,0,1,1024,1024,1486,1024,341.7,-6,98,3.992,3.99,3.981,3.964,0,0,15.016,75.11,6,P-GPS,
0.307534380963055,36.8793964573019,5859.9430867964,50.85302,0,1.79612210472,14200,2018-03-31 05:44:54,19,0,15.527,5859.9430867964,50.85302,0.223694,1.80940622588,0,0,-6.934514,341.2, 4.8, -0.1,0,1,1024,1024,1482,1024,341.7,-7.1,98,3.992,3.99,3.981,3.964,0,0,15.016,75.11,6,P-GPS,
0.307534381146051,36.8793964731721,5860.9273387964,51.837272,0,1.79603352204,14300,2018-03-31 05:44:54,19,0,15.527,5860.9273387964,51.837272,0.223694,1.80940622588,0,0,-6.934514,341.2, 4.5, 0,0,1,1024,1024,1481,1024,341.7,-8.1,98,3.992,3.99,3.981,3.964,0,0,15.016,75.11,6,P-GPS,
0.307534374649984,36.8793964915804,5861.9115907964,52.821524,0,1.79350727524,14400,2018-03-31 05:44:54,19,0,15.527,5861.9115907964,52.821524,0.223694,1.80940622588,0,0,-6.934514,341.2, 4.5, 0,0,1,1024,1024,1479,1024,341.7,-9.9,98,3.992,3.99,3.981,3.964,0,0,15.016,75.11,6,P-GPS,
0.307534326149223,36.8793964961331,5863.8800947964,54.790028,0,1.77578089672,14600,2018-03-31 05:44:55,19,0,15.527,5863.8800947964,54.790028,0.223694,1.80940622588,0,0,-6.71082,341.2, 4.4, 0,0,1,1024,1024,1477,1024,341.7,-10.8,98,3.992,3.99,3.981,3.964,0,0,15.016,75.11,6,P-GPS,
0.307534288666309,36.8793964885022,5864.8643467964,55.77428,0,1.76216869156,14700,2018-03-31 05:44:55,19,0,15.527,5864.8643467964,55.77428,0.223694,1.80940622588,0,0,-6.487126,341.2, 4.1, -0.2,0,1,1024,1024,1464,1024,341.7,-11.5,98,3.992,3.99,3.981,3.964,0,0,15.016,75.11,6,P-GPS,
0.30753425828443,36.8793964683274,5865.8485987964,56.758532,0,1.75126646024,14800,2018-03-31 05:44:55,19,0,15.767,5865.8485987964,56.758532,0.223694,1.80940622588,0,0,-6.487126,341.2, 4.1, 0,0,1,1024,1024,1465,1024,341.7,-11.5,98,3.966,3.957,3.968,3.962,0,0,16.818,75.11,6,P-GPS,
0.307534250132846,36.879396454755,5866.8328507964,57.742784,0,1.74843509532,14900,2018-03-31 05:44:55,19,0,15.767,5866.8328507964,57.742784,0.223694,1.80940622588,0,0,-6.263432,341.2, 4.5, 0.1,0,1,1024,1024,1467,1024,341.7,-11.5,98,3.966,3.957,3.968,3.962,0,0,16.818,75.11,6,P-GPS,
0.30753425576828,36.8793964403191,5867.8171027964,58.727036,0,1.75065294316,15000,2018-03-31 05:44:55,19,0,15.767,5867.8171027964,58.727036,0.223694,1.80940622588,0,0,-6.263432,341.2, 4.4, 0,0,1,1024,1024,1477,1024,341.7,-11.5,98,3.966,3.957,3.968,3.962,0,0,16.818,75.11,6,P-GPS,
0.30753426872357,36.8793964334732,5868.8013547964,59.711288,0,1.75545937376,15100,2018-03-31 05:44:55,19,0,15.767,5868.8013547964,59.711288,0.223694,1.80940622588,0,0,-6.263432,341.2, 4.5, 0,0,1,1024,1024,1478,1024,341.7,-11.5,98,3.966,3.957,3.968,3.962,0,0,16.818,75.11,6,P-GPS,
0.307534248515191,36.8793964236511,5869.7856067964,60.69554,0,1.74821855988,15200,2018-03-31 05:44:55,19,0,15.767,5869.7856067964,60.69554,0.223694,1.80940622588,0,0,-6.263432,341.2, 4.6, 0.3,0,1,1024,1024,1474,1024,341.7,-11.6,98,3.966,3.957,3.968,3.962,0,0,16.818,75.11,6,P-GPS,
0.307534235678167,36.8793964227906,5870.7698587964,61.679792,0,1.74354664372,15300,2018-03-31 05:44:55,19,0,15.767,5870.7698587964,61.679792,0.223694,1.80940622588,0,0,-6.263432,341.3, 4.6, 0.4,0,1,1024,1024,1468,1024,341.7,-11.8,98,3.966,3.957,3.968,3.962,0,0,16.818,75.11,6,P-GPS,
0.307534221668866,36.8793964307893,5871.7541107964,62.664044,0,1.7383366698,15400,2018-03-31 05:44:55,18,0,15.767,5871.7541107964,62.664044,0.223694,1.80940622588,0,0,-6.263432,341.3, 4.4, 0.3,0,1,1024,1024,1475,1024,341.7,-12,98,3.966,3.957,3.968,3.962,0,0,16.818,75.11,6,P-GPS,
0.30753422465299,36.8793964479674,5872.7383627964,63.648296,0,1.73921921576,15500,2018-03-31 05:44:55,18,0,15.767,5872.7383627964,63.648296,0.223694,1.80940622588,0,0,-6.263432,341.2, 4.4, 0.1,0,1,1024,1024,1478,1024,341.6,-12.2,98,3.966,3.957,3.968,3.962,0,0,16.818,75.11,6,P-GPS,
0.307534228441361,36.8793964248627,5873.7226147964,64.632548,0,1.74088260164,15600,2018-03-31 05:44:56,19,0,15.767,5873.7226147964,64.632548,0.223694,1.80940622588,0,0,-6.263432,341.2, 4.5, 0.2,0,1,1024,1024,1478,1024,341.6,-12.6,98,3.966,3.957,3.968,3.962,0,0,16.818,75.11,6,P-GPS,
0.307534241628297,36.8793964135736,5874.7068667964,65.6168,0,1.74584323172,15700,2018-03-31 05:44:56,19,0,15.767,5874.7068667964,65.6168,0.223694,1.80940622588,0,0,-6.487126,341.2, 4.4, 0.3,0,1,1024,1024,1473,1024,341.6,-12.6,98,3.966,3.957,3.968,3.962,0,0,16.818,75.11,6,P-GPS,
0.30753421708215,36.8793964040218,5875.6911187964,66.601052,0,1.73703089548,15800,2018-03-31 05:44:56,18,0,15.821,5875.6911187964,66.601052,0.223694,1.80940622588,0,0,-6.487126,341.2, 4.3, 0,0,1,1024,1024,1469,1024,341.6,-13.2,98,3.987,3.982,3.984,3.968,0,0,14.186,75.11,6,P-GPS,
0.30753421112001,36.8793964081152,5876.6753707964,67.585304,0,1.73479664344,15900,2018-03-31 05:44:56,18,0,15.821,5876.6753707964,67.585304,0.223694,1.80940622588,0,0,-6.487126,341.2, 4.2, 0,0,1,1024,1024,1466,1024,341.6,-13.9,98,3.987,3.982,3.984,3.968,0,0,14.186,75.11,6,P-GPS,
0.307534201483692,36.8793964325691,5877.6596227964,68.569556,0,1.7309547798,16000,2018-03-31 05:44:56,19,0,15.821,5877.6596227964,68.569556,0.223694,1.80940622588,0,0,-6.487126,341.2, 4.5, 0.2,0,1,1024,1024,1466,1024,341.6,-14.6,98,3.987,3.982,3.984,3.968,0,0,14.186,75.11,6,P-GPS,
0.307534215112954,36.8793964620586,5878.6438747964,69.553808,0,1.73558732588,16100,2018-03-31 05:44:56,19,0,15.821,5878.6438747964,69.553808,0.223694,1.80940622588,0,0,-6.263432,341.2, 4.8, 0.2,0,1,1024,1024,1466,1024,341.6,-15.3,98,3.987,3.982,3.984,3.968,0,0,14.186,75.11,6,P-GPS,
0.307534214175378,36.8793965205653,5879.6281267964,70.53806,0,1.73477039672,16200,2018-03-31 05:44:56,18,0,15.821,5879.6281267964,70.53806,0.223694,1.80940622588,0,0,-6.263432,341.2, 4.7, -0.1,0,1,1024,1024,1463,1024,341.6,-16.1,98,3.987,3.982,3.984,3.968,0,0,14.186,75.11,6,P-GPS,
0.30753422566344,36.8793965770818,5880.2842947964,71.194228,0,1.73875661732,16300,2018-03-31 05:44:56,18,0,15.821,5880.2842947964,71.194228,0.223694,1.80940622588,0,0,-6.263432,341.2, 4.6, -0.4,0,1,1024,1024,1462,1024,341.6,-17,98,3.987,3.982,3.984,3.968,0,0,14.186,75.11,6,P-GPS,
0.307534214768742,36.8793966422778,5881.2685467964,72.17848,0,1.73484585604,16400,2018-03-31 05:44:56,19,0,15.821,5881.2685467964,72.17848,0.223694,1.80940622588,0,0,-6.039738,341.2, 4.7, -0.3,0,1,1024,1024,1460,1024,341.6,-17.8,98,3.987,3.982,3.984,3.968,0,0,14.186,75.11,6,P-GPS,
0.307534215743976,36.8793966936761,5882.2527987964,73.162732,0,1.73548561984,16500,2018-03-31 05:44:57,19,0,15.821,5882.2527987964,73.162732,0.223694,1.80940622588,0,0,-6.039738,341.2, 4.8, -0.2,0,1,1024,1024,1459,1024,341.6,-18.6,98,3.987,3.982,3.984,3.968,0,0,14.186,75.11,6,P-GPS,
0.307534226895968,36.8793967097392,5883.2370507964,74.146984,0,1.7396818142,16600,2018-03-31 05:44:57,19,0,15.821,5883.2370507964,74.146984,0.223694,1.80940622588,0,0,-6.039738,341.2, 4.6, 0,0,1,1024,1024,1460,1024,341.6,-19.4,98,3.987,3.982,3.984,3.968,0,0,14.186,75.11,6,P-GPS,
0.307534242999447,36.8793967247746,5884.2213027964,75.131236,0,1.74569231308,16700,2018-03-31 05:44:57,19,0,15.794,5884.2213027964,75.131236,0.223694,1.80940622588,0,0,-6.039738,341.2, 4.6, 0.4,0,1,1024,1024,1459,1024,341.6,-21,98,3.986,3.982,3.986,3.971,0,0,14.612,75.11,6,P-GPS,
0.307534245431325,36.879396816013,5885.8617227964,76.771656,0,1.74778876984,16900,2018-03-31 05:44:57,19,0,15.794,5885.8617227964,76.771656,0.223694,1.80940622588,0,0,-6.039738,341.2, 4.4, -0.1,0,1,1024,1024,1458,1024,341.6,-21.7,98,3.986,3.982,3.986,3.971,0,0,14.612,75.11,6,P-GPS,
0.307534234883486,36.8793968762231,5886.8459747964,77.755908,0,1.74509191936,17000,2018-03-31 05:44:57,19,0,15.794,5886.8459747964,77.755908,0.223694,1.80940622588,0,0,-6.039738,341.2, 4.3, 0,0,1,1024,1024,1455,1024,341.6,-22.4,98,3.986,3.982,3.986,3.971,0,0,14.612,75.11,6,P-GPS,
0.307534234030995,36.879396936845,5887.8302267964,78.74016,0,1.74621396664,17100,2018-03-31 05:44:57,19,0,15.794,5887.8302267964,78.74016,0.223694,1.80940622588,0,0,-6.039738,341.2, 4, -0.2,0,1,1024,1024,1456,1024,341.6,-22.8,98,3.986,3.982,3.986,3.971,0,0,14.612,75.11,6,P-GPS,
0.307534231034048,36.8793970315837,5888.8144787964,79.724412,0,1.74792328428,17200,2018-03-31 05:44:57,19,0,15.794,5888.8144787964,79.724412,0.223694,1.80940622588,0,0,-6.039738,341.2, 4.1, -0.3,0,1,1024,1024,1456,1024,341.6,-22.8,98,3.986,3.982,3.986,3.971,0,0,14.612,75.11,6,P-GPS,
0.307534245265427,36.8793971079337,5889.4706467964,80.38058,0,1.75583338952,17300,2018-03-31 05:44:57,19,0,15.794,5889.4706467964,80.38058,0.223694,1.80940622588,0,0,-5.816044,341.2, 4.3, 0,0,1,1024,1024,1455,1024,341.6,-22.8,98,3.986,3.982,3.986,3.971,0,0,14.612,75.11,6,P-GPS,
0.307534254922711,36.8793971780264,5890.4548987964,81.364832,0,1.76223430836,17400,2018-03-31 05:44:57,19,0,15.794,5890.4548987964,81.364832,0.223694,1.80940622588,0,0,-5.816044,341.2, 4.5, -0.1,0,1,1024,1024,1456,1024,341.6,-22.8,98,3.986,3.982,3.986,3.971,0,0,14.612,75.11,6,P-GPS,
0.307534270017979,36.8793972438677,5891.4391507964,82.349084,0,1.77074480732,17500,2018-03-31 05:44:57,19,0,15.794,5891.4391507964,82.349084,0.223694,1.80940622588,0,0,-5.816044,341.2, 4.4, -0.1,0,1,1024,1024,1456,1024,341.6,-22.8,98,3.986,3.982,3.986,3.971,0,0,14.612,75.11,6,P-GPS,
0.307534300436906,36.8793973097358,5892.4234027964,83.333336,0,1.7850886398,17600,2018-03-31 05:44:58,19,0,15.794,5892.4234027964,83.333336,0.223694,1.80940622588,0,0,-6.039738,341.2, 4.2, -0.2,0,1,1024,1024,1481,1023,341.6,-22.8,98,3.986,3.982,3.986,3.971,0,0,14.612,75.11,6,P-GPS,
0.30753433438976,36.8793973718222,5893.4076547964,84.317588,0,1.80076449332,17700,2018-03-31 05:44:58,19,0,15.794,5893.4076547964,84.317588,0.223694,1.80940622588,0,0,-6.039738,341.2, 4.3, -0.2,0,1,1024,1024,1479,1023,341.6,-22.8,98,3.986,3.982,3.986,3.971,0,0,14.612,75.11,6,P-GPS,
0.307534350963045,36.8793974639318,5894.3919067964,85.30184,0,1.81229992676,17800,2018-03-31 05:44:58,19,0,15.847,5894.3919067964,85.30184,0.223694,1.81229992676,0,0,-6.263432,341.2, 4.4, -0.1,0,1,1024,1024,1484,1024,341.6,-22.8,98,3.986,3.982,3.986,3.971,0,0,14.612,75.11,6,P-GPS,
0.30753436891664,36.8793975495501,5895.3761587964,86.286092,0,1.82444559644,17900,2018-03-31 05:44:58,19,0,15.847,5895.3761587964,86.286092,0.223694,1.82444559644,0,0,-6.263432,341.2, 4.4, -0.3,0,1,1024,1024,1501,1024,341.6,-22.8,98,3.986,3.982,3.986,3.971,0,0,14.612,75.11,6,P-GPS,
0.307534366495551,36.8793976258564,5896.3604107964,87.270344,0,1.82909126588,18000,2018-03-31 05:44:58,19,0,15.847,5896.3604107964,87.270344,0.223694,1.82909126588,0,0,-6.487126,341.2, 4.3, -0.5,0,1,1024,1024,1510,1024,341.6,-22.8,98,3.986,3.982,3.986,3.971,0,0,14.612,75.11,6,P-GPS,
0.307534385202709,36.8793977293865,5898.0008307964,88.910764,0,1.84386816924,18200,2018-03-31 05:44:58,19,0,15.847,5898.0008307964,88.910764,0.223694,1.84386816924,0,0,-6.487126,341.2, 4.1, -0.3,0,1,1024,1024,1516,1024,341.6,-22.8,98,3.986,3.982,3.986,3.971,0,0,14.612,75.11,6,P-GPS,
0.307534405135881,36.87939776498,5899.3131667964,90.2231,0,1.85390097796,18300,2018-03-31 05:44:58,19,0,15.847,5899.3131667964,90.2231,0.223694,1.85390097796,0,0,-6.71082,341.2, 4.2, -0.1,0,1,1024,1024,1526,1024,341.6,-22.8,98,3.986,3.982,3.986,3.971,0,0,14.612,75.11,6,P-GPS,
0.307534410140089,36.8793978326122,5900.2974187964,91.207352,0,1.8614994034,18400,2018-03-31 05:44:58,19,0,15.847,5900.2974187964,91.207352,0.223694,1.8614994034,0,0,-6.934514,341.2, 4.2, 0.2,0,1,1024,1024,1521,1024,341.6,-22.8,98,3.986,3.982,3.986,3.971,0,0,14.612,75.11,6,P-GPS,
0.307534416731216,36.8793979035303,5901.2816707964,92.191604,0,1.87026252704,18500,2018-03-31 05:44:58,19,0,15.847,5901.2816707964,92.191604,0.223694,1.87026252704,0,0,-7.381902,341.2, 4.1, 0.1,0,1,1024,1024,1521,1024,341.6,-22.8,98,3.986,3.982,3.986,3.971,0,0,14.612,75.11,6,P-GPS,
0.307534416165943,36.8793979873965,5902.5940067964,93.50394,0,1.87809717296,18600,2018-03-31 05:44:59,19,0,15.847,5902.5940067964,93.50394,0.223694,1.87809717296,0,0,-7.381902,341.2, 4.2, -0.4,0,1,1024,1024,1522,1024,341.6,-22.8,98,3.986,3.982,3.986,3.971,0,0,14.612,75.11,6,P-GPS,
0.307534420588389,36.8793980590367,5903.5782587964,94.488192,0,1.8868767008,18700,2018-03-31 05:44:59,19,0,15.847,5903.5782587964,94.488192,0.223694,1.8868767008,0,0,-7.381902,341.2, 4.2, -0.6,0,1,1024,1024,1518,1024,341.6,-22.8,98,3.986,3.982,3.986,3.971,0,0,14.612,75.11,6,P-GPS,
0.307534413991766,36.8793981150682,5904.8905947964,95.800528,0,1.89045609724,18800,2018-03-31 05:44:59,19,0,15.66,5904.8905947964,95.800528,0.223694,1.89045609724,0,0,-7.381902,341.2, 4.2, -0.6,0,1,1024,1024,1516,1024,341.6,-22.8,98,3.981,3.976,3.978,3.962,0,0,14.662,75.11,6,P-GPS,
0.307534411844867,36.8793981580778,5905.8748467964,96.78478,0,1.89436685852,18900,2018-03-31 05:44:59,19,0,15.66,5905.8748467964,96.78478,0.223694,1.89436685852,0,0,-7.381902,341.2, 4.1, -0.3,0,1,1024,1024,1516,1024,341.6,-22.8,98,3.981,3.976,3.978,3.962,0,0,14.662,75.11,6,P-GPS,
0.307534436209239,36.8793981913063,5907.1871827964,98.097116,0,1.9065125282,19000,2018-03-31 05:44:59,19,0,15.66,5907.1871827964,98.097116,0.223694,1.9065125282,0,0,-7.381902,341.2, 4.1, -0.2,0,1,1024,1024,1536,1024,341.6,-22.8,98,3.981,3.976,3.978,3.962,0,0,14.662,75.11,6,P-GPS,
0.30753448374759,36.879398293433,5909.4837707964,100.393704,0,1.93463588868,19200,2018-03-31 05:44:59,19,0,15.66,5909.4837707964,100.393704,0.223694,1.93463588868,0,0,-7.381902,341.2, 4.6, -0.1,0,1,1024,1024,1537,1024,341.6,-22.8,98,3.981,3.976,3.978,3.962,0,0,14.662,75.11,6,P-GPS,
0.307534493813206,36.8793983653549,5910.4680227964,101.377956,0,1.94665688644,19300,2018-03-31 05:44:59,19,0,15.66,5910.4680227964,101.377956,0.223694,1.94665688644,0,0,-7.381902,341.2, 4.5, 0,0,1,1024,1024,1540,1024,341.6,-22.8,98,3.981,3.976,3.978,3.962,0,0,14.662,75.11,6,P-GPS,
0.307534487046003,36.8793984183994,5911.7803587964,102.690292,0,1.9508366766,19400,2018-03-31 05:44:59,19,0,15.66,5911.7803587964,102.690292,0.223694,1.9508366766,0,0,-7.381902,341.2, 4.3, -0.1,0,1,1024,1024,1543,1024,341.6,-22.8,98,3.981,3.976,3.978,3.962,0,0,14.662,75.11,6,P-GPS,
0.307534482005765,36.8793984735645,5912.7646107964,103.674544,0,1.95606305472,19500,2018-03-31 05:44:59,19,0,15.66,5912.7646107964,103.674544,0.223694,1.95606305472,0,0,-7.605596,341.2, 4.2, -0.5,0,1,1024,1024,1544,1024,341.6,-22.8,98,3.981,3.976,3.978,3.962,0,0,14.662,75.11,6,P-GPS,
0.307534470030595,36.8793985647641,5914.0769467964,104.98688,0,1.96389113896,19600,2018-03-31 05:45:00,19,0,15.66,5914.0769467964,104.98688,0.223694,1.96389113896,0,0,-7.605596,341.2, 4.1, -0.6,0,1,1024,1024,1545,1024,341.6,-22.8,98,3.981,3.976,3.978,3.962,0,0,14.662,75.11,6,P-GPS,
0.307534459811499,36.8793986484044,5915.0611987964,105.971132,0,1.97180452504,19700,2018-03-31 05:45:00,19,0,15.66,5915.0611987964,105.971132,0.223694,1.97180452504,0,0,-7.82929,341.2, 4.1, -0.7,0,1,1024,1024,1545,1023,341.5,-22.9,98,3.981,3.976,3.978,3.962,0,0,14.662,75.11,6,P-GPS,
0.307534447699539,36.8793987168742,5916.3735347964,107.283468,0,1.97735570632,19800,2018-03-31 05:45:00,19,0,15.794,5916.3735347964,107.283468,0.223694,1.97735570632,0,0,-7.82929,341.2, 4.2, -0.6,0,1,1024,1024,1545,1023,341.6,-23.3,98,3.96,3.956,3.962,3.948,0,0,16.144,75.11,6,P-GPS,
0.307534437778448,36.8793987691575,5917.6858707964,108.595804,0,1.9815781474,19900,2018-03-31 05:45:00,19,0,15.794,5917.6858707964,108.595804,0.223694,1.9815781474,0,0,-8.052984,341.2, 4.2, -0.4,0,1,1024,1024,1545,1023,341.5,-24.6,98,3.96,3.956,3.962,3.948,0,0,16.144,75.11,6,P-GPS,
0.307534429913674,36.8793988089659,5918.6701227964,109.580056,0,1.9848097748,20000,2018-03-31 05:45:00,19,0,15.794,5918.6701227964,109.580056,0.223694,1.9848097748,0,0,-8.052984,341.2, 3.9, -0.3,0,1,1024,1024,1544,1024,341.6,-26.2,98,3.96,3.956,3.962,3.948,0,0,16.144,75.11,6,P-GPS,
0.307534429536893,36.879398840156,5919.9824587964,110.892392,0,1.98934061484,20100,2018-03-31 05:45:00,19,0,15.794,5919.9824587964,110.892392,0.223694,1.98934061484,0,0,-8.052984,341.2, 3.8, -0.5,0,1,1024,1024,1540,1024,341.5,-28.1,98,3.96,3.956,3.962,3.948,0,0,16.144,75.11,6,P-GPS,
0.307534449182441,36.879398825363,5921.2947947964,112.204728,0,1.9936680428,20200,2018-03-31 05:45:00,19,0,15.794,5921.2947947964,112.204728,0.223694,1.9936680428,0,0,-8.052984,341.3, 4.2, -0.3,0,1,1024,1024,1540,1023,341.6,-30.3,98,3.96,3.956,3.962,3.948,0,0,16.144,75.11,6,P-GPS,
0.30753448119134,36.8793988038355,5922.6071307964,113.517064,0,2.00116148136,20300,2018-03-31 05:45:00,19,0,15.794,5922.6071307964,113.517064,0.223694,2.00116148136,0,0,-8.052984,341.3, 4.4, 0,0,1,1024,1024,1530,1024,341.6,-34.7,98,3.96,3.956,3.962,3.948,0,0,16.144,75.11,6,P-GPS,
0.307534521907529,36.8793987402951,5924.9037187964,115.813652,0,2.00561686208,20500,2018-03-31 05:45:00,19,0,15.794,5924.9037187964,115.813652,0.223694,2.00561686208,0,0,-7.82929,341.3, 5.1, 0,0,1,1024,1024,1522,1024,341.6,-34.7,98,3.96,3.956,3.962,3.948,0,0,16.144,75.11,6,P-GPS,
0.307534576445543,36.8793987275029,5926.2160547964,117.125988,0,2.02215557652,20600,2018-03-31 05:45:01,19,0,15.794,5926.2160547964,117.125988,0.223694,2.02215557652,0,0,-7.82929,341.3, 5.5, 0,0,1,1024,1024,1522,1024,341.5,-35.9,98,3.96,3.956,3.962,3.948,0,0,16.144,75.11,6,P-GPS,
0.307534636076109,36.8793987279148,5927.2003067964,118.11024,0,2.04231305748,20700,2018-03-31 05:45:01,19,0,15.794,5927.2003067964,118.11024,0.223694,2.04231305748,0,0,-7.605596,341.2, 5.5, -0.2,0,1,1024,1024,1522,1023,341.5,-35.9,98,3.96,3.956,3.962,3.948,0,0,16.144,75.11,6,P-GPS,
0.307534698721332,36.8793987709643,5928.5126427964,119.422576,0,2.06943576176,20800,2018-03-31 05:45:01,19,0,15.66,5928.5126427964,119.422576,0.223694,2.06943576176,0,0,-7.605596,341.2, 5.6, -0.5,0,1,1024,1024,1526,1024,341.5,-35.9,97,3.949,3.943,3.954,3.94,0,0,16.094,75.11,6,P-GPS,
0.307534760690547,36.8793988148987,5929.4968947964,120.406828,0,2.0964731642,20900,2018-03-31 05:45:01,19,0,15.66,5929.4968947964,120.406828,0.223694,2.0964731642,0,0,-7.381902,341.2, 5.7, -0.5,0,1,1024,1024,1528,1023,341.5,-35.9,97,3.949,3.943,3.954,3.94,0,0,16.094,75.11,6,P-GPS,
0.307534808021271,36.8793988507824,5930.8092307964,121.719164,0,2.11746397852,21000,2018-03-31 05:45:01,19,0,15.66,5930.8092307964,121.719164,0.223694,2.11746397852,0,0,-7.381902,341.3, 5.8, -0.5,0,1,1024,1024,1534,1023,341.5,-35.9,97,3.949,3.943,3.954,3.94,0,0,16.094,75.11,6,P-GPS,
0.30753484710067,36.8793988858036,5931.7934827964,122.703416,0,2.13557421532,21100,2018-03-31 05:45:01,19,0,15.66,5931.7934827964,122.703416,0.223694,2.13557421532,0,0,-7.381902,341.3, 5.7, -0.5,0,1,1024,1024,1534,1023,341.5,-35.9,97,3.949,3.943,3.954,3.94,0,0,16.094,75.11,6,P-GPS,
0.307534867567158,36.8793989425346,5933.1058187964,124.015752,0,2.15060374336,21200,2018-03-31 05:45:01,19,0,15.66,5933.1058187964,124.015752,0.223694,2.15060374336,0,0,-7.381902,341.3, 5.4, -0.7,0,1,1024,1024,1544,1022,341.5,-35.9,97,3.949,3.943,3.954,3.94,0,0,16.094,75.11,6,P-GPS,
0.3075348808575,36.8793989973408,5934.0900707964,125.000004,0,2.16307093536,21300,2018-03-31 05:45:01,19,0,15.66,5934.0900707964,125.000004,0.223694,2.16307093536,0,0,-7.605596,341.2, 5.1, -0.9,0,1,1024,1024,1557,1023,341.5,-35.9,97,3.949,3.943,3.954,3.94,0,0,16.094,75.11,6,P-GPS,
0.307534895523674,36.8793990549125,5935.4024067964,126.31234,0,2.17653550272,21400,2018-03-31 05:45:01,19,0,15.66,5935.4024067964,126.31234,0.223694,2.17653550272,0,0,-7.605596,341.2, 4.8, -0.9,0,1,1024,1024,1558,1024,341.5,-35.9,97,3.949,3.943,3.954,3.94,0,0,16.094,75.11,6,P-GPS,
0.307534909764213,36.8793990953161,5936.3866587964,127.296592,0,2.18737539808,21500,2018-03-31 05:45:01,19,0,15.66,5936.3866587964,127.296592,0.223694,2.18737539808,0,0,-7.82929,341.2, 4.7, -0.4,0,1,1024,1024,1556,1024,341.5,-35.9,97,3.949,3.943,3.954,3.94,0,0,16.094,75.11,6,P-GPS,
0.307534910418237,36.8793991048396,5937.6989947964,128.608928,0,2.1890420648,21600,2018-03-31 05:45:02,19,0,15.66,5937.6989947964,128.608928,0.223694,2.1890420648,0,0,-8.052984,341.2, 4.9, -0.5,0,1,1024,1024,1554,1024,341.5,-35.9,97,3.949,3.943,3.954,3.94,0,0,16.094,75.11,6,P-GPS,
0.307534914313068,36.8793991171885,5939.0113307964,129.921264,0,2.19221791792,21700,2018-03-31 05:45:02,19,0,15.66,5939.0113307964,129.921264,0.223694,2.19221791792,0,0,-8.052984,341.3, 4.9, -0.7,0,1,1024,1024,1553,1024,341.5,-35.9,97,3.949,3.943,3.954,3.94,0,0,16.094,75.11,6,P-GPS,
0.307534904419864,36.8793991401354,5940.3236667964,131.2336,0,2.19247382344,21800,2018-03-31 05:45:02,19,0,15.767,5940.3236667964,131.2336,0.223694,2.19247382344,0,0,-8.052984,341.3, 5, -0.5,0,1,1024,1024,1555,1024,341.5,-35.9,97,3.949,3.943,3.954,3.94,0,0,16.094,75.11,6,P-GPS,
0.307534896538195,36.8793991611639,5941.6360027964,132.545936,0,2.19312999144,21900,2018-03-31 05:45:02,19,0,15.767,5941.6360027964,132.545936,0.223694,2.19312999144,0,0,-8.276678,341.3, 5, -0.5,0,1,1024,1024,1558,1024,341.5,-35.9,97,3.949,3.943,3.954,3.94,0,0,16.094,75.11,6,P-GPS,
0.307534878280691,36.8793991622692,5942.9483387964,133.858272,0,2.18728025372,22000,2018-03-31 05:45:02,19,0,15.767,5942.9483387964,133.858272,0.223694,2.19312999144,0,0,-8.276678,341.3, 4.9, -0.4,0,1,1024,1024,1573,1024,341.5,-35.9,97,3.949,3.943,3.954,3.94,0,0,16.094,75.11,6,P-GPS,
0.307534863139012,36.8793991634651,5943.9325907964,134.842524,0,2.18247382312,22100,2018-03-31 05:45:02,19,0,15.767,5943.9325907964,134.842524,0.223694,2.19312999144,0,0,-8.052984,341.3, 4.8, -0.1,0,1,1024,1024,1601,1024,341.5,-35.9,97,3.949,3.943,3.954,3.94,0,0,16.094,75.11,6,P-GPS,
0.307534850071156,36.8793991595161,5945.2449267964,136.15486,0,2.17754928228,22200,2018-03-31 05:45:02,19,0,15.767,5945.2449267964,136.15486,0.223694,2.19312999144,0,0,-8.276678,341.3, 4.7, -0.2,0,1,1024,1024,1612,1024,341.5,-35.9,97,3.949,3.943,3.954,3.94,0,0,16.094,75.11,6,P-GPS,
0.307534842410752,36.8793991639481,5946.5572627964,137.467196,0,2.1757218544,22300,2018-03-31 05:45:02,19,0,15.767,5946.5572627964,137.467196,0.223694,2.19312999144,0,0,-8.276678,341.3, 4.4, -0.3,0,1,1024,1024,1612,1024,341.5,-35.9,97,3.949,3.943,3.954,3.94,0,0,16.094,75.11,6,P-GPS,
