latitude,longitude,altitude(feet),ascent(feet),speed(mph),distance(feet),time(millisecond),datetime(utc),satellites,gpslevel,voltage(v),max_altitude(feet),max_ascent(feet),max_speed(mph),max_distance(feet), xSpeed(mph), ySpeed(mph), zSpeed(mph), compass_heading(degrees), pitch(degrees), roll(degrees),isPhoto,isVideo,rc_elevator,rc_aileron,rc_throttle,rc_rudder,gimbal_heading(degrees),gimbal_pitch(degrees),battery_percent,voltageCell1,voltageCell2,voltageCell3,voltageCell4,voltageCell5,voltageCell6,current(A),battery_temperature(f),flycStateRaw,flycState,message
0.339158783600354,36.9100267976969,5401.1561403567,0,0,0,0,2018-04-06 07:01:54,17,0,0,5401.1561403567,0,0,0,0,0,0,214.2, 2.9, 0.9,0,0,364,364,364,1684,0,0,98,4.286,4.286,4.285,4.286,0,0,0,87.71,6,P-GPS,
0.339158772386888,36.9100268080337,5401.1561403567,0,0,0.0055642390232,100,2018-04-06 07:01:54,17,0,0,5401.1561403567,0,0,0.0055642390232,0,0,0,214.2, 2.9, 0.9,0,0,364,364,364,1684,218.7,0,98,4.286,4.286,4.285,4.286,0,0,0,87.71,41,Motors_Started,
0.339158760489476,36.9100268293775,5401.1561403567,0,0,0.0143072183056,200,2018-04-06 07:01:54,17,0,0,5401.1561403567,0,0,0.0143072183056,0,0,0,214.2, 2.9, 0.9,0,0,364,364,364,1684,218.7,0,98,4.286,4.286,4.285,4.286,0,0,0,87.71,41,Motors_Started,
0.339158752707143,36.9100268622508,5401.1561403567,0,0,0.0261102042476,300,2018-04-06 07:01:54,17,0,0,5401.1561403567,0,0,0.0261102042476,0,0,0,214.2, 2.9, 0.9,0,0,364,364,364,1684,218.7,0,98,4.286,4.286,4.285,4.286,0,0,0,87.71,41,Motors_Started,
0.339158745703205,36.9100269094971,5401.1561403567,0,0,0.0430692271,400,2018-04-06 07:01:54,18,0,0,5401.1561403567,0,0,0.0430692271,0,0,0,214.2, 2.9, 0.9,0,0,364,364,364,1684,218.7,0,98,4.286,4.286,4.285,4.286,0,0,0,87.71,41,Motors_Started,
0.339158741257553,36.9100269571385,5401.1561403567,0,0,0.060187665968,500,2018-04-06 07:01:55,18,0,17.125,5401.1561403567,0,0,0.060187665968,0,0,0,214.2, 2.9, 0.9,0,0,364,364,364,1684,218.7,0,98,4.286,4.286,4.285,4.286,0,0,1.472,87.71,41,Motors_Started,Setting new Return-To-Home altitude to 45m (148 ft). Setting new Maximum Flight Altitude to 150m (492 ft)
0.339158738293785,36.9100270069168,5401.1561403567,0,0,0.078101708536,600,2018-04-06 07:01:55,18,0,17.125,5401.1561403567,0,0,0.078101708536,0,0,0,214.2, 2.9, 0.9,0,0,364,364,364,1684,218.7,0,98,4.286,4.286,4.285,4.286,0,0,1.472,87.71,41,Motors_Started,
0.33915873537887,36.9100270327668,5401.1561403567,0,0,0.087549543484,700,2018-04-06 07:01:55,18,0,17.125,5401.1561403567,0,0,0.087549543484,0,0,0,214.2, 2.9, 0.9,0,0,364,364,364,1684,218.7,0,98,4.286,4.286,4.285,4.286,0,0,1.472,87.71,41,Motors_Started,
0.339158719823973,36.9100270686464,5401.1561403567,0,0,0.101555777528,800,2018-04-06 07:01:55,18,0,17.125,5401.1561403567,0,0,0.101555777528,0,0,0,214.2, 2.9, 0.9,0,0,364,364,364,1684,218.7,0,98,4.286,4.286,4.285,4.286,0,0,1.472,87.71,41,Motors_Started,
0.339158688274499,36.910027108726,5401.1561403567,0,0,0.118687011672,900,2018-04-06 07:01:55,18,0,17.125,5401.1561403567,0,0,0.118687011672,0,0,0,214.2, 2.9, 0.9,0,0,364,364,364,1684,218.7,0,98,4.286,4.286,4.285,4.286,0,0,1.472,87.71,41,Motors_Started,
0.339158655646995,36.9100271460199,5401.1561403567,0,0,0.135386487272,1000,2018-04-06 07:01:55,18,0,17.125,5401.1561403567,0,0,0.135386487272,0,0,0,214.2, 2.9, 0.9,0,0,364,364,364,1684,218.7,0,98,4.286,4.286,4.285,4.286,0,0,1.472,87.71,41,Motors_Started,
0.339158636068213,36.9100271667534,5401.1561403567,0,0,0.14500820674,1100,2018-04-06 07:01:55,18,0,17.125,5401.1561403567,0,0,0.14500820674,0,0,0,214.1, 2.9, 0.9,0,0,364,364,364,1684,218.7,0,98,4.286,4.286,4.285,4.286,0,0,1.472,87.71,41,Motors_Started,
0.339158620539371,36.9100271956194,5401.1561403567,0,0,0.156896002396,1200,2018-04-06 07:01:55,18,0,17.125,5401.1561403567,0,0,0.156896002396,0,0,0,214.2, 2.9, 0.9,0,0,364,364,364,1684,218.7,0,98,4.286,4.286,4.285,4.286,0,0,1.472,87.71,41,Motors_Started,
0.339158609154919,36.9100272314733,5401.1561403567,0,0,0.1705790737,1300,2018-04-06 07:01:55,18,0,17.125,5401.1561403567,0,0,0.1705790737,0,0,0,214.2, 2.9, 0.9,0,0,364,364,364,1684,218.7,0,98,4.286,4.286,4.285,4.286,0,0,1.472,87.71,41,Motors_Started,
0.33915860451711,36.9100272639665,5401.1561403567,0,0,0.182231305044,1400,2018-04-06 07:01:56,18,0,17.125,5401.1561403567,0,0,0.182231305044,0,0,0,214.2, 2.9, 0.9,0,0,364,364,364,1684,218.7,0,98,4.286,4.286,4.285,4.286,0,0,1.472,87.71,41,Motors_Started,
0.339158600296183,36.9100272821124,5401.1561403567,0,0,0.188966213396,1500,2018-04-06 07:01:56,18,0,17.098,5401.1561403567,0,0,0.188966213396,0,0,0,214.2, 2.9, 0.9,0,0,364,364,425,1634,218.7,0,98,4.286,4.286,4.285,4.286,0,0,2.78,87.71,41,Motors_Started,
0.339158585519683,36.9100272923261,5401.1561403567,0,0,0.194395019344,1600,2018-04-06 07:01:56,18,0,17.098,5401.1561403567,0,0,0.194395019344,0,0,0,214.2, 2.9, 0.9,0,0,751,661,824,1167,218.7,0,98,4.286,4.286,4.285,4.286,0,0,2.78,87.71,10,Assisted_Takeoff,
0.33915855479583,36.9100272950015,5401.1561403567,0,0,0.199721135,1700,2018-04-06 07:01:56,18,0,17.098,5401.1561403567,0,0,0.199721135,0,0,0,214.3, 2.8, 0.9,0,0,1022,988,1004,1024,218.2,0,98,4.286,4.286,4.285,4.286,0,0,2.78,87.71,10,Assisted_Takeoff,
0.339158526190583,36.9100273058116,5401.1561403567,0,0,0.207813983028,1800,2018-04-06 07:01:56,18,0,17.098,5401.1561403567,0,0,0.207813983028,0,0,0,214.2, 2.9, 0.9,0,0,1024,1024,1024,1024,216.5,0,98,4.286,4.286,4.285,4.286,0,0,2.78,87.71,10,Assisted_Takeoff,
0.339158507834762,36.9100273309218,5401.1561403567,0,0,0.2190206763,1900,2018-04-06 07:01:56,18,0,17.098,5401.1561403567,0,0,0.2190206763,0,0,0,214.2, 2.9, 0.9,0,0,1024,1024,1024,1024,215.8,0,98,4.286,4.286,4.285,4.286,0,0,2.78,87.71,10,Assisted_Takeoff,
0.339158495740308,36.9100273531521,5401.1561403567,0,0,0.228251975808,2000,2018-04-06 07:01:56,18,0,17.098,5401.1561403567,0,0,0.228251975808,0,0,0,214.2, 2.9, 0.9,0,0,1024,1024,1024,1024,215.4,0,98,4.286,4.286,4.285,4.286,0,0,2.78,87.71,10,Assisted_Takeoff,
0.339158486883201,36.9100273640124,5401.1561403567,0,0,0.233259193816,2100,2018-04-06 07:01:56,18,0,17.098,5401.1561403567,0,0,0.233259193816,0,0,0,214.2, 2.9, 0.9,0,0,1024,1024,1024,1024,215.2,0,98,4.286,4.286,4.285,4.286,0,0,2.78,87.71,10,Assisted_Takeoff,
0.339158485634185,36.9100273703333,5401.1561403567,0,0,0.235514443232,2200,2018-04-06 07:01:56,18,0,17.098,5401.1561403567,0,0,0.235514443232,0,0,0,214.2, 2.9, 0.9,0,0,1024,1024,1024,1024,215,0,98,4.286,4.286,4.285,4.286,0,0,2.78,87.71,10,Assisted_Takeoff,
0.339158483434157,36.9100273728568,5401.1561403567,0,0,0.236701779228,2300,2018-04-06 07:01:56,18,0,17.098,5401.1561403567,0,0,0.236701779228,0,0,0,214.2, 2.9, 0.9,0,0,1024,1024,1024,1024,214.9,0,98,4.286,4.286,4.285,4.286,0,0,2.78,87.71,10,Assisted_Takeoff,
0.339158488594696,36.9100273684801,5401.1561403567,0,0,0.234417002252,2400,2018-04-06 07:01:56,18,0,17.098,5401.1561403567,0,0,0.236701779228,0,0,0,214.2, 2.9, 0.9,0,0,1024,1024,1024,1024,214.8,0,98,4.286,4.286,4.285,4.286,0,0,2.78,87.71,10,Assisted_Takeoff,
0.339158491366308,36.9100273656655,5401.1561403567,0,0,0.233040689872,2500,2018-04-06 07:01:57,18,0,16.912,5401.1561403567,0,0,0.236701779228,0,0,0,214.2, 2.9, 0.9,0,0,1024,1024,1025,1024,214.8,0,98,4.266,4.265,4.288,4.284,0,0,2.78,87.71,10,Assisted_Takeoff,
0.339158500462796,36.9100273721352,5401.1561403567,0,0,0.233655847372,2600,2018-04-06 07:01:57,18,0,16.912,5401.1561403567,0,0,0.236701779228,0,0,0,214.2, 2.9, 0.9,0,0,1024,1024,1026,1024,214.7,0,98,4.266,4.265,4.288,4.284,0,0,2.78,87.71,10,Assisted_Takeoff,
0.339158504366176,36.9100273977915,5401.1561403567,0,0,0.24148294736,2700,2018-04-06 07:01:57,18,0,16.912,5401.1561403567,0,0,0.24148294736,0,0,0,214.2, 2.9, 0.9,0,0,1024,1024,1026,1024,214.7,0,98,4.266,4.265,4.288,4.284,0,0,2.78,87.71,10,Assisted_Takeoff,
0.339158512288556,36.910027420753,5401.1561403567,0,0,0.247935375388,2800,2018-04-06 07:01:57,18,0,16.912,5401.1561403567,0,0,0.247935375388,0,0,0,214.2, 2.9, 0.9,0,0,1024,1024,1034,1024,214.6,0,98,4.266,4.265,4.288,4.284,0,0,2.78,87.71,10,Assisted_Takeoff,
0.339158516480171,36.9100274346678,5401.1561403567,0,0,0.252002632736,2900,2018-04-06 07:01:57,18,0,16.912,5401.1561403567,0,0,0.252002632736,0,0,0,214.2, 2.9, 0.9,0,0,1024,1024,1034,1024,214.6,0,98,4.266,4.265,4.288,4.284,0,0,2.78,87.71,10,Assisted_Takeoff,
0.339158524886199,36.9100274444768,5401.1561403567,0,0,0.254151582936,3000,2018-04-06 07:01:57,18,0,16.912,5401.1561403567,0,0,0.254151582936,0,0,0,214.2, 2.9, 0.9,0,0,1024,1024,1107,1024,214.6,0,98,4.266,4.265,4.288,4.284,0,0,2.78,87.71,10,Assisted_Takeoff,
0.339158529330223,36.9100274500343,5401.1561403567,0,0,0.255442265392,3100,2018-04-06 07:01:57,18,0,16.912,5401.1561403567,0,0,0.255442265392,0,0,0,214.2, 2.9, 0.9,0,0,1024,1024,1158,1024,214.6,0,98,4.266,4.265,4.288,4.284,0,0,2.78,87.71,10,Assisted_Takeoff,
0.339158521676536,36.9100274662424,5401.1561403567,0,0,0.261966215732,3200,2018-04-06 07:01:57,18,0,16.912,5401.1561403567,0,0,0.261966215732,0,0,0,214.2, 3, 0.9,0,0,1024,1024,1158,1024,214.6,0,98,4.266,4.265,4.288,4.284,0,0,2.78,87.71,10,Assisted_Takeoff,
0.33915849537228,36.910027498014,5401.1561403567,0,0,0.276300205692,3300,2018-04-06 07:01:57,18,0,16.912,5401.1561403567,0,0,0.276300205692,0,0,0,214.2, 2.9, 0.9,0,0,1024,1024,1257,1024,214.6,0,98,4.266,4.265,4.288,4.284,0,0,2.78,87.71,10,Assisted_Takeoff,
0.33915846726208,36.9100275272879,5401.1561403567,0,0,0.290130914796,3400,2018-04-06 07:01:58,18,0,16.912,5401.1561403567,0,0,0.290130914796,0,0,0,214.2, 3, 0.8,0,0,1024,1024,1257,1024,214.6,0,98,4.266,4.265,4.288,4.284,0,0,2.78,87.71,10,Assisted_Takeoff,
0.339158451977504,36.9100275477195,5401.1561403567,0,0,0.2991962038,3500,2018-04-06 07:01:58,18,0,17.098,5401.1561403567,0,0,0.2991962038,0,0,0,214.3, 3.2, 0.7,0,0,1024,1024,1684,1024,214.5,0,98,4.279,4.281,4.281,4.281,0,0,1.806,87.71,10,Assisted_Takeoff,
0.339158445955518,36.9100275649918,5401.1561403567,0,0,0.305848434984,3600,2018-04-06 07:01:58,18,0,17.098,5401.1561403567,0,0,0.305848434984,0,0,0,214.5, 3.8, 0.5,0,0,1024,1024,1684,1024,214.5,0,98,4.279,4.281,4.281,4.281,0,0,1.806,87.71,10,Assisted_Takeoff,
0.339158484701086,36.910027602518,5401.1561403567,0,0,0.313230324984,3700,2018-04-06 07:01:58,18,0,17.098,5401.1561403567,0,0,0.313230324984,0,0,0,214.6, 4.2, -1.1,0,0,1024,1024,1684,1044,214.5,0,98,4.279,4.281,4.281,4.281,0,0,1.806,87.71,10,Assisted_Takeoff,
0.339158592704378,36.9100277078795,5401.1561403567,0,0.3131716,0.33929791112,3800,2018-04-06 07:01:58,18,0,17.098,5401.1561403567,0,0.3131716,0.33929791112,0.223694,0.223694,-0.447388,214.6, 3.9, -2.2,0,0,1024,1024,1684,1069,214.5,0,98,4.279,4.281,4.281,4.281,0,0,1.806,87.71,6,P-GPS,
0.339158753713521,36.9100279329477,5401.1561403567,0,0.3131716,0.41433072192,3900,2018-04-06 07:01:58,18,0,17.098,5401.1561403567,0,0.3131716,0.41433072192,0.223694,0.671082,-1.11847,214.8, 1.3, -0.8,0,0,1024,1024,1684,1053,214.6,0,98,4.279,4.281,4.281,4.281,0,0,1.806,87.71,6,P-GPS,
0.339158939751848,36.9100282762849,5401.1561403567,0,0.7158208,0.5424540856,4000,2018-04-06 07:01:58,18,0,17.098,5401.1561403567,0,0.7158208,0.5424540856,0.223694,0.671082,-1.789552,215.1, -0.8, 0.5,0,0,1024,1024,1684,1041,214.6,0,98,4.279,4.281,4.281,4.281,0,0,1.806,87.71,6,P-GPS,
0.339159101848792,36.9100286870591,5401.4842243567,0.328084,0.7158208,0.6990321746,4100,2018-04-06 07:01:58,18,0,17.098,5401.4842243567,0.328084,0.7158208,0.6990321746,0.223694,0.671082,-2.460634,215.2, -1.8, 1.5,0,0,1024,1024,1684,1029,214.7,0,98,4.279,4.281,4.281,4.281,0,0,1.806,87.71,6,P-GPS,
0.339159241606741,36.9100291254562,5402.1403923567,0.984252,0.7158208,0.8655512088,4200,2018-04-06 07:01:58,18,0,17.098,5402.1403923567,0.984252,0.7158208,0.8655512088,0.223694,0.671082,-3.35541,215.2, -2.1, 1.8,0,0,1024,1024,1684,1033,214.7,0,98,4.279,4.281,4.281,4.281,0,0,1.806,87.71,6,P-GPS,
0.339159346921472,36.9100295619659,5402.4684763567,1.312336,0.7158208,1.02925200144,4300,2018-04-06 07:01:58,18,0,17.098,5402.4684763567,1.312336,0.7158208,1.02925200144,0.223694,0.671082,-4.250186,215.3, -2.6, 2.5,0,0,1024,1024,1684,1037,214.7,0,98,4.279,4.281,4.281,4.281,0,0,1.806,87.71,6,P-GPS,
0.339159450832483,36.9100300190518,5403.4527283567,2.296588,0.7158208,1.20023625888,4400,2018-04-06 07:01:58,18,0,17.098,5403.4527283567,2.296588,0.7158208,1.20023625888,0.223694,0.671082,-5.144962,215.2, -3.6, 3.6,0,0,1024,1024,1684,1030,214.7,0,98,4.279,4.281,4.281,4.281,0,0,1.806,87.71,6,P-GPS,
0.339159554867256,36.910030412694,5404.1088963567,2.952756,0.447388,1.34859256284,4500,2018-04-06 07:01:59,18,0,17.019,5404.1088963567,2.952756,0.7158208,1.34859256284,0,0.447388,-6.263432,215.2, -3.7, 3.8,0,0,1024,1024,1684,1037,214.7,0,98,4.219,4.219,4.213,4.208,0,0,7.776,87.71,6,P-GPS,
0.339159642308185,36.9100307092334,5405.0931483567,3.937008,0.3131716,1.46108272392,4600,2018-04-06 07:01:59,18,0,17.019,5405.0931483567,3.937008,0.7158208,1.46108272392,0.223694,0.223694,-7.605596,215.1, -2.7, 2.9,0,0,1024,1024,1684,1034,214.8,0,98,4.219,4.219,4.213,4.208,0,0,7.776,87.71,6,P-GPS,Home Point Recorded. RTH Altitude:  45m.
0.339159719960537,36.910030893039,5406.4054843567,5.249344,0.3131716,1.53271658448,4700,2018-04-06 07:01:59,18,0,17.019,5406.4054843567,5.249344,0.7158208,1.53271658448,0.223694,0.223694,-8.724066,215.1, -2.3, 1.3,0,0,1024,1024,1684,1036,214.8,0,98,4.219,4.219,4.213,4.208,0,0,7.776,87.71,6,P-GPS,
0.339159802946043,36.9100310409596,5407.7178203567,6.56168,0.223694,1.59216868612,4800,2018-04-06 07:01:59,18,0,17.019,5407.7178203567,6.56168,0.7158208,1.59216868612,0,0.223694,-9.618842,215.1, -2.5, 0.8,0,0,1024,1024,1684,1037,214.8,0,98,4.219,4.219,4.213,4.208,0,0,7.776,87.71,6,P-GPS,
0.339159877520636,36.9100311693437,5409.3582403567,8.2021,0.223694,1.6441437534,4900,2018-04-06 07:01:59,18,0,17.019,5409.3582403567,8.2021,0.7158208,1.6441437534,0,0.223694,-10.513618,215.2, -2.4, 1.3,0,0,1024,1024,1684,1046,214.8,0,98,4.219,4.219,4.213,4.208,0,0,7.776,87.71,6,P-GPS,
0.339159949538572,36.9100313006163,5410.9986603567,9.84252,0.223694,1.69704073672,5000,2018-04-06 07:01:59,18,0,17.019,5410.9986603567,9.84252,0.7158208,1.69704073672,0,0.223694,-10.961006,215.1, -2.3, 1.9,0,0,1024,1024,1684,1045,214.8,0,98,4.219,4.219,4.213,4.208,0,0,7.776,87.71,6,P-GPS,
0.339160013925619,36.9100314562797,5412.6390803567,11.48294,0.223694,1.75792656544,5100,2018-04-06 07:01:59,18,0,17.019,5412.6390803567,11.48294,0.7158208,1.75792656544,0,0.223694,-11.408394,215.1, -2.6, 2.1,0,0,1024,1024,1684,1048,214.8,0,98,4.219,4.219,4.213,4.208,0,0,7.776,87.71,6,P-GPS,
0.339160106220939,36.9100316034349,5414.2795003567,13.12336,0.223694,1.81853352276,5200,2018-04-06 07:01:59,18,0,17.019,5414.2795003567,13.12336,0.7158208,1.81853352276,0,0.223694,-11.632088,215, -3.4, 1.9,0,0,1024,1024,1684,1047,214.8,0,98,4.219,4.219,4.213,4.208,0,0,7.776,87.71,6,P-GPS,
0.339160192855789,36.9100317347899,5415.9199203567,14.76378,0,1.8732120022,5300,2018-04-06 07:01:59,18,0,17.019,5415.9199203567,14.76378,0.7158208,1.8732120022,0,0,-11.632088,215, -3.4, 1.7,0,0,1024,1024,1684,1045,214.8,0,98,4.219,4.219,4.213,4.208,0,0,7.776,87.71,6,P-GPS,
0.339160271113922,36.9100318602811,5417.5603403567,16.4042,0,1.9251312952,5400,2018-04-06 07:02:00,18,0,17.019,5417.5603403567,16.4042,0.7158208,1.9251312952,0,0,-11.408394,215.1, -2.7, 2.4,0,0,1024,1024,1684,1044,214.8,0,98,4.219,4.219,4.213,4.208,0,0,7.776,87.71,6,P-GPS,
0.339160335354409,36.9100319814771,5419.2007603567,18.04462,0,1.97418969572,5500,2018-04-06 07:02:00,18,0,16.381,5419.2007603567,18.04462,0.7158208,1.97418969572,0,0,-11.1847,215.2, -2.5, 2,0,0,1024,1024,1684,1040,214.8,0,98,4.219,4.219,4.213,4.208,0,0,7.776,87.71,6,P-GPS,
0.339160422529901,36.9100321048389,5420.8411803567,19.68504,0,2.02650268952,5600,2018-04-06 07:02:00,18,0,16.381,5420.8411803567,19.68504,0.7158208,2.02650268952,0,0,-10.961006,215.2, -2.8, 1.5,0,0,1024,1024,1684,1040,214.8,0,98,4.219,4.219,4.213,4.208,0,0,7.776,87.71,6,P-GPS,
0.339160502098932,36.9100322434688,5422.4816003567,21.32546,0,2.08343510604,5700,2018-04-06 07:02:00,18,0,16.381,5422.4816003567,21.32546,0.7158208,2.08343510604,0,0,-10.737312,215.2, -3.3, 1.8,0,0,1024,1024,1684,1040,214.8,0,98,4.219,4.219,4.213,4.208,0,0,7.776,87.71,6,P-GPS,
0.339160579972752,36.910032372689,5424.1220203567,22.96588,0,2.13698497652,5800,2018-04-06 07:02:00,18,0,16.381,5424.1220203567,22.96588,0.7158208,2.13698497652,0,0,-10.513618,215.1, -3.9, 1.6,0,0,1024,1024,1684,1042,214.8,0,98,4.219,4.219,4.213,4.208,0,0,7.776,87.71,6,P-GPS,
0.339160630151626,36.910032472995,5425.4343563567,24.278216,0,2.17744101456,5900,2018-04-06 07:02:00,18,0,16.381,5425.4343563567,24.278216,0.7158208,2.17744101456,0,0,-10.513618,215.1, -3.7, 1.5,0,0,1024,1024,1684,1042,214.8,0,98,4.219,4.219,4.213,4.208,0,0,7.776,87.71,6,P-GPS,
0.339160634432805,36.9100325584902,5427.0747763567,25.918636,0,2.20759849584,6000,2018-04-06 07:02:00,18,0,16.381,5427.0747763567,25.918636,0.7158208,2.20759849584,0,0,-10.513618,215.1, -3, 1,0,0,1024,1024,1684,1042,214.8,0,98,4.219,4.219,4.213,4.208,0,0,7.776,87.71,6,P-GPS,
0.339160593736361,36.9100326508266,5428.7151963567,27.559056,0,2.23526581956,6100,2018-04-06 07:02:00,18,0,16.381,5428.7151963567,27.559056,0.7158208,2.23526581956,0,0,-10.513618,215.1, -2.7, 1.2,0,0,1024,1024,1684,1040,214.8,0,98,4.219,4.219,4.213,4.208,0,0,7.776,87.71,6,P-GPS,
0.339160531974366,36.9100327329044,5430.3556163567,29.199476,0,2.25742133208,6200,2018-04-06 07:02:00,18,0,16.381,5430.3556163567,29.199476,0.7158208,2.25742133208,0,0,-10.513618,215.2, -1.9, 1.5,0,0,1024,1024,1684,1037,214.8,0,98,4.219,4.219,4.213,4.208,0,0,7.776,87.71,6,P-GPS,
0.339160489230967,36.9100328044901,5431.6679523567,30.511812,0,2.27817592592,6300,2018-04-06 07:02:00,18,0,16.381,5431.6679523567,30.511812,0.7158208,2.27817592592,0,0,-10.513618,215.1, -2.2, 2.1,0,0,1024,1024,1684,1033,214.8,0,98,4.219,4.219,4.213,4.208,0,0,7.776,87.71,6,P-GPS,
0.339160447388099,36.9100328758124,5433.3083723567,32.152232,0,2.29914049352,6400,2018-04-06 07:02:00,18,0,16.381,5433.3083723567,32.152232,0.7158208,2.29914049352,0,0,-10.513618,215, -2.7, 1.8,0,0,1024,1024,1684,1030,214.8,0,98,4.219,4.219,4.213,4.208,0,0,7.776,87.71,6,P-GPS,
0.339160382315477,36.9100329527769,5434.9487923567,33.792652,0,2.32015427372,6500,2018-04-06 07:02:01,18,0,16.647,5434.9487923567,33.792652,0.7158208,2.32015427372,0,0,-10.513618,215.1, -2.3, 1.6,0,0,1024,1024,1684,1026,214.8,0,98,4.151,4.157,4.157,4.155,0,0,22.878,87.71,6,P-GPS,
0.339160283299568,36.9100330354071,5436.2611283567,35.104988,0,2.34063655784,6600,2018-04-06 07:02:01,18,0,16.647,5436.2611283567,35.104988,0.7158208,2.34063655784,0,0,-10.513618,215.1, -2, 2.1,0,0,1024,1024,1684,1031,214.8,0,98,4.151,4.157,4.157,4.155,0,0,22.878,87.71,6,P-GPS,
0.339160182581935,36.9100331258999,5437.9015483567,36.745408,0,2.36454731976,6700,2018-04-06 07:02:01,18,0,16.647,5437.9015483567,36.745408,0.7158208,2.36454731976,0,0,-10.513618,215.1, -2.5, 1.8,0,0,1024,1024,1684,1030,214.8,0,98,4.151,4.157,4.157,4.155,0,0,22.878,87.71,6,P-GPS,
0.339160076355277,36.9100332145834,5439.5419683567,38.385828,0,2.38819561448,6800,2018-04-06 07:02:01,18,0,16.647,5439.5419683567,38.385828,0.7158208,2.38819561448,0,0,-10.513618,215.1, -2.6, 1.8,0,0,1024,1024,1684,1037,214.8,0,98,4.151,4.157,4.157,4.155,0,0,22.878,87.71,6,P-GPS,
0.339159979510084,36.9100333024467,5441.1823883567,40.026248,0,2.41298892236,6900,2018-04-06 07:02:01,18,0,16.647,5441.1823883567,40.026248,0.7158208,2.41298892236,0,0,-10.513618,215.1, -2.3, 1.9,0,0,1024,1024,1684,1038,214.9,0,98,4.151,4.157,4.157,4.155,0,0,22.878,87.71,6,P-GPS,
0.339159869145549,36.9100333820963,5442.4947243567,41.338584,0,2.43470152148,7000,2018-04-06 07:02:01,18,0,16.647,5442.4947243567,41.338584,0.7158208,2.43470152148,0,0,-10.513618,215.2, -1.8, 2.5,0,0,1024,1024,1684,1040,214.9,0,98,4.151,4.157,4.157,4.155,0,0,22.878,87.71,6,P-GPS,
0.339159768180392,36.9100334343874,5444.1351443567,42.979004,0,2.4478511282,7100,2018-04-06 07:02:01,18,0,16.647,5444.1351443567,42.979004,0.7158208,2.4478511282,0,0,-10.737312,215.2, -1.8, 2.3,0,0,1024,1024,1684,1039,214.9,0,98,4.151,4.157,4.157,4.155,0,0,22.878,87.71,6,P-GPS,
0.339159692964193,36.9100334766896,5445.7755643567,44.619424,0,2.4592684514,7200,2018-04-06 07:02:01,18,0,16.647,5445.7755643567,44.619424,0.7158208,2.4592684514,0,0,-10.737312,215.2, -2.5, 1.4,0,0,1024,1024,1684,1042,214.9,0,98,4.151,4.157,4.157,4.155,0,0,22.878,87.71,6,P-GPS,
0.339159620345361,36.9100335038918,5447.4159843567,46.259844,0,2.46567921276,7300,2018-04-06 07:02:01,18,0,16.647,5447.4159843567,46.259844,0.7158208,2.46567921276,0,0,-10.961006,215.1, -3.3, 1.1,0,0,1024,1024,1684,1042,214.9,0,98,4.151,4.157,4.157,4.155,0,0,22.878,87.71,6,P-GPS,
0.339159533002139,36.910033552076,5449.0564043567,47.900264,0,2.47940952816,7400,2018-04-06 07:02:02,18,0,16.647,5449.0564043567,47.900264,0.7158208,2.47940952816,0,0,-11.1847,215.1, -3.1, 1.2,0,0,1024,1024,1684,1049,214.9,0,98,4.151,4.157,4.157,4.155,0,0,22.878,87.71,6,P-GPS,
0.339159425751189,36.9100336332973,5450.6968243567,49.540684,0,2.50490165496,7500,2018-04-06 07:02:02,18,0,16.435,5450.6968243567,49.540684,0.7158208,2.50490165496,0,0,-11.408394,215.1, -1.9, 2.3,0,0,1024,1024,1684,1073,214.9,0,98,4.155,4.158,4.158,4.154,0,0,18.898,87.71,6,P-GPS,
0.33915932240199,36.9100337154157,5452.6653283567,51.509188,0,2.53152567156,7600,2018-04-06 07:02:02,18,0,16.435,5452.6653283567,51.509188,0.7158208,2.53152567156,0,0,-11.408394,215.1, -1.3, 2.4,0,0,1024,1024,1684,1092,214.9,0,98,4.155,4.158,4.158,4.154,0,0,18.898,87.71,6,P-GPS,
0.339159242959978,36.9100337945578,5454.3057483567,53.149608,0,2.5582513942,7700,2018-04-06 07:02:02,18,0,16.435,5454.3057483567,53.149608,0.7158208,2.5582513942,0,0,-11.632088,215.3, -2.5, 2.5,0,0,1024,1024,1684,1093,215,0,98,4.155,4.158,4.158,4.154,0,0,18.898,87.71,6,P-GPS,
0.339159174496936,36.9100338704238,5456.2742523567,55.118112,0,2.58437344228,7800,2018-04-06 07:02:02,18,0,16.435,5456.2742523567,55.118112,0.7158208,2.58437344228,0,0,-11.632088,215.7, -3.4, 2.7,0,0,1024,1024,1684,1077,215.3,0,98,4.155,4.158,4.158,4.154,0,0,18.898,87.71,6,P-GPS,
0.339159101954641,36.9100339122271,5457.9146723567,56.758532,0,2.59828420388,7900,2018-04-06 07:02:02,18,0,16.435,5457.9146723567,56.758532,0.7158208,2.59828420388,0,0,-11.632088,216.3, -3.4, 2.1,0,0,1024,1024,1684,1067,215.6,0,98,4.155,4.158,4.158,4.154,0,0,18.898,87.71,6,P-GPS,
0.339158997789593,36.9100339404293,5459.8831763567,58.727036,0,2.60714903356,8000,2018-04-06 07:02:02,18,0,16.435,5459.8831763567,58.727036,0.7158208,2.60714903356,0,0,-11.855782,216.9, -2.7, 2.3,0,0,1024,1024,1684,1092,215.7,0,98,4.155,4.158,4.158,4.154,0,0,18.898,87.71,6,P-GPS,
0.339158874750878,36.9100339675116,5461.5235963567,60.367456,0,2.61606963752,8100,2018-04-06 07:02:02,18,0,16.435,5461.5235963567,60.367456,0.7158208,2.61606963752,0,0,-11.855782,217.3, -1.8, 2.3,0,0,1024,1024,1684,1077,215.9,0,98,4.155,4.158,4.158,4.154,0,0,18.898,87.71,6,P-GPS,
0.339158753374805,36.9100339798066,5463.4921003567,62.33596,0,2.62036425708,8200,2018-04-06 07:02:02,18,0,16.435,5463.4921003567,62.33596,0.7158208,2.62036425708,0,0,-11.855782,217.7, -0.9, 2.3,0,0,1024,1024,1684,1053,216.2,0,98,4.155,4.158,4.158,4.154,0,0,18.898,87.71,6,P-GPS,
0.339158673864398,36.9100339832626,5465.1325203567,63.97638,0,2.62190953272,8300,2018-04-06 07:02:02,18,0,16.435,5465.1325203567,63.97638,0.7158208,2.62190953272,0,0,-11.855782,218.3, -1.3, 2.2,0,0,1024,1024,1684,1042,216.4,0,98,4.155,4.158,4.158,4.154,0,0,18.898,87.71,6,P-GPS,
0.339158643787037,36.9100340036942,5467.1010243567,65.944884,0,2.62955388992,8400,2018-04-06 07:02:02,18,0,16.435,5467.1010243567,65.944884,0.7158208,2.62955388992,0,0,-11.855782,218.6, -2.4, 1.9,0,0,1024,1024,1684,1034,216.5,0,98,4.155,4.158,4.158,4.154,0,0,18.898,87.71,6,P-GPS,
0.339158651302306,36.9100340366478,5468.7414443567,67.585304,0,2.64152239424,8500,2018-04-06 07:02:03,18,0,16.541,5468.7414443567,67.585304,0.7158208,2.64152239424,0,0,-11.632088,218.7, -3.2, 1.7,0,0,1024,1024,1684,1041,216.5,0,98,4.154,4.157,4.156,4.153,0,0,18.414,89.51,6,P-GPS,
0.339158653269467,36.9100340508699,5470.7099483567,69.553808,0,2.64669627892,8600,2018-04-06 07:02:03,18,0,16.541,5470.7099483567,69.553808,0.7158208,2.64669627892,0,0,-11.632088,218.7, -2.8, 1.6,0,0,1024,1024,1684,1041,216.6,0,98,4.154,4.157,4.156,4.153,0,0,18.414,89.51,6,P-GPS,
0.339158637483331,36.9100340327893,5472.3503683567,71.194228,0,2.64021005824,8700,2018-04-06 07:02:03,18,0,16.541,5472.3503683567,71.194228,0.7158208,2.64669627892,0,0,-11.632088,218.7, -2.2, 1.5,0,0,1024,1024,1684,1044,216.7,0,98,4.154,4.157,4.156,4.153,0,0,18.414,89.51,6,P-GPS,
0.339158633060477,36.9100340052273,5473.9907883567,72.834648,0,2.63019037288,8800,2018-04-06 07:02:03,18,0,16.541,5473.9907883567,72.834648,0.7158208,2.64669627892,0,0,-11.408394,218.8, -1.9, 1.2,0,0,1024,1024,1684,1024,216.9,0,98,4.154,4.157,4.156,4.153,0,0,18.414,89.51,6,P-GPS,
0.339158645467592,36.9100339762136,5475.9592923567,74.803152,0,2.61951780036,8900,2018-04-06 07:02:03,18,0,16.541,5475.9592923567,74.803152,0.7158208,2.64669627892,0,0,-11.408394,219.1, -1.9, 1,0,0,1024,1024,1684,1024,217,0,98,4.154,4.157,4.156,4.153,0,0,18.414,89.51,6,P-GPS,
0.3391586584984,36.9100339415385,5477.5997123567,76.443572,0,2.60678157948,9000,2018-04-06 07:02:03,18,0,16.541,5477.5997123567,76.443572,0.7158208,2.64669627892,0,0,-11.1847,219.1, -2.2, 1,0,0,1024,1024,1684,1024,217.1,0,98,4.154,4.157,4.156,4.153,0,0,18.414,89.51,6,P-GPS,
0.339158657241242,36.9100339051311,5479.2401323567,78.083992,0,2.59350730084,9100,2018-04-06 07:02:03,18,0,16.541,5479.2401323567,78.083992,0.7158208,2.64669627892,0,0,-11.408394,219.1, -2.3, 1,0,0,1024,1024,1684,1024,217.2,0,98,4.154,4.157,4.156,4.153,0,0,18.414,89.51,6,P-GPS,
0.339158652837929,36.9100338690235,5480.8805523567,79.724412,0,2.5803642558,9200,2018-04-06 07:02:03,18,0,16.541,5480.8805523567,79.724412,0.7158208,2.64669627892,0,0,-11.408394,219.1, -2.2, 0.8,0,0,1024,1024,1684,1024,217.3,0,98,4.154,4.157,4.156,4.153,0,0,18.414,89.51,6,P-GPS,
0.339158658778493,36.9100338537608,5482.8490563567,81.692916,0,2.57475730024,9300,2018-04-06 07:02:03,18,0,16.541,5482.8490563567,81.692916,0.7158208,2.64669627892,0,0,-11.408394,219.1, -2.5, 0.6,0,0,1024,1024,1684,1024,217.3,0,98,4.154,4.157,4.156,4.153,0,0,18.414,89.51,6,P-GPS,
0.339158668510074,36.9100338362862,5484.4894763567,83.333336,0,2.568323573,9400,2018-04-06 07:02:04,18,0,16.541,5484.4894763567,83.333336,0.7158208,2.64669627892,0,0,-11.408394,219, -2.5, 0.6,0,0,1024,1024,1684,1024,217.4,0,98,4.154,4.157,4.156,4.153,0,0,18.414,89.51,6,P-GPS,
0.339158691453222,36.9100338136041,5486.1298963567,84.973756,0,2.5599246226,9500,2018-04-06 07:02:04,18,0,16.514,5486.1298963567,84.973756,0.7158208,2.64669627892,0,0,-11.408394,219.1, -2.5, 0.9,0,0,1024,1024,1684,1024,217.5,0,98,4.154,4.157,4.156,4.153,0,0,18.414,89.51,6,P-GPS,
0.339158708097548,36.9100337935429,5487.7703163567,86.614176,0,2.55253289008,9600,2018-04-06 07:02:04,18,0,16.514,5487.7703163567,86.614176,0.7158208,2.64669627892,0,0,-11.1847,219.1, -2.3, 1.2,0,0,1024,1024,1684,1042,217.6,0,98,4.154,4.157,4.156,4.153,0,0,18.414,89.51,6,P-GPS,
0.339158716637108,36.9100337820808,5489.7388203567,88.58268,0,2.54832029152,9700,2018-04-06 07:02:04,18,0,16.514,5489.7388203567,88.58268,0.7158208,2.64669627892,0,0,-11.1847,219.1, -1.9, 1.3,0,0,1024,1024,1684,1025,217.6,0,98,4.154,4.157,4.156,4.153,0,0,18.414,89.51,6,P-GPS,
0.339158737658692,36.9100337594159,5491.3792403567,90.2231,0,2.53999023876,9800,2018-04-06 07:02:04,18,0,16.514,5491.3792403567,90.2231,0.7158208,2.64669627892,0,0,-11.408394,219.1, -2, 1.1,0,0,1024,1024,1684,1024,217.7,0,98,4.154,4.157,4.156,4.153,0,0,18.414,89.51,6,P-GPS,
0.339158773440492,36.9100337274837,5493.0196603567,91.86352,0,2.52828748248,9900,2018-04-06 07:02:04,18,0,16.514,5493.0196603567,91.86352,0.7158208,2.64669627892,0,0,-11.1847,219.1, -2.4, 0.8,0,0,1024,1024,1684,1024,217.7,0,98,4.154,4.157,4.156,4.153,0,0,18.414,89.51,6,P-GPS,
0.339158835138978,36.9100336884383,5496.3005003567,95.14436,0,2.514107692,10100,2018-04-06 07:02:04,18,0,16.514,5496.3005003567,95.14436,0.7158208,2.64669627892,0,0,-11.1847,219.1, -2.8, 1,0,0,1024,1024,1684,1024,217.8,0,98,4.154,4.157,4.156,4.153,0,0,18.414,89.51,6,P-GPS,
0.339158863128673,36.9100336708438,5498.2690043567,97.112864,0,2.50778879416,10200,2018-04-06 07:02:04,18,0,16.514,5498.2690043567,97.112864,0.7158208,2.64669627892,0,0,-11.1847,219.1, -2.6, 0.8,0,0,1024,1024,1684,1024,217.8,0,98,4.154,4.157,4.156,4.153,0,0,18.414,89.51,6,P-GPS,
0.339158904215944,36.9100336539858,5499.9094243567,98.753284,0,2.50185703544,10300,2018-04-06 07:02:04,18,0,16.514,5499.9094243567,98.753284,0.7158208,2.64669627892,0,0,-10.961006,219.1, -2.6, 0.6,0,0,1024,1024,1684,1024,217.9,0,98,4.154,4.157,4.156,4.153,0,0,18.414,89.51,6,P-GPS,
0.339158947221521,36.9100336403697,5501.5498443567,100.393704,0,2.49721464684,10400,2018-04-06 07:02:04,18,0,16.514,5501.5498443567,100.393704,0.7158208,2.64669627892,0,0,-10.961006,219.1, -2.6, 0.5,0,0,1024,1024,1684,1024,217.9,0,98,4.154,4.157,4.156,4.153,0,0,18.414,89.51,6,P-GPS,
0.339158999050008,36.9100336428793,5503.1902643567,102.034124,0,2.4986549356,10500,2018-04-06 07:02:05,18,0,16.567,5503.1902643567,102.034124,0.7158208,2.64669627892,0,0,-10.961006,219.1, -2.8, 0.5,0,0,1024,1024,1684,1024,217.9,0,98,4.153,4.156,4.156,4.154,0,0,17.646,89.51,6,P-GPS,
0.339159051630836,36.9100336373849,5504.8306843567,103.674544,0,2.4973261954,10600,2018-04-06 07:02:05,18,0,16.567,5504.8306843567,103.674544,0.7158208,2.64669627892,0,0,-10.961006,219.1, -2.9, 0.3,0,0,1024,1024,1684,1024,218,0,98,4.153,4.156,4.156,4.154,0,0,17.646,89.51,6,P-GPS,
0.339159136225245,36.9100335965494,5508.1115243567,106.955384,0,2.48384850468,10800,2018-04-06 07:02:05,18,0,16.567,5508.1115243567,106.955384,0.7158208,2.64669627892,0,0,-11.1847,219.1, -2.7, 0.6,0,0,1024,1024,1684,1024,218,0,98,4.153,4.156,4.156,4.154,0,0,17.646,89.51,6,P-GPS,
0.339159171839315,36.9100335747795,5509.7519443567,108.595804,0,2.476624095,10900,2018-04-06 07:02:05,18,0,16.567,5509.7519443567,108.595804,0.7158208,2.64669627892,0,0,-11.1847,219.1, -2.9, 0.8,0,0,1024,1024,1684,1024,218.1,0,98,4.153,4.156,4.156,4.154,0,0,17.646,89.51,6,P-GPS,
0.339159211978831,36.9100335458129,5511.3923643567,110.236224,0,2.46695874036,11000,2018-04-06 07:02:05,18,0,16.567,5511.3923643567,110.236224,0.7158208,2.64669627892,0,0,-11.1847,219.1, -2.9, 0.7,0,0,1024,1024,1684,1024,218.1,0,98,4.153,4.156,4.156,4.154,0,0,17.646,89.51,6,P-GPS,
0.339159252960253,36.9100335320576,5513.3608683567,112.204728,0,2.46294627304,11100,2018-04-06 07:02:05,18,0,16.567,5513.3608683567,112.204728,0.7158208,2.64669627892,0,0,-11.1847,219.1, -2.9, 0.8,0,0,1024,1024,1684,1024,218.1,0,98,4.153,4.156,4.156,4.154,0,0,17.646,89.51,6,P-GPS,
0.339159286592507,36.9100335024765,5515.0012883567,113.845148,0,2.4530676638,11200,2018-04-06 07:02:05,18,0,16.567,5515.0012883567,113.845148,0.7158208,2.64669627892,0,0,-10.961006,219.1, -2.9, 0.7,0,0,1024,1024,1684,1024,218.1,0,98,4.153,4.156,4.156,4.154,0,0,17.646,89.51,6,P-GPS,
0.339159304143876,36.9100334639128,5516.6417083567,115.485568,0,2.43952763712,11300,2018-04-06 07:02:05,18,0,16.567,5516.6417083567,115.485568,0.7158208,2.64669627892,0,0,-10.961006,219.1, -2.7, 0.7,0,0,1024,1024,1684,1024,218.1,0,98,4.153,4.156,4.156,4.154,0,0,17.646,89.51,6,P-GPS,
0.339159329821181,36.910033425103,5518.2821283567,117.125988,0,2.42616149496,11400,2018-04-06 07:02:06,18,0,16.567,5518.2821283567,117.125988,0.7158208,2.64669627892,0,0,-10.961006,219.1, -2.7, 0.4,0,0,1024,1024,1684,1024,218.2,0,98,4.153,4.156,4.156,4.154,0,0,17.646,89.51,6,P-GPS,
0.339159373867334,36.9100334135596,5519.9225483567,118.766408,0,2.42333997256,11500,2018-04-06 07:02:06,18,0,16.514,5519.9225483567,118.766408,0.7158208,2.64669627892,0,0,-11.1847,219.1, -3.1, 0.6,0,0,1024,1024,1684,1024,218.2,0,98,4.146,4.149,4.149,4.147,0,0,17.856,89.51,6,P-GPS,
0.339159424967907,36.910033390612,5521.5629683567,120.406828,0,2.41673564164,11600,2018-04-06 07:02:06,18,0,16.514,5521.5629683567,120.406828,0.7158208,2.64669627892,0,0,-10.961006,219.1, -3.4, 0.5,0,0,1024,1024,1684,1024,218.2,0,98,4.146,4.149,4.149,4.147,0,0,17.856,89.51,6,P-GPS,
0.339159478323875,36.9100333524809,5523.2033883567,122.047248,0,2.40486228168,11700,2018-04-06 07:02:06,18,0,16.514,5523.2033883567,122.047248,0.7158208,2.64669627892,0,0,-10.961006,219.1, -3.4, 0,0,0,1024,1024,1684,1024,218.2,0,98,4.146,4.149,4.149,4.147,0,0,17.856,89.51,6,P-GPS,
0.339159529378851,36.9100333086028,5525.1718923567,124.015752,0,2.39099089016,11800,2018-04-06 07:02:06,18,0,16.514,5525.1718923567,124.015752,0.7158208,2.64669627892,0,0,-11.1847,219.1, -3.1, -0.2,0,0,1024,1024,1684,1024,218.2,0,98,4.146,4.149,4.149,4.147,0,0,17.856,89.51,6,P-GPS,
0.339159569147082,36.9100332896443,5526.8123123567,125.656172,0,2.38582028632,11900,2018-04-06 07:02:06,18,0,16.514,5526.8123123567,125.656172,0.7158208,2.64669627892,0,0,-11.1847,219.1, -2.8, -0.4,0,0,1024,1024,1684,1024,218.3,0,98,4.146,4.149,4.149,4.147,0,0,17.856,89.51,6,P-GPS,
0.339159606505215,36.9100332776148,5528.4527323567,127.296592,0,2.38313984004,12000,2018-04-06 07:02:06,18,0,16.514,5528.4527323567,127.296592,0.7158208,2.64669627892,0,0,-11.1847,219.1, -3.3, -0.3,0,0,1024,1024,1684,1024,218.3,0,98,4.146,4.149,4.149,4.147,0,0,17.856,89.51,6,P-GPS,
0.339159630329351,36.9100332715209,5530.0931523567,128.937012,0,2.38204732032,12100,2018-04-06 07:02:06,18,0,16.514,5530.0931523567,128.937012,0.7158208,2.64669627892,0,0,-11.1847,219.1, -3.5, 0.1,0,0,1024,1024,1684,1024,218.3,0,98,4.146,4.149,4.149,4.147,0,0,17.856,89.51,6,P-GPS,
0.339159635577826,36.9100332609989,5531.7335723567,130.577432,0,2.37849088976,12200,2018-04-06 07:02:06,18,0,16.514,5531.7335723567,130.577432,0.7158208,2.64669627892,0,0,-10.961006,219.1, -3.6, 0.4,0,0,1024,1024,1684,1024,218.3,0,98,4.146,4.149,4.149,4.147,0,0,17.856,89.51,6,P-GPS,
0.339159617094987,36.9100332537315,5533.3739923567,132.217852,0,2.37499023348,12300,2018-04-06 07:02:06,18,0,16.514,5533.3739923567,132.217852,0.7158208,2.64669627892,0,0,-10.961006,219.1, -3.4, 0.3,0,0,1024,1024,1684,1024,218.3,0,98,4.146,4.149,4.149,4.147,0,0,17.856,89.51,6,P-GPS,
0.339159581469517,36.910033234606,5535.0144123567,133.858272,0,2.36643380276,12400,2018-04-06 07:02:06,18,0,16.514,5535.0144123567,133.858272,0.7158208,2.64669627892,0,0,-10.961006,219.1, -2.8, 0.3,0,0,1024,1024,1684,1024,218.3,0,98,4.146,4.149,4.149,4.147,0,0,17.856,89.51,6,P-GPS,
0.339159546252788,36.9100332197095,5536.6548323567,135.498692,0,2.35949154532,12500,2018-04-06 07:02:07,18,0,16.488,5536.6548323567,135.498692,0.7158208,2.64669627892,0,0,-10.961006,219.1, -2.5, 0.4,0,0,1024,1024,1684,1024,218.4,0,98,4.146,4.149,4.149,4.147,0,0,17.654,89.51,6,P-GPS,
0.339159517844582,36.9100332092303,5538.2952523567,137.139112,0,2.35449154516,12600,2018-04-06 07:02:07,18,0,16.488,5538.2952523567,137.139112,0.7158208,2.64669627892,0,0,-10.961006,219.1, -2.6, 0.3,0,0,1024,1024,1684,1024,218.4,0,98,4.146,4.149,4.149,4.147,0,0,17.654,89.51,6,P-GPS,
0.339159502180579,36.910033210151,5539.9356723567,138.779532,0,2.3541831462,12700,2018-04-06 07:02:07,18,0,16.488,5539.9356723567,138.779532,0.7158208,2.64669627892,0,0,-10.961006,219.1, -2.5, 0.4,0,0,1024,1024,1684,1024,218.4,0,98,4.146,4.149,4.149,4.147,0,0,17.654,89.51,6,P-GPS,
0.339159500185735,36.9100332149217,5541.9041763567,140.748036,0,2.35583340872,12800,2018-04-06 07:02:07,18,0,16.488,5541.9041763567,140.748036,0.7158208,2.64669627892,0,0,-10.961006,219.1, -2.8, 0.2,0,0,1024,1024,1684,1024,218.4,0,98,4.146,4.149,4.149,4.147,0,0,17.654,89.51,6,P-GPS,
0.339159502380878,36.9100332236279,5543.5445963567,142.388456,0,2.35907815948,12900,2018-04-06 07:02:07,18,0,16.488,5543.5445963567,142.388456,0.7158208,2.64669627892,0,0,-10.961006,219.1, -3.1, 0,0,0,1024,1024,1684,1024,218.4,0,98,4.146,4.149,4.149,4.147,0,0,17.654,89.51,6,P-GPS,
0.339159500742663,36.9100332292251,5545.1850163567,144.028876,0,2.3610401018,13000,2018-04-06 07:02:07,18,0,16.488,5545.1850163567,144.028876,0.7158208,2.64669627892,0,0,-10.961006,219.1, -3.1, 0,0,0,1024,1024,1684,1024,218.4,0,98,4.146,4.149,4.149,4.147,0,0,17.654,89.51,6,P-GPS,
0.339159480732343,36.9100332304242,5546.8254363567,145.669296,0,2.3606792094,13100,2018-04-06 07:02:07,18,0,16.488,5546.8254363567,145.669296,0.7158208,2.64669627892,0,0,-10.961006,219.1, -3, 0.2,0,0,1024,1024,1684,1024,218.4,0,98,4.146,4.149,4.149,4.147,0,0,17.654,89.51,6,P-GPS,
0.339159441949321,36.9100332212769,5548.4658563567,147.309716,0,2.35587605964,13200,2018-04-06 07:02:07,18,0,16.488,5548.4658563567,147.309716,0.7158208,2.64669627892,0,0,-10.961006,219.1, -2.7, 0.3,0,0,1024,1024,1684,1024,218.4,0,98,4.146,4.149,4.149,4.147,0,0,17.654,89.51,6,P-GPS,
0.339159379490352,36.9100331995926,5550.1062763567,148.950136,0,2.3457841958,13300,2018-04-06 07:02:07,18,0,16.488,5550.1062763567,148.950136,0.7158208,2.64669627892,0,0,-10.961006,219.1, -2.3, 0.2,0,0,1024,1024,1684,1024,218.4,0,98,4.146,4.149,4.149,4.147,0,0,17.654,89.51,6,P-GPS,
0.339159325137776,36.9100331579392,5551.7466963567,150.590556,0,2.3288878698,13400,2018-04-06 07:02:08,18,0,16.488,5551.7466963567,150.590556,0.7158208,2.64669627892,0,0,-10.961006,219.1, -2, 0.1,0,0,1024,1024,1684,1024,218.4,0,98,4.146,4.149,4.149,4.147,0,0,17.654,89.51,6,P-GPS,
0.339159291733505,36.9100331081726,5553.3871163567,152.230976,0,2.30978353848,13500,2018-04-06 07:02:08,18,0,16.461,5553.3871163567,152.230976,0.7158208,2.64669627892,0,0,-10.961006,219.1, -1.7, 0.2,0,0,1024,1024,1684,1024,218.5,0,98,4.145,4.148,4.147,4.143,0,0,17.654,89.51,6,P-GPS,
0.339159274452457,36.9100330633909,5555.0275363567,153.871396,0,2.29299876104,13600,2018-04-06 07:02:08,18,0,16.461,5555.0275363567,153.871396,0.7158208,2.64669627892,0,0,-11.1847,219, -1.8, -0.1,0,0,1024,1024,1684,1024,218.5,0,98,4.145,4.148,4.147,4.143,0,0,17.654,89.51,6,P-GPS,
0.339159256787096,36.9100330452397,5556.9960403567,155.8399,0,2.28590230412,13700,2018-04-06 07:02:08,18,0,16.461,5556.9960403567,155.8399,0.7158208,2.64669627892,0,0,-11.1847,219.1, -1.8, -0.3,0,0,1024,1024,1684,1024,218.5,0,98,4.145,4.148,4.147,4.143,0,0,17.654,89.51,6,P-GPS,
0.339159238260289,36.9100330272083,5558.6364603567,157.48032,0,2.2788386556,13800,2018-04-06 07:02:08,18,0,16.461,5558.6364603567,157.48032,0.7158208,2.64669627892,0,0,-11.1847,219.1, -1.8, -0.1,0,0,1024,1024,1684,1024,218.5,0,98,4.145,4.148,4.147,4.143,0,0,17.654,89.51,6,P-GPS,
0.339159217891712,36.9100330069715,5560.2768803567,159.12074,0,2.27094495456,13900,2018-04-06 07:02:08,18,0,16.461,5560.2768803567,159.12074,0.7158208,2.64669627892,0,0,-10.961006,219.1, -2, -0.1,0,0,1024,1024,1684,1024,218.5,0,98,4.145,4.148,4.147,4.143,0,0,17.654,89.51,6,P-GPS,
0.339159211726423,36.910032988968,5561.9173003567,160.76116,0,2.26423563676,14000,2018-04-06 07:02:08,18,0,16.461,5561.9173003567,160.76116,0.7158208,2.64669627892,0,0,-10.961006,219.1, -2.1, -0.6,0,0,1024,1024,1684,1024,218.5,0,98,4.145,4.148,4.147,4.143,0,0,17.654,89.51,6,P-GPS,
0.339159212421768,36.9100329926638,5563.5577203567,162.40158,0,2.2656004662,14100,2018-04-06 07:02:08,18,0,16.461,5563.5577203567,162.40158,0.7158208,2.64669627892,0,0,-10.961006,219.1, -2.2, -0.7,0,0,1024,1024,1684,1024,218.5,0,98,4.145,4.148,4.147,4.143,0,0,17.654,89.51,6,P-GPS,
0.339159195274253,36.9100330122604,5565.1981403567,164.042,0,2.272309784,14200,2018-04-06 07:02:08,18,0,16.461,5565.1981403567,164.042,0.7158208,2.64669627892,0,0,-10.961006,219.1, -2.2, -0.5,0,0,1024,1024,1684,1024,218.5,0,98,4.145,4.148,4.147,4.143,0,0,17.654,89.51,6,P-GPS,
0.339159152151427,36.910033048762,5566.8385603567,165.68242,0,2.28461949568,14300,2018-04-06 07:02:08,18,0,16.461,5566.8385603567,165.68242,0.7158208,2.64669627892,0,0,-10.961006,219.1, -2.3, 0,0,0,1024,1024,1684,1024,218.5,0,98,4.145,4.148,4.147,4.143,0,0,17.654,89.51,6,P-GPS,
0.339159108145985,36.9100330893983,5568.4789803567,167.32284,0,2.29853681896,14400,2018-04-06 07:02:08,18,0,16.461,5568.4789803567,167.32284,0.7158208,2.64669627892,0,0,-11.1847,219.1, -2.4, 0.3,0,0,1024,1024,1684,1024,218.5,0,98,4.145,4.148,4.147,4.143,0,0,17.654,89.51,6,P-GPS,
0.339159084888548,36.9100331119476,5570.1194003567,168.96326,0,2.3063320948,14500,2018-04-06 07:02:09,19,0,16.435,5570.1194003567,168.96326,0.7158208,2.64669627892,0,0,-10.961006,219.1, -2.3, 0.3,0,0,1024,1024,1684,1024,218.5,0,98,4.142,4.143,4.142,4.139,0,0,17.636,89.51,6,P-GPS,
0.339159045744011,36.910033136908,5571.7598203567,170.60368,0,2.31479338116,14600,2018-04-06 07:02:09,19,0,16.435,5571.7598203567,170.60368,0.7158208,2.64669627892,0,0,-10.961006,219.1, -2.2, 0.3,0,0,1024,1024,1684,1024,218.5,0,98,4.142,4.143,4.142,4.139,0,0,17.636,89.51,6,P-GPS,
0.339158983814286,36.9100331715874,5573.4002403567,172.2441,0,2.32661752852,14700,2018-04-06 07:02:09,19,0,16.435,5573.4002403567,172.2441,0.7158208,2.64669627892,0,0,-10.961006,219.1, -2.1, 0.4,0,0,1024,1024,1684,1024,218.5,0,98,4.142,4.143,4.142,4.139,0,0,17.636,89.51,6,P-GPS,
0.339158876389093,36.9100332083074,5577.0091643567,175.853024,0,2.33911096724,14900,2018-04-06 07:02:09,19,0,16.435,5577.0091643567,175.853024,0.7158208,2.64669627892,0,0,-10.961006,219.1, -2.1, 0.1,0,0,1024,1024,1684,1024,218.6,0,98,4.142,4.143,4.142,4.139,0,0,17.636,89.51,6,P-GPS,
0.339158844735398,36.9100332099519,5578.6495843567,177.493444,0,2.33957356568,15000,2018-04-06 07:02:09,19,0,16.435,5578.6495843567,177.493444,0.7158208,2.64669627892,0,0,-11.1847,219.1, -2.1, 0,0,0,1024,1024,1684,1024,218.6,0,98,4.142,4.143,4.142,4.139,0,0,17.636,89.51,6,P-GPS,
0.339158844134502,36.910033216731,5580.2900043567,179.133864,0,2.3420440382,15100,2018-04-06 07:02:09,19,0,16.435,5580.2900043567,179.133864,0.7158208,2.64669627892,0,0,-11.1847,219.1, -2.4, 0,0,0,1024,1024,1684,1024,218.6,0,98,4.142,4.143,4.142,4.139,0,0,17.636,89.51,6,P-GPS,
0.339158851091215,36.9100332284286,5581.9304243567,180.774284,0,2.34633537692,15200,2018-04-06 07:02:09,19,0,16.435,5581.9304243567,180.774284,0.7158208,2.64669627892,0,0,-10.961006,219.1, -2.7, -0.1,0,0,1024,1024,1684,1024,218.6,0,98,4.142,4.143,4.142,4.139,0,0,17.636,89.51,6,P-GPS,
0.339158856014001,36.9100332618704,5583.5708443567,182.414704,0,2.35855650592,15300,2018-04-06 07:02:09,19,0,16.435,5583.5708443567,182.414704,0.7158208,2.64669627892,0,0,-10.961006,219.1, -2.7, 0,0,0,1024,1024,1684,1024,218.6,0,98,4.142,4.143,4.142,4.139,0,0,17.636,89.51,6,P-GPS,
0.33915884915011,36.9100332994661,5585.2112643567,184.055124,0,2.3722441704,15400,2018-04-06 07:02:10,19,0,16.435,5585.2112643567,184.055124,0.7158208,2.64669627892,0,0,-10.961006,219.1, -2.5, 0,0,0,1024,1024,1684,1024,218.6,0,98,4.142,4.143,4.142,4.139,0,0,17.636,89.51,6,P-GPS,
0.339158826075058,36.910033341126,5586.8516843567,185.695544,0,2.38737540448,15500,2018-04-06 07:02:10,19,0,16.461,5586.8516843567,185.695544,0.7158208,2.64669627892,0,0,-10.961006,219.1, -2.7, 0,0,0,1024,1024,1684,1024,218.6,0,98,4.138,4.141,4.139,4.137,0,0,17.66,89.51,6,P-GPS,
0.339158805134897,36.9100333886485,5588.4921043567,187.335964,0,2.4046752738,15600,2018-04-06 07:02:10,19,0,16.461,5588.4921043567,187.335964,0.7158208,2.64669627892,0,0,-10.961006,219.1, -2.8, 0,0,0,1024,1024,1684,1024,218.6,0,98,4.138,4.141,4.139,4.137,0,0,17.66,89.51,6,P-GPS,
0.339158794510928,36.9100334296831,5590.1325243567,188.976384,0,2.4196359042,15700,2018-04-06 07:02:10,19,0,16.461,5590.1325243567,188.976384,0.7158208,2.64669627892,0,0,-10.961006,219.1, -2.5, -0.1,0,0,1024,1024,1684,1024,218.6,0,98,4.138,4.141,4.139,4.137,0,0,17.66,89.51,6,P-GPS,
0.339158786060932,36.9100334648143,5591.7729443567,190.616804,0,2.43245086524,15800,2018-04-06 07:02:10,19,0,16.461,5591.7729443567,190.616804,0.7158208,2.64669627892,0,0,-10.961006,219.1, -2.7, -0.4,0,0,1024,1024,1684,1024,218.6,0,98,4.138,4.141,4.139,4.137,0,0,17.66,89.51,6,P-GPS,
0.339158733675518,36.9100335095168,5595.0537843567,193.897644,0,2.44882881852,16000,2018-04-06 07:02:10,19,0,16.461,5595.0537843567,193.897644,0.7158208,2.64669627892,0,0,-10.961006,219.1, -2.5, 0.4,0,0,1024,1024,1684,1024,218.6,0,98,4.138,4.141,4.139,4.137,0,0,17.66,89.51,6,P-GPS,
0.339158678042985,36.9100335351281,5597.0222883567,195.866148,0,2.45840559048,16100,2018-04-06 07:02:10,19,0,16.461,5597.0222883567,195.866148,0.7158208,2.64669627892,0,0,-10.961006,219, -2.2, 0.5,0,0,1024,1024,1684,1024,218.6,0,98,4.138,4.141,4.139,4.137,0,0,17.66,89.51,6,P-GPS,
0.339158614050022,36.9100335593305,5598.6627083567,197.506568,0,2.46771005272,16200,2018-04-06 07:02:10,19,0,16.461,5598.6627083567,197.506568,0.7158208,2.64669627892,0,0,-10.961006,219.1, -1.8, 0.2,0,0,1024,1024,1684,1024,218.6,0,98,4.138,4.141,4.139,4.137,0,0,17.66,89.51,6,P-GPS,
0.339158560166438,36.9100335870744,5600.3031283567,199.146988,0,2.47839902944,16300,2018-04-06 07:02:11,19,0,16.461,5600.3031283567,199.146988,0.7158208,2.64669627892,0,0,-10.961006,219.1, -1.7, 0.3,0,0,1024,1024,1684,1024,218.6,0,98,4.138,4.141,4.139,4.137,0,0,17.66,89.51,6,P-GPS,
0.339158531406489,36.9100336786122,5603.5839683567,202.427828,0,2.512139188,16500,2018-04-06 07:02:11,19,0,16.461,5603.5839683567,202.427828,0.7158208,2.64669627892,0,0,-11.1847,219.1, -1.8, 0,0,0,1024,1024,1684,1024,218.6,0,98,4.138,4.141,4.139,4.137,0,0,17.66,89.51,6,P-GPS,
0.339158559436895,36.9100337299568,5605.2243883567,204.068248,0,2.53050861116,16600,2018-04-06 07:02:11,19,0,16.461,5605.2243883567,204.068248,0.7158208,2.64669627892,0,0,-10.961006,219.1, -2.1, -0.1,0,0,1024,1024,1684,1024,218.6,0,98,4.138,4.141,4.139,4.137,0,0,17.66,89.51,6,P-GPS,
0.339158600193592,36.9100337694026,5606.8648083567,205.708668,0,2.54445874284,16700,2018-04-06 07:02:11,19,0,16.461,5606.8648083567,205.708668,0.7158208,2.64669627892,0,0,-10.961006,219.1, -2.9, -0.2,0,0,1024,1024,1684,1024,218.7,0,98,4.138,4.141,4.139,4.137,0,0,17.66,89.51,6,P-GPS,
0.339158638212874,36.9100338638417,5610.1456483567,208.989508,0,2.57857947884,16900,2018-04-06 07:02:11,19,0,16.461,5610.1456483567,208.989508,0.7158208,2.64669627892,0,0,-10.961006,219.1, -2.6, 0.3,0,0,1024,1024,1684,1024,218.7,0,98,4.138,4.141,4.139,4.137,0,0,17.66,89.51,6,P-GPS,
0.339158649336774,36.9100339145418,5611.7860683567,210.629928,0,2.59699483376,17000,2018-04-06 07:02:11,19,0,16.461,5611.7860683567,210.629928,0.7158208,2.64669627892,0,0,-10.961006,219.1, -3, 0.1,0,0,1024,1024,1684,1024,218.7,0,98,4.138,4.141,4.139,4.137,0,0,17.66,89.51,6,P-GPS,
0.339158649971868,36.910033951917,5613.4264883567,212.270348,0,2.61062344312,17100,2018-04-06 07:02:11,19,0,16.461,5613.4264883567,212.270348,0.7158208,2.64669627892,0,0,-10.961006,219, -3.1, -0.5,0,0,1024,1024,1684,1024,218.7,0,98,4.138,4.141,4.139,4.137,0,0,17.66,89.51,6,P-GPS,
0.339158601361186,36.9100339956603,5615.0669083567,213.910768,0,2.626968588,17200,2018-04-06 07:02:11,19,0,16.461,5615.0669083567,213.910768,0.7158208,2.64669627892,0,0,-10.961006,219, -2.8, -0.1,0,0,1024,1024,1684,1024,218.7,0,98,4.138,4.141,4.139,4.137,0,0,17.66,89.51,6,P-GPS,
0.339158507074278,36.9100340377034,5616.7073283567,215.551188,0,2.64339247304,17300,2018-04-06 07:02:11,19,0,16.461,5616.7073283567,215.551188,0.7158208,2.64669627892,0,0,-10.961006,219, -2.3, 0.3,0,0,1024,1024,1684,1024,218.7,0,98,4.138,4.141,4.139,4.137,0,0,17.66,89.51,6,P-GPS,
0.339158398885345,36.9100340889753,5618.6758323567,217.519692,0,2.66387147632,17400,2018-04-06 07:02:11,19,0,16.461,5618.6758323567,217.519692,0.7158208,2.66387147632,0,0,-11.1847,219, -1.3, 0.6,0,0,1024,1024,1684,1024,218.7,0,98,4.138,4.141,4.139,4.137,0,0,17.66,89.51,6,P-GPS,
0.339158325659103,36.9100341529018,5620.3162523567,219.160112,0,2.68869103092,17500,2018-04-06 07:02:12,19,0,16.461,5620.3162523567,219.160112,0.7158208,2.68869103092,0,0,-11.1847,219.1, -0.8, 1.1,0,0,1024,1024,1684,1024,218.7,0,98,4.138,4.141,4.139,4.137,0,0,17.902,89.51,6,P-GPS,
0.339158279434092,36.9100342418336,5621.9566723567,220.800532,0,2.7221621606,17600,2018-04-06 07:02:12,19,0,16.461,5621.9566723567,220.800532,0.7158208,2.7221621606,0,0,-11.1847,219.1, -1.5, 0.9,0,0,1024,1024,1684,1024,218.7,0,98,4.138,4.141,4.139,4.137,0,0,17.902,89.51,6,P-GPS,
0.339158256466518,36.9100343396344,5623.5970923567,222.440952,0,2.75833670244,17700,2018-04-06 07:02:12,19,0,16.461,5623.5970923567,222.440952,0.7158208,2.75833670244,0,0,-11.1847,219, -2.8, 1,0,0,1024,1024,1684,1024,218.7,0,98,4.138,4.141,4.139,4.137,0,0,17.902,89.51,6,P-GPS,
0.339158245516861,36.9100344360713,5625.2375123567,224.081372,0,2.79371400016,17800,2018-04-06 07:02:12,19,0,16.461,5625.2375123567,224.081372,0.7158208,2.79371400016,0,0,-11.1847,219, -3.4, 1,0,0,1024,1024,1684,1024,218.7,0,98,4.138,4.141,4.139,4.137,0,0,17.902,89.51,6,P-GPS,
0.339158245958169,36.9100345041304,5626.8779323567,225.721792,0,2.8184712188,17900,2018-04-06 07:02:12,19,0,16.461,5626.8779323567,225.721792,0.7158208,2.8184712188,0,0,-10.961006,219, -2.9, 1.1,0,0,1024,1024,1684,1024,218.7,0,98,4.138,4.141,4.139,4.137,0,0,17.902,89.51,6,P-GPS,
0.339158247119249,36.9100345701082,5628.5183523567,227.362212,0,2.84245744004,18000,2018-04-06 07:02:12,19,0,16.461,5628.5183523567,227.362212,0.7158208,2.84245744004,0,0,-10.961006,219, -3.6, 1.3,0,0,1024,1024,1684,1024,218.7,0,98,4.138,4.141,4.139,4.137,0,0,17.902,89.51,6,P-GPS,
0.339158231969835,36.9100346201082,5630.1587723567,229.002632,0,2.8610401178,18100,2018-04-06 07:02:12,19,0,16.461,5630.1587723567,229.002632,0.7158208,2.8610401178,0,0,-10.961006,219, -3, 1.4,0,0,1024,1024,1684,1024,218.7,0,98,4.138,4.141,4.139,4.137,0,0,17.902,89.51,6,P-GPS,
0.339158193478304,36.9100346361696,5631.7991923567,230.643052,0,2.86790691592,18200,2018-04-06 07:02:12,19,0,16.461,5631.7991923567,230.643052,0.7158208,2.86790691592,0,0,-10.961006,219, -1.9, 0.9,0,0,1024,1024,1684,1024,218.7,0,98,4.138,4.141,4.139,4.137,0,0,17.902,89.51,6,P-GPS,
0.339158138174718,36.9100346403385,5633.4396123567,232.283472,0,2.87100730972,18300,2018-04-06 07:02:12,19,0,16.461,5633.4396123567,232.283472,0.7158208,2.87100730972,0,0,-10.961006,219, -1.5, 1,0,0,1024,1024,1684,1024,218.7,0,98,4.138,4.141,4.139,4.137,0,0,17.902,89.51,6,P-GPS,
0.339158099850917,36.9100346462483,5635.4081163567,234.251976,0,2.87433408148,18400,2018-04-06 07:02:13,19,0,16.461,5635.4081163567,234.251976,0.7158208,2.87433408148,0,0,-10.961006,219, -1.4, 0.6,0,0,1024,1024,1684,1024,218.7,0,98,4.138,4.141,4.139,4.137,0,0,17.902,89.51,6,P-GPS,
0.339158091780348,36.910034661708,5637.0485363567,235.892396,0,2.88021006592,18500,2018-04-06 07:02:13,19,0,16.408,5637.0485363567,235.892396,0.7158208,2.88021006592,0,0,-10.961006,219, -1.8, 0.8,0,0,1024,1024,1684,1024,218.7,0,97,4.132,4.135,4.134,4.131,0,0,17.902,89.51,6,P-GPS,
0.339158085377306,36.9100346998498,5638.6889563567,237.532816,0,2.89427830784,18600,2018-04-06 07:02:13,19,0,16.408,5638.6889563567,237.532816,0.7158208,2.89427830784,0,0,-10.961006,219, -2.3, 1,0,0,1024,1024,1684,1024,218.7,0,97,4.132,4.135,4.134,4.131,0,0,17.902,89.51,6,P-GPS,
0.339158063562671,36.9100347542222,5640.3293763567,239.173236,0,2.91474418776,18700,2018-04-06 07:02:13,19,0,16.408,5640.3293763567,239.173236,0.7158208,2.91474418776,0,0,-10.961006,219, -2.4, 1.1,0,0,1024,1024,1684,1024,218.7,0,97,4.132,4.135,4.134,4.131,0,0,17.902,89.51,6,P-GPS,
0.339158039481241,36.9100347986592,5641.9697963567,240.813656,0,2.9316930072,18800,2018-04-06 07:02:13,19,0,16.408,5641.9697963567,240.813656,0.7158208,2.9316930072,0,0,-10.961006,219, -2.4, 1.3,0,0,1024,1024,1684,1024,218.7,0,97,4.132,4.135,4.134,4.131,0,0,17.902,89.51,6,P-GPS,
0.339158027100181,36.9100348129883,5643.6102163567,242.454076,0,2.9373196478,18900,2018-04-06 07:02:13,19,0,16.408,5643.6102163567,242.454076,0.7158208,2.9373196478,0,0,-10.961006,219, -2.3, 1.1,0,0,1024,1024,1684,1024,218.7,0,97,4.132,4.135,4.134,4.131,0,0,17.902,89.51,6,P-GPS,
0.339158007120802,36.9100348186626,5645.2506363567,244.094496,0,2.9400755534,19000,2018-04-06 07:02:13,19,0,16.408,5645.2506363567,244.094496,0.7158208,2.9400755534,0,0,-10.961006,219, -2.5, 1.2,0,0,1024,1024,1684,1024,218.7,0,97,4.132,4.135,4.134,4.131,0,0,17.902,89.51,6,P-GPS,
0.339157968914249,36.9100348218509,5646.8910563567,245.734916,0,2.94260836188,19100,2018-04-06 07:02:13,19,0,16.408,5646.8910563567,245.734916,0.7158208,2.94260836188,0,0,-10.961006,219, -2.7, 1.4,0,0,1024,1024,1684,1024,218.7,0,97,4.132,4.135,4.134,4.131,0,0,17.902,89.51,6,P-GPS,
0.339157927872575,36.9100347934474,5648.5314763567,247.375336,0,2.93385179992,19200,2018-04-06 07:02:13,19,0,16.408,5648.5314763567,247.375336,0.7158208,2.94260836188,0,0,-10.961006,219, -2.2, 0.8,0,0,1024,1024,1684,1024,218.7,0,97,4.132,4.135,4.134,4.131,0,0,17.902,89.51,6,P-GPS,
0.339157885153603,36.9100347347733,5650.1718963567,249.015756,0,2.91428158932,19300,2018-04-06 07:02:13,19,0,16.408,5650.1718963567,249.015756,0.7158208,2.94260836188,0,0,-10.961006,219.1, -0.8, 0.9,0,0,1024,1024,1684,1024,218.7,0,97,4.132,4.135,4.134,4.131,0,0,17.902,89.51,6,P-GPS,
0.339157833461905,36.9100346024815,5653.4527363567,252.296596,0,2.86854339888,19500,2018-04-06 07:02:14,19,0,16.408,5653.4527363567,252.296596,0.7158208,2.94260836188,0,0,-10.961006,219.1, -0.8, 0.1,0,0,1024,1024,1684,1024,218.7,0,97,4.129,4.132,4.131,4.126,0,0,18.286,89.51,6,P-GPS,
0.339157836456614,36.9100345564129,5655.0931563567,253.937016,0,2.85172909388,19600,2018-04-06 07:02:14,19,0,16.408,5655.0931563567,253.937016,0.7158208,2.94260836188,0,0,-10.961006,219.1, -1.2, 0.1,0,0,1024,1024,1684,1024,218.7,0,97,4.129,4.132,4.131,4.126,0,0,18.286,89.51,6,P-GPS,
0.339157861280614,36.9100345372403,5656.7335763567,255.577436,0,2.84369759756,19700,2018-04-06 07:02:14,19,0,16.408,5656.7335763567,255.577436,0.7158208,2.94260836188,0,0,-10.961006,219, -1.8, 0.2,0,0,1024,1024,1671,1024,218.7,0,97,4.129,4.132,4.131,4.126,0,0,18.286,89.51,6,P-GPS,
0.33915788826556,36.91003453393,5658.3739963567,257.217856,0,2.84135179696,19800,2018-04-06 07:02:14,19,0,16.408,5658.3739963567,257.217856,0.7158208,2.94260836188,0,0,-11.1847,219, -2.1, 0.3,0,0,1024,1024,1024,1024,218.8,0,97,4.129,4.132,4.131,4.126,0,0,18.286,89.51,6,P-GPS,
0.339157904281306,36.9100345469294,5660.0144163567,258.858276,0,2.84539707268,19900,2018-04-06 07:02:14,19,0,16.408,5660.0144163567,258.858276,0.7158208,2.94260836188,0,0,-11.1847,219, -2.3, 0.4,0,0,1024,1024,1024,1024,218.7,0,97,4.129,4.132,4.131,4.126,0,0,18.286,89.51,6,P-GPS,
0.339157914211558,36.9100345693931,5661.9829203567,260.82678,0,2.85313657424,20000,2018-04-06 07:02:14,19,0,16.408,5661.9829203567,260.82678,0.7158208,2.94260836188,0,0,-10.513618,219.1, -2.6, 0.7,0,0,1024,1024,1024,1024,218.8,0,97,4.129,4.132,4.131,4.126,0,0,18.286,89.51,6,P-GPS,
0.339157922418916,36.910034590739,5663.2952563567,262.139116,0,2.86054471096,20100,2018-04-06 07:02:14,19,0,16.408,5663.2952563567,262.139116,0.7158208,2.94260836188,0,0,-9.171454,219.1, -2.9, 0.8,0,0,1024,1024,1024,1024,218.8,0,97,4.129,4.132,4.131,4.126,0,0,18.286,89.51,6,P-GPS,
0.339157938361382,36.9100346126652,5664.6075923567,263.451452,0,2.867864265,20200,2018-04-06 07:02:14,19,0,16.408,5664.6075923567,263.451452,0.7158208,2.94260836188,0,0,-7.82929,219.1, -3.1, 0.7,0,0,1024,1024,1024,1024,218.8,0,97,4.129,4.132,4.131,4.126,0,0,18.286,89.51,6,P-GPS,
0.339157909140583,36.9100346754055,5665.5918443567,264.435704,0,2.8917815886,20300,2018-04-06 07:02:14,19,0,16.408,5665.5918443567,264.435704,0.7158208,2.94260836188,0,0,-6.263432,219.1, -2.9, 0.8,0,0,1024,1024,1024,1024,218.8,0,97,4.129,4.132,4.131,4.126,0,0,18.286,89.51,6,P-GPS,
0.339157882357565,36.9100347344436,5666.2480123567,265.091872,0,2.91427502764,20400,2018-04-06 07:02:15,19,0,16.408,5666.2480123567,265.091872,0.7158208,2.94260836188,0,0,-4.47388,219.1, -2.6, 0.8,0,0,1024,1024,1024,1024,218.8,0,97,4.129,4.132,4.131,4.126,0,0,18.286,89.51,6,P-GPS,
0.339157880291069,36.910034774853,5666.9041803567,265.74804,0,2.92900928008,20500,2018-04-06 07:02:15,19,0,16.355,5666.9041803567,265.74804,0.7158208,2.94260836188,0,0,-2.908022,219.1, -2.6, 0.7,0,0,1024,1024,1024,1024,218.8,0,97,4.118,4.121,4.121,4.118,0,0,19.058,89.51,6,P-GPS,
0.339157872897934,36.9100348275808,5666.9041803567,265.74804,0,2.94842857204,20600,2018-04-06 07:02:15,19,0,16.355,5666.9041803567,265.74804,0.7158208,2.94842857204,0,0,-1.565858,219.1, -2, 0.7,0,0,1024,1024,1024,1024,218.8,0,97,4.118,4.121,4.121,4.118,0,0,19.058,89.51,6,P-GPS,
0.339157875894271,36.9100348901691,5667.2322643567,266.076124,0,2.9709974704,20700,2018-04-06 07:02:15,19,0,16.355,5667.2322643567,266.076124,0.7158208,2.9709974704,0,0,-0.671082,219.1, -1.7, 0.8,0,0,1024,1024,1024,1024,218.8,0,97,4.118,4.121,4.121,4.118,0,0,19.058,89.51,6,P-GPS,
0.3391578797146,36.9100349694803,5667.2322643567,266.076124,0,2.99960311436,20800,2018-04-06 07:02:15,19,0,16.355,5667.2322643567,266.076124,0.7158208,2.99960311436,0,0,-0.223694,219.2, -1.7, 1.2,0,0,1024,1024,1024,1024,218.8,0,97,4.118,4.121,4.121,4.118,0,0,19.058,89.51,6,P-GPS,
0.339157900361642,36.9100350536201,5667.2322643567,266.076124,0,3.02930455888,20900,2018-04-06 07:02:15,19,0,16.355,5667.2322643567,266.076124,0.7158208,3.02930455888,0,0,0,219.1, -1.9, 1.7,0,0,1024,1024,1024,1024,218.8,0,97,4.118,4.121,4.121,4.118,0,0,19.058,89.51,6,P-GPS,
0.339157926796173,36.9100351219447,5667.2322643567,266.076124,0,3.05309064888,21000,2018-04-06 07:02:15,18,0,16.355,5667.2322643567,266.076124,0.7158208,3.05309064888,0,0,0,219.1, -2, 2.3,0,0,1024,1024,1024,1024,218.8,0,97,4.118,4.121,4.121,4.118,0,0,19.058,89.51,6,P-GPS,
0.33915797417738,36.9100351530911,5667.2322643567,266.076124,0,3.06267726336,21100,2018-04-06 07:02:15,18,0,16.355,5667.2322643567,266.076124,0.7158208,3.06267726336,0,0,0,219.1, -2.3, 2.3,0,0,1024,1024,1024,1024,218.8,0,97,4.118,4.121,4.121,4.118,0,0,19.058,89.51,6,P-GPS,
0.339158038839634,36.9100351559711,5667.2322643567,266.076124,0,3.06153881188,21200,2018-04-06 07:02:15,19,0,16.355,5667.2322643567,266.076124,0.7158208,3.06267726336,0,0,0,219.1, -2.3, 2.3,0,0,1024,1024,1024,1024,218.8,0,97,4.118,4.121,4.121,4.118,0,0,19.058,89.51,6,P-GPS,
0.339158129770318,36.9100351473376,5667.2322643567,266.076124,0,3.05563329988,21300,2018-04-06 07:02:15,19,0,16.355,5667.2322643567,266.076124,0.7158208,3.06267726336,0,0,0,219.2, -2.3, 2.3,0,0,1024,1024,1024,1024,218.8,0,97,4.118,4.121,4.121,4.118,0,0,19.058,89.51,6,P-GPS,
0.339158385976669,36.9100350902802,5667.5603483567,266.404208,0,3.02896663236,21500,2018-04-06 07:02:16,19,0,16.328,5667.5603483567,266.404208,0.7158208,3.06267726336,0,0,-0.223694,219.2, -2.6, 2,0,0,1024,1024,1024,1024,218.8,0,97,4.118,4.121,4.121,4.118,0,0,19.058,89.51,6,P-GPS,
0.339158554126539,36.9100350433401,5667.5603483567,266.404208,0,3.0095309362,21600,2018-04-06 07:02:16,19,0,16.328,5667.5603483567,266.404208,0.7158208,3.06267726336,0,0,-0.223694,219.2, -2.5, 1.8,0,0,1024,1024,1024,1024,218.8,0,97,4.118,4.121,4.121,4.118,0,0,19.058,89.51,6,P-GPS,
0.339158738174908,36.910034982998,5667.5603483567,266.404208,0,2.98639445252,21700,2018-04-06 07:02:16,19,0,16.328,5667.5603483567,266.404208,0.7158208,3.06267726336,0,0,0,219.2, -2.6, 1.5,0,0,1024,1024,1024,1024,218.8,0,97,4.118,4.121,4.121,4.118,0,0,19.058,89.51,6,P-GPS,
0.339158932817934,36.9100349087357,5667.8884323567,266.732292,0,2.95975731256,21800,2018-04-06 07:02:16,19,0,16.328,5667.8884323567,266.732292,0.7158208,3.06267726336,0,0,0,219.2, -2.8, 1.1,0,0,1024,1024,1024,1024,218.8,0,97,4.118,4.121,4.121,4.118,0,0,19.058,89.51,6,P-GPS,
0.339159112471133,36.9100348256023,5667.8884323567,266.732292,0,2.9313813274,21900,2018-04-06 07:02:16,19,0,16.328,5667.8884323567,266.732292,0.7158208,3.06267726336,0,0,0,219.2, -2.9, 0.9,0,0,1024,1024,1024,1024,218.8,0,97,4.118,4.121,4.121,4.118,0,0,19.058,89.51,6,P-GPS,
0.339159278953476,36.9100347287115,5667.8884323567,266.732292,0,2.8992126912,22000,2018-04-06 07:02:16,19,0,16.328,5667.8884323567,266.732292,0.7158208,3.06267726336,0,0,0,219.1, -2.8, 0.9,0,0,1024,1024,1024,1024,218.8,0,97,4.118,4.121,4.121,4.118,0,0,19.058,89.51,6,P-GPS,
0.339159419778056,36.9100346199776,5667.8884323567,266.732292,0,2.86332686328,22100,2018-04-06 07:02:16,19,0,16.328,5667.8884323567,266.732292,0.7158208,3.06267726336,0,0,0,219.1, -2.5, 1,0,0,1024,1024,1024,1024,218.8,0,97,4.118,4.121,4.121,4.118,0,0,19.058,89.51,6,P-GPS,
