latitude,longitude,altitude(feet),ascent(feet),speed(mph),distance(feet),time(millisecond),datetime(utc),satellites,voltage(v),max_altitude(feet),max_ascent(feet),max_speed(mph),max_distance(feet),compass_heading(degrees), pitch(degrees), roll(degrees),isPhoto,isVideo,rc_elevator,rc_aileron,rc_throttle,rc_rudder,gimbal_heading(degrees),gimbal_pitch(degrees),battery_percent,voltageCell1,voltageCell2,voltageCell3,voltageCell4,voltageCell5,voltageCell6,battery_temperature(f),flycStateRaw,flycState,message
0.363433179524146,36.8965435733696,5707.9499237961,0,0,0,0,2017-11-08 07:10:29,12,0,5707.9499237961,0,0,0,256.1, 3.3, 1.1,0,0,1024,1024,1024,1024,260.5,0,98,4.28,4.281,4.276,4.269,0,0,84.11,41,Motors_Started,
0.363433197802667,36.8965436121759,5707.9499237961,0,0,0.0156501645428,100,,12,0,5707.9499237961,0,0,0.0156501645428,256.1, 3.3, 1.1,0,0,1024,1024,1024,1024,260.5,0,98,4.28,4.281,4.276,4.269,0,0,84.11,41,Motors_Started,
0.363433200440224,36.8965436693401,5707.9499237961,0,0,0.035835959152,200,2017-11-08 07:10:30,12,17.05,5707.9499237961,0,0,0.035835959152,256, 3.3, 1.1,0,0,1024,1024,1024,1024,260.6,0,98,4.28,4.281,4.276,4.269,0,0,84.11,41,Motors_Started,Setting new Return-To-Home altitude to 30m (98 ft). Setting new Maximum Flight Altitude to 120m (394 ft)
0.363433209865365,36.8965437162167,5707.9499237961,0,0,0.05327920118,300,2017-11-08 07:10:30,12,17.05,5707.9499237961,0,0,0.05327920118,256.1, 3.3, 1.1,0,0,1024,1024,1024,1024,260.5,0,98,4.28,4.281,4.276,4.269,0,0,84.11,41,Motors_Started,
0.363433237483419,36.8965437445267,5707.9499237961,0,0,0.0659284798,400,2017-11-08 07:10:30,12,17.05,5707.9499237961,0,0,0.0659284798,256.1, 3.3, 1.1,0,0,1024,1024,1024,1024,260.5,0,98,4.28,4.281,4.276,4.269,0,0,84.11,41,Motors_Started,
0.363433270168072,36.8965437660786,5707.9499237961,0,0,0.077697837132,500,2017-11-08 07:10:30,12,17.05,5707.9499237961,0,0,0.077697837132,256.1, 3.3, 1.1,0,0,1024,1024,1024,1024,260.5,0,98,4.28,4.281,4.276,4.269,0,0,84.11,41,Motors_Started,
0.363433285953877,36.8965438040149,5707.9499237961,0,0,0.092676184068,600,2017-11-08 07:10:30,12,17.05,5707.9499237961,0,0,0.092676184068,256.1, 3.3, 1.2,0,0,1024,1024,1024,1024,260.5,0,98,4.28,4.281,4.276,4.269,0,0,84.11,41,Motors_Started,
0.363433304103598,36.8965438387425,5707.9499237961,0,0,0.106957352504,700,2017-11-08 07:10:30,12,17.05,5707.9499237961,0,0,0.106957352504,256.1, 3.3, 1.2,0,0,1024,1024,1024,1024,260.5,0,98,4.28,4.281,4.276,4.269,0,0,84.11,41,Motors_Started,
0.363433316126578,36.8965439319829,5707.9499237961,0,0,0.14000820658,900,2017-11-08 07:10:30,12,17.05,5707.9499237961,0,0,0.14000820658,256.1, 3.3, 1.3,0,0,780,654,554,1532,260.5,0,98,4.28,4.281,4.276,4.269,0,0,84.11,41,Motors_Started,
0.363433311101174,36.8965439561326,5707.9499237961,0,0,0.14766896798,1000,2017-11-08 07:10:30,12,17.05,5707.9499237961,0,0,0.14766896798,256.1, 3.4, 1.3,0,0,1024,1017,976,1096,260.1,0,98,4.28,4.281,4.276,4.269,0,0,84.11,41,Motors_Started,
0.363433314060057,36.8965439749694,5707.9499237961,0,0,0.154523955076,1100,2017-11-08 07:10:31,12,17.05,5707.9499237961,0,0,0.154523955076,256.1, 3.4, 1.1,0,0,1024,1024,1024,1024,258.6,0,98,4.28,4.281,4.276,4.269,0,0,84.11,41,Motors_Started,
0.3634332992088,36.8965440092322,5707.9499237961,0,0,0.164907485592,1200,2017-11-08 07:10:31,12,17.05,5707.9499237961,0,0,0.164907485592,256.1, 3.4, 1.2,0,0,1024,1024,1024,1024,257.3,0,98,4.28,4.281,4.276,4.269,0,0,84.11,41,Motors_Started,
0.363433289502027,36.8965440902745,5707.9499237961,0,0,0.19281004554,1400,2017-11-08 07:10:31,12,17.05,5707.9499237961,0,0,0.19281004554,256.1, 3.5, 1.3,0,0,1024,1024,1024,1024,257.3,0,98,4.28,4.281,4.276,4.269,0,0,84.11,41,Motors_Started,
0.363433291518703,36.8965441341719,5707.9499237961,0,0,0.208644363632,1500,2017-11-08 07:10:31,12,17.05,5707.9499237961,0,0,0.208644363632,256.1, 3.4, 1.2,0,0,1024,1024,1024,1024,257,0,98,4.28,4.281,4.276,4.269,0,0,84.11,10,Assisted_Takeoff,
0.363433338773221,36.8965442392739,5707.9499237961,0,0,0.249800861012,1700,2017-11-08 07:10:31,12,17.05,5707.9499237961,0,0,0.249800861012,256, 3.5, 1.1,0,0,1024,1024,1024,1024,256.7,0,98,4.28,4.281,4.276,4.269,0,0,84.11,10,Assisted_Takeoff,
0.363433350836887,36.8965442981549,5707.9499237961,0,0,0.271718512632,1800,2017-11-08 07:10:31,12,17.05,5707.9499237961,0,0,0.271718512632,256, 3.2, 1,0,0,1024,1024,1024,1024,256.7,0,98,4.28,4.281,4.276,4.269,0,0,84.11,10,Assisted_Takeoff,
0.363433368254012,36.8965443526227,5707.9499237961,0,0,0.292523959492,1900,2017-11-08 07:10:31,12,17.05,5707.9499237961,0,0,0.292523959492,256, 3.4, 1.2,0,0,1024,1024,1024,1024,256.6,0,98,4.28,4.281,4.276,4.269,0,0,84.11,10,Assisted_Takeoff,
0.363433371297879,36.8965443781348,5707.9499237961,0,0,0.30183399916,2000,2017-11-08 07:10:31,12,17.05,5707.9499237961,0,0,0.30183399916,256, 3.3, 1,0,0,1024,1024,1024,1024,256.5,0,98,4.28,4.281,4.276,4.269,0,0,84.11,10,Assisted_Takeoff,
0.36343337412445,36.8965444389996,5707.9499237961,0,0,0.32370079776,2200,2017-11-08 07:10:32,12,17.05,5707.9499237961,0,0,0.32370079776,256, 3.3, 1,0,0,1024,1024,1024,1024,256.5,0,98,4.28,4.281,4.276,4.269,0,0,84.11,10,Assisted_Takeoff,
0.363433377594359,36.8965444737788,5707.9499237961,0,0,0.33636155932,2300,2017-11-08 07:10:32,12,17.05,5707.9499237961,0,0,0.33636155932,256, 3.4, 1.1,0,0,1024,1024,1024,1024,256.5,0,98,4.28,4.281,4.276,4.269,0,0,84.11,10,Assisted_Takeoff,
0.363433401253742,36.8965444865696,5707.9499237961,0,0,0.34285434168,2400,2017-11-08 07:10:32,12,17.05,5707.9499237961,0,0,0.34285434168,256, 3.3, 1,0,0,1024,1024,1024,1024,256.4,0,98,4.28,4.281,4.276,4.269,0,0,84.11,10,Assisted_Takeoff,
0.363433445695048,36.8965445260091,5707.9499237961,0,0,0.3608759958,2600,2017-11-08 07:10:32,12,17.05,5707.9499237961,0,0,0.3608759958,256, 3.3, 1,0,0,1024,1024,1024,1024,256.4,0,98,4.28,4.281,4.276,4.269,0,0,84.11,10,Assisted_Takeoff,
0.363433462537026,36.8965445547291,5707.9499237961,0,0,0.37263452636,2700,2017-11-08 07:10:32,12,17.05,5707.9499237961,0,0,0.37263452636,256, 3.4, 1.1,0,0,1024,1024,1024,1024,256.4,0,98,4.28,4.281,4.276,4.269,0,0,84.11,10,Assisted_Takeoff,
0.36343350022436,36.8965445991489,5707.9499237961,0,0,0.39211287344,2800,,12,17.05,5707.9499237961,0,0,0.39211287344,256, 3.3, 1.1,0,0,1024,1024,1024,1024,256.4,0,98,4.28,4.281,4.276,4.269,0,0,84.11,10,Assisted_Takeoff,
0.363433538850543,36.896544638681,5707.9499237961,0,0,0.41018374016,2900,2017-11-08 07:10:32,12,17.05,5707.9499237961,0,0,0.41018374016,256, 3.4, 1.1,0,0,1024,1024,1024,1024,256.4,0,98,4.28,4.281,4.276,4.269,0,0,84.11,10,Assisted_Takeoff,
0.363433594234483,36.8965446935503,5707.9499237961,0,0,0.43579725804,3000,2017-11-08 07:10:32,12,17.05,5707.9499237961,0,0,0.43579725804,256, 3.3, 1.1,0,0,1024,1024,1024,1024,256.3,0,98,4.28,4.281,4.276,4.269,0,0,84.11,10,Assisted_Takeoff,
0.363433645828983,36.8965447411182,5707.9499237961,0,0,0.45875657636,3100,2017-11-08 07:10:32,12,17.05,5707.9499237961,0,0,0.45875657636,256, 3.4, 1.1,0,0,1024,1024,1024,1024,256.3,0,98,4.28,4.281,4.276,4.269,0,0,84.11,10,Assisted_Takeoff,
0.363433675510072,36.8965448007017,5707.9499237961,0,0,0.48296589472,3200,2017-11-08 07:10:33,12,17.05,5707.9499237961,0,0,0.48296589472,256, 3.3, 1,0,0,1024,1024,1024,1024,256.3,0,98,4.255,4.251,4.263,4.25,0,0,84.11,10,Assisted_Takeoff,
0.363433703865047,36.896544852751,5707.9499237961,0,0,0.50445539672,3300,2017-11-08 07:10:33,12,17.05,5707.9499237961,0,0,0.50445539672,256, 3.3, 1.1,0,0,1024,1024,1024,1024,256.3,0,98,4.255,4.251,4.263,4.25,0,0,84.11,10,Assisted_Takeoff,
0.363433744005683,36.8965449148684,5707.9499237961,0,0,0.53100067316,3400,2017-11-08 07:10:33,12,17.05,5707.9499237961,0,0,0.53100067316,256, 3.3, 1,0,0,1024,1024,1024,1024,256.3,0,98,4.255,4.251,4.263,4.25,0,0,84.11,10,Assisted_Takeoff,
0.363433785583573,36.896544968418,5707.9499237961,0,0,0.55493112012,3500,2017-11-08 07:10:33,12,17.05,5707.9499237961,0,0,0.55493112012,256, 3.3, 1,0,0,1024,1024,1024,1024,256.3,0,98,4.255,4.251,4.263,4.25,0,0,84.11,10,Assisted_Takeoff,
0.363433836854267,36.8965450305804,5707.9499237961,0,0,0.58324148848,3600,2017-11-08 07:10:33,12,17.05,5707.9499237961,0,0,0.58324148848,256, 3.3, 1.1,0,0,1024,1024,1024,1024,256.3,0,98,4.255,4.251,4.263,4.25,0,0,84.11,10,Assisted_Takeoff,
0.363433886618193,36.8965450844321,5707.9499237961,0,0,0.60867456016,3700,2017-11-08 07:10:33,12,17.05,5707.9499237961,0,0,0.60867456016,256, 3.4, 1.1,0,0,1024,1024,1024,1024,256.3,0,98,4.255,4.251,4.263,4.25,0,0,84.11,10,Assisted_Takeoff,
0.363433944876082,36.8965451101486,5707.9499237961,0,0,0.62636813028,3800,2017-11-08 07:10:33,12,17.05,5707.9499237961,0,0,0.62636813028,256, 3.3, 1,0,0,1024,1024,1024,1024,256.3,0,98,4.255,4.251,4.263,4.25,0,0,84.11,10,Assisted_Takeoff,
0.363434057966632,36.8965451663918,5707.9499237961,0,0,0.663713932,4000,2017-11-08 07:10:33,12,17.05,5707.9499237961,0,0,0.663713932,256, 3.3, 1,0,0,1024,1024,1024,1024,256.3,0,98,4.255,4.251,4.263,4.25,0,0,84.11,10,Assisted_Takeoff,
0.363434113595704,36.896545199646,5707.9499237961,0,0,0.68424214788,4100,2017-11-08 07:10:34,12,17.05,5707.9499237961,0,0,0.68424214788,256, 3.3, 1,0,0,1024,1024,1024,1024,256.3,0,98,4.255,4.251,4.263,4.25,0,0,84.11,10,Assisted_Takeoff,
0.363434170496794,36.8965452084449,5707.9499237961,0,0,0.69755907744,4200,2017-11-08 07:10:34,12,17.05,5707.9499237961,0,0,0.69755907744,256, 3.3, 1,0,0,1024,1024,1024,1024,256.3,0,98,4.273,4.275,4.271,4.263,0,0,84.11,10,Assisted_Takeoff,
0.363434225359276,36.8965452180389,5707.9499237961,0,0,0.71109254244,4300,,12,17.05,5707.9499237961,0,0,0.71109254244,256, 3.4, 1,0,0,1024,1024,1024,1024,256.3,0,98,4.273,4.275,4.271,4.263,0,0,84.11,10,Assisted_Takeoff,
0.363434282752869,36.8965452409165,5707.9499237961,0,0,0.72949149316,4400,2017-11-08 07:10:34,12,17.05,5707.9499237961,0,0,0.72949149316,256, 3.3, 1,0,0,1024,1024,1024,1024,256.3,0,98,4.273,4.275,4.271,4.263,0,0,84.11,10,Assisted_Takeoff,
0.363434337691073,36.8965452676027,5707.9499237961,0,0,0.74875658564,4500,2017-11-08 07:10:34,12,17.05,5707.9499237961,0,0,0.74875658564,256, 3.3, 1,0,0,1024,1024,1024,1024,256.3,0,98,4.273,4.275,4.271,4.263,0,0,84.11,10,Assisted_Takeoff,
0.363434383325367,36.8965453486405,5707.9499237961,0,0,0.78256564184,4700,2017-11-08 07:10:34,12,17.05,5707.9499237961,0,0,0.78256564184,256, 3.4, 1,0,0,1024,1024,1024,1024,256.3,0,98,4.273,4.275,4.271,4.263,0,0,84.11,10,Assisted_Takeoff,
0.363434409677153,36.8965454024057,5707.9499237961,0,0,0.80420278164,4800,2017-11-08 07:10:34,12,17.05,5707.9499237961,0,0,0.80420278164,256, 3.4, 1,0,0,1024,1024,1024,1024,256.3,0,98,4.273,4.275,4.271,4.263,0,0,84.11,10,Assisted_Takeoff,
0.363434443213634,36.8965454491026,5707.9499237961,0,0,0.82516734924,4900,2017-11-08 07:10:34,12,17.05,5707.9499237961,0,0,0.82516734924,256, 3.3, 1,0,0,1024,1024,1024,1024,256.3,0,98,4.273,4.275,4.271,4.263,0,0,84.11,10,Assisted_Takeoff,
0.363434482009989,36.8965454746119,5707.9499237961,0,0,0.84082023688,5000,2017-11-08 07:10:34,12,17.05,5707.9499237961,0,0,0.84082023688,256, 3.4, 1,0,0,1024,1024,1024,1024,256.2,0,98,4.273,4.275,4.271,4.263,0,0,84.11,10,Assisted_Takeoff,
0.363434523412668,36.8965454961486,5707.9499237961,0,0,0.85587929248,5100,2017-11-08 07:10:34,12,17.05,5707.9499237961,0,0,0.85587929248,255.9, 3.4, 1,0,0,1024,1024,1024,1024,256.2,0,98,4.273,4.275,4.271,4.263,0,0,84.11,10,Assisted_Takeoff,
0.363434535912808,36.8965455316307,5707.9499237961,0,0,0.8691109202,5200,2017-11-08 07:10:35,12,17.023,5707.9499237961,0,0,0.8691109202,255.9, 3.4, 1,0,0,1024,1024,1024,1024,256.3,0,98,4.274,4.275,4.27,4.263,0,0,84.11,10,Assisted_Takeoff,
0.363434552155926,36.8965455674282,5707.9499237961,0,0,0.88322509388,5300,2017-11-08 07:10:35,12,17.023,5707.9499237961,0,0,0.88322509388,255.9, 3.4, 1,0,0,1024,1024,1024,1024,256.2,0,98,4.274,4.275,4.27,4.263,0,0,84.11,10,Assisted_Takeoff,
0.363434576258628,36.8965456170305,5707.9499237961,0,0,0.90312338848,5400,2017-11-08 07:10:35,12,17.023,5707.9499237961,0,0,0.90312338848,255.9, 3.3, 1,0,0,1024,1024,1024,1024,256.2,0,98,4.274,4.275,4.27,4.263,0,0,84.11,10,Assisted_Takeoff,
0.363434606342299,36.8965456620958,5707.9499237961,0,0,0.92289044948,5500,2017-11-08 07:10:35,12,17.023,5707.9499237961,0,0,0.92289044948,255.9, 3.4, 1,0,0,1024,1024,1024,1024,256.2,0,98,4.274,4.275,4.27,4.263,0,0,84.11,10,Assisted_Takeoff,
0.363434645613956,36.8965456850663,5707.9499237961,0,0,0.93791997752,5600,,12,17.023,5707.9499237961,0,0,0.93791997752,255.9, 3.3, 1,0,0,1024,1024,1024,1024,256.2,0,98,4.274,4.275,4.27,4.263,0,0,84.11,10,Assisted_Takeoff,
0.363434684972633,36.8965457056778,5707.9499237961,0,0,0.95231630344,5700,2017-11-08 07:10:35,12,17.023,5707.9499237961,0,0,0.95231630344,255.9, 3.3, 1,0,0,1024,1024,1024,1024,256.2,0,98,4.274,4.275,4.27,4.263,0,0,84.11,10,Assisted_Takeoff,
0.363434700098028,36.8965457390514,5707.9499237961,0,0,0.96544950596,5800,2017-11-08 07:10:35,12,17.023,5707.9499237961,0,0,0.96544950596,255.9, 3.3, 1,0,0,1024,1024,1024,1024,256.2,0,98,4.274,4.275,4.27,4.263,0,0,84.11,10,Assisted_Takeoff,
0.363434716687598,36.8965457732652,5707.9499237961,0,0,0.97914373212,5900,2017-11-08 07:10:35,12,17.023,5707.9499237961,0,0,0.97914373212,255.9, 3.4, 1,0,0,1024,1024,1024,1024,256.2,0,98,4.274,4.275,4.27,4.263,0,0,84.11,10,Assisted_Takeoff,
0.363434746227368,36.8965457862123,5707.9499237961,0,0,0.98920934924,6000,2017-11-08 07:10:35,12,17.023,5707.9499237961,0,0,0.98920934924,255.9, 3.4, 1,0,0,1024,1024,1024,1024,256.2,0,98,4.274,4.275,4.27,4.263,0,0,84.11,10,Assisted_Takeoff,
0.363434778280642,36.8965457993751,5707.9499237961,0,0,0.99990816848,6100,2017-11-08 07:10:35,12,17.023,5707.9499237961,0,0,0.99990816848,255.9, 3.4, 1,0,0,1024,1024,1024,1024,256.2,0,98,4.274,4.275,4.27,4.263,0,0,84.11,10,Assisted_Takeoff,
0.363434823465281,36.8965458279553,5707.9499237961,0,0,1.01802168612,6200,2017-11-08 07:10:36,12,17.023,5707.9499237961,0,0,1.01802168612,255.9, 3.4, 1,0,0,1024,1024,1024,1024,256.2,0,98,4.274,4.275,4.27,4.263,0,0,84.11,10,Assisted_Takeoff,
0.363434866209697,36.8965458574274,5707.9499237961,0,0,1.03591538748,6300,2017-11-08 07:10:36,12,17.023,5707.9499237961,0,0,1.03591538748,255.9, 3.4, 1,0,0,1024,1024,1024,1024,256.2,0,98,4.274,4.275,4.27,4.263,0,0,84.11,10,Assisted_Takeoff,
0.363434921799075,36.8965459047975,5707.9499237961,0,0,1.06188323608,6400,2017-11-08 07:10:36,12,17.023,5707.9499237961,0,0,1.06188323608,255.9, 3.4, 1,0,0,1024,1024,1024,1024,256.2,0,98,4.274,4.275,4.27,4.263,0,0,84.11,10,Assisted_Takeoff,
0.363434972064053,36.8965459468839,5707.9499237961,0,0,1.08517720008,6500,2017-11-08 07:10:36,12,17.023,5707.9499237961,0,0,1.08517720008,255.9, 3.4, 1,0,0,1024,1024,1024,1024,256.2,0,98,4.274,4.275,4.27,4.263,0,0,84.11,10,Assisted_Takeoff,
0.363434996635237,36.8965459685163,5707.9499237961,0,0,1.09687995636,6600,2017-11-08 07:10:36,12,17.023,5707.9499237961,0,0,1.09687995636,255.9, 3.4, 1,0,0,1024,1024,1024,1024,256.2,0,98,4.274,4.275,4.27,4.263,0,0,84.11,10,Assisted_Takeoff,
0.363435020622217,36.8965459878318,5707.9499237961,0,0,1.10778874936,6700,2017-11-08 07:10:36,12,17.023,5707.9499237961,0,0,1.10778874936,255.9, 3.4, 1,0,0,1024,1024,1024,1024,256.2,0,98,4.274,4.275,4.27,4.263,0,0,84.11,10,Assisted_Takeoff,
0.363435054678274,36.8965460236301,5707.9499237961,0,0,1.12570869744,6800,2017-11-08 07:10:36,12,17.023,5707.9499237961,0,0,1.12570869744,255.9, 3.4, 1,0,0,1024,1024,1024,1024,256.2,0,98,4.274,4.275,4.27,4.263,0,0,84.11,10,Assisted_Takeoff,
0.363435090678896,36.8965460593729,5707.9499237961,0,0,1.14405187388,6900,2017-11-08 07:10:36,12,17.023,5707.9499237961,0,0,1.14405187388,255.9, 3.4, 1,0,0,1024,1024,1024,1024,256.2,0,98,4.274,4.275,4.27,4.263,0,0,84.11,10,Assisted_Takeoff,
0.363435136998357,36.8965461103713,5707.9499237961,0,0,1.16910436812,7000,2017-11-08 07:10:36,12,17.023,5707.9499237961,0,0,1.16910436812,255.9, 3.4, 1,0,0,1024,1024,1024,1024,256.2,0,98,4.274,4.275,4.27,4.263,0,0,84.11,10,Assisted_Takeoff,
0.363435181437576,36.896546156579,5707.9499237961,0,0,1.19235896204,7100,2017-11-08 07:10:37,12,17.023,5707.9499237961,0,0,1.19235896204,255.9, 3.4, 1,0,0,1024,1024,1024,1024,256.2,0,98,4.274,4.275,4.27,4.263,0,0,84.11,10,Assisted_Takeoff,
0.363435234526885,36.896546214777,5707.9499237961,0,0,1.22100725692,7200,2017-11-08 07:10:37,12,17.023,5707.9499237961,0,0,1.22100725692,255.9, 3.4, 1,0,0,1024,1024,1024,1024,256.2,0,98,4.274,4.274,4.27,4.263,0,0,84.11,10,Assisted_Takeoff,
0.363435284399611,36.8965462668794,5707.9499237961,0,0,1.24718836012,7300,,12,17.023,5707.9499237961,0,0,1.24718836012,255.9, 3.4, 1,0,0,1024,1024,1024,1024,256.2,0,98,4.274,4.274,4.27,4.263,0,0,84.11,10,Assisted_Takeoff,
0.36343530875523,36.8965462962131,5707.9499237961,0,0,1.26109256004,7400,2017-11-08 07:10:37,12,17.023,5707.9499237961,0,0,1.26109256004,255.9, 3.4, 1,0,0,1024,1024,1024,1024,256.2,0,98,4.274,4.274,4.27,4.263,0,0,84.11,10,Assisted_Takeoff,
0.363435363575983,36.8965463572363,5707.9499237961,0,0,1.29095148488,7600,2017-11-08 07:10:37,12,17.023,5707.9499237961,0,0,1.29095148488,255.9, 3.4, 1,0,0,1024,1024,1024,1024,256.2,0,98,4.274,4.274,4.27,4.263,0,0,84.11,10,Assisted_Takeoff,
0.363435399737211,36.8965463946989,5707.9499237961,0,0,1.30985240412,7700,2017-11-08 07:10:37,12,17.023,5707.9499237961,0,0,1.30985240412,255.9, 3.4, 1,0,0,1024,1024,1024,1024,256.2,0,98,4.274,4.274,4.27,4.263,0,0,84.11,10,Assisted_Takeoff,
0.363435411939549,36.8965464090005,5707.9499237961,0,0,1.31670607888,7800,2017-11-08 07:10:37,12,17.023,5707.9499237961,0,0,1.31670607888,255.9, 3.4, 1,0,0,1024,1024,1024,1024,256.2,0,98,4.274,4.274,4.27,4.263,0,0,84.11,10,Assisted_Takeoff,
0.3634354268506,36.8965464245095,5707.9499237961,0,0,1.32451775892,7900,2017-11-08 07:10:37,12,17.023,5707.9499237961,0,0,1.32451775892,255.9, 3.4, 1,0,0,1024,1024,1024,1024,256.2,0,98,4.274,4.274,4.27,4.263,0,0,84.11,10,Assisted_Takeoff,
0.363435487760919,36.8965464532158,5707.9499237961,0,0,1.34654203784,8000,2017-11-08 07:10:37,12,17.023,5707.9499237961,0,0,1.34654203784,255.9, 3.4, 1,0,0,1024,1024,1024,1024,256.2,0,98,4.274,4.274,4.27,4.263,0,0,84.11,10,Assisted_Takeoff,
0.363435549308571,36.8965464851918,5707.9499237961,0,0,1.36972773412,8100,2017-11-08 07:10:37,12,17.023,5707.9499237961,0,0,1.36972773412,255.9, 3.4, 1,0,0,1024,1024,1024,1024,256.2,0,98,4.274,4.274,4.27,4.263,0,0,84.11,10,Assisted_Takeoff,
0.363435586145399,36.8965465296996,5707.9499237961,0,0,1.39080713112,8200,2017-11-08 07:10:38,12,17.023,5707.9499237961,0,0,1.39080713112,255.9, 3.4, 1,0,0,1024,1024,1024,1024,256.2,0,98,4.274,4.275,4.27,4.263,0,0,84.11,10,Assisted_Takeoff,
0.363435617758382,36.8965465718021,5707.9499237961,0,0,1.41000004512,8300,2017-11-08 07:10:38,12,17.023,5707.9499237961,0,0,1.41000004512,255.9, 3.4, 1,0,0,1024,1024,1024,1024,256.2,0,98,4.274,4.275,4.27,4.263,0,0,84.11,10,Assisted_Takeoff,
0.363435658234172,36.896546625769,5707.9499237961,0,0,1.43459322176,8400,2017-11-08 07:10:38,12,17.023,5707.9499237961,0,0,1.43459322176,255.9, 3.4, 1,0,0,1024,1024,1024,1024,256.2,0,98,4.274,4.275,4.27,4.263,0,0,84.11,10,Assisted_Takeoff,
0.363435699477773,36.896546674622,5707.9499237961,0,0,1.45791671332,8500,2017-11-08 07:10:38,12,17.023,5707.9499237961,0,0,1.45791671332,255.9, 3.4, 1,0,0,1024,1024,1024,1024,256.2,0,98,4.274,4.275,4.27,4.263,0,0,84.11,10,Assisted_Takeoff,
0.363435748999162,36.8965466998665,5707.9499237961,0,0,1.47648298688,8600,2017-11-08 07:10:38,12,17.023,5707.9499237961,0,0,1.47648298688,255.9, 3.4, 1,0,0,1024,1024,1024,1024,256.2,0,98,4.274,4.275,4.27,4.263,0,0,84.11,10,Assisted_Takeoff,
0.363435796990221,36.8965467233654,5707.9499237961,0,0,1.49424545464,8700,2017-11-08 07:10:38,12,17.023,5707.9499237961,0,0,1.49424545464,255.9, 3.4, 1,0,0,1024,1024,1177,1024,256.2,0,98,4.274,4.275,4.27,4.263,0,0,84.11,10,Assisted_Takeoff,
0.363435838923875,36.8965467934165,5707.9499237961,0,0,1.5236877128,8900,2017-11-08 07:10:38,12,17.023,5707.9499237961,0,0,1.5236877128,255.9, 3.4, 1,0,0,1024,1024,1309,1024,256.2,0,98,4.274,4.275,4.27,4.263,0,0,84.11,10,Assisted_Takeoff,
0.363435870068681,36.8965468420427,5707.9499237961,0,0,1.5446030678,9000,2017-11-08 07:10:38,12,17.023,5707.9499237961,0,0,1.5446030678,255.9, 3.3, 1.1,0,0,1024,1024,1370,1024,256.2,0,98,4.274,4.275,4.27,4.263,0,0,84.11,10,Assisted_Takeoff,
0.36343590548347,36.8965468870479,5707.9499237961,0,0,1.56549217608,9100,2017-11-08 07:10:38,12,17.023,5707.9499237961,0,0,1.56549217608,255.9, 3.2, 1.1,0,0,1024,1024,1397,1024,256.2,0,98,4.274,4.275,4.27,4.263,0,0,84.11,10,Assisted_Takeoff,
0.363435947034847,36.8965469055329,5707.9499237961,0,0,1.5803478196,9200,2017-11-08 07:10:39,12,17.023,5707.9499237961,0,0,1.5803478196,255.9, 3.1, 0.9,0,0,1024,1024,1404,1024,256.2,0,98,4.274,4.275,4.27,4.263,0,0,84.11,10,Assisted_Takeoff,
0.363435985785504,36.8965469207967,5707.9499237961,0,0,1.5936844342,9300,2017-11-08 07:10:39,12,17.023,5707.9499237961,0,0,1.5936844342,255.8, 2.6, 0.7,0,0,1024,1024,1421,1024,256.2,0,98,4.274,4.275,4.27,4.263,0,0,84.11,10,Assisted_Takeoff,
0.363435999387489,36.8965469586511,5707.9499237961,0,0,1.6074639622,9400,2017-11-08 07:10:39,12,17.023,5707.9499237961,0,0,1.6074639622,255.7, 0.7, 0.6,0,0,1024,1024,1432,1024,256.2,0,98,4.274,4.275,4.27,4.263,0,0,84.11,10,Assisted_Takeoff,
0.363436015265633,36.8965470012439,5707.9499237961,0,0,1.62312013068,9500,2017-11-08 07:10:39,12,17.023,5707.9499237961,0,0,1.62312013068,255.7, -0.7, 0.7,0,0,1024,1024,1447,1024,256.2,0,98,4.274,4.275,4.27,4.263,0,0,84.11,6,GPS_Atti,Obstacle Avoided. Revise Flight Route
0.363436007464979,36.8965470208769,5707.9499237961,0,0,1.6268373224,9600,2017-11-08 07:10:39,12,17.023,5707.9499237961,0,0,1.6268373224,255.7, -0.5, 0.5,0,0,1024,1024,1449,1024,256.2,0,98,4.274,4.275,4.27,4.263,0,0,84.11,6,GPS_Atti,
0.363436003439669,36.8965469938171,5707.9499237961,0,0,1.61828089168,9700,2017-11-08 07:10:39,12,17.023,5707.9499237961,0,0,1.6268373224,255.7, 0.2, 0,0,0,1024,1024,1449,1024,256.1,0,98,4.274,4.275,4.27,4.263,0,0,84.11,6,GPS_Atti,
0.36343600159342,36.8965469220279,5708.2780077961,0.328084,0.223694,1.5977362716,9800,2017-11-08 07:10:39,12,17.023,5708.2780077961,0.328084,0.223694,1.6268373224,255.6, 0.5, 0.1,0,0,1024,1024,1447,1024,256.1,0,98,4.274,4.275,4.27,4.263,0,0,84.11,6,GPS_Atti,
0.363435985156517,36.8965468279678,5708.6060917961,0.656168,0.223694,1.56772970896,9900,2017-11-08 07:10:39,12,17.023,5708.6060917961,0.656168,0.223694,1.6268373224,255.6, 1.2, 0,0,0,1024,1024,1445,1024,256.1,0,98,4.274,4.275,4.27,4.263,0,0,84.11,6,GPS_Atti,
0.363435910742123,36.8965466830955,5709.2622597961,1.312336,0.223694,1.51003285672,10000,2017-11-08 07:10:39,12,17.023,5709.2622597961,1.312336,0.223694,1.6268373224,255.7, 1.8, 0.5,0,0,1024,1024,1443,1024,256.1,0,98,4.274,4.275,4.27,4.263,0,0,84.11,6,GPS_Atti,
0.363435836360297,36.8965465441587,5709.9184277961,1.968504,0.223694,1.45409781556,10100,2017-11-08 07:10:40,12,17.023,5709.9184277961,1.968504,0.223694,1.6268373224,255.6, 2.6, 0.7,0,0,1024,1024,1433,1024,256.1,0,98,4.274,4.275,4.27,4.263,0,0,84.11,6,GPS_Atti,
0.36343578782717,36.8965464067487,5710.5745957961,2.624672,0.223694,1.40507222344,10200,2017-11-08 07:10:40,12,17.05,5710.5745957961,2.624672,0.223694,1.6268373224,255.8, 2.7, 0.7,0,0,1024,1024,1437,1024,256.1,0,98,4.273,4.274,4.269,4.262,0,0,84.11,6,GPS_Atti,
0.363435757728232,36.8965462913496,5711.5588477961,3.608924,0.223694,1.36681106736,10300,2017-11-08 07:10:40,12,17.05,5711.5588477961,3.608924,0.223694,1.6268373224,255.8, 2.7, 0.3,0,0,1024,1024,1427,1024,256.1,0,98,4.273,4.274,4.269,4.262,0,0,84.11,6,GPS_Atti,Home Point Recorded. RTH Altitude:  30m.
0.363435753652644,36.8965462182955,5712.2150157961,4.265092,0.223694,1.34656172288,10400,2017-11-08 07:10:40,12,17.05,5712.2150157961,4.265092,0.223694,1.6268373224,255.8, 2.4, 0.3,0,0,1024,1024,1426,1024,256.1,0,98,4.273,4.274,4.269,4.262,0,0,84.11,6,GPS_Atti,
0.363435743795062,36.8965461437562,5713.1992677961,5.249344,0,1.32466539672,10500,,12,17.05,5713.1992677961,5.249344,0.223694,1.6268373224,255.7, 2.6, 0.6,0,0,1024,1024,1421,1024,256.1,0,98,4.273,4.274,4.269,4.262,0,0,84.11,6,GPS_Atti,
0.363435788717522,36.8965460475738,5714.1835197961,6.233596,0.223694,1.31190292912,10600,2017-11-08 07:10:40,12,17.05,5714.1835197961,6.233596,0.223694,1.6268373224,255.7, 3.1, 0.5,0,0,1024,1024,1421,1024,256.1,0,98,4.273,4.274,4.269,4.262,0,0,84.11,6,GPS_Atti,
0.363435827041119,36.8965459423491,5714.8396877961,6.889764,0.223694,1.29617458216,10700,2017-11-08 07:10:40,12,17.05,5714.8396877961,6.889764,0.223694,1.6268373224,255.7, 3.4, 0.3,0,0,1024,1024,1418,1024,256.1,0,98,4.273,4.274,4.269,4.262,0,0,84.11,6,GPS_Atti,
0.363435843500617,36.8965458001347,5715.8239397961,7.874016,0.223694,1.26677169408,10800,2017-11-08 07:10:40,12,17.05,5715.8239397961,7.874016,0.223694,1.6268373224,255.8, 3.5, 0.1,0,0,1024,1024,1418,1024,256.1,0,98,4.273,4.274,4.269,4.262,0,0,84.11,6,GPS_Atti,
0.36343583481816,36.8965456602458,5716.8081917961,8.858268,0.223694,1.2321686746,10900,2017-11-08 07:10:40,12,17.05,5716.8081917961,8.858268,0.223694,1.6268373224,255.7, 3.7, 0.3,0,0,1024,1024,1418,1024,256.1,0,98,4.273,4.274,4.269,4.262,0,0,84.11,6,GPS_Atti,
0.363435786654283,36.8965455677764,5717.4643597961,9.514436,0.223694,1.19760830604,11000,2017-11-08 07:10:40,12,17.05,5717.4643597961,9.514436,0.223694,1.6268373224,255.7, 3.8, 0.7,0,0,1024,1024,1411,1024,256.1,0,98,4.273,4.274,4.269,4.262,0,0,84.11,6,GPS_Atti,
0.36343574219878,36.8965454851816,5718.1205277961,10.170604,0.223694,1.166502662,11100,2017-11-08 07:10:40,12,17.05,5718.1205277961,10.170604,0.223694,1.6268373224,255.7, 4.1, 0.6,0,0,1024,1024,1405,1024,256.1,0,98,4.273,4.274,4.269,4.262,0,0,84.11,6,GPS_Atti,
0.36343568407941,36.8965453863705,5719.1047797961,11.154856,0,1.12806434056,11200,2017-11-08 07:10:41,12,16.381,5719.1047797961,11.154856,0.223694,1.6268373224,255.7, 4.5, 0.4,0,0,1024,1024,1405,1024,256.1,0,98,4.205,4.194,4.185,4.173,0,0,84.11,6,GPS_Atti,
0.363435636741561,36.8965453010601,5719.7609477961,11.811024,0,1.09592851276,11300,2017-11-08 07:10:41,12,16.381,5719.7609477961,11.811024,0.223694,1.6268373224,255.7, 4.2, 1.1,0,0,1024,1024,1406,1024,256.1,0,98,4.205,4.194,4.185,4.173,0,0,84.11,6,GPS_Atti,
0.363435592373179,36.8965452289586,5720.4171157961,12.467192,0,1.06762470608,11400,2017-11-08 07:10:41,12,16.381,5720.4171157961,12.467192,0.223694,1.6268373224,255.7, 3.7, 1.7,0,0,1024,1024,1410,1024,256.1,0,98,4.205,4.194,4.185,4.173,0,0,84.11,6,GPS_Atti,
0.363435615889539,36.8965450383039,5721.7294517961,13.779528,0,1.03721460012,11600,2017-11-08 07:10:41,12,16.381,5721.7294517961,13.779528,0.223694,1.6268373224,255.6, 4.1, 0.1,0,0,1024,1024,1411,1024,256.1,0,98,4.205,4.194,4.185,4.173,0,0,84.11,6,GPS_Atti,
0.363435673949674,36.8965449433357,5722.7137037961,14.76378,0,1.03830711984,11700,2017-11-08 07:10:41,12,16.381,5722.7137037961,14.76378,0.223694,1.6268373224,255.6, 3.7, -1.9,0,0,1024,1024,1410,1024,256.1,0,98,4.205,4.194,4.185,4.173,0,0,84.11,6,GPS_Atti,
0.363435691286496,36.8965448919602,5723.3698717961,15.419948,0,1.03501315648,11800,2017-11-08 07:10:41,12,16.381,5723.3698717961,15.419948,0.223694,1.6268373224,255.7, 2.9, -2.2,0,0,1024,1024,1409,1024,256.1,0,98,4.205,4.194,4.185,4.173,0,0,84.11,6,GPS_Atti,
0.363435655343073,36.8965448518295,5724.0260397961,16.076116,0,1.01662076744,11900,2017-11-08 07:10:41,12,16.381,5724.0260397961,16.076116,0.223694,1.6268373224,255.7, 2.8, -0.8,0,0,1024,1024,1412,1024,256.1,0,98,4.205,4.194,4.185,4.173,0,0,84.11,6,GPS_Atti,
0.36343554370082,36.8965447999449,5724.6822077961,16.732284,0,0.97174543792,12000,,12,16.381,5724.6822077961,16.732284,0.223694,1.6268373224,255.7, 3, 0.6,0,0,1024,1024,1412,1024,256.1,0,98,4.205,4.194,4.185,4.173,0,0,84.11,6,GPS_Atti,
0.363435440294423,36.8965447291907,5725.6664597961,17.716536,0,0.92638454408,12100,2017-11-08 07:10:41,12,16.381,5725.6664597961,17.716536,0.223694,1.6268373224,255.7, 3.8, 0.9,0,0,1024,1024,1413,1024,256.1,0,98,4.205,4.194,4.185,4.173,0,0,84.11,6,GPS_Atti,
0.363435329015924,36.8965446381788,5726.3226277961,18.372704,0,0.87519031672,12200,2017-11-08 07:10:42,12,16.568,5726.3226277961,18.372704,0.223694,1.6268373224,255.6, 4.6, 0.6,0,0,1024,1024,1412,1024,256.1,0,98,4.168,4.162,4.163,4.154,0,0,84.11,6,GPS_Atti,
0.36343523745666,36.8965445567367,5726.9787957961,19.028872,0,0.83214897676,12300,2017-11-08 07:10:42,12,16.568,5726.9787957961,19.028872,0.223694,1.6268373224,255.6, 4.6, 0.5,0,0,1024,1024,1412,1024,256.1,0,98,4.168,4.162,4.163,4.154,0,0,84.11,6,GPS_Atti,
0.363435123476165,36.8965444296997,5727.6349637961,19.68504,0,0.77501314816,12400,2017-11-08 07:10:42,12,16.568,5727.6349637961,19.68504,0.223694,1.6268373224,255.7, 4.6, 0.5,0,0,1024,1024,1413,1024,256.1,0,98,4.168,4.162,4.163,4.154,0,0,84.11,6,GPS_Atti,
0.363435025092907,36.8965443095715,5728.6192157961,20.669292,0,0.72494752976,12500,2017-11-08 07:10:42,12,16.568,5728.6192157961,20.669292,0.223694,1.6268373224,255.7, 5, 0.5,0,0,1024,1024,1408,1024,256.1,0,98,4.168,4.162,4.163,4.154,0,0,84.11,6,GPS_Atti,
0.363434902131543,36.8965442116414,5729.2753837961,21.32546,0,0.67024608444,12600,2017-11-08 07:10:42,12,16.568,5729.2753837961,21.32546,0.223694,1.6268373224,255.7, 5.1, 0.4,0,0,1024,1024,1411,1024,256.1,0,98,4.168,4.162,4.163,4.154,0,0,84.11,6,GPS_Atti,
0.363434791693525,36.8965441426866,5729.9315517961,21.981628,0,0.62379595172,12700,2017-11-08 07:10:42,12,16.568,5729.9315517961,21.981628,0.223694,1.6268373224,255.7, 5, 0.5,0,0,1024,1024,1412,1024,256.1,0,98,4.168,4.162,4.163,4.154,0,0,84.11,6,GPS_Atti,
0.363434698047104,36.8965440747664,5730.9158037961,22.96588,0,0.58345146224,12800,2017-11-08 07:10:42,12,16.568,5730.9158037961,22.96588,0.223694,1.6268373224,255.7, 5.2, 0.6,0,0,1024,1024,1412,1024,256.1,0,98,4.168,4.162,4.163,4.154,0,0,84.11,6,GPS_Atti,
0.363434614083107,36.8965440338407,5731.5719717961,23.622048,0,0.54969818032,12900,2017-11-08 07:10:42,12,16.568,5731.5719717961,23.622048,0.223694,1.6268373224,255.8, 5.1, 1,0,0,1024,1024,1416,1024,256.1,0,98,4.168,4.162,4.163,4.154,0,0,84.11,6,GPS_Atti,
0.363434522914873,36.8965440187711,5732.2281397961,24.278216,0,0.5163714076,13000,2017-11-08 07:10:42,12,16.568,5732.2281397961,24.278216,0.223694,1.6268373224,255.7, 5.2, 1,0,0,1024,1024,1416,1024,256.1,0,98,4.168,4.162,4.163,4.154,0,0,84.11,6,GPS_Atti,
0.363434441708748,36.8965440259346,5732.8843077961,24.934384,0,0.48921261408,13100,2017-11-08 07:10:42,12,16.568,5732.8843077961,24.934384,0.223694,1.6268373224,255.7, 4.8, 0.6,0,0,1024,1024,1415,1024,256,0,98,4.168,4.162,4.163,4.154,0,0,84.11,6,GPS_Atti,
0.363434347213094,36.8965440693882,5733.8685597961,25.918636,0,0.46287403056,13200,2017-11-08 07:10:43,12,16.568,5733.8685597961,25.918636,0.223694,1.6268373224,255.7, 4.6, 0.5,0,0,1024,1024,1415,1024,256.1,0,98,4.168,4.162,4.163,4.154,0,0,84.11,6,GPS_Atti,
0.363434244785392,36.8965441223001,5734.5247277961,26.574804,0,0.43722442344,13300,2017-11-08 07:10:43,12,16.568,5734.5247277961,26.574804,0.223694,1.6268373224,255.7, 4.8, 0.8,0,0,1024,1024,1415,1024,256,0,98,4.168,4.162,4.163,4.154,0,0,84.11,6,GPS_Atti,
0.363434123629565,36.8965441483449,5735.1808957961,27.230972,0,0.40330709952,13400,2017-11-08 07:10:43,12,16.568,5735.1808957961,27.230972,0.223694,1.6268373224,255.7, 4.8, 1.4,0,0,1024,1024,1415,1024,256,0,98,4.168,4.162,4.163,4.154,0,0,84.11,6,GPS_Atti,
0.363434009197686,36.8965441835658,5736.1651477961,28.215224,0,0.37575788604,13500,2017-11-08 07:10:43,12,16.568,5736.1651477961,28.215224,0.223694,1.6268373224,255.8, 4.9, 1.7,0,0,1024,1024,1418,1024,256,0,98,4.168,4.162,4.163,4.154,0,0,84.11,6,GPS_Atti,
0.363433862373003,36.896544238135,5736.8213157961,28.871392,0,0.34769686152,13600,,12,16.568,5736.8213157961,28.871392,0.223694,1.6268373224,255.7, 4.5, 1.1,0,0,1024,1024,1419,1024,256,0,98,4.168,4.162,4.163,4.154,0,0,84.11,6,GPS_Atti,
0.363433714475073,36.8965443136352,5737.8055677961,29.855644,0,0.33322179544,13700,2017-11-08 07:10:43,12,16.568,5737.8055677961,29.855644,0.223694,1.6268373224,255.7, 4.4, 1.7,0,0,1024,1024,1419,1024,256,0,98,4.168,4.162,4.163,4.154,0,0,84.11,6,GPS_Atti,
0.363433556395093,36.896544388914,5738.4617357961,30.511812,0.223694,0.327779538048,13800,2017-11-08 07:10:43,12,16.568,5738.4617357961,30.511812,0.223694,1.6268373224,255.7, 4.5, 3,0,0,1024,1024,1411,1024,256,0,98,4.168,4.162,4.163,4.154,0,0,84.11,6,GPS_Atti,
0.36343343429365,36.8965444650909,5739.1179037961,31.16798,0,0.33835631004,13900,2017-11-08 07:10:43,12,16.568,5739.1179037961,31.16798,0.223694,1.6268373224,255.7, 4.2, 3.2,0,0,1024,1024,1415,1024,256,0,98,4.168,4.162,4.163,4.154,0,0,84.11,6,GPS_Atti,
0.36343332264702,36.896544549373,5740.1021557961,32.152232,0,0.35989502464,14000,2017-11-08 07:10:43,12,16.568,5740.1021557961,32.152232,0.223694,1.6268373224,255.7, 3.9, 3,0,0,1024,1024,1414,1024,256,0,98,4.168,4.162,4.163,4.154,0,0,84.11,6,GPS_Atti,
0.363433240973429,36.8965446160093,5740.7583237961,32.8084,0,0.38105972348,14100,2017-11-08 07:10:44,12,16.568,5740.7583237961,32.8084,0.223694,1.6268373224,255.7, 3.7, 2.6,0,0,1024,1024,1418,1024,256,0,98,4.168,4.162,4.163,4.154,0,0,84.11,6,GPS_Atti,
0.363433143738924,36.8965446484869,5742.3987437961,34.44882,0,0.39246392332,14300,2017-11-08 07:10:44,12,16.568,5742.3987437961,34.44882,0.223694,1.6268373224,255.6, 4, 2.1,0,0,1024,1024,1419,1024,256,0,98,4.168,4.162,4.163,4.154,0,0,84.11,6,GPS_Atti,
0.363433133941263,36.8965446310804,5743.0549117961,35.104988,0,0.38625657404,14400,2017-11-08 07:10:44,12,16.568,5743.0549117961,35.104988,0.223694,1.6268373224,255.7, 4.2, 1.8,0,0,1024,1024,1419,1024,256,0,98,4.168,4.162,4.163,4.154,0,0,84.11,6,GPS_Atti,
0.363433140864262,36.8965445979061,5744.0391637961,36.08924,0,0.37405841092,14500,2017-11-08 07:10:44,12,16.568,5744.0391637961,36.08924,0.223694,1.6268373224,255.6, 4.9, 1.4,0,0,1024,1024,1419,1024,256,0,98,4.168,4.162,4.163,4.154,0,0,84.11,6,GPS_Atti,
0.363433144118784,36.8965445520086,5744.6953317961,36.745408,0,0.357283476,14600,2017-11-08 07:10:44,12,16.568,5744.6953317961,36.745408,0.223694,1.6268373224,255.7, 5.6, 1.4,0,0,1024,1024,1421,1024,256,0,98,4.168,4.162,4.163,4.154,0,0,84.11,6,GPS_Atti,
0.363433166030427,36.8965445253752,5745.6795837961,37.72966,0,0.34736549668,14700,2017-11-08 07:10:44,12,16.568,5745.6795837961,37.72966,0.223694,1.6268373224,255.7, 5, 1.2,0,0,1024,1024,1421,1024,256,0,98,4.168,4.162,4.163,4.154,0,0,84.11,6,GPS_Atti,
0.363433201093917,36.8965444895278,5746.3357517961,38.385828,0,0.33434712356,14800,2017-11-08 07:10:44,12,16.568,5746.3357517961,38.385828,0.223694,1.6268373224,255.7, 4.7, 1.1,0,0,1024,1024,1423,1024,256,0,98,4.168,4.162,4.163,4.154,0,0,84.11,6,GPS_Atti,
0.363433256260575,36.8965444601828,5747.3200037961,39.37008,0.223694,0.324755915904,14900,2017-11-08 07:10:44,12,16.568,5747.3200037961,39.37008,0.223694,1.6268373224,255.7, 4.4, 0.7,0,0,1024,1024,1423,1024,256,0,98,4.168,4.162,4.163,4.154,0,0,84.11,6,GPS_Atti,
0.36343333237392,36.8965444435687,5747.9761717961,40.026248,0,0.32234581084,15000,2017-11-08 07:10:44,12,16.568,5747.9761717961,40.026248,0.223694,1.6268373224,255.7, 4.3, 0.5,0,0,1024,1024,1426,1024,256,0,98,4.168,4.162,4.163,4.154,0,0,84.11,6,GPS_Atti,
0.363433414901044,36.8965444274333,5748.9604237961,41.0105,0,0.323215889608,15100,2017-11-08 07:10:45,12,16.568,5748.9604237961,41.0105,0.223694,1.6268373224,255.7, 4.4, 0.3,0,0,1024,1024,1429,1024,256,0,98,4.168,4.162,4.163,4.154,0,0,84.11,6,GPS_Atti,
0.363433495077815,36.8965444217516,5749.6165917961,41.666668,0,0.33024279272,15200,,12,16.434,5749.6165917961,41.666668,0.223694,1.6268373224,255.7, 4.7, 0,0,0,1024,1024,1431,1024,256,0,98,4.164,4.155,4.15,4.139,0,0,84.11,6,GPS_Atti,
0.363433577207778,36.8965444203663,5750.6008437961,42.65092,0,0.3413878062,15300,2017-11-08 07:10:45,12,16.434,5750.6008437961,42.65092,0.223694,1.6268373224,255.7, 4.7, -0.2,0,0,1024,1024,1427,1024,256,0,98,4.164,4.155,4.15,4.139,0,0,84.11,6,GPS_Atti,
0.363433636895644,36.8965444461058,5751.2570117961,43.307088,0,0.35948820048,15400,2017-11-08 07:10:45,12,16.434,5751.2570117961,43.307088,0.223694,1.6268373224,255.7, 4.1, -0.2,0,0,1024,1024,1428,1024,256,0,98,4.164,4.155,4.15,4.139,0,0,84.11,6,GPS_Atti,
0.363433693785132,36.8965444735288,5752.2412637961,44.29134,0,0.37823492024,15500,2017-11-08 07:10:45,12,16.434,5752.2412637961,44.29134,0.223694,1.6268373224,255.7, 4.1, -0.5,0,0,1024,1024,1430,1024,256,0,98,4.164,4.155,4.15,4.139,0,0,84.11,6,GPS_Atti,
0.363433716303764,36.8965445059922,5753.2255157961,45.275592,0,0.39259515692,15600,2017-11-08 07:10:45,12,16.434,5753.2255157961,45.275592,0.223694,1.6268373224,255.7, 3.9, -1,0,0,1024,1024,1432,1024,256,0,98,4.164,4.155,4.15,4.139,0,0,84.11,6,GPS_Atti,
0.363433709788614,36.8965445317304,5753.8816837961,45.93176,0,0.399606312,15700,2017-11-08 07:10:45,12,16.434,5753.8816837961,45.93176,0.223694,1.6268373224,255.5, 4.1, -0.6,0,0,1024,1024,1439,1024,256,0,98,4.164,4.155,4.15,4.139,0,0,84.11,6,GPS_Atti,
0.363433649770275,36.8965445367771,5754.8659357961,46.916012,0,0.39112862144,15800,2017-11-08 07:10:45,12,16.434,5754.8659357961,46.916012,0.223694,1.6268373224,255.7, 3.6, 1,0,0,1024,1024,1433,1024,256,0,98,4.164,4.155,4.15,4.139,0,0,84.11,6,GPS_Atti,
0.363433591526177,36.8965445050774,5755.8501877961,47.900264,0,0.37167980192,15900,2017-11-08 07:10:45,12,16.434,5755.8501877961,47.900264,0.223694,1.6268373224,255.7, 4.3, 1.6,0,0,1024,1024,1423,1024,256,0,98,4.164,4.155,4.15,4.139,0,0,84.11,6,GPS_Atti,
0.363433505659241,36.8965444209039,5756.8344397961,48.884516,0,0.33131890824,16000,2017-11-08 07:10:45,12,16.434,5756.8344397961,48.884516,0.223694,1.6268373224,255.7, 5.1, 1.3,0,0,1024,1024,1397,1024,256,0,98,4.164,4.155,4.15,4.139,0,0,84.11,6,GPS_Atti,
0.363433452308311,36.8965443155312,5757.8186917961,49.868768,0.223694,0.288483276948,16100,2017-11-08 07:10:45,12,16.434,5757.8186917961,49.868768,0.223694,1.6268373224,255.7, 5.7, 0.2,0,0,1024,1024,1396,1024,256,0,98,4.164,4.155,4.15,4.139,0,0,84.11,6,GPS_Atti,
0.363433388786451,36.8965441848693,5758.4748597961,50.524936,0.223694,0.235803157152,16200,2017-11-08 07:10:46,12,16.568,5758.4748597961,50.524936,0.223694,1.6268373224,255.7, 6.9, 0.5,0,0,1024,1024,1400,1024,256,0,98,4.149,4.144,4.144,4.137,0,0,84.11,6,GPS_Atti,
0.363433335768131,36.8965440614604,5759.4591117961,51.509188,0.223694,0.186977696272,16300,2017-11-08 07:10:46,12,16.568,5759.4591117961,51.509188,0.223694,1.6268373224,255.7, 7.4, 0.4,0,0,1024,1024,1407,1024,256,0,98,4.149,4.144,4.144,4.137,0,0,84.11,6,GPS_Atti,
0.363433277952339,36.8965439583413,5760.1152797961,52.165356,0,0.1449721175,16400,2017-11-08 07:10:46,12,16.568,5760.1152797961,52.165356,0.223694,1.6268373224,255.7, 7.2, 0.6,0,0,1024,1024,1408,1024,256,0,98,4.149,4.144,4.144,4.137,0,0,84.11,6,GPS_Atti,
0.363433239345214,36.8965438769706,5761.0995317961,53.149608,0,0.112896329072,16500,2017-11-08 07:10:46,12,16.568,5761.0995317961,53.149608,0.223694,1.6268373224,255.7, 6.7, 0.3,0,0,1024,1024,1425,1024,256,0,98,4.149,4.144,4.144,4.137,0,0,84.11,6,GPS_Atti,
0.363433200494841,36.8965438142178,5761.7556997961,53.805776,0,0.088204071064,16600,,12,16.568,5761.7556997961,53.805776,0.223694,1.6268373224,255.7, 6.2, 0.3,0,0,1024,1024,1432,1024,256,0,98,4.149,4.144,4.144,4.137,0,0,84.11,6,GPS_Atti,
0.363433177808924,36.8965437557726,5762.4118677961,54.461944,0,0.066551183232,16700,2017-11-08 07:10:46,12,16.568,5762.4118677961,54.461944,0.223694,1.6268373224,255.8, 6.4, 0.3,0,0,1024,1024,1437,1024,256,0,98,4.149,4.144,4.144,4.137,0,0,84.11,6,GPS_Atti,
0.363433148386388,36.896543719991,5763.3961197961,55.446196,0,0.05468668154,16800,2017-11-08 07:10:46,12,16.568,5763.3961197961,55.446196,0.223694,1.6268373224,255.8, 6.5, 0.2,0,0,1024,1024,1422,1024,256,0,98,4.149,4.144,4.144,4.137,0,0,84.11,6,GPS_Atti,
0.363433143734471,36.8965436873951,5764.3803717961,56.430448,0,0.0436023636,16900,2017-11-08 07:10:46,12,16.568,5764.3803717961,56.430448,0.223694,1.6268373224,255.8, 6.7, 0,0,0,1024,1024,1443,1024,255.9,0,98,4.149,4.144,4.144,4.137,0,0,84.11,6,GPS_Atti,
0.363433181828801,36.8965435880842,5766.0207917961,58.070868,0,0.0054339240584,17100,2017-11-08 07:10:46,12,16.568,5766.0207917961,58.070868,0.223694,1.6268373224,255.7, 6.9, -0.3,0,0,1024,1024,1445,1024,255.9,0,98,4.149,4.144,4.144,4.137,0,0,84.11,6,GPS_Atti,
0.363433206986149,36.8965435815276,5767.0050437961,59.05512,0,0.0104522313056,17200,2017-11-08 07:10:47,12,16.568,5767.0050437961,59.05512,0.223694,1.6268373224,255.8, 6.6, -0.3,0,0,1024,1024,1445,1024,256,0,98,4.149,4.144,4.144,4.137,0,0,84.11,6,GPS_Atti,
0.363433247757629,36.8965435922717,5767.6612117961,59.711288,0,0.0258324811416,17300,2017-11-08 07:10:47,12,16.568,5767.6612117961,59.711288,0.223694,1.6268373224,255.8, 6.3, -0.4,0,0,1024,1024,1450,1024,256,0,98,4.149,4.144,4.144,4.137,0,0,84.11,6,GPS_Atti,
0.363433281959736,36.8965435851508,5768.6454637961,60.69554,0,0.037620079944,17400,2017-11-08 07:10:47,12,16.568,5768.6454637961,60.69554,0.223694,1.6268373224,255.7, 6.3, -0.6,0,0,1024,1024,1443,1024,255.9,0,98,4.149,4.144,4.144,4.137,0,0,84.11,6,GPS_Atti,
0.363433337072668,36.8965435806088,5769.6297157961,61.679792,0.223694,0.057541996592,17500,2017-11-08 07:10:47,12,16.568,5769.6297157961,61.679792,0.223694,1.6268373224,255.7, 6.1, -0.7,0,0,1024,1024,1448,1024,255.9,0,98,4.149,4.144,4.144,4.137,0,0,84.11,6,GPS_Atti,
0.363433381453085,36.896543548299,5770.6139677961,62.664044,0.223694,0.074239175604,17600,2017-11-08 07:10:47,12,16.568,5770.6139677961,62.664044,0.223694,1.6268373224,255.7, 6.3, -1.2,0,0,1024,1024,1444,1024,255.9,0,98,4.149,4.144,4.144,4.137,0,0,84.11,6,GPS_Atti,
0.363433448850565,36.8965435208359,5771.5982197961,63.648296,0.223694,0.100115488768,17700,2017-11-08 07:10:47,12,16.568,5771.5982197961,63.648296,0.223694,1.6268373224,255.7, 6.1, -1.8,0,0,1024,1024,1452,1024,255.9,0,98,4.149,4.144,4.144,4.137,0,0,84.11,6,GPS_Atti,
0.363433470623116,36.8965434929532,5772.2543877961,64.304464,0.223694,0.11018537098,17800,2017-11-08 07:10:47,12,16.568,5772.2543877961,64.304464,0.223694,1.6268373224,255.7, 6.2, -2.2,0,1,1024,1024,1453,1024,255.9,0,98,4.149,4.144,4.144,4.137,0,0,84.11,6,GPS_Atti,
0.363433501399995,36.896543435216,5774.2228917961,66.272968,0,0.127796263932,18000,2017-11-08 07:10:47,12,16.568,5774.2228917961,66.272968,0.223694,1.6268373224,255.6, 6.5, -1.8,0,1,1024,1024,1455,1024,255.9,0,98,4.149,4.144,4.144,4.137,0,0,84.11,6,GPS_Atti,
0.363433521701246,36.8965434013573,5775.2071437961,67.25722,0,0.13972933518,18100,2017-11-08 07:10:48,12,16.568,5775.2071437961,67.25722,0.223694,1.6268373224,255.7, 6.8, -2,0,1,1024,1024,1455,1024,256,0,98,4.149,4.144,4.144,4.137,0,0,84.11,6,GPS_Atti,
0.363433532428163,36.8965433842095,5776.1913957961,68.241472,0,0.146086290764,18200,,12,16.434,5776.1913957961,68.241472,0.223694,1.6268373224,255.7, 6.7, -2.2,0,1,1024,1024,1457,1024,255.9,0,98,4.145,4.145,4.165,4.156,0,0,84.11,6,GPS_Atti,Insufficient DJI Device Storage
0.363433554064128,36.8965433827175,5777.1756477961,69.225724,0,0.153335306744,18300,2017-11-08 07:10:48,12,16.434,5777.1756477961,69.225724,0.223694,1.6268373224,255.7, 6.8, -1.9,0,1,1024,1024,1457,1024,255.9,0,98,4.145,4.145,4.165,4.156,0,0,84.11,6,GPS_Atti,
0.363433618928157,36.8965433523565,5778.8160677961,70.866144,0,0.179452761648,18500,2017-11-08 07:10:48,12,16.434,5778.8160677961,70.866144,0.223694,1.6268373224,255.7, 6.7, -2,0,1,1024,1024,1458,1024,255.9,0,98,4.145,4.145,4.165,4.156,0,0,84.11,6,GPS_Atti,
0.363433698830306,36.896543332986,5781.7688237961,73.8189,0,0.208782158912,18800,2017-11-08 07:10:48,12,16.434,5781.7688237961,73.8189,0.223694,1.6268373224,255.7, 6.9, -2.9,0,1,1024,1024,1459,1024,255.9,0,98,4.145,4.145,4.165,4.156,0,0,84.11,6,GPS_Atti,
0.363433722529306,36.8965433392993,5782.7530757961,74.803152,0,0.215737211628,18900,2017-11-08 07:10:48,12,16.434,5782.7530757961,74.803152,0.223694,1.6268373224,255.7, 6.8, -2.4,0,1,1024,1024,1459,1024,255.9,0,98,4.145,4.145,4.165,4.156,0,0,84.11,6,GPS_Atti,
0.363433739434335,36.8965433772058,5783.7373277961,75.787404,0,0.216457027924,19000,2017-11-08 07:10:48,12,16.434,5783.7373277961,75.787404,0.223694,1.6268373224,255.7, 7, -1.8,0,1,1024,1024,1456,1024,256,0,98,4.145,4.145,4.165,4.156,0,0,84.11,6,GPS_Atti,
0.363433783590409,36.8965434244751,5784.7215797961,76.771656,0,0.226989180492,19100,2017-11-08 07:10:48,12,16.434,5784.7215797961,76.771656,0.223694,1.6268373224,255.7, 6.9, -2,0,1,1024,1024,1458,1024,255.9,0,98,4.145,4.145,4.165,4.156,0,0,84.11,6,GPS_Atti,
0.36343381990471,36.8965434604048,5785.3777477961,77.427824,0,0.237249679508,19200,2017-11-08 07:10:49,12,16.434,5785.3777477961,77.427824,0.223694,1.6268373224,255.6, 6.5, -2.8,0,1,1024,1024,1458,1024,256,0,98,4.153,4.143,4.145,4.136,0,0,84.11,6,GPS_Atti,
0.363433859787542,36.8965434910186,5786.3619997961,78.412076,0,0.250005585428,19300,2017-11-08 07:10:49,12,16.434,5786.3619997961,78.412076,0.223694,1.6268373224,255.6, 6.2, -3,0,1,1024,1024,1456,1024,256,0,98,4.153,4.143,4.145,4.136,0,0,84.11,6,GPS_Atti,
0.363433887105098,36.8965435279262,5787.3462517961,79.396328,0,0.258692265496,19400,2017-11-08 07:10:49,12,16.434,5787.3462517961,79.396328,0.223694,1.6268373224,255.5, 6.9, -2.9,0,1,1024,1024,1457,1024,255.9,0,98,4.153,4.143,4.145,4.136,0,0,84.11,6,GPS_Atti,
0.363433923110198,36.8965435628102,5788.3305037961,80.38058,0,0.271324155664,19500,2017-11-08 07:10:49,12,16.434,5788.3305037961,80.38058,0.223694,1.6268373224,255.6, 7.3, -3.1,0,1,1024,1024,1457,1024,255.9,0,98,4.153,4.143,4.145,4.136,0,0,84.11,6,GPS_Atti,
0.363433916758757,36.8965436226032,5789.3147557961,81.364832,0,0.269578748784,19600,2017-11-08 07:10:49,12,16.434,5789.3147557961,81.364832,0.223694,1.6268373224,255.6, 6.7, -3.2,0,1,1024,1024,1457,1024,255.9,0,98,4.153,4.143,4.145,4.136,0,0,84.11,6,GPS_Atti,
0.363433903223538,36.8965436858347,5790.2990077961,82.349084,0,0.267210310388,19700,2017-11-08 07:10:49,12,16.434,5790.2990077961,82.349084,0.223694,1.6268373224,255.6, 7.1, -2.9,0,1,1024,1024,1459,1024,255.9,0,98,4.153,4.143,4.145,4.136,0,0,84.11,6,GPS_Atti,
0.363433891668507,36.8965437325397,5791.2832597961,83.333336,0,0.266235900908,19800,2017-11-08 07:10:49,12,16.434,5791.2832597961,83.333336,0.223694,1.6268373224,255.6, 6.8, -2.5,0,1,1024,1024,1458,1024,255.9,0,98,4.153,4.143,4.145,4.136,0,0,84.11,6,GPS_Atti,
0.363433894657414,36.8965437796852,5792.2675117961,84.317588,0,0.27155676722,19900,2017-11-08 07:10:49,12,16.434,5792.2675117961,84.317588,0.223694,1.6268373224,255.6, 6.5, -2.2,0,1,1024,1024,1458,1024,255.9,0,98,4.153,4.143,4.145,4.136,0,0,84.11,6,GPS_Atti,
0.363433894680314,36.8965438176914,5793.2517637961,85.30184,0,0.275730323784,20000,2017-11-08 07:10:49,12,16.434,5793.2517637961,85.30184,0.223694,1.6268373224,255.6, 6.4, -2.5,0,1,1024,1024,1459,1024,255.9,0,98,4.153,4.143,4.145,4.136,0,0,84.11,6,GPS_Atti,
0.363433902009635,36.8965438790289,5795.2202677961,87.270344,0,0.28621720076,20200,2017-11-08 07:10:50,12,16.434,5795.2202677961,87.270344,0.223694,1.6268373224,255.6, 6.6, -3,0,1,1024,1024,1456,1024,255.9,0,98,4.147,4.146,4.147,4.14,0,0,84.11,6,GPS_Atti,
0.363433893412265,36.8965439098543,5796.2045197961,88.254596,0,0.2879429226,20300,2017-11-08 07:10:50,12,16.434,5796.2045197961,88.254596,0.223694,1.6268373224,255.6, 6.7, -2.8,0,1,1024,1024,1458,1024,255.9,0,98,4.147,4.146,4.147,4.14,0,0,84.11,6,GPS_Atti,
0.363433893723399,36.8965439158069,5797.1887717961,89.238848,0,0.28897802762,20400,2017-11-08 07:10:50,12,16.434,5797.1887717961,89.238848,0.223694,1.6268373224,255.6, 7, -2.6,0,1,1024,1024,1459,1024,255.9,0,98,4.147,4.146,4.147,4.14,0,0,84.11,6,GPS_Atti,
0.363433898067274,36.8965439251446,5798.1730237961,90.2231,0,0.29188977312,20500,2017-11-08 07:10:50,12,16.434,5798.1730237961,90.2231,0.223694,1.6268373224,255.6, 7.2, -2.6,0,1,1024,1024,1460,1024,255.9,0,98,4.147,4.146,4.147,4.14,0,0,84.11,6,GPS_Atti,
0.363433863112825,36.8965439547357,5798.8291917961,90.879268,0,0.285592856908,20600,2017-11-08 07:10:50,12,16.434,5798.8291917961,90.879268,0.223694,1.6268373224,255.6, 7.1, -2.6,0,1,1024,1024,1460,1024,255.9,0,98,4.147,4.146,4.147,4.14,0,0,84.11,6,GPS_Atti,
0.363433822124839,36.8965440046292,5799.8134437961,91.86352,0,0.282354995912,20700,2017-11-08 07:10:50,12,16.434,5799.8134437961,91.86352,0.223694,1.6268373224,255.6, 7, -2.2,0,1,1024,1024,1461,1024,255.9,0,98,4.147,4.146,4.147,4.14,0,0,84.11,6,GPS_Atti,
0.363433788667795,36.8965440750438,5800.7976957961,92.847772,0,0.287912738872,20800,2017-11-08 07:10:50,12,16.434,5800.7976957961,92.847772,0.223694,1.6268373224,255.5, 6.8, -2.1,0,1,1024,1024,1461,1024,255.9,0,98,4.147,4.146,4.147,4.14,0,0,84.11,6,GPS_Atti,
0.363433765746276,36.8965441517087,5801.7819477961,93.832024,0,0.30044620384,20900,2017-11-08 07:10:50,12,16.434,5801.7819477961,93.832024,0.223694,1.6268373224,255.5, 6.7, -2,0,1,1024,1024,1462,1024,255.9,0,98,4.147,4.146,4.147,4.14,0,0,84.11,6,GPS_Atti,
0.363433753989012,36.8965442338556,5802.7661997961,94.816276,0,0.31937008896,21000,2017-11-08 07:10:50,12,16.434,5802.7661997961,94.816276,0.223694,1.6268373224,255.6, 6.5, -2,0,1,1024,1024,1462,1024,255.9,0,98,4.147,4.146,4.147,4.14,0,0,84.11,6,GPS_Atti,
0.363433750204101,36.8965443220108,5803.7504517961,95.800528,0,0.34344489288,21100,2017-11-08 07:10:51,12,16.434,5803.7504517961,95.800528,0.223694,1.6268373224,255.6, 6.2, -2.2,0,1,1024,1024,1462,1024,255.9,0,98,4.147,4.146,4.147,4.14,0,0,84.11,6,GPS_Atti,
0.363433725711896,36.8965444318924,5804.7347037961,96.78478,0,0.3712434502,21200,2017-11-08 07:10:51,12,16.381,5804.7347037961,96.78478,0.223694,1.6268373224,255.6, 5.9, -2.2,0,1,1024,1024,1466,1024,255.9,0,98,4.147,4.146,4.147,4.14,0,0,85.91,6,GPS_Atti,
0.363433696921922,36.8965445378488,5805.3908717961,97.440948,0,0.39932087892,21300,2017-11-08 07:10:51,12,16.381,5805.3908717961,97.440948,0.223694,1.6268373224,255.6, 5.8, -2.1,0,1,1024,1024,1469,1024,255.9,0,98,4.147,4.146,4.147,4.14,0,0,85.91,6,GPS_Atti,
0.363433643788084,36.8965446104427,5806.3751237961,98.4252,0,0.41455381904,21400,2017-11-08 07:10:51,12,16.381,5806.3751237961,98.4252,0.223694,1.6268373224,255.6, 6.1, -2,0,1,1024,1024,1471,1024,255.9,0,98,4.147,4.146,4.147,4.14,0,0,85.91,6,GPS_Atti,
0.363433600322879,36.8965446728584,5807.3593757961,99.409452,0,0.42951444944,21500,,12,16.381,5807.3593757961,99.409452,0.223694,1.6268373224,255.6, 6.2, -1.9,0,1,1024,1024,1469,1024,255.9,0,98,4.147,4.146,4.147,4.14,0,0,85.91,6,GPS_Atti,
0.36343354265927,36.8965447447223,5808.3436277961,100.393704,0,0.447424555,21600,2017-11-08 07:10:51,12,16.381,5808.3436277961,100.393704,0.223694,1.6268373224,255.6, 5.8, -2.1,0,1,1024,1024,1474,1024,255.9,0,98,4.147,4.146,4.147,4.14,0,0,85.91,6,GPS_Atti,
0.363433507339083,36.8965447984755,5809.3278797961,101.377956,0,0.4626968652,21700,2017-11-08 07:10:51,12,16.381,5809.3278797961,101.377956,0.223694,1.6268373224,255.6, 5.8, -1.9,0,1,1024,1024,1475,1024,255.9,0,98,4.147,4.146,4.147,4.14,0,0,85.91,6,GPS_Atti,
0.363433497634472,36.8965448058899,5810.3121317961,102.362208,0,0.46441274452,21800,2017-11-08 07:10:51,12,16.381,5810.3121317961,102.362208,0.223694,1.6268373224,255.7, 6.5, -1.5,0,1,1024,1024,1472,1024,255.9,0,98,4.147,4.146,4.147,4.14,0,0,85.91,6,GPS_Atti,
0.3634335330171,36.8965447846421,5811.6244677961,103.674544,0,0.46035762628,21900,2017-11-08 07:10:51,12,16.381,5811.6244677961,103.674544,0.223694,1.6268373224,255.6, 7, -2.8,0,1,1024,1024,1470,1024,255.9,0,98,4.147,4.146,4.147,4.14,0,0,85.91,6,GPS_Atti,
0.363433581784672,36.8965447611026,5812.6087197961,104.658796,0,0.457513138,22000,2017-11-08 07:10:51,12,16.381,5812.6087197961,104.658796,0.223694,1.6268373224,255.5, 7, -3.8,0,1,1024,1024,1467,1024,255.9,0,98,4.147,4.146,4.147,4.14,0,0,85.91,6,GPS_Atti,
0.363433612129454,36.8965447486238,5813.5929717961,105.643048,0,0.45690946344,22100,2017-11-08 07:10:51,12,16.381,5813.5929717961,105.643048,0.223694,1.6268373224,255.5, 7, -3.3,0,1,1024,1024,1466,1024,255.9,0,98,4.147,4.146,4.147,4.14,0,0,85.91,6,GPS_Atti,
0.363433606807343,36.8965447399793,5814.5772237961,106.6273,0,0.4532808544,22200,2017-11-08 07:10:52,12,16.381,5814.5772237961,106.6273,0.223694,1.6268373224,255.5, 7.3, -3.1,0,1,1024,1024,1466,1024,255.9,0,98,4.147,4.146,4.147,4.14,0,0,85.91,6,GPS_Atti,
0.363433600026196,36.8965447367847,5815.5614757961,107.611552,0,0.45133859712,22300,2017-11-08 07:10:52,12,16.381,5815.5614757961,107.611552,0.223694,1.6268373224,255.5, 7.4, -3,0,1,1024,1024,1453,1024,255.9,0,98,4.147,4.146,4.147,4.14,0,0,85.91,6,GPS_Atti,
0.363433550182121,36.896544747876,5816.5457277961,108.595804,0,0.4493438464,22400,2017-11-08 07:10:52,12,16.381,5816.5457277961,108.595804,0.223694,1.6268373224,255.5, 7.4, -3,0,1,1024,1024,1453,1024,255.9,0,98,4.147,4.146,4.147,4.14,0,0,85.91,6,GPS_Atti,
0.363433510075835,36.8965447672971,5817.5299797961,109.580056,0,0.45198164176,22500,2017-11-08 07:10:52,12,16.381,5817.5299797961,109.580056,0.223694,1.6268373224,255.5, 7.2, -2.7,0,1,1024,1024,1456,1024,255.9,0,98,4.147,4.146,4.147,4.14,0,0,85.91,6,GPS_Atti,
0.363433481821925,36.8965447878431,5818.5142317961,110.564308,0,0.456610907,22600,2017-11-08 07:10:52,12,16.381,5818.5142317961,110.564308,0.223694,1.6268373224,255.5, 7.3, -3,0,1,1024,1024,1452,1024,255.9,0,98,4.147,4.146,4.147,4.14,0,0,85.91,6,GPS_Atti,
0.363433474548836,36.8965448113884,5819.4984837961,111.54856,0,0.46433072352,22700,2017-11-08 07:10:52,12,16.381,5819.4984837961,111.54856,0.223694,1.6268373224,255.5, 7.1, -2.8,0,1,1024,1024,1454,1024,255.9,0,98,4.147,4.146,4.147,4.14,0,0,85.91,6,GPS_Atti,
0.363433468090122,36.8965448373824,5820.4827357961,112.532812,0,0.4730315112,22800,2017-11-08 07:10:52,12,16.381,5820.4827357961,112.532812,0.223694,1.6268373224,255.6, 6.7, -2.3,0,1,1024,1024,1454,1024,255.9,0,98,4.147,4.146,4.147,4.14,0,0,85.91,6,GPS_Atti,
0.363433493247444,36.8965448580898,5821.1389037961,113.18898,0,0.48249345376,22900,,12,16.381,5821.1389037961,113.18898,0.223694,1.6268373224,255.6, 6.4, -3.3,0,1,1024,1024,1456,1024,255.9,0,98,4.147,4.146,4.147,4.14,0,0,85.91,6,GPS_Atti,
0.363433478194871,36.8965448605035,5822.1231557961,114.173232,0,0.48207678708,23000,2017-11-08 07:10:52,12,16.381,5822.1231557961,114.173232,0.223694,1.6268373224,255.7, 6.2, -3.6,0,1,1024,1024,1442,1024,255.9,0,98,4.147,4.146,4.147,4.14,0,0,85.91,6,GPS_Atti,
0.363433452273554,36.8965448567696,5823.1074077961,115.157484,0,0.47869752188,23100,2017-11-08 07:10:52,12,16.381,5823.1074077961,115.157484,0.223694,1.6268373224,255.6, 6.6, -3.8,0,1,1024,1024,1438,1024,255.9,0,98,4.147,4.146,4.147,4.14,0,0,85.91,6,GPS_Atti,
0.363433421448483,36.8965448672282,5824.0916597961,116.141736,0,0.48023623584,23200,2017-11-08 07:10:53,12,16.434,5824.0916597961,116.141736,0.223694,1.6268373224,255.6, 7.2, -3.7,0,1,1024,1024,1424,1024,255.9,0,97,4.136,4.13,4.133,4.12,0,0,85.91,6,GPS_Atti,
0.363433300429065,36.8965449242661,5825.7320797961,117.782156,0,0.494832693,23400,2017-11-08 07:10:53,12,16.434,5825.7320797961,117.782156,0.223694,1.6268373224,255.6, 6.8, -2.1,0,1,1024,1024,1420,1024,255.9,0,97,4.136,4.13,4.133,4.12,0,0,85.91,6,GPS_Atti,
0.363433223040724,36.8965449563778,5826.7163317961,118.766408,0,0.50482941248,23500,2017-11-08 07:10:53,12,16.434,5826.7163317961,118.766408,0.223694,1.6268373224,255.6, 6.9, -1.7,0,1,1024,1024,1427,1024,256,0,97,4.136,4.13,4.133,4.12,0,0,85.91,6,GPS_Atti,
0.363433153329263,36.8965449713067,5827.7005837961,119.75066,0,0.51011484572,23600,2017-11-08 07:10:53,12,16.434,5827.7005837961,119.75066,0.223694,1.6268373224,255.7, 6.9, -2,0,1,1024,1024,1435,1024,255.9,0,97,4.136,4.13,4.133,4.12,0,0,85.91,6,GPS_Atti,
0.363433099186414,36.8965449969405,5828.3567517961,120.406828,0,0.52020342872,23700,2017-11-08 07:10:53,12,16.434,5828.3567517961,120.406828,0.223694,1.6268373224,255.7, 6.3, -2.1,0,1,1024,1024,1437,1024,255.9,0,97,4.136,4.13,4.133,4.12,0,0,85.91,6,GPS_Atti,
0.36343301402588,36.896544997115,5829.3410037961,121.39108,0,0.52293964928,23800,2017-11-08 07:10:53,12,16.434,5829.3410037961,121.39108,0.223694,1.6268373224,255.7, 6.7, -2.2,0,1,1024,1024,1443,1024,255.9,0,97,4.136,4.13,4.133,4.12,0,0,85.91,6,GPS_Atti,
0.363432937328806,36.8965449939294,5829.9971717961,122.047248,0,0.52575789084,23900,2017-11-08 07:10:53,12,16.434,5829.9971717961,122.047248,0.223694,1.6268373224,255.7, 7.2, -1.9,0,1,1024,1024,1443,1024,256,0,97,4.136,4.13,4.133,4.12,0,0,85.91,6,GPS_Atti,
0.36343282861851,36.896545009026,5830.9814237961,123.0315,0,0.539206054,24000,2017-11-08 07:10:53,12,16.434,5830.9814237961,123.0315,0.223694,1.6268373224,255.6, 7, -2,0,1,1024,1024,1448,1024,256,0,97,4.136,4.13,4.133,4.12,0,0,85.91,6,GPS_Atti,
0.363432733521044,36.8965450319959,5831.6375917961,123.687668,0,0.55648951912,24100,2017-11-08 07:10:54,12,16.434,5831.6375917961,123.687668,0.223694,1.6268373224,255.6, 7.3, -2.1,0,1,1024,1024,1451,1024,256,0,97,4.136,4.13,4.133,4.12,0,0,85.91,6,GPS_Atti,
0.36343263147282,36.8965450489744,5832.6218437961,124.67192,0,0.57429791864,24200,2017-11-08 07:10:54,12,16.542,5832.6218437961,124.67192,0.223694,1.6268373224,255.6, 7.6, -1.3,0,1,1024,1024,1452,1024,255.9,0,97,4.144,4.139,4.14,4.127,0,0,85.91,6,GPS_Atti,
0.363432551165112,36.8965450847671,5833.6060957961,125.656172,0,0.5971784968,24300,,12,16.542,5833.6060957961,125.656172,0.223694,1.6268373224,255.6, 7.4, -1.2,0,1,1024,1024,1453,1024,255.9,0,97,4.144,4.139,4.14,4.127,0,0,85.91,6,GPS_Atti,
0.363432459323517,36.8965451225609,5834.5903477961,126.640424,0,0.62330382572,24400,2017-11-08 07:10:54,12,16.542,5834.5903477961,126.640424,0.223694,1.6268373224,255.7, 7.2, -1.7,0,1,1024,1024,1454,1024,255.9,0,97,4.144,4.139,4.14,4.127,0,0,85.91,6,GPS_Atti,
0.363432375454834,36.8965451807572,5835.5745997961,127.624676,0,0.6557250866,24500,2017-11-08 07:10:54,12,16.542,5835.5745997961,127.624676,0.223694,1.6268373224,255.6, 7.1, -1.6,0,1,1024,1024,1454,1024,256,0,97,4.144,4.139,4.14,4.127,0,0,85.91,6,GPS_Atti,
0.363432254052655,36.8965452677291,5836.5588517961,128.608928,0.223694,0.7043799438,24600,2017-11-08 07:10:54,12,16.542,5836.5588517961,128.608928,0.223694,1.6268373224,255.5, 6.4, -0.8,0,1,1024,1024,1455,1024,256,0,97,4.144,4.139,4.14,4.127,0,0,85.91,6,GPS_Atti,
0.363432140866892,36.8965453608744,5837.2150197961,129.265096,0,0.754265116,24700,2017-11-08 07:10:54,12,16.542,5837.2150197961,129.265096,0.223694,1.6268373224,255.6, 6, -0.3,0,1,1024,1024,1457,1024,255.9,0,97,4.144,4.139,4.14,4.127,0,0,85.91,6,GPS_Atti,
0.363432010559923,36.8965454218234,5838.1992717961,130.249348,0,0.79793965808,24800,2017-11-08 07:10:54,12,16.542,5838.1992717961,130.249348,0.223694,1.6268373224,255.6, 6.3, -0.1,0,1,1024,1024,1457,1024,256,0,97,4.144,4.139,4.14,4.127,0,0,85.91,6,GPS_Atti,
0.363431899955599,36.8965454737517,5839.1835237961,131.2336,0,0.83586288764,24900,2017-11-08 07:10:54,12,16.542,5839.1835237961,131.2336,0.223694,1.6268373224,255.6, 6.5, 0,0,1,1024,1024,1457,1024,255.9,0,97,4.144,4.139,4.14,4.127,0,0,85.91,6,GPS_Atti,
0.363431767615213,36.896545497543,5840.1677757961,132.217852,0,0.87074477852,25000,2017-11-08 07:10:54,12,16.542,5840.1677757961,132.217852,0.223694,1.6268373224,255.7, 6.4, 0.2,0,1,1024,1024,1459,1024,255.9,0,97,4.144,4.139,4.14,4.127,0,0,85.91,6,GPS_Atti,
0.363431666886791,36.8965455212373,5841.1520277961,133.202104,0,0.89979005504,25100,2017-11-08 07:10:54,12,16.542,5841.1520277961,133.202104,0.223694,1.6268373224,255.6, 6.9, -0.2,0,1,1024,1024,1462,1024,255.9,0,97,4.144,4.139,4.14,4.127,0,0,85.91,6,GPS_Atti,
0.363431560341772,36.8965455381451,5841.8081957961,133.858272,0,0.92889438668,25200,2017-11-08 07:10:55,12,16.381,5841.8081957961,133.858272,0.223694,1.6268373224,255.5, 7, -0.1,0,1,1024,1024,1459,1024,255.9,0,97,4.144,4.139,4.14,4.127,0,0,85.91,6,GPS_Atti,
0.363431468683478,36.8965455718856,5842.7924477961,134.842524,0,0.95982942704,25300,2017-11-08 07:10:55,12,16.381,5842.7924477961,134.842524,0.223694,1.6268373224,255.5, 6.9, 0.5,0,1,1024,1024,1458,1024,255.9,0,97,4.144,4.139,4.14,4.127,0,0,85.91,6,GPS_Atti,
0.363431376791299,36.8965456070922,5843.7766997961,135.826776,0,0.99153874564,25400,2017-11-08 07:10:55,12,16.381,5843.7766997961,135.826776,0.223694,1.6268373224,255.6, 6.6, 0.6,0,1,1024,1024,1457,1024,255.9,0,97,4.144,4.139,4.14,4.127,0,0,85.91,6,GPS_Atti,
