latitude,longitude,altitude(feet),ascent(feet),speed(mph),distance(feet),time(millisecond),datetime(utc),satellites,voltage(v),max_altitude(feet),max_ascent(feet),max_speed(mph),max_distance(feet),compass_heading(degrees), pitch(degrees), roll(degrees),isPhoto,isVideo,rc_elevator,rc_aileron,rc_throttle,rc_rudder,gimbal_heading(degrees),gimbal_pitch(degrees),battery_percent,voltageCell1,voltageCell2,voltageCell3,voltageCell4,voltageCell5,voltageCell6,battery_temperature(f),flycStateRaw,flycState,message
0.355592288340235,36.9193426007016,5506.6580544939,0,0,0,100,2017-11-06 07:36:28,14,0,5506.6580544939,0,0,0,272.3, 3.5, 2.1,0,0,1024,1024,1024,1024,276.7,0,100,4.294,4.298,4.297,4.297,0,0,73.31,41,Motors_Started,
0.355592431478834,36.9193426298873,5506.6580544939,0,0,0.053298558136,200,2017-11-06 07:36:28,14,0,5506.6580544939,0,0,0.053298558136,272.3, 3.5, 2.1,0,0,1024,1024,1024,1024,276.8,0,100,4.294,4.298,4.297,4.297,0,0,73.31,41,Motors_Started,
0.355592603794264,36.9193426686098,5506.6580544939,0,0,0.11772966256,300,2017-11-06 07:36:28,14,0,5506.6580544939,0,0,0.11772966256,272.4, 3.5, 2.1,0,0,1024,1024,1024,1024,276.7,0,100,4.294,4.298,4.297,4.297,0,0,73.31,41,Motors_Started,
0.355592910044327,36.9193428000315,5506.6580544939,0,0,0.238201451192,500,2017-11-06 07:36:28,14,0,5506.6580544939,0,0,0.238201451192,272.3, 3.5, 2.1,0,0,1024,1024,1024,1024,276.7,0,100,4.294,4.298,4.297,4.297,0,0,73.31,41,Motors_Started,
0.355593057182385,36.9193428560321,5506.6580544939,0,0,0.295575140692,600,2017-11-06 07:36:28,14,0,5506.6580544939,0,0,0.295575140692,272.3, 3.5, 2.1,0,0,1024,1024,1024,1024,276.7,0,100,4.294,4.298,4.297,4.297,0,0,73.31,41,Motors_Started,
0.355593226494964,36.9193429126031,5506.6580544939,0,0,0.36070539212,700,2017-11-06 07:36:28,14,17.156,5506.6580544939,0,0,0.36070539212,272.3, 3.5, 2.1,0,0,1024,1024,1024,1024,276.7,0,100,4.294,4.298,4.297,4.297,0,0,73.31,41,Motors_Started,Setting new Return-To-Home altitude to 30m (98 ft). Setting new Maximum Flight Altitude to 100m (328 ft)
0.355593346892342,36.9193429981516,5506.6580544939,0,0,0.41253610244,800,2017-11-06 07:36:29,14,17.156,5506.6580544939,0,0,0.41253610244,272.3, 3.6, 2,0,0,1024,1024,1024,1024,276.7,0,100,4.294,4.298,4.297,4.297,0,0,73.31,41,Motors_Started,
0.355593488576741,36.9193430808079,5506.6580544939,0,0,0.47164043504,900,2017-11-06 07:36:29,14,17.156,5506.6580544939,0,0,0.47164043504,272.3, 3.8, 1.9,0,0,1024,1024,1024,1024,276.7,0,100,4.294,4.298,4.297,4.297,0,0,73.31,41,Motors_Started,
0.355593630914145,36.9193431514036,5506.6580544939,0,0,0.52944227416,1000,2017-11-06 07:36:29,14,17.156,5506.6580544939,0,0,0.52944227416,272.3, 3.9, 1.7,0,0,846,747,533,1495,276.7,0,100,4.294,4.298,4.297,4.297,0,0,73.31,41,Motors_Started,
0.355593787510205,36.9193432193641,5506.6580544939,0,0,0.59171261736,1100,2017-11-06 07:36:29,14,17.156,5506.6580544939,0,0,0.59171261736,272.3, 3.8, 1.8,0,0,1024,1024,829,1257,275.7,0,100,4.294,4.298,4.297,4.297,0,0,73.31,41,Motors_Started,
0.3555939285188,36.9193432611424,5506.6580544939,0,0,0.64510828836,1200,2017-11-06 07:36:29,14,17.156,5506.6580544939,0,0,0.64510828836,272.3, 3.2, 2.2,0,0,1024,1024,988,1024,274.5,0,100,4.294,4.298,4.297,4.297,0,0,73.31,41,Motors_Started,
0.355594075531467,36.9193433122409,5506.6580544939,0,0,0.70183073112,1300,2017-11-06 07:36:29,14,17.156,5506.6580544939,0,0,0.70183073112,272.3, 3.7, 2,0,0,1024,1024,1024,1024,274.5,0,100,4.294,4.298,4.297,4.297,0,0,73.31,41,Motors_Started,
0.355594192696384,36.9193433659754,5506.6580544939,0,0,0.7488025174,1400,2017-11-06 07:36:29,14,17.156,5506.6580544939,0,0,0.7488025174,272.3, 4, 1.7,0,0,1024,1024,1024,1024,273.8,0,100,4.294,4.298,4.297,4.297,0,0,73.31,41,Motors_Started,
0.355594333364633,36.9193434113322,5506.6580544939,0,0,0.80260501256,1500,2017-11-06 07:36:29,14,17.156,5506.6580544939,0,0,0.80260501256,272.2, 3.8, 1.7,0,0,1024,1024,1024,1024,273.4,0,100,4.294,4.298,4.297,4.297,0,0,73.31,10,Assisted_Takeoff,
0.355594494282584,36.9193434867995,5506.6580544939,0,0,0.8673392666,1600,2017-11-06 07:36:29,14,17.156,5506.6580544939,0,0,0.8673392666,272.2, 3.4, 2.1,0,0,1024,1024,1024,1024,273.1,0,100,4.294,4.298,4.297,4.297,0,0,73.31,10,Assisted_Takeoff,
0.355594664976083,36.9193435543232,5506.6580544939,0,0,0.93431105352,1700,2017-11-06 07:36:29,14,16.995,5506.6580544939,0,0,0.93431105352,272.2, 3.4, 2,0,0,1024,1024,1024,1024,273,0,100,4.291,4.295,4.295,4.295,0,0,75.11,10,Assisted_Takeoff,
0.355594852160835,36.9193436243595,5506.6580544939,0,0,1.00721131832,1800,2017-11-06 07:36:30,14,16.995,5506.6580544939,0,0,1.00721131832,272.2, 3.6, 2,0,0,1024,1024,1024,1024,272.9,0,100,4.291,4.295,4.295,4.295,0,0,75.11,10,Assisted_Takeoff,
0.355595040417104,36.9193436815571,5506.6580544939,0,0,1.07875331536,1900,2017-11-06 07:36:30,14,16.995,5506.6580544939,0,0,1.07875331536,272.2, 3.3, 2.1,0,0,1024,1024,1024,1024,272.8,0,100,4.291,4.295,4.295,4.295,0,0,75.11,10,Assisted_Takeoff,
0.355595207427063,36.9193437365559,5506.6580544939,0,0,1.14281171636,2000,2017-11-06 07:36:30,14,16.995,5506.6580544939,0,0,1.14281171636,272.2, 3.5, 2,0,0,1024,1024,1024,1024,272.7,0,100,4.291,4.295,4.295,4.295,0,0,75.11,10,Assisted_Takeoff,
0.355595373236859,36.9193437928373,5506.6580544939,0,0,1.20663717772,2100,2017-11-06 07:36:30,14,16.995,5506.6580544939,0,0,1.20663717772,272.2, 3.5, 2,0,0,1024,1024,1024,1024,272.7,0,100,4.291,4.295,4.295,4.295,0,0,75.11,10,Assisted_Takeoff,
0.355595561644573,36.9193438385223,5506.6580544939,0,0,1.27679794112,2200,2017-11-06 07:36:30,14,16.995,5506.6580544939,0,0,1.27679794112,272.2, 3.4, 2.1,0,0,1024,1024,1024,1024,272.6,0,100,4.291,4.295,4.295,4.295,0,0,75.11,10,Assisted_Takeoff,
0.355595746031658,36.919343888509,5506.6580544939,0,0,1.34619098796,2300,2017-11-06 07:36:30,14,16.995,5506.6580544939,0,0,1.34619098796,272.2, 3.5, 2,0,0,1024,1024,1107,1024,272.6,0,100,4.291,4.295,4.295,4.295,0,0,75.11,10,Assisted_Takeoff,
0.355595913004163,36.9193439323022,5506.6580544939,0,0,1.40887143616,2400,2017-11-06 07:36:30,14,16.995,5506.6580544939,0,0,1.40887143616,272.2, 3.4, 2.1,0,0,1024,1024,1353,1024,272.6,0,100,4.291,4.295,4.295,4.295,0,0,75.11,10,Assisted_Takeoff,
0.355596081237084,36.9193439779626,5506.6580544939,0,0,1.47224086076,2500,2017-11-06 07:36:30,14,16.995,5506.6580544939,0,0,1.47224086076,272.2, 3.5, 1.9,0,0,1024,1024,1317,1024,272.5,0,100,4.291,4.295,4.295,4.295,0,0,75.11,10,Assisted_Takeoff,
0.355596187878996,36.9193440230587,5506.6580544939,0,0,1.51442918232,2600,2017-11-06 07:36:30,14,16.995,5506.6580544939,0,0,1.51442918232,272.2, 3.7, 1.6,0,0,1024,1024,1316,1024,272.5,0,100,4.291,4.295,4.295,4.295,0,0,75.11,10,Assisted_Takeoff,
0.355596304464187,36.9193440710859,5506.6580544939,0,0,1.56039703156,2700,2017-11-06 07:36:30,14,17.209,5506.6580544939,0,0,1.56039703156,272.2, 3.8, 1.4,0,0,1024,1024,1332,1024,272.5,0,100,4.286,4.292,4.29,4.288,0,0,75.11,10,Assisted_Takeoff,
0.35559641236163,36.9193441540936,5506.6580544939,0,0,1.60784453964,2800,2017-11-06 07:36:31,14,17.209,5506.6580544939,0,0,1.60784453964,272.3, 4.1, 1.2,0,0,1024,1024,1358,1024,272.5,0,100,4.286,4.292,4.29,4.288,0,0,75.11,10,Assisted_Takeoff,
0.355596544817636,36.9193442512149,5506.6580544939,0,0,1.66563653624,2900,2017-11-06 07:36:31,14,17.209,5506.6580544939,0,0,1.66563653624,272.7, 4.2, 0.8,0,0,1024,1024,1407,1024,272.5,0,100,4.286,4.292,4.29,4.288,0,0,75.11,10,Assisted_Takeoff,
0.355596655058409,36.9193444045858,5506.6580544939,0,0.223694,1.72377630188,3000,2017-11-06 07:36:31,14,17.209,5506.6580544939,0,0.223694,1.72377630188,273, 3.7, -0.1,0,0,1024,1024,1471,1024,272.5,0,100,4.286,4.292,4.29,4.288,0,0,75.11,10,Assisted_Takeoff,
0.355596771378164,36.9193446129691,5506.6580544939,0,0.223694,1.79284454556,3100,2017-11-06 07:36:31,14,17.209,5506.6580544939,0,0.223694,1.79284454556,273, 1.9, -0.6,0,0,1024,1024,1486,1024,272.5,0,100,4.286,4.292,4.29,4.288,0,0,75.11,6,GPS_Atti,
0.355596855585003,36.9193448693951,5506.6580544939,0,0.447388,1.86060701492,3200,2017-11-06 07:36:31,14,17.209,5506.6580544939,0,0.447388,1.86060701492,273, 0.2, -0.2,0,0,1024,1024,1547,1024,272.5,0,100,4.286,4.292,4.29,4.288,0,0,75.11,6,GPS_Atti,
0.355596923528572,36.9193451177964,5506.9861384939,0.328084,0.223694,1.92440294872,3300,2017-11-06 07:36:31,14,17.209,5506.9861384939,0.328084,0.447388,1.92440294872,273, -0.6, 0.1,0,0,1024,1024,1642,1031,272.6,0,100,4.286,4.292,4.29,4.288,0,0,75.11,6,GPS_Atti,
0.355596949783975,36.9193453528733,5507.6423064939,0.984252,0.223694,1.97501974824,3400,2017-11-06 07:36:31,14,17.209,5507.6423064939,0.984252,0.447388,1.97501974824,273.1, -1, 0.5,0,0,1024,1024,1684,1024,272.6,0,100,4.286,4.292,4.29,4.288,0,0,75.11,6,GPS_Atti,
0.35559698680502,36.9193455575245,5507.9703904939,1.312336,0.223694,2.02542329316,3500,2017-11-06 07:36:31,14,17.209,5507.9703904939,1.312336,0.447388,2.02542329316,273.2, -0.5, 0.9,0,0,1024,1024,1684,1024,272.6,0,100,4.286,4.292,4.29,4.288,0,0,75.11,6,GPS_Atti,
0.355597006942359,36.9193456521924,5508.6265584939,1.968504,0.223694,2.050196916,3600,2017-11-06 07:36:31,13,17.209,5508.6265584939,1.968504,0.447388,2.050196916,273.2, -0.5, 1.2,0,0,1024,1024,1684,1024,272.6,0,100,4.286,4.292,4.29,4.288,0,0,75.11,6,GPS_Atti,
0.355597063924871,36.9193457634576,5509.6108104939,2.952756,0.223694,2.08981962068,3700,2017-11-06 07:36:31,13,16.728,5509.6108104939,2.952756,0.447388,2.08981962068,273.3, -1, 0.9,0,0,1024,1024,1684,1044,272.7,0,100,4.286,4.292,4.29,4.288,0,0,75.11,6,GPS_Atti,
0.355597204741309,36.9193457941511,5510.5950624939,3.937008,0,2.13892395296,3800,2017-11-06 07:36:32,13,16.728,5510.5950624939,3.937008,0.447388,2.13892395296,273.3, -1.2, 0.6,0,0,1024,1024,1684,1048,272.7,0,100,4.286,4.292,4.29,4.288,0,0,75.11,6,GPS_Atti,Home Point Recorded. RTH Altitude:  30m.
0.355597347638898,36.9193458256935,5511.9073984939,5.249344,0,2.18899613304,3900,2017-11-06 07:36:32,13,16.728,5511.9073984939,5.249344,0.447388,2.18899613304,273.2, -0.8, 0.9,0,0,1024,1024,1684,1030,272.7,0,100,4.286,4.292,4.29,4.288,0,0,75.11,6,GPS_Atti,
0.355597512059632,36.9193457680163,5513.2197344939,6.56168,0,2.22883209232,4000,2017-11-06 07:36:32,14,16.728,5513.2197344939,6.56168,0.447388,2.22883209232,273.3, -1, 0.7,0,0,1024,1024,1684,1032,272.7,0,100,4.286,4.292,4.29,4.288,0,0,75.11,6,GPS_Atti,
0.355597690349823,36.9193457289036,5514.5320704939,7.874016,0,2.27751975792,4100,2017-11-06 07:36:32,14,16.728,5514.5320704939,7.874016,0.447388,2.27751975792,273.4, -1, 0,0,0,1024,1024,1684,1024,272.7,0,100,4.286,4.292,4.29,4.288,0,0,75.11,6,GPS_Atti,
0.355597818705407,36.9193456434032,5516.1724904939,9.514436,0,2.30296595296,4200,2017-11-06 07:36:32,14,16.728,5516.1724904939,9.514436,0.447388,2.30296595296,273.5, -0.9, -0.3,0,0,1024,1024,1684,1072,272.7,0,100,4.286,4.292,4.29,4.288,0,0,75.11,6,GPS_Atti,
0.355597950532834,36.9193455773335,5517.8129104939,11.154856,0,2.333907555,4300,2017-11-06 07:36:32,14,16.728,5517.8129104939,11.154856,0.447388,2.333907555,273.4, -0.8, -0.6,0,0,1024,1024,1684,1024,272.7,0,100,4.286,4.292,4.29,4.288,0,0,75.11,6,GPS_Atti,
0.355598067906192,36.919345489503,5519.7814144939,13.12336,0,2.3573983694,4400,2017-11-06 07:36:32,14,16.728,5519.7814144939,13.12336,0.447388,2.3573983694,273.5, -0.7, -0.3,0,0,1024,1024,1684,1024,272.8,0,100,4.286,4.292,4.29,4.288,0,0,75.11,6,GPS_Atti,
0.355598184328538,36.9193454207454,5521.4218344939,14.76378,0,2.38453747788,4500,2017-11-06 07:36:32,14,16.728,5521.4218344939,14.76378,0.447388,2.38453747788,273.6, -0.8, -0.1,0,0,1024,1024,1684,1024,272.8,0,100,4.286,4.292,4.29,4.288,0,0,75.11,6,GPS_Atti,
0.355598264579887,36.9193453649707,5523.0622544939,16.4042,0,2.40236884328,4600,2017-11-06 07:36:32,14,16.728,5523.0622544939,16.4042,0.447388,2.40236884328,273.5, -0.9, -0.5,0,0,1024,1024,1684,1024,272.8,0,100,4.286,4.292,4.29,4.288,0,0,75.11,6,GPS_Atti,
0.355598355559425,36.919345314973,5524.7026744939,18.04462,0,2.425032886,4700,2017-11-06 07:36:32,14,16.327,5524.7026744939,18.04462,0.447388,2.425032886,273.6, -0.9, -0.7,0,0,1024,1024,1684,1024,272.8,0,100,4.156,4.163,4.156,4.151,0,0,75.11,6,GPS_Atti,
0.355598452078929,36.9193453214952,5526.3430944939,19.68504,0,2.45817921252,4800,2017-11-06 07:36:33,14,16.327,5526.3430944939,19.68504,0.447388,2.45817921252,273.6, -1.1, -0.5,0,0,1024,1024,1684,1024,272.9,0,100,4.156,4.163,4.156,4.151,0,0,75.11,6,GPS_Atti,
0.355598545830078,36.9193453099128,5527.9835144939,21.32546,0,2.4878281636,4900,2017-11-06 07:36:33,14,16.327,5527.9835144939,21.32546,0.447388,2.4878281636,273.6, -0.9, -0.4,0,0,1024,1024,1684,1024,272.9,0,100,4.156,4.163,4.156,4.151,0,0,75.11,6,GPS_Atti,
0.355598583750025,36.9193453113463,5529.6239344939,22.96588,0,2.50073498816,5000,2017-11-06 07:36:33,14,16.327,5529.6239344939,22.96588,0.447388,2.50073498816,273.5, -0.6, -0.1,0,0,1024,1024,1684,1024,272.9,0,100,4.156,4.163,4.156,4.151,0,0,75.11,6,GPS_Atti,
0.35559863407383,36.9193452974337,5531.2643544939,24.6063,0,2.51562015924,5100,2017-11-06 07:36:33,14,16.327,5531.2643544939,24.6063,0.447388,2.51562015924,273.5, -1, -0.2,0,0,1024,1024,1684,1024,272.9,0,100,4.156,4.163,4.156,4.151,0,0,75.11,6,GPS_Atti,
0.355598657770947,36.9193453007724,5532.9047744939,26.24672,0,2.52405519888,5200,2017-11-06 07:36:33,14,16.327,5532.9047744939,26.24672,0.447388,2.52405519888,273.5, -1, -0.5,0,0,1024,1024,1684,1024,272.9,0,100,4.156,4.163,4.156,4.151,0,0,75.11,6,GPS_Atti,
0.355598696130574,36.9193452805255,5534.5451944939,27.88714,0,2.5340880076,5300,2017-11-06 07:36:33,14,16.327,5534.5451944939,27.88714,0.447388,2.5340880076,273.6, -0.8, -0.4,0,0,1024,1024,1684,1024,272.9,0,100,4.156,4.163,4.156,4.151,0,0,75.11,6,GPS_Atti,
0.355598716564289,36.9193453287641,5536.1856144939,29.52756,0,2.54779207628,5400,2017-11-06 07:36:33,14,16.327,5536.1856144939,29.52756,0.447388,2.54779207628,273.5, -1, -0.4,0,0,1024,1024,1684,1024,272.9,0,100,4.156,4.163,4.156,4.151,0,0,75.11,6,GPS_Atti,
0.355598759830417,36.9193453598853,5537.8260344939,31.16798,0,2.56676189316,5500,2017-11-06 07:36:33,14,16.327,5537.8260344939,31.16798,0.447388,2.56676189316,273.6, -1.7, -0.6,0,0,1024,1024,1684,1024,272.9,0,100,4.156,4.163,4.156,4.151,0,0,75.11,6,GPS_Atti,
0.355598798639495,36.9193454071315,5539.4664544939,32.8084,0,2.58656832424,5600,2017-11-06 07:36:33,14,16.327,5539.4664544939,32.8084,0.447388,2.58656832424,273.6, -2.4, -1,0,0,1024,1024,1684,1024,272.9,0,100,4.156,4.163,4.156,4.151,0,0,75.11,6,GPS_Atti,
0.35559885968009,36.9193454033919,5541.1068744939,34.44882,0,2.60649942724,5700,2017-11-06 07:36:33,14,16.488,5541.1068744939,34.44882,0.447388,2.60649942724,273.5, -2.9, -2.1,0,0,1024,1024,1684,1024,272.9,0,100,4.122,4.135,4.133,4.134,0,0,75.11,6,GPS_Atti,
0.355598872671816,36.9193453552345,5542.4192104939,35.761156,0,2.60402895472,5800,2017-11-06 07:36:34,14,16.488,5542.4192104939,35.761156,0.447388,2.60649942724,273.6, -1.6, -1.4,0,0,1024,1024,1684,1024,272.9,0,100,4.122,4.135,4.133,4.134,0,0,75.11,6,GPS_Atti,
0.355598862047847,36.9193452596828,5544.0596304939,37.401576,0,2.58717856048,5900,2017-11-06 07:36:34,14,16.488,5544.0596304939,37.401576,0.447388,2.60649942724,273.6, -0.5, -0.4,0,0,1024,1024,1684,1024,272.9,0,100,4.122,4.135,4.133,4.134,0,0,75.11,6,GPS_Atti,
0.355598796577885,36.9193452090304,5545.7000504939,39.041996,0,2.5581201606,6000,2017-11-06 07:36:34,14,16.488,5545.7000504939,39.041996,0.447388,2.60649942724,273.7, -0.8, -0.2,0,0,1024,1024,1684,1024,273,0,100,4.122,4.135,4.133,4.134,0,0,75.11,6,GPS_Atti,
0.35559876129276,36.919345151153,5547.3404704939,40.682416,0,2.53835638044,6100,2017-11-06 07:36:34,14,16.488,5547.3404704939,40.682416,0.447388,2.60649942724,273.7, -1.5, 0.1,0,0,1024,1024,1684,1028,273,0,100,4.122,4.135,4.133,4.134,0,0,75.11,6,GPS_Atti,
0.355598736455732,36.919345075756,5548.9808904939,42.322836,0,2.51994102552,6200,2017-11-06 07:36:34,14,16.488,5548.9808904939,42.322836,0.447388,2.60649942724,273.7, -1.5, 0,0,0,1024,1024,1684,1034,273,0,100,4.122,4.135,4.133,4.134,0,0,75.11,6,GPS_Atti,
0.355598742759439,36.9193449609327,5550.6213104939,43.963256,0,2.50739509336,6300,2017-11-06 07:36:34,14,16.488,5550.6213104939,43.963256,0.447388,2.60649942724,273.7, -0.7, -0.6,0,0,1024,1024,1684,1024,273,0,100,4.122,4.135,4.133,4.134,0,0,75.11,6,GPS_Atti,
0.355598796791211,36.9193448308316,5552.2617304939,45.603676,0,2.51013131392,6400,2017-11-06 07:36:34,14,16.488,5552.2617304939,45.603676,0.447388,2.60649942724,273.7, 0.5, -1.2,0,0,1024,1024,1684,1024,273,0,100,4.122,4.135,4.133,4.134,0,0,75.11,6,GPS_Atti,
0.355598850682937,36.9193447195803,5553.9021504939,47.244096,0,2.51597448996,6500,2017-11-06 07:36:34,14,16.488,5553.9021504939,47.244096,0.447388,2.60649942724,273.7, 0.1, -1.2,0,0,1024,1024,1684,1024,273,0,100,4.122,4.135,4.133,4.134,0,0,75.11,6,GPS_Atti,
0.355598912124129,36.919344578415,5557.1829904939,50.524936,0,2.52210309908,6700,2017-11-06 07:36:34,14,16.407,5557.1829904939,50.524936,0.447388,2.60649942724,273.8, -2.3, -1.3,0,0,1024,1024,1684,1024,273,0,100,4.109,4.121,4.118,4.119,0,0,75.11,6,GPS_Atti,
0.355598960045979,36.9193444624819,5558.8234104939,52.165356,0,2.5271654352,6800,2017-11-06 07:36:35,14,16.407,5558.8234104939,52.165356,0.447388,2.60649942724,273.8, -1.2, -1.7,0,0,1024,1024,1684,1024,273.1,0,100,4.109,4.121,4.118,4.119,0,0,75.11,6,GPS_Atti,
0.35559900624982,36.9193443177905,5560.4638304939,53.805776,0,2.52981963476,6900,2017-11-06 07:36:35,14,16.407,5560.4638304939,53.805776,0.447388,2.60649942724,273.7, -0.6, -1.6,0,0,1024,1024,1684,1024,273.1,0,100,4.109,4.121,4.118,4.119,0,0,75.11,6,GPS_Atti,
0.355599052609992,36.9193441739401,5562.1042504939,55.446196,0,2.5338091362,7000,2017-11-06 07:36:35,14,16.407,5562.1042504939,55.446196,0.447388,2.60649942724,273.7, 0, -1.6,0,0,1024,1024,1684,1028,273.1,0,100,4.109,4.121,4.118,4.119,0,0,75.11,6,GPS_Atti,
0.355599090733495,36.9193440343202,5563.7446704939,57.086616,0,2.53636491056,7100,2017-11-06 07:36:35,14,16.407,5563.7446704939,57.086616,0.447388,2.60649942724,273.7, 0.3, -1.5,0,0,1024,1024,1684,1047,273.1,0,100,4.109,4.121,4.118,4.119,0,0,75.11,6,GPS_Atti,
0.355599120193675,36.9193439271164,5565.3850904939,58.727036,0,2.5391405012,7200,2017-11-06 07:36:35,14,16.407,5565.3850904939,58.727036,0.447388,2.60649942724,273.8, 0.1, -1.1,0,0,1024,1024,1684,1062,273.2,0,100,4.109,4.121,4.118,4.119,0,0,75.11,6,GPS_Atti,
0.355599142915354,36.919343752015,5568.6659304939,62.007876,0,2.53591871632,7400,2017-11-06 07:36:35,14,16.407,5568.6659304939,62.007876,0.447388,2.60649942724,274.2, -1, -0.6,0,0,1024,1024,1684,1062,273.2,0,100,4.109,4.121,4.118,4.119,0,0,75.11,6,GPS_Atti,
0.355599157962177,36.9193436556464,5570.3063504939,63.648296,0,2.53575795516,7500,2017-11-06 07:36:35,14,16.407,5570.3063504939,63.648296,0.447388,2.60649942724,274.4, -0.6, -1.1,0,0,1024,1024,1684,1068,273.2,0,100,4.109,4.121,4.118,4.119,0,0,75.11,6,GPS_Atti,
0.355599188629034,36.9193435903298,5571.9467704939,65.288716,0,2.5433235722,7600,2017-11-06 07:36:35,14,16.407,5571.9467704939,65.288716,0.447388,2.60649942724,274.6, -0.2, -1.4,0,0,1024,1024,1684,1072,273.3,0,100,4.109,4.121,4.118,4.119,0,0,75.11,6,GPS_Atti,
0.355599199156924,36.9193435249886,5573.5871904939,66.929136,0,2.54385834912,7700,2017-11-06 07:36:35,14,16.407,5573.5871904939,66.929136,0.447388,2.60649942724,275, 0, -0.9,0,0,1024,1024,1684,1071,273.6,0,100,4.109,4.121,4.118,4.119,0,0,75.11,6,GPS_Atti,
0.355599171683446,36.9193434645819,5575.5556944939,68.89764,0,2.53108275816,7800,2017-11-06 07:36:36,14,16.407,5575.5556944939,68.89764,0.447388,2.60649942724,275.4, -0.1, 0,0,0,1024,1024,1684,1079,273.7,0,100,4.109,4.121,4.118,4.119,0,0,75.11,6,GPS_Atti,
0.355599150819821,36.9193434053081,5577.1961144939,70.53806,0,2.52092199668,7900,2017-11-06 07:36:36,14,16.407,5577.1961144939,70.53806,0.447388,2.60649942724,275.8, -0.1, 0.4,0,0,1024,1024,1684,1074,273.9,0,100,4.109,4.121,4.118,4.119,0,0,75.11,6,GPS_Atti,
0.355599143828911,36.9193433862836,5578.8365344939,72.17848,0,2.51758866324,8000,2017-11-06 07:36:36,14,16.407,5578.8365344939,72.17848,0.447388,2.60649942724,276.2, -0.5, 0.1,0,0,1024,1024,1684,1075,274.2,0,100,4.109,4.121,4.118,4.119,0,0,75.11,6,GPS_Atti,
0.355599155262216,36.91934336367,5580.4769544939,73.8189,0,2.52080716728,8100,2017-11-06 07:36:36,14,16.407,5580.4769544939,73.8189,0.447388,2.60649942724,276.5, -0.5, -0.4,0,0,1024,1024,1684,1087,274.4,0,100,4.109,4.121,4.118,4.119,0,0,75.11,6,GPS_Atti,
0.355599171948882,36.919343346984,5582.1173744939,75.45932,0,2.5261975874,8200,2017-11-06 07:36:36,14,16.407,5582.1173744939,75.45932,0.447388,2.60649942724,276.9, -0.1, -0.4,0,0,1024,1024,1684,1090,274.8,0,100,4.109,4.121,4.118,4.119,0,0,75.11,6,GPS_Atti,
0.355599184118244,36.9193433343028,5584.0858784939,77.427824,0,2.5301181912,8300,2017-11-06 07:36:36,14,16.407,5584.0858784939,77.427824,0.447388,2.60649942724,277.4, 0.1, -0.3,0,0,1024,1024,1684,1098,275.2,0,100,4.109,4.121,4.118,4.119,0,0,75.11,6,GPS_Atti,
0.355599137779242,36.9193433795671,5585.7262984939,79.068244,0,2.51511819072,8400,2017-11-06 07:36:36,14,16.407,5585.7262984939,79.068244,0.447388,2.60649942724,277.9, 0, 0,0,0,1024,1024,1684,1089,275.7,0,100,4.109,4.121,4.118,4.119,0,0,75.11,6,GPS_Atti,
0.355599099900006,36.9193434441591,5587.3667184939,80.708664,0,2.50417330848,8500,2017-11-06 07:36:36,14,16.407,5587.3667184939,80.708664,0.447388,2.60649942724,278.6, -0.9, 0.2,0,0,1024,1024,1684,1092,276.1,0,100,4.109,4.121,4.118,4.119,0,0,75.11,6,GPS_Atti,
0.355599070957671,36.9193435331124,5589.0071384939,82.349084,0,2.49790690408,8600,2017-11-06 07:36:36,14,16.407,5589.0071384939,82.349084,0.447388,2.60649942724,279.2, -1.5, 0.2,0,0,1024,1024,1684,1090,276.6,0,100,4.109,4.121,4.118,4.119,0,0,75.11,6,GPS_Atti,
0.355599063264901,36.9193436146745,5590.9756424939,84.317588,0,2.49935703536,8700,2017-11-06 07:36:36,14,16.354,5590.9756424939,84.317588,0.447388,2.60649942724,279.8, -1.7, 0.3,0,0,1024,1024,1684,1093,277.1,0,100,4.109,4.121,4.118,4.119,0,0,75.11,6,GPS_Atti,
0.355599041165288,36.9193437420458,5592.6160624939,85.958008,0,2.49870742904,8800,2017-11-06 07:36:37,14,16.354,5592.6160624939,85.958008,0.447388,2.60649942724,280.4, -2, 0,0,0,1024,1024,1684,1067,277.7,0,100,4.109,4.121,4.118,4.119,0,0,75.11,6,GPS_Atti,
0.355599045430183,36.9193438429196,5594.2564824939,87.598428,0,2.50663393848,8900,2017-11-06 07:36:37,14,16.354,5594.2564824939,87.598428,0.447388,2.60649942724,281.1, -2.3, 0,0,0,1024,1024,1684,1070,277.7,0,100,4.109,4.121,4.118,4.119,0,0,75.11,6,GPS_Atti,
0.355599060605652,36.9193439464311,5596.2249864939,89.566932,0,2.51916674728,9000,2017-11-06 07:36:37,14,16.354,5596.2249864939,89.566932,0.447388,2.60649942724,281.5, -2.1, -0.3,0,0,1024,1024,1684,1084,278,0,100,4.109,4.121,4.118,4.119,0,0,75.11,6,GPS_Atti,
0.355599092086732,36.9193440107681,5597.8654064939,91.207352,0,2.53509194464,9100,2017-11-06 07:36:37,14,16.354,5597.8654064939,91.207352,0.447388,2.60649942724,281.8, -1.7, -0.4,0,0,1024,1024,1684,1068,278.5,0,100,4.109,4.121,4.118,4.119,0,0,75.11,6,GPS_Atti,
0.355599106250937,36.9193440816564,5599.5058264939,92.847772,0,2.54551517332,9200,2017-11-06 07:36:37,14,16.354,5599.5058264939,92.847772,0.447388,2.60649942724,282.3, -1.2, -0.3,0,0,1024,1024,1684,1072,279,0,100,4.109,4.121,4.118,4.119,0,0,75.11,6,GPS_Atti,
0.35559913697479,36.919344128196,5601.4743304939,94.816276,0,2.56011491132,9300,2017-11-06 07:36:37,14,16.354,5601.4743304939,94.816276,0.447388,2.60649942724,282.7, -0.9, -0.4,0,0,1024,1024,1684,1072,279.3,0,100,4.109,4.121,4.118,4.119,0,0,75.11,6,GPS_Atti,
0.355599145911691,36.9193442195167,5603.1147504939,96.456696,0,2.57074483292,9400,2017-11-06 07:36:37,14,16.354,5603.1147504939,96.456696,0.447388,2.60649942724,283, -1, -0.7,0,0,1024,1024,1684,1061,279.7,0,100,4.109,4.121,4.118,4.119,0,0,75.11,6,GPS_Atti,
0.355599166630384,36.919344289771,5605.0832544939,98.4252,0,2.58409457088,9500,2017-11-06 07:36:37,14,16.354,5605.0832544939,98.4252,0.447388,2.60649942724,283.3, -1.3, -0.9,0,0,1024,1024,1684,1066,280.1,0,100,4.109,4.121,4.118,4.119,0,0,75.11,6,GPS_Atti,
0.355599188785365,36.9193444040671,5606.7236744939,100.06562,0,2.60217528012,9600,2017-11-06 07:36:37,14,16.354,5606.7236744939,100.06562,0.447388,2.60649942724,283.6, -1.3, -1,0,0,1024,1024,1684,1073,280.4,0,100,4.109,4.121,4.118,4.119,0,0,75.11,6,GPS_Atti,
0.355599215135217,36.9193444815292,5608.6921784939,102.034124,0,2.61874024128,9700,2017-11-06 07:36:37,14,16.381,5608.6921784939,102.034124,0.447388,2.61874024128,283.8, -1.2, -0.8,0,0,1024,1024,1684,1070,280.8,0,99,4.109,4.121,4.119,4.121,0,0,75.11,6,GPS_Atti,
0.355599204740859,36.9193445934186,5610.3325984939,103.674544,0,2.62608932288,9800,2017-11-06 07:36:38,14,16.381,5610.3325984939,103.674544,0.447388,2.62608932288,284.1, -1.3, -0.7,0,0,1024,1024,1684,1075,281.1,0,99,4.109,4.121,4.119,4.121,0,0,75.11,6,GPS_Atti,
0.355599202563629,36.9193446771728,5612.3011024939,105.643048,0,2.63395021552,9900,2017-11-06 07:36:38,14,16.381,5612.3011024939,105.643048,0.447388,2.63395021552,284.5, -1.6, -0.6,0,0,1024,1024,1684,1072,281.5,0,99,4.109,4.121,4.119,4.121,0,0,75.11,6,GPS_Atti,
0.355599181289637,36.9193448252874,5613.9415224939,107.283468,0,2.64261163312,10000,2017-11-06 07:36:38,14,16.381,5613.9415224939,107.283468,0.447388,2.64261163312,284.8, -1.6, -0.4,0,0,1024,1024,1684,1073,281.9,0,99,4.109,4.121,4.119,4.121,0,0,75.11,6,GPS_Atti,
0.355599179013072,36.9193449323494,5615.9100264939,109.251972,0,2.65408144976,10100,2017-11-06 07:36:38,14,16.381,5615.9100264939,109.251972,0.447388,2.65408144976,285.2, -1.6, -0.7,0,0,1024,1024,1684,1075,282.3,0,99,4.109,4.121,4.119,4.121,0,0,75.11,6,GPS_Atti,
0.355599135251897,36.9193450980751,5617.5504464939,110.892392,0,2.65906832656,10200,2017-11-06 07:36:38,14,16.381,5617.5504464939,110.892392,0.447388,2.65906832656,285.6, -1.8, -0.9,0,0,1024,1024,1684,1073,282.7,0,99,4.109,4.121,4.119,4.121,0,0,75.11,6,GPS_Atti,
0.355599108646379,36.9193451973682,5619.1908664939,112.532812,0,2.66262475712,10300,2017-11-06 07:36:38,14,16.381,5619.1908664939,112.532812,0.447388,2.66262475712,286, -1.7, -0.8,0,0,1024,1024,1684,1068,283.1,0,99,4.109,4.121,4.119,4.121,0,0,75.11,6,GPS_Atti,
0.355599037431266,36.9193453077769,5621.1593704939,114.501316,0,2.65309063608,10400,2017-11-06 07:36:38,14,16.381,5621.1593704939,114.501316,0.447388,2.66262475712,286.4, -1.2, -0.6,0,0,1024,1024,1684,1088,283.1,0,99,4.109,4.121,4.119,4.121,0,0,75.11,6,GPS_Atti,
0.355598999692076,36.9193453544551,5622.7997904939,116.141736,0,2.64673236816,10500,2017-11-06 07:36:38,14,16.381,5622.7997904939,116.141736,0.447388,2.66262475712,286.7, -0.8, -0.6,0,0,1024,1024,1684,1088,283.4,0,99,4.109,4.121,4.119,4.121,0,0,75.11,6,GPS_Atti,
0.355598966646062,36.9193454413087,5624.7682944939,118.11024,0,2.64782488788,10600,2017-11-06 07:36:38,14,16.381,5624.7682944939,118.11024,0.447388,2.66262475712,287.1, -0.7, -1,0,0,1024,1024,1684,1084,283.9,0,99,4.109,4.121,4.119,4.121,0,0,75.11,6,GPS_Atti,
0.355598962446305,36.9193454864437,5626.4087144939,119.75066,0,2.65290690904,10700,2017-11-06 07:36:38,14,16.354,5626.4087144939,119.75066,0.447388,2.66262475712,287.7, -0.9, -1.5,0,0,1024,1024,1684,1087,284.4,0,99,4.109,4.123,4.121,4.123,0,0,75.11,6,GPS_Atti,
0.355598923997114,36.9193455464329,5628.0491344939,121.39108,0,2.64884194828,10800,2017-11-06 07:36:39,14,16.354,5628.0491344939,121.39108,0.447388,2.66262475712,288.3, -0.5, -1.8,0,0,1024,1024,1684,1087,284.9,0,99,4.109,4.123,4.121,4.123,0,0,75.11,6,GPS_Atti,
0.355598904211519,36.9193455397533,5630.0176384939,123.359584,0.223694,2.64125336536,10900,2017-11-06 07:36:39,14,16.354,5630.0176384939,123.359584,0.447388,2.66262475712,288.7, 0.2, -1.2,0,0,1024,1024,1684,1117,285.4,0,99,4.109,4.123,4.121,4.123,0,0,75.11,6,GPS_Atti,
0.355598879983529,36.9193456020395,5631.6580584939,125.000004,0,2.64251320792,11000,2017-11-06 07:36:39,14,16.354,5631.6580584939,125.000004,0.447388,2.66262475712,289.1, 1, -0.9,0,0,1024,1024,1684,1117,285.9,0,99,4.109,4.123,4.121,4.123,0,0,75.11,6,GPS_Atti,
0.355598884969825,36.9193456518932,5633.6265624939,126.968508,0,2.65175205336,11100,2017-11-06 07:36:39,14,16.354,5633.6265624939,126.968508,0.447388,2.66262475712,289.7, 0.8, -1.3,0,0,1024,1024,1684,1119,286.8,0,99,4.109,4.123,4.121,4.123,0,0,75.11,6,GPS_Atti,
0.355598924791794,36.9193457495969,5635.2669824939,128.608928,0,2.68003289416,11200,2017-11-06 07:36:39,14,16.354,5635.2669824939,128.608928,0.447388,2.68003289416,290.7, 0.1, -1.9,0,0,1024,1024,1684,1106,287.6,0,99,4.109,4.123,4.121,4.123,0,0,75.11,6,GPS_Atti,
0.355598973311283,36.9193458152395,5636.9074024939,130.249348,0,2.70632882676,11300,2017-11-06 07:36:39,14,16.354,5636.9074024939,130.249348,0.447388,2.70632882676,291.6, -0.4, -2.5,0,0,1024,1024,1684,1127,288.3,0,99,4.109,4.123,4.121,4.123,0,0,75.11,6,GPS_Atti,
0.355598992500867,36.9193459056641,5638.8759064939,132.217852,0,2.7270670164,11400,2017-11-06 07:36:39,14,16.354,5638.8759064939,132.217852,0.447388,2.7270670164,292.4, -0.2, -2.6,0,0,1024,1024,1684,1107,289.3,0,99,4.109,4.123,4.121,4.123,0,0,75.11,6,GPS_Atti,
0.355599010483774,36.9193459402364,5640.5163264939,133.858272,0,2.73854011388,11500,2017-11-06 07:36:39,14,16.354,5640.5163264939,133.858272,0.447388,2.73854011388,293.3, 0.5, -2.4,0,0,1024,1024,1684,1120,290.1,0,99,4.109,4.123,4.121,4.123,0,0,75.11,6,GPS_Atti,
0.355599032754375,36.9193460013985,5642.1567464939,135.498692,0,2.75579405144,11600,2017-11-06 07:36:39,14,16.354,5642.1567464939,135.498692,0.447388,2.75579405144,294.1, 0.6, -2.7,0,0,1024,1024,1684,1148,291.2,0,99,4.109,4.123,4.121,4.123,0,0,75.11,6,GPS_Atti,
0.355599056832547,36.9193460439768,5644.1252504939,137.467196,0,2.77064969496,11700,2017-11-06 07:36:39,14,16.407,5644.1252504939,137.467196,0.447388,2.77064969496,295.3, 0.2, -3,0,0,1024,1024,1684,1130,292.3,0,99,4.111,4.123,4.122,4.125,0,0,75.11,6,GPS_Atti,
0.355599091077096,36.9193461653304,5645.7656704939,139.107616,0,2.80206373796,11800,2017-11-06 07:36:40,14,16.407,5645.7656704939,139.107616,0.447388,2.80206373796,296.6, 0, -2.9,0,0,1024,1024,1684,1167,293.5,0,99,4.111,4.123,4.122,4.125,0,0,75.11,6,GPS_Atti,
0.35559913110425,36.9193462429724,5647.4060904939,140.748036,0,2.82820875192,11900,2017-11-06 07:36:40,14,16.407,5647.4060904939,140.748036,0.447388,2.82820875192,297.8, 0.2, -2.8,0,0,1024,1024,1684,1171,293.5,0,99,4.111,4.123,4.122,4.125,0,0,75.11,6,GPS_Atti,
0.355599160375531,36.9193463472695,5649.3745944939,142.71654,0,2.85565625936,12000,2017-11-06 07:36:40,14,16.407,5649.3745944939,142.71654,0.447388,2.85565625936,299.4, 0.3, -3.5,0,0,1024,1024,1684,1153,295.1,0,99,4.111,4.123,4.122,4.125,0,0,75.11,6,GPS_Atti,
0.355599184526983,36.9193464087972,5651.0150144939,144.35696,0,2.874179882,12100,2017-11-06 07:36:40,14,16.407,5651.0150144939,144.35696,0.447388,2.874179882,301.1, 0.2, -3.9,0,0,1024,1024,1684,1165,296.6,0,99,4.111,4.123,4.122,4.125,0,0,75.11,6,GPS_Atti,
0.355599207155841,36.9193464701022,5652.6554344939,145.99738,0,2.89226059124,12200,2017-11-06 07:36:40,14,16.407,5652.6554344939,145.99738,0.447388,2.89226059124,302.7, 0.4, -3.7,0,0,1024,1024,1684,1162,298.2,0,99,4.111,4.123,4.122,4.125,0,0,75.11,6,GPS_Atti,
0.355599219185157,36.9193464870586,5654.6239384939,147.965884,0,2.899114266,12300,2017-11-06 07:36:40,14,16.407,5654.6239384939,147.965884,0.447388,2.899114266,304.4, 0.8, -3.4,0,0,1024,1024,1684,1148,299.9,0,99,4.111,4.123,4.122,4.125,0,0,75.11,6,GPS_Atti,
0.355599201073603,36.9193465166236,5656.2643584939,149.606304,0,2.89865166756,12400,2017-11-06 07:36:40,14,16.407,5656.2643584939,149.606304,0.447388,2.899114266,306.1, 0.8, -3,0,0,1024,1024,1684,1111,301.6,0,99,4.111,4.123,4.122,4.125,0,0,75.11,6,GPS_Atti,
0.355599187161806,36.9193465140782,5657.9047784939,151.246724,0,2.89377962016,12500,2017-11-06 07:36:40,14,16.407,5657.9047784939,151.246724,0.447388,2.899114266,307.5, 1, -2.7,0,0,1024,1024,1684,1068,303,0,99,4.111,4.123,4.122,4.125,0,0,75.11,6,GPS_Atti,
0.355599172544893,36.9193465126345,5659.5451984939,152.887144,0,2.88888132604,12600,2017-11-06 07:36:40,14,16.407,5659.5451984939,152.887144,0.447388,2.899114266,308.4, 1.2, -2.9,0,0,1024,1024,1684,1024,304,0,99,4.111,4.123,4.122,4.125,0,0,75.11,6,GPS_Atti,
0.355599166482196,36.9193464878305,5661.1856184939,154.527564,0,2.8824968114,12700,2017-11-06 07:36:40,14,16.381,5661.1856184939,154.527564,0.447388,2.899114266,308.8, 1.4, -3.4,0,0,1024,1024,1684,1061,304.7,0,99,4.111,4.123,4.122,4.125,0,0,75.11,6,GPS_Atti,
0.355599157128413,36.9193465081893,5662.8260384939,156.167984,0.223694,2.88318906864,12800,2017-11-06 07:36:41,14,16.381,5662.8260384939,156.167984,0.447388,2.899114266,308.8, 1.9, -3.5,0,0,1024,1024,1684,1050,305.2,0,99,4.111,4.123,4.122,4.125,0,0,75.11,6,GPS_Atti,
0.355599133983339,36.9193464948885,5664.4664584939,157.808404,0.223694,2.87345153552,12900,2017-11-06 07:36:41,14,16.381,5664.4664584939,157.808404,0.447388,2.899114266,308.9, 1.9, -3.2,0,0,1024,1024,1684,1050,305.5,0,99,4.111,4.123,4.122,4.125,0,0,75.11,6,GPS_Atti,
0.355599090060947,36.9193465065079,5666.1068784939,159.448824,0,2.86164051152,13000,2017-11-06 07:36:41,14,16.381,5666.1068784939,159.448824,0.447388,2.899114266,309, 1.6, -2.5,0,0,996,907,1684,1055,305.8,0,99,4.111,4.123,4.122,4.125,0,0,75.11,6,GPS_Atti,
0.355599051781114,36.9193464993155,5667.7472984939,161.089244,0,2.8482284376,13100,2017-11-06 07:36:41,14,16.381,5667.7472984939,161.089244,0.447388,2.899114266,309.2, 1.4, -2.2,0,0,1004,880,1684,1067,306.1,0,99,4.111,4.123,4.122,4.125,0,0,75.11,6,GPS_Atti,
0.355599009324322,36.9193465415576,5669.3877184939,162.729664,0,2.84258211196,13200,2017-11-06 07:36:41,14,16.381,5669.3877184939,162.729664,0.447388,2.899114266,309.3, 1.2, -3,0,0,1024,964,1684,1057,306.5,0,99,4.111,4.123,4.122,4.125,0,0,75.11,6,GPS_Atti,
0.35559899097013,36.9193465652803,5671.0281384939,164.370084,0,2.84120415916,13300,2017-11-06 07:36:41,14,16.381,5671.0281384939,164.370084,0.447388,2.899114266,309.7, 0.8, -4.6,0,0,1024,1006,1684,1054,306.5,0,99,4.111,4.123,4.122,4.125,0,0,75.11,6,GPS_Atti,
0.355598961404101,36.9193466334961,5672.9966424939,166.338588,0,2.84471465796,13400,2017-11-06 07:36:41,14,16.381,5672.9966424939,166.338588,0.447388,2.899114266,310, 0.5, -4.8,0,0,1024,1024,1684,1088,306.7,0,99,4.111,4.123,4.122,4.125,0,0,75.11,6,GPS_Atti,
0.355598925734664,36.9193466293212,5674.6370624939,167.979008,0.223694,2.83279536624,13500,2017-11-06 07:36:41,14,16.381,5674.6370624939,167.979008,0.447388,2.899114266,310.2, 0.4, -3.4,0,0,1024,1024,1684,1068,307.1,0,99,4.111,4.123,4.122,4.125,0,0,75.11,6,GPS_Atti,
0.355598870193324,36.9193466048861,5676.2774824939,169.619428,0.223694,2.81084982748,13600,2017-11-06 07:36:41,14,16.381,5676.2774824939,169.619428,0.447388,2.899114266,310.7, 0.8, -1.9,0,0,1024,1024,1684,1057,307.5,0,99,4.111,4.123,4.122,4.125,0,0,75.11,6,GPS_Atti,
0.355598851858673,36.9193465572636,5677.9179024939,171.259848,0.223694,2.79612541756,13700,2017-11-06 07:36:41,14,16.354,5677.9179024939,171.259848,0.447388,2.899114266,311.1, 1.6, -1.2,0,0,1024,1024,1684,1073,307.8,0,99,4.104,4.114,4.112,4.114,0,0,75.11,6,GPS_Atti,
0.355598879638299,36.9193465707731,5679.5583224939,172.900268,0,2.80735245204,13800,2017-11-06 07:36:42,14,16.354,5679.5583224939,172.900268,0.447388,2.899114266,311.4, 1.8, -0.6,0,0,1024,1024,1684,1071,308.2,0,99,4.104,4.114,4.112,4.114,0,0,75.11,6,GPS_Atti,
0.35559894932756,36.9193465946093,5681.1987424939,174.540688,0.223694,2.83362541876,13900,2017-11-06 07:36:42,14,16.354,5681.1987424939,174.540688,0.447388,2.899114266,311.7, 2, -1.2,0,0,1024,1024,1684,1059,308.6,0,99,4.104,4.114,4.112,4.114,0,0,75.11,6,GPS_Atti,
0.355599006347527,36.9193466956651,5682.8391624939,176.181108,0.223694,2.87050206036,14000,2017-11-06 07:36:42,14,16.354,5682.8391624939,176.181108,0.447388,2.899114266,312.1, 2.7, -1.9,0,0,1024,1024,1684,1072,308.9,0,99,4.104,4.114,4.112,4.114,0,0,75.11,6,GPS_Atti,
0.35559908047104,36.9193467957686,5684.4795824939,177.821528,0.223694,2.91265429268,14100,2017-11-06 07:36:42,14,16.354,5684.4795824939,177.821528,0.447388,2.91265429268,312.3, 2.8, -3.6,0,0,1024,1024,1684,1074,309.3,0,99,4.104,4.114,4.112,4.114,0,0,75.11,6,GPS_Atti,
0.355599130052275,36.9193469477985,5686.1200024939,179.461948,0.223694,2.957431197,14200,2017-11-06 07:36:42,14,16.354,5686.1200024939,179.461948,0.447388,2.957431197,312.7, 2.5, -4.3,0,0,1024,1024,1684,1074,309.7,0,99,4.104,4.114,4.112,4.114,0,0,75.11,6,GPS_Atti,
0.355599152184457,36.9193470540168,5687.7604224939,181.102368,0,2.98516413752,14300,2017-11-06 07:36:42,14,16.354,5687.7604224939,181.102368,0.447388,2.98516413752,313.1, 1.9, -3.3,0,0,1024,1024,1684,1074,310.1,0,99,4.104,4.114,4.112,4.114,0,0,75.11,6,GPS_Atti,
0.355599124660497,36.9193471840472,5689.4008424939,182.742788,0,3.00290035856,14400,2017-11-06 07:36:42,14,16.354,5689.4008424939,182.742788,0.447388,3.00290035856,313.5, 1.7, -2.7,0,0,1024,1024,1684,1072,310.5,0,99,4.104,4.114,4.112,4.114,0,0,75.11,6,GPS_Atti,
0.355599104754397,36.9193472869696,5691.0412624939,184.383208,0,3.01798566088,14500,2017-11-06 07:36:42,14,16.354,5691.0412624939,184.383208,0.447388,3.01798566088,313.9, 1.1, -1.9,0,0,1024,1024,1684,1083,311,0,99,4.104,4.114,4.112,4.114,0,0,75.11,6,GPS_Atti,
0.355599075561282,36.9193473765902,5692.6816824939,186.023628,0,3.02791020188,14600,2017-11-06 07:36:42,14,16.354,5692.6816824939,186.023628,0.447388,3.02791020188,314.3, 1.2, -2,0,0,1024,1024,1684,1081,311.5,0,99,4.104,4.114,4.112,4.114,0,0,75.11,6,GPS_Atti,
0.355599091389758,36.9193474698605,5694.3221024939,187.664048,0,3.05231637064,14700,2017-11-06 07:36:42,14,16.461,5694.3221024939,187.664048,0.447388,3.05231637064,314.8, 1.4, -2.7,0,0,1024,1024,1684,1080,312,0,99,4.097,4.11,4.109,4.112,0,0,75.11,6,GPS_Atti,
0.355599080055787,36.9193476472736,5695.9625224939,189.304468,0,3.08711624052,14800,2017-11-06 07:36:43,14,16.461,5695.9625224939,189.304468,0.447388,3.08711624052,315.4, 1.3, -3.6,0,0,1024,1024,1684,1086,312,0,99,4.097,4.11,4.109,4.112,0,0,75.11,6,GPS_Atti,
0.355599092547581,36.919347805239,5697.6029424939,190.944888,0,3.12544957508,14900,2017-11-06 07:36:43,14,16.461,5697.6029424939,190.944888,0.447388,3.12544957508,315.8, 1.2, -4.3,0,0,1024,1024,1684,1088,312.4,0,99,4.097,4.11,4.109,4.112,0,0,75.11,6,GPS_Atti,
0.355599075769723,36.9193479636926,5699.2433624939,192.585308,0,3.15609918236,15000,2017-11-06 07:36:43,14,16.461,5699.2433624939,192.585308,0.447388,3.15609918236,316.4, 1.1, -4.6,0,0,1024,1024,1684,1093,312.4,0,99,4.097,4.11,4.109,4.112,0,0,75.11,6,GPS_Atti,
0.355599067000552,36.9193480822846,5700.8837824939,194.225728,0,3.18061689968,15100,2017-11-06 07:36:43,14,16.461,5700.8837824939,194.225728,0.447388,3.18061689968,317, 0.9, -4.6,0,0,1024,1024,1684,1074,313.6,0,99,4.097,4.11,4.109,4.112,0,0,75.11,6,GPS_Atti,
0.355599022925087,36.9193482428714,5702.5242024939,195.866148,0,3.20543645428,15200,2017-11-06 07:36:43,14,16.461,5702.5242024939,195.866148,0.447388,3.20543645428,317.7, 1, -4.5,0,0,1024,1024,1684,1073,314.2,0,99,4.097,4.11,4.109,4.112,0,0,75.11,6,GPS_Atti,
0.355598996682712,36.9193483537651,5704.1646224939,197.506568,0,3.22429144176,15300,2017-11-06 07:36:43,14,16.461,5704.1646224939,197.506568,0.447388,3.22429144176,318.2, 1, -4.2,0,0,1024,1024,1684,1087,314.7,0,99,4.097,4.11,4.109,4.112,0,0,75.11,6,GPS_Atti,
0.35559892603104,36.9193484822805,5705.8050424939,199.146988,0,3.23567267572,15400,2017-11-06 07:36:43,14,16.461,5705.8050424939,199.146988,0.447388,3.23567267572,318.6, 1.4, -3.9,0,0,1024,1024,1684,1057,315.3,0,99,4.097,4.11,4.109,4.112,0,0,75.11,6,GPS_Atti,
0.355598883852712,36.9193485770417,5707.4454624939,200.787408,0,3.24728356848,15500,2017-11-06 07:36:43,14,16.461,5707.4454624939,200.787408,0.447388,3.24728356848,319.2, 1.6, -4.2,0,0,1024,1024,1684,1095,315.8,0,99,4.097,4.11,4.109,4.112,0,0,75.11,6,GPS_Atti,
0.355598801577208,36.9193486924828,5709.0858824939,202.427828,0,3.2537238574,15600,2017-11-06 07:36:43,14,16.461,5709.0858824939,202.427828,0.447388,3.2537238574,319.6, 1.3, -4.5,0,0,1024,1024,1684,1055,316.3,0,99,4.097,4.11,4.109,4.112,0,0,75.11,6,GPS_Atti,
0.355598735195317,36.9193487656614,5710.7263024939,204.068248,0,3.25447188892,15700,2017-11-06 07:36:43,14,16.327,5710.7263024939,204.068248,0.447388,3.25447188892,320.2, 1.3, -4.1,0,0,1024,1024,1684,1084,316.9,0,99,4.106,4.119,4.118,4.118,0,0,75.11,6,GPS_Atti,
0.355598641507677,36.9193488899865,5712.6948064939,206.036752,0,3.26160443508,15800,2017-11-06 07:36:44,14,16.327,5712.6948064939,206.036752,0.447388,3.26160443508,320.8, 1.2, -4,0,0,1024,1024,1684,1077,317.3,0,99,4.106,4.119,4.118,4.118,0,0,75.11,6,GPS_Atti,
0.355598575405878,36.919348982206,5714.3352264939,207.677172,0,3.26839249304,15900,2017-11-06 07:36:44,14,16.327,5714.3352264939,207.677172,0.447388,3.26839249304,321, 1.2, -4.4,0,0,1024,1024,1684,1071,317.9,0,99,4.106,4.119,4.118,4.118,0,0,75.11,6,GPS_Atti,
0.35559845692355,36.9193490990165,5715.9756464939,209.317592,0,3.26897648256,16000,2017-11-06 07:36:44,14,16.327,5715.9756464939,209.317592,0.447388,3.26897648256,321.4, 1.2, -4.4,0,0,1024,1024,1684,1045,318.4,0,99,4.106,4.119,4.118,4.118,0,0,75.11,6,GPS_Atti,
0.355598364781303,36.9193491637415,5717.6160664939,210.958012,0,3.26320876584,16100,2017-11-06 07:36:44,14,16.327,5717.6160664939,210.958012,0.447388,3.26897648256,321.8, 1.2, -4.4,0,0,1024,1024,1540,1024,318.7,0,99,4.106,4.119,4.118,4.118,0,0,75.11,6,GPS_Atti,
0.355598259310242,36.9193492528691,5719.2564864939,212.598432,0,3.26131572116,16200,2017-11-06 07:36:44,14,16.327,5719.2564864939,212.598432,0.447388,3.26897648256,322, 1.6, -4.4,0,0,1024,1024,1255,1024,319,0,99,4.106,4.119,4.118,4.118,0,0,75.11,6,GPS_Atti,
0.355598152739982,36.9193492998477,5720.8969064939,214.238852,0,3.24834984148,16300,2017-11-06 07:36:44,14,16.327,5720.8969064939,214.238852,0.447388,3.26897648256,321.9, 1.2, -4.1,0,0,1024,1024,1169,1024,319,0,99,4.106,4.119,4.118,4.118,0,0,75.11,6,GPS_Atti,
0.355598013092767,36.9193494040324,5722.2092424939,215.551188,0,3.24400929016,16400,2017-11-06 07:36:44,14,16.327,5722.2092424939,215.551188,0.447388,3.26897648256,321.9, 0.4, -5.3,0,0,1024,1024,1169,1024,319.2,0,99,4.106,4.119,4.118,4.118,0,0,75.11,6,GPS_Atti,
0.355597915711816,36.9193494649203,5723.5215784939,216.863524,0,3.23839577292,16500,2017-11-06 07:36:44,14,16.327,5723.5215784939,216.863524,0.447388,3.26897648256,321.9, 0.4, -5.4,0,0,1024,1024,1122,1024,319.4,0,99,4.106,4.119,4.118,4.118,0,0,75.11,6,GPS_Atti,
0.35559778973376,36.9193495742376,5724.5058304939,217.847776,0,3.24066939504,16600,2017-11-06 07:36:44,14,16.327,5724.5058304939,217.847776,0.447388,3.26897648256,321.9, 0.7, -5.1,0,0,1024,1024,1037,1024,319.5,0,99,4.106,4.119,4.118,4.118,0,0,75.11,6,GPS_Atti,
0.355597712838634,36.919349646306,5725.4900824939,218.832028,0,3.24416348964,16700,2017-11-06 07:36:44,14,16.327,5725.4900824939,218.832028,0.447388,3.26897648256,321.8, 1, -5.2,0,0,1024,1024,1031,1024,319.7,0,99,4.106,4.119,4.118,4.118,0,0,75.11,6,GPS_Atti,
0.355597636959658,36.9193497789465,5725.8181664939,219.160112,0,3.26602372656,16800,2017-11-06 07:36:45,14,16.327,5725.8181664939,219.160112,0.447388,3.26897648256,321.8, 1.1, -5.2,0,0,1024,1024,1024,1024,319.8,0,99,4.106,4.119,4.118,4.118,0,0,75.11,6,GPS_Atti,
0.355597596912963,36.9193498698973,5726.1462504939,219.488196,0,3.2840552232,16900,2017-11-06 07:36:45,14,16.327,5726.1462504939,219.488196,0.447388,3.2840552232,321.9, 0.7, -5,0,0,1024,1024,1024,1024,319.9,0,99,4.106,4.119,4.118,4.118,0,0,75.11,6,GPS_Atti,
0.355597523821883,36.9193500026706,5726.4743344939,219.81628,0,3.3078085048,17000,2017-11-06 07:36:45,14,16.327,5726.4743344939,219.81628,0.447388,3.3078085048,321.9, 0.9, -4.6,0,0,1024,1024,1024,1024,320,0,99,4.106,4.119,4.118,4.118,0,0,75.11,6,GPS_Atti,
0.35559748905786,36.9193500836069,5726.8024184939,220.144364,0.223694,3.3247048308,17100,2017-11-06 07:36:45,14,16.327,5726.8024184939,220.144364,0.447388,3.3247048308,321.9, 1.1, -4.9,0,0,1024,1024,1024,1024,320.1,0,99,4.106,4.119,4.118,4.118,0,0,75.11,6,GPS_Atti,
0.355597476772879,36.9193501952613,5727.1305024939,220.472448,0.223694,3.3557087688,17200,2017-11-06 07:36:45,14,16.327,5727.1305024939,220.472448,0.447388,3.3557087688,321.9, 1.1, -5.2,0,0,1024,1024,1024,1024,320.2,0,99,4.106,4.119,4.118,4.118,0,0,75.11,6,GPS_Atti,
0.355597488626322,36.9193502640172,5727.1305024939,220.472448,0.223694,3.3789043076,17300,2017-11-06 07:36:45,14,16.327,5727.1305024939,220.472448,0.447388,3.3789043076,321.9, 1.3, -5.9,0,0,1024,1024,1024,1024,320.3,0,99,4.106,4.119,4.118,4.118,0,0,75.11,6,GPS_Atti,
0.355597497159369,36.9193503629848,5727.4585864939,220.800532,0.223694,3.4105644136,17400,2017-11-06 07:36:45,14,16.327,5727.4585864939,220.800532,0.447388,3.4105644136,321.9, 1.5, -6.6,0,0,1024,1024,1024,1024,320.3,0,99,4.106,4.119,4.118,4.118,0,0,75.11,6,GPS_Atti,
0.355597508843455,36.9193503903347,5727.7866704939,221.128616,0.223694,3.4212271436,17500,2017-11-06 07:36:45,14,16.327,5727.7866704939,221.128616,0.447388,3.4212271436,322, 1.2, -7.1,0,0,1024,1024,1024,1024,320.4,0,99,4.106,4.119,4.118,4.118,0,0,75.11,6,GPS_Atti,
0.355597490639079,36.9193504341261,5727.7866704939,221.128616,0,3.4308400048,17600,2017-11-06 07:36:45,14,16.327,5727.7866704939,221.128616,0.447388,3.4308400048,322.1, 0.9, -7,0,0,1024,1024,1024,1024,320.5,0,99,4.106,4.119,4.118,4.118,0,0,75.11,6,GPS_Atti,
0.355597473377573,36.9193503894044,5728.1147544939,221.4567,0,3.4137468284,17700,2017-11-06 07:36:45,14,16.381,5728.1147544939,221.4567,0.447388,3.4308400048,322.1, 0.4, -7,0,0,1024,1024,1024,1024,320.5,0,99,4.109,4.12,4.119,4.121,0,0,75.11,6,GPS_Atti,
0.355597405513798,36.9193503116713,5728.1147544939,221.4567,0,3.3764436776,17800,2017-11-06 07:36:46,14,16.381,5728.1147544939,221.4567,0.447388,3.4308400048,322.1, 0.6, -6.8,0,0,1024,1024,1024,1024,320.6,0,99,4.109,4.12,4.119,4.121,0,0,75.11,6,GPS_Atti,
0.355597359342525,36.919350141631,5728.1147544939,221.4567,0,3.3154856704,17900,2017-11-06 07:36:46,14,16.381,5728.1147544939,221.4567,0.447388,3.4308400048,321.9, 1.4, -6.8,0,0,1024,1024,1024,1024,320.6,0,99,4.109,4.12,4.119,4.121,0,0,75.11,6,GPS_Atti,
0.35559723848104,36.9193499695255,5728.1147544939,221.4567,0.223694,3.23877306952,18000,2017-11-06 07:36:46,14,16.381,5728.1147544939,221.4567,0.447388,3.4308400048,321.8, 2, -6.2,0,0,1024,1024,1024,1024,320.7,0,99,4.109,4.12,4.119,4.121,0,0,75.11,6,GPS_Atti,
0.355597131291971,36.9193497411367,5728.1147544939,221.4567,0.223694,3.14782818472,18100,2017-11-06 07:36:46,14,16.381,5728.1147544939,221.4567,0.447388,3.4308400048,321.8, 1.8, -5.6,0,0,1024,1024,1025,1024,320.7,0,99,4.109,4.12,4.119,4.121,0,0,75.11,6,GPS_Atti,
0.355596965762267,36.9193495373067,5728.4428384939,221.784784,0.223694,3.0523951108,18200,2017-11-06 07:36:46,14,16.381,5728.4428384939,221.784784,0.447388,3.4308400048,321.8, 1.8, -5.6,0,0,1024,1024,1120,1024,320.8,0,99,4.109,4.12,4.119,4.121,0,0,75.11,6,GPS_Atti,
0.355596832278713,36.9193492898471,5728.4428384939,221.784784,0.223694,2.9503281784,18300,2017-11-06 07:36:46,14,16.381,5728.4428384939,221.784784,0.447388,3.4308400048,321.9, 1.7, -5.7,0,0,1024,1024,1216,1024,320.8,0,99,4.109,4.12,4.119,4.121,0,0,75.11,6,GPS_Atti,
0.355596663332533,36.9193490654988,5728.4428384939,221.784784,0.223694,2.84798893628,18400,2017-11-06 07:36:46,14,16.381,5728.4428384939,221.784784,0.447388,3.4308400048,322, 1.5, -5.1,0,0,1024,1024,1278,1024,320.8,0,99,4.109,4.12,4.119,4.121,0,0,75.11,6,GPS_Atti,
0.355596521084693,36.9193487821114,5728.4428384939,221.784784,0.447388,2.7333170166,18500,2017-11-06 07:36:46,14,16.381,5728.4428384939,221.784784,0.447388,3.4308400048,322.1, 1.4, -4.1,0,0,1024,1024,1298,1024,320.9,0,99,4.109,4.12,4.119,4.121,0,0,75.11,6,GPS_Atti,
0.355596310461747,36.9193485392196,5728.7709224939,222.112868,0.447388,2.6168143882,18600,2017-11-06 07:36:46,14,16.621,5728.7709224939,222.112868,0.447388,3.4308400048,322.1, 2.5, -4,0,0,1024,1024,1322,1024,321,0,99,4.159,4.165,4.162,4.165,0,0,75.11,6,GPS_Atti,
0.355595895332289,36.9193480414417,5729.4270904939,222.769036,0.447388,2.3816273728,18800,2017-11-06 07:36:47,14,16.621,5729.4270904939,222.769036,0.447388,3.4308400048,322.1, 2.6, -4.2,0,0,1024,1024,1322,1024,321,0,99,4.159,4.165,4.162,4.165,0,0,75.11,6,GPS_Atti,
0.355595678531026,36.9193477830008,5729.7551744939,223.09712,0.447388,2.25937343188,18900,2017-11-06 07:36:47,14,16.621,5729.7551744939,223.09712,0.447388,3.4308400048,322.1, 2.5, -3.9,0,0,1024,1024,1332,1024,321.1,0,99,4.159,4.165,4.162,4.165,0,0,75.11,6,GPS_Atti,
0.355595367078084,36.9193475905161,5730.4113424939,223.753288,0.50107456,2.13914705008,19000,2017-11-06 07:36:47,14,16.621,5730.4113424939,223.753288,0.50107456,3.4308400048,322.1, 1.9, -3.6,0,0,1024,1024,1325,1024,321.1,0,99,4.159,4.165,4.162,4.165,0,0,75.11,6,GPS_Atti,
0.355595111985589,36.9193473686586,5730.7394264939,224.081372,0.50107456,2.02172250564,19100,2017-11-06 07:36:47,14,16.621,5730.7394264939,224.081372,0.50107456,3.4308400048,322.1, 1.5, -3.2,0,0,1024,1024,1325,1024,321.1,0,99,4.159,4.165,4.162,4.165,0,0,75.11,6,GPS_Atti,
0.355594784215638,36.9193471592935,5731.0675104939,224.409456,0.50107456,1.89614179296,19200,2017-11-06 07:36:47,14,16.621,5731.0675104939,224.409456,0.50107456,3.4308400048,322.1, 1.3, -2.7,0,0,1024,1024,1335,1024,321.1,0,99,4.159,4.165,4.162,4.165,0,0,75.11,6,GPS_Atti,
0.355594534607742,36.9193469353965,5731.3955944939,224.73754,0.447388,1.78122052944,19300,2017-11-06 07:36:47,14,16.621,5731.3955944939,224.73754,0.50107456,3.4308400048,322.1, 1.6, -2.6,0,0,1024,1024,1346,1024,321.2,0,99,4.159,4.165,4.162,4.165,0,0,75.11,6,GPS_Atti,
0.355594217466645,36.9193467456023,5731.7236784939,225.065624,0.447388,1.66800858356,19400,2017-11-06 07:36:47,14,16.621,5731.7236784939,225.065624,0.50107456,3.4308400048,322.1, 1.7, -2.4,0,0,1024,1024,1372,1024,321.2,0,99,4.159,4.165,4.162,4.165,0,0,75.11,6,GPS_Atti,
0.355593986747071,36.9193465535464,5732.0517624939,225.393708,0.447388,1.56965556204,19500,2017-11-06 07:36:47,14,16.621,5732.0517624939,225.393708,0.50107456,3.4308400048,322.1, 1.8, -2.5,0,0,1024,1024,1393,1024,321.2,0,99,4.159,4.165,4.162,4.165,0,0,75.11,6,GPS_Atti,
0.35559367692583,36.9193464188663,5732.3798464939,225.721792,0.447388,1.48229335452,19600,2017-11-06 07:36:47,14,16.621,5732.3798464939,225.721792,0.50107456,3.4308400048,322.2, 1.9, -2.2,0,0,1024,1024,1414,1024,321.2,0,99,4.159,4.165,4.162,4.165,0,0,75.11,6,GPS_Atti,
0.355593447574149,36.9193462805975,5732.7079304939,226.049876,0.447388,1.40762471696,19700,2017-11-06 07:36:47,14,16.541,5732.7079304939,226.049876,0.50107456,3.4308400048,322.3, 2.3, -2.1,0,0,1024,1024,1422,1024,321.3,0,99,4.159,4.165,4.162,4.165,0,0,75.11,6,GPS_Atti,
0.355593158336441,36.9193461735645,5733.3640984939,226.706044,0.447388,1.34162077784,19800,2017-11-06 07:36:48,14,16.541,5733.3640984939,226.706044,0.50107456,3.4308400048,322.3, 2, -2.2,0,0,1024,1024,1420,1024,321.3,0,99,4.159,4.165,4.162,4.165,0,0,75.11,6,GPS_Atti,
0.355592933031443,36.9193460632934,5733.6921824939,227.034128,0.447388,1.28500988364,19900,2017-11-06 07:36:48,14,16.541,5733.6921824939,227.034128,0.50107456,3.4308400048,322.2, 1.4, -1.4,0,0,1024,1024,1424,1024,321.3,0,99,4.159,4.165,4.162,4.165,0,0,75.11,6,GPS_Atti,
0.355592624097704,36.9193460209029,5734.3483504939,227.690296,0.223694,1.25383206112,20000,2017-11-06 07:36:48,14,16.541,5734.3483504939,227.690296,0.50107456,3.4308400048,322.2, 1.3, -1.1,0,0,1024,1024,1430,1024,321.3,0,99,4.159,4.165,4.162,4.165,0,0,75.11,6,GPS_Atti,
0.355592400450462,36.9193459877738,5735.0045184939,228.346464,0.223694,1.23642392408,20100,2017-11-06 07:36:48,14,16.541,5735.0045184939,228.346464,0.50107456,3.4308400048,322.2, 1.4, -1.3,0,0,1024,1024,1427,1024,321.4,0,99,4.159,4.165,4.162,4.165,0,0,75.11,6,GPS_Atti,
0.355592129763987,36.9193459959779,5735.6606864939,229.002632,0.223694,1.2400919032,20200,2017-11-06 07:36:48,14,16.541,5735.6606864939,229.002632,0.50107456,3.4308400048,322.2, 1.4, -1.6,0,0,1024,1024,1431,1024,321.4,0,99,4.159,4.165,4.162,4.165,0,0,75.11,6,GPS_Atti,
0.35559193806356,36.9193459956289,5736.3168544939,229.6588,0.223694,1.24519032856,20300,2017-11-06 07:36:48,14,16.541,5736.3168544939,229.6588,0.50107456,3.4308400048,322.1, 1.4, -1.5,0,0,1024,1024,1435,1024,321.4,0,99,4.159,4.165,4.162,4.165,0,0,75.11,6,GPS_Atti,
0.355591640322116,36.9193460212835,5736.9730224939,230.314968,0.223694,1.27017064432,20400,2017-11-06 07:36:48,14,16.541,5736.9730224939,230.314968,0.50107456,3.4308400048,322.1, 1.1, -1.3,0,0,1024,1024,1451,1024,321.4,0,99,4.159,4.165,4.162,4.165,0,0,75.11,6,GPS_Atti,
0.355591425735537,36.9193460423254,5737.6291904939,230.971136,0.223694,1.29449151124,20500,2017-11-06 07:36:48,14,16.541,5737.6291904939,230.971136,0.50107456,3.4308400048,322, 0.4, -0.8,0,0,1024,1024,1462,1024,321.4,0,99,4.159,4.165,4.162,4.165,0,0,75.11,6,GPS_Atti,
0.355591178632188,36.91934608744,5738.2853584939,231.627304,0.223694,1.33498691936,20600,2017-11-06 07:36:48,14,16.541,5738.2853584939,231.627304,0.50107456,3.4308400048,322, 0.3, -0.1,0,0,1024,1024,1460,1024,321.4,0,99,4.159,4.165,4.162,4.165,0,0,75.11,6,GPS_Atti,
0.355591026714648,36.9193461450026,5738.9415264939,232.283472,0,1.37259518828,20700,2017-11-06 07:36:48,14,16.461,5738.9415264939,232.283472,0.50107456,3.4308400048,322, 0.5, -0.6,0,0,1024,1024,1459,1024,321.4,0,99,4.104,4.129,4.12,4.124,0,0,75.11,6,GPS_Atti,
0.355590803883256,36.9193462577758,5739.9257784939,233.267724,0,1.43999020356,20800,2017-11-06 07:36:49,14,16.461,5739.9257784939,233.267724,0.50107456,3.4308400048,322, 1.1, -1.4,0,0,1024,1024,1455,1024,321.4,0,99,4.104,4.129,4.12,4.124,0,0,75.11,6,GPS_Atti,
0.35559069435737,36.9193463515691,5740.5819464939,233.923892,0,1.48692261976,20900,2017-11-06 07:36:49,14,16.461,5740.5819464939,233.923892,0.50107456,3.4308400048,322, 1.5, -1.5,0,0,1024,1024,1453,1024,321.4,0,99,4.104,4.129,4.12,4.124,0,0,75.11,6,GPS_Atti,
0.355590466202595,36.9193464931268,5741.5661984939,234.908144,0,1.5680282654,21000,2017-11-06 07:36:49,14,16.461,5741.5661984939,234.908144,0.50107456,3.4308400048,321.9, 1.3, -1.6,0,0,1024,1024,1445,1024,321.5,0,99,4.104,4.129,4.12,4.124,0,0,75.11,6,GPS_Atti,
0.355590332714156,36.9193466152732,5742.5504504939,235.892396,0,1.6292323356,21100,2017-11-06 07:36:49,14,16.461,5742.5504504939,235.892396,0.50107456,3.4308400048,322, 1.2, -1.5,0,0,1024,1024,1445,1024,321.5,0,99,4.104,4.129,4.12,4.124,0,0,75.11,6,GPS_Atti,
0.355590089276434,36.9193467577805,5743.2066184939,236.548564,0,1.71582026488,21200,2017-11-06 07:36:49,14,16.461,5743.2066184939,236.548564,0.50107456,3.4308400048,322, 1.5, -1.4,0,0,1024,1024,1450,1024,321.5,0,99,4.104,4.129,4.12,4.124,0,0,75.11,6,GPS_Atti,
0.355589962179637,36.9193468782525,5744.1908704939,237.532816,0,1.77647315396,21300,2017-11-06 07:36:49,14,16.461,5744.1908704939,237.532816,0.50107456,3.4308400048,322.1, 2.1, -1.7,0,0,1024,1024,1446,1024,321.5,0,99,4.104,4.129,4.12,4.124,0,0,75.11,6,GPS_Atti,
0.355589720984283,36.9193470500443,5745.1751224939,238.517068,0,1.87417656916,21400,2017-11-06 07:36:49,14,16.461,5745.1751224939,238.517068,0.50107456,3.4308400048,322.1, 1.9, -1.8,0,0,1024,1024,1445,1024,321.5,0,99,4.104,4.129,4.12,4.124,0,0,75.11,6,GPS_Atti,
0.355589555899144,36.919347207248,5745.8312904939,239.173236,0,1.95409783156,21500,2017-11-06 07:36:49,14,16.461,5745.8312904939,239.173236,0.50107456,3.4308400048,322, 1.2, -1.8,0,0,1024,1024,1451,1024,321.5,0,99,4.104,4.129,4.12,4.124,0,0,75.11,6,GPS_Atti,
0.355589304210097,36.9193474320411,5746.8155424939,240.157488,0,2.0718176516,21600,2017-11-06 07:36:49,14,16.461,5746.8155424939,240.157488,0.50107456,3.4308400048,322.1, 0.8, -1.8,0,0,1024,1024,1443,1024,321.5,0,99,4.104,4.129,4.12,4.124,0,0,75.11,6,GPS_Atti,
0.355589152447259,36.9193476155283,5747.7997944939,241.14174,0,2.15790361236,21700,2017-11-06 07:36:49,14,16.354,5747.7997944939,241.14174,0.50107456,3.4308400048,322.1, 0.6, -1.8,0,0,1024,1024,1444,1024,321.5,0,99,4.1,4.104,4.101,4.108,0,0,75.11,6,GPS_Atti,
0.35558890389948,36.9193478036663,5748.4559624939,241.797908,0,2.26454403572,21800,2017-11-06 07:36:50,14,16.354,5748.4559624939,241.797908,0.50107456,3.4308400048,322.1, 0.6, -1.5,0,0,1024,1024,1444,1024,321.5,0,99,4.1,4.104,4.101,4.108,0,0,75.11,6,GPS_Atti,
0.355588754341555,36.9193479473754,5749.4402144939,242.78216,0,2.33831044228,21900,2017-11-06 07:36:50,14,16.354,5749.4402144939,242.78216,0.50107456,3.4308400048,322.1, 0.4, -1.5,0,0,1024,1024,1444,1024,321.5,0,99,4.1,4.104,4.101,4.108,0,0,75.11,6,GPS_Atti,
0.355588509622248,36.9193481327202,5750.4244664939,243.766412,0,2.44423892336,22000,2017-11-06 07:36:50,14,16.354,5750.4244664939,243.766412,0.50107456,3.4308400048,322.1, 0.5, -1.3,0,0,1024,1024,1445,1024,321.5,0,99,4.1,4.104,4.101,4.108,0,0,75.11,6,GPS_Atti,
0.355588378306152,36.9193482718347,5751.0806344939,244.42258,0,2.51319889932,22100,2017-11-06 07:36:50,14,16.354,5751.0806344939,244.42258,0.50107456,3.4308400048,322.1, 0.7, -1.3,0,0,1024,1024,1445,1024,321.5,0,99,4.1,4.104,4.101,4.108,0,0,75.11,6,GPS_Atti,
0.355588183840627,36.9193484677491,5752.0648864939,245.406832,0,2.61237869252,22200,2017-11-06 07:36:50,14,16.354,5752.0648864939,245.406832,0.50107456,3.4308400048,322, 0.4, -1.3,0,0,1024,1024,1445,1024,321.5,0,99,4.1,4.104,4.101,4.108,0,0,75.11,6,GPS_Atti,
0.355588086103047,36.919348616603,5753.0491384939,246.391084,0.223694,2.67731963948,22300,2017-11-06 07:36:50,14,16.354,5753.0491384939,246.391084,0.50107456,3.4308400048,322, 0.4, -1.4,0,0,1024,1024,1444,1024,321.5,0,99,4.1,4.104,4.101,4.108,0,0,75.11,6,GPS_Atti,
0.355587951832954,36.9193487881122,5754.0333904939,247.375336,0.223694,2.7566765974,22400,2017-11-06 07:36:50,14,16.354,5754.0333904939,247.375336,0.50107456,3.4308400048,322, 0.7, -1.4,0,0,1024,1024,1442,1024,321.6,0,99,4.1,4.104,4.101,4.108,0,0,75.11,6,GPS_Atti,
0.355587896899024,36.9193489219947,5754.6895584939,248.031504,0.223694,2.8082021896,22500,2017-11-06 07:36:50,14,16.354,5754.6895584939,248.031504,0.50107456,3.4308400048,322, 0.6, -1.6,0,0,1024,1024,1439,1024,321.6,0,99,4.1,4.104,4.101,4.108,0,0,75.11,6,GPS_Atti,
0.3555877413012,36.9193491314304,5755.6738104939,249.015756,0.223694,2.9033465496,22600,2017-11-06 07:36:50,14,16.354,5755.6738104939,249.015756,0.50107456,3.4308400048,322.1, 0.3, -1.6,0,0,1024,1024,1439,1024,321.6,0,99,4.1,4.104,4.101,4.108,0,0,75.11,6,GPS_Atti,
0.355587665764197,36.9193492971347,5756.3299784939,249.671924,0.223694,2.9687336908,22700,2017-11-06 07:36:50,14,16.407,5756.3299784939,249.671924,0.50107456,3.4308400048,322.1, 0, -1.8,0,0,1024,1024,1429,1024,321.6,0,99,4.108,4.119,4.118,4.12,0,0,75.11,6,GPS_Atti,
0.355587571741098,36.9193494975612,5757.3142304939,250.656176,0.223694,3.04842857524,22800,2017-11-06 07:36:51,14,16.407,5757.3142304939,250.656176,0.50107456,3.4308400048,322.1, -0.2, -2.2,0,0,1024,1024,1372,1024,321.6,0,99,4.108,4.119,4.118,4.12,0,0,75.11,6,GPS_Atti,
0.355587562056741,36.919349644032,5758.2984824939,251.640428,0.223694,3.09465233,22900,2017-11-06 07:36:51,14,16.407,5758.2984824939,251.640428,0.50107456,3.4308400048,322, 0, -2.7,0,0,1024,1024,1205,1024,321.6,0,99,4.108,4.119,4.118,4.12,0,0,75.11,6,GPS_Atti,
0.355587483855604,36.9193498441062,5758.9546504939,252.296596,0.223694,3.1712107314,23000,2017-11-06 07:36:51,14,16.407,5758.9546504939,252.296596,0.50107456,3.4308400048,321.9, 0.1, -3.5,0,0,1024,1024,1024,1024,321.6,0,99,4.108,4.119,4.118,4.12,0,0,75.11,6,GPS_Atti,
0.355587463232989,36.9193500050378,5759.6108184939,252.952764,0.223694,3.22440627116,23100,2017-11-06 07:36:51,14,16.407,5759.6108184939,252.952764,0.50107456,3.4308400048,321.8, -0.1, -4,0,0,1024,1024,1024,1024,321.6,0,99,4.108,4.119,4.118,4.12,0,0,75.11,6,GPS_Atti,
0.355587371208804,36.9193502342777,5760.2669864939,253.608932,0.223694,3.3128609984,23200,2017-11-06 07:36:51,14,16.407,5760.2669864939,253.608932,0.50107456,3.4308400048,321.9, -0.4, -3.9,0,0,1024,1024,1024,1024,321.6,0,99,4.108,4.119,4.118,4.12,0,0,75.11,6,GPS_Atti,
0.355587346905906,36.919350397116,5760.5950704939,253.937016,0.223694,3.3676838348,23300,2017-11-06 07:36:51,14,16.407,5760.5950704939,253.937016,0.50107456,3.4308400048,321.9, -0.8, -3.3,0,0,1024,1024,1024,1024,321.6,0,99,4.108,4.119,4.118,4.12,0,0,75.11,6,GPS_Atti,
