latitude,longitude,altitude(feet),ascent(feet),speed(mph),distance(feet),time(millisecond),datetime(utc),satellites,voltage(v),max_altitude(feet),max_ascent(feet),max_speed(mph),max_distance(feet),compass_heading(degrees), pitch(degrees), roll(degrees),isPhoto,isVideo,rc_elevator,rc_aileron,rc_throttle,rc_rudder,gimbal_heading(degrees),gimbal_pitch(degrees),battery_percent,voltageCell1,voltageCell2,voltageCell3,voltageCell4,voltageCell5,voltageCell6,battery_temperature(f),flycStateRaw,flycState,message
0.352654472646933,36.8960321455987,5804.3069770764,0,0,0,100,2017-11-08 05:47:15,15,0,5804.3069770764,0,0,0,95.7, 1.2, -0.4,0,0,1024,1024,1024,1024,100.2,0,100,4.294,4.293,4.293,4.294,0,0,73.31,41,Motors_Started,
0.352654517102436,36.896032164484,5804.3069770764,0,0,0.017622375892,200,2017-11-08 05:47:15,15,0,5804.3069770764,0,0,0.017622375892,95.7, 1.2, -0.4,0,0,1024,1024,1024,1024,100.2,0,100,4.294,4.293,4.293,4.294,0,0,73.31,41,Motors_Started,
0.352654527771187,36.8960321876659,5804.3069770764,0,0,0.0252992790248,300,2017-11-08 05:47:15,15,0,5804.3069770764,0,0,0.0252992790248,95.6, 1.2, -0.4,0,0,1024,1024,1024,1024,100.2,0,100,4.294,4.293,4.293,4.294,0,0,73.31,41,Motors_Started,
0.352654541160254,36.8960322165544,5804.3069770764,0,0,0.035986549708,400,2017-11-08 05:47:15,15,0,5804.3069770764,0,0,0.035986549708,95.6, 1.2, -0.4,0,0,1024,1024,1024,1024,100.2,0,100,4.294,4.293,4.293,4.294,0,0,73.31,41,Motors_Started,
0.352654550434242,36.8960322263263,5804.3069770764,0,0,0.040901576112,500,2017-11-08 05:47:16,15,0,5804.3069770764,0,0,0.040901576112,95.7, 1.2, -0.4,0,0,1024,1024,1024,1024,100.2,0,100,4.294,4.293,4.293,4.294,0,0,73.31,41,Motors_Started,
0.352654576342786,36.8960322342543,5804.3069770764,0,0,0.04977526406,600,2017-11-08 05:47:16,15,0,5804.3069770764,0,0,0.04977526406,95.6, 1.2, -0.4,0,0,1024,1024,1024,1024,100.2,0,100,4.294,4.293,4.293,4.294,0,0,73.31,41,Motors_Started,
0.352654603242035,36.8960322519068,5804.3069770764,0,0,0.061437994092,700,2017-11-08 05:47:16,15,17.176,5804.3069770764,0,0,0.061437994092,95.6, 1.2, -0.4,0,0,1024,1024,1024,1024,100.2,0,100,4.294,4.293,4.293,4.294,0,0,73.31,41,Motors_Started,Setting new Return-To-Home altitude to 30m (98 ft). Setting new Maximum Flight Altitude to 100m (328 ft)
0.35265463910831,36.8960322769783,5804.3069770764,0,0,0.077369753132,800,2017-11-08 05:47:16,15,17.176,5804.3069770764,0,0,0.077369753132,95.6, 1.2, -0.4,0,0,1024,1024,1024,1024,100.2,0,100,4.294,4.293,4.293,4.294,0,0,73.31,41,Motors_Started,
0.352654676522829,36.8960322886596,5804.3069770764,0,0,0.09086942548,900,2017-11-08 05:47:16,15,17.176,5804.3069770764,0,0,0.09086942548,95.6, 1.2, -0.4,0,0,1024,1024,1024,1024,100.2,0,100,4.294,4.293,4.293,4.294,0,0,73.31,41,Motors_Started,
0.352654717510357,36.8960322944253,5804.3069770764,0,0,0.104544950852,1000,2017-11-08 05:47:16,15,17.176,5804.3069770764,0,0,0.104544950852,95.6, 1.2, -0.4,0,0,1024,1024,1024,1024,100.2,0,100,4.294,4.293,4.293,4.294,0,0,73.31,41,Motors_Started,
0.352654737552635,36.896032313472,5804.3069770764,0,0,0.114422903924,1100,2017-11-08 05:47:16,15,17.176,5804.3069770764,0,0,0.114422903924,95.6, 1.2, -0.4,0,0,1024,1024,1024,1024,100.2,0,100,4.294,4.293,4.293,4.294,0,0,73.31,41,Motors_Started,
0.352654757256197,36.8960323394699,5804.3069770764,0,0,0.12564140822,1200,2017-11-08 05:47:16,15,17.176,5804.3069770764,0,0,0.12564140822,95.6, 1.2, -0.4,0,0,1024,1024,1024,1024,100.1,0,100,4.294,4.293,4.293,4.294,0,0,73.31,41,Motors_Started,
0.352654814417024,36.8960323674194,5804.3069770764,0,0,0.148655188484,1400,2017-11-08 05:47:16,15,17.176,5804.3069770764,0,0,0.148655188484,95.6, 1.3, -0.4,0,0,1024,1024,1024,1024,100.1,0,100,4.294,4.293,4.293,4.294,0,0,73.31,41,Motors_Started,
0.352654827293945,36.896032394058,5804.3069770764,0,0,0.157986225528,1500,2017-11-08 05:47:17,15,17.176,5804.3069770764,0,0,0.157986225528,95.7, 1.2, -0.3,0,0,1024,1024,1024,1024,100.1,0,100,4.294,4.293,4.293,4.294,0,0,73.31,10,Assisted_Takeoff,
0.352654839830928,36.8960324261148,5804.3069770764,0,0,0.168586619568,1600,2017-11-08 05:47:17,15,17.176,5804.3069770764,0,0,0.168586619568,95.6, 1.3, -0.4,0,0,364,370,463,1587,100.2,0,100,4.294,4.293,4.293,4.294,0,0,73.31,10,Assisted_Takeoff,
0.352654859086057,36.8960324478637,5804.3069770764,0,0,0.178998037224,1700,2017-11-08 05:47:17,15,17.149,5804.3069770764,0,0,0.178998037224,95.6, 1.2, -0.4,0,0,533,477,616,1423,99.9,0,100,4.29,4.29,4.29,4.291,0,0,73.31,10,Assisted_Takeoff,
0.35265488817251,36.8960324619276,5804.3069770764,0,0,0.190534454916,1800,2017-11-08 05:47:17,15,17.149,5804.3069770764,0,0,0.190534454916,95.6, 1.2, -0.4,0,0,701,583,839,1216,99.5,0,100,4.29,4.29,4.29,4.291,0,0,73.31,10,Assisted_Takeoff,
0.35265492615963,36.8960324932873,5804.3069770764,0,0,0.208493773076,1900,2017-11-08 05:47:17,15,17.149,5804.3069770764,0,0,0.208493773076,95.6, 1.2, -0.4,0,0,978,805,953,1131,98.7,0,100,4.29,4.29,4.29,4.291,0,0,73.31,10,Assisted_Takeoff,
0.352654967050266,36.8960325257357,5804.3069770764,0,0,0.227536424604,2000,2017-11-08 05:47:17,15,17.149,5804.3069770764,0,0,0.227536424604,95.6, 1.2, -0.4,0,0,1024,947,1024,1024,97.9,0,100,4.29,4.29,4.29,4.291,0,0,73.31,10,Assisted_Takeoff,
0.352655016752819,36.8960325483569,5804.3069770764,0,0,0.246984259872,2100,2017-11-08 05:47:17,15,17.149,5804.3069770764,0,0,0.246984259872,95.6, 1.2, -0.4,0,0,1024,1024,1024,1024,97.2,0,100,4.29,4.29,4.29,4.291,0,0,73.31,10,Assisted_Takeoff,
0.352655064610753,36.8960325631635,5804.3069770764,0,0,0.264301845728,2200,2017-11-08 05:47:17,15,17.149,5804.3069770764,0,0,0.264301845728,95.6, 1.2, -0.4,0,0,1024,1024,1024,1024,96.9,0,100,4.29,4.29,4.29,4.291,0,0,73.31,10,Assisted_Takeoff,
0.352655118908368,36.8960325673897,5804.3069770764,0,0,0.281562344968,2300,2017-11-08 05:47:17,15,17.149,5804.3069770764,0,0,0.281562344968,95.6, 1.2, -0.4,0,0,1024,1024,1024,1024,96.6,0,100,4.29,4.29,4.29,4.291,0,0,73.31,10,Assisted_Takeoff,
0.35265517066846,36.8960325699278,5804.3069770764,0,0,0.298035770692,2400,2017-11-08 05:47:17,15,17.149,5804.3069770764,0,0,0.298035770692,95.6, 1.2, -0.3,0,0,1024,1024,1024,1024,96.5,0,100,4.29,4.29,4.29,4.291,0,0,73.31,10,Assisted_Takeoff,
0.352655203104622,36.8960325892997,5804.3069770764,0,0,0.311819563784,2500,2017-11-08 05:47:18,15,17.149,5804.3069770764,0,0,0.311819563784,95.6, 1.2, -0.4,0,0,1024,1024,1024,1024,96.5,0,100,4.29,4.29,4.29,4.291,0,0,73.31,10,Assisted_Takeoff,
0.352655227965262,36.8960326142098,5804.3069770764,0,0,0.32430447232,2600,2017-11-08 05:47:18,15,17.149,5804.3069770764,0,0,0.32430447232,95.5, 1.2, -0.4,0,0,1024,1024,1024,1024,96.3,0,100,4.29,4.29,4.29,4.291,0,0,73.31,10,Assisted_Takeoff,
0.352655257689251,36.896032632486,5804.3069770764,0,0,0.33703413152,2700,2017-11-08 05:47:18,15,17.094,5804.3069770764,0,0,0.33703413152,95.5, 1.2, -0.4,0,0,1024,1024,1024,1024,96.2,0,100,4.284,4.284,4.282,4.281,0,0,73.31,10,Assisted_Takeoff,
0.352655293181595,36.8960326438338,5804.3069770764,0,0,0.35023623168,2800,2017-11-08 05:47:18,15,17.094,5804.3069770764,0,0,0.35023623168,95.5, 1.2, -0.4,0,0,1024,1024,1024,1024,96.2,0,100,4.284,4.284,4.282,4.281,0,0,73.31,10,Assisted_Takeoff,
0.352655335061103,36.896032647428,5804.3069770764,0,0,0.3640420064,2900,2017-11-08 05:47:18,15,17.094,5804.3069770764,0,0,0.3640420064,95.5, 1.2, -0.4,0,0,1024,1024,1024,1024,96.2,0,100,4.284,4.284,4.282,4.281,0,0,73.31,10,Assisted_Takeoff,
0.352655378144439,36.8960326494496,5804.3069770764,0,0,0.37807087824,3000,2017-11-08 05:47:18,15,17.094,5804.3069770764,0,0,0.37807087824,95.5, 1.2, -0.4,0,0,1024,1024,1024,1024,96.1,0,100,4.284,4.284,4.282,4.281,0,0,73.31,10,Assisted_Takeoff,
0.352655401547215,36.8960326451613,5804.3069770764,0,0,0.3848097236,3100,2017-11-08 05:47:18,15,17.094,5804.3069770764,0,0,0.3848097236,95.5, 1.2, -0.4,0,0,1024,1024,1024,1024,96.1,0,100,4.284,4.284,4.282,4.281,0,0,73.31,10,Assisted_Takeoff,
0.352655420005627,36.8960326418754,5804.3069770764,0,0,0.39019686288,3200,2017-11-08 05:47:18,15,17.094,5804.3069770764,0,0,0.39019686288,95.5, 1.2, -0.4,0,0,1024,1024,1024,1024,96.1,0,100,4.284,4.284,4.282,4.281,0,0,73.31,10,Assisted_Takeoff,
0.352655443814293,36.8960326355551,5804.3069770764,0,0,0.3968668106,3300,2017-11-08 05:47:18,15,17.094,5804.3069770764,0,0,0.3968668106,95.5, 1.2, -0.4,0,0,1024,1024,1024,1024,96,0,100,4.284,4.284,4.282,4.281,0,0,73.31,10,Assisted_Takeoff,
0.352655473724331,36.8960326290154,5804.3069770764,0,0,0.40559712584,3400,2017-11-08 05:47:18,15,17.094,5804.3069770764,0,0,0.40559712584,95.5, 1.2, -0.4,0,0,1024,1024,1024,1024,96,0,100,4.284,4.284,4.282,4.281,0,0,73.31,10,Assisted_Takeoff,
0.35265551258104,36.8960326189748,5804.3069770764,0,0,0.41687665376,3500,2017-11-08 05:47:19,15,17.094,5804.3069770764,0,0,0.41687665376,95.5, 1.2, -0.4,0,0,1024,1024,1024,1024,96,0,100,4.284,4.284,4.282,4.281,0,0,73.31,10,Assisted_Takeoff,
0.35265555511844,36.8960326117844,5804.3069770764,0,0,0.43000657544,3600,2017-11-08 05:47:19,15,17.094,5804.3069770764,0,0,0.43000657544,95.5, 1.2, -0.4,0,0,1024,1024,1024,1024,96,0,100,4.284,4.284,4.282,4.281,0,0,73.31,10,Assisted_Takeoff,
0.352655582079773,36.896032628467,5804.3069770764,0,0,0.4414534262,3700,2017-11-08 05:47:19,15,17.149,5804.3069770764,0,0,0.4414534262,95.5, 1.2, -0.4,0,0,1024,1024,1024,1024,96,0,100,4.284,4.284,4.282,4.281,0,0,73.31,10,Assisted_Takeoff,
0.352655602098235,36.8960326507723,5804.3069770764,0,0,0.45142061812,3800,2017-11-08 05:47:19,15,17.149,5804.3069770764,0,0,0.45142061812,95.5, 1.2, -0.4,0,0,1024,1024,1024,1024,96,0,100,4.284,4.284,4.282,4.281,0,0,73.31,10,Assisted_Takeoff,
0.352655629640923,36.896032674114,5804.3069770764,0,0,0.46408466052,3900,2017-11-08 05:47:19,15,17.149,5804.3069770764,0,0,0.46408466052,95.5, 1.2, -0.4,0,0,1024,1024,1024,1024,95.9,0,100,4.284,4.284,4.282,4.281,0,0,73.31,10,Assisted_Takeoff,
0.352655664138694,36.8960326865161,5804.3069770764,0,0,0.47741471344,4000,2017-11-08 05:47:19,15,17.149,5804.3069770764,0,0,0.47741471344,95.5, 1.2, -0.4,0,0,1024,1024,1024,1024,95.9,0,100,4.284,4.284,4.282,4.281,0,0,73.31,10,Assisted_Takeoff,
0.352655682909768,36.8960326967526,5804.3069770764,0,0,0.48519358508,4100,2017-11-08 05:47:19,15,17.149,5804.3069770764,0,0,0.48519358508,95.5, 1.2, -0.4,0,0,1024,1024,1036,1024,95.9,0,100,4.284,4.284,4.282,4.281,0,0,73.31,10,Assisted_Takeoff,
0.352655697819802,36.8960327007801,5804.3069770764,0,0,0.49075460888,4200,2017-11-08 05:47:19,15,17.149,5804.3069770764,0,0,0.49075460888,95.5, 1.2, -0.4,0,0,1024,1024,1046,1024,95.9,0,100,4.284,4.284,4.282,4.281,0,0,73.31,10,Assisted_Takeoff,
0.352655721868663,36.8960327280812,5804.3069770764,0,0,0.5028871552,4300,2017-11-08 05:47:19,15,17.149,5804.3069770764,0,0,0.5028871552,95.5, 1.2, -0.4,0,0,1024,1024,1056,1024,95.9,0,100,4.284,4.284,4.282,4.281,0,0,73.31,10,Assisted_Takeoff,
0.352655753376204,36.8960327566586,5804.3069770764,0,0,0.5177329562,4400,2017-11-08 05:47:19,15,17.149,5804.3069770764,0,0,0.5177329562,95.5, 1.2, -0.4,0,0,1024,1024,1080,1024,95.9,0,100,4.284,4.284,4.282,4.281,0,0,73.31,10,Assisted_Takeoff,
0.352655770142664,36.8960327836277,5804.3069770764,0,0,0.5275262636,4500,2017-11-08 05:47:20,15,17.149,5804.3069770764,0,0,0.5275262636,95.5, 1.2, -0.4,0,0,1024,1024,1113,1024,95.9,0,100,4.284,4.284,4.282,4.281,0,0,73.31,10,Assisted_Takeoff,
0.352655782836792,36.8960327980626,5804.3069770764,0,0,0.53401576512,4600,2017-11-08 05:47:20,15,17.149,5804.3069770764,0,0,0.53401576512,95.5, 1.2, -0.4,0,0,1024,1024,1146,1024,95.9,0,100,4.284,4.284,4.282,4.281,0,0,73.31,10,Assisted_Takeoff,
0.352655805689153,36.8960328091213,5804.3069770764,0,0,0.54327757644,4700,2017-11-08 05:47:20,15,17.121,5804.3069770764,0,0,0.54327757644,95.5, 1.2, -0.4,0,0,1024,1024,1156,1024,95.9,0,100,4.288,4.287,4.287,4.288,0,0,75.11,10,Assisted_Takeoff,
0.352655835738016,36.8960328137152,5804.3069770764,0,0,0.55384844292,4800,2017-11-08 05:47:20,15,17.121,5804.3069770764,0,0,0.55384844292,95.5, 1.2, -0.4,0,0,1024,1024,1161,1024,95.9,0,100,4.288,4.287,4.287,4.288,0,0,75.11,10,Assisted_Takeoff,
0.352655852682383,36.8960328403016,5804.3069770764,0,0,0.56370080544,4900,2017-11-08 05:47:20,15,17.121,5804.3069770764,0,0,0.56370080544,95.5, 1.2, -0.4,0,0,1024,1024,1174,1024,95.9,0,100,4.288,4.287,4.287,4.288,0,0,75.11,10,Assisted_Takeoff,
0.352655864761774,36.896032869048,5804.3069770764,0,0,0.57240159312,5000,2017-11-08 05:47:20,15,17.121,5804.3069770764,0,0,0.57240159312,95.5, 1.3, -0.4,0,0,1024,1024,1181,1024,95.9,0,100,4.288,4.287,4.287,4.288,0,0,75.11,10,Assisted_Takeoff,
0.352655889147315,36.8960328944875,5804.3069770764,0,0,0.58458991372,5100,2017-11-08 05:47:20,15,17.121,5804.3069770764,0,0,0.58458991372,95.5, 1.3, -0.4,0,0,1024,1024,1186,1024,95.9,0,100,4.288,4.287,4.287,4.288,0,0,75.11,10,Assisted_Takeoff,
0.352655919891524,36.8960329076052,5804.3069770764,0,0,0.59674214508,5200,2017-11-08 05:47:20,15,17.121,5804.3069770764,0,0,0.59674214508,95.5, 1.3, -0.4,0,0,1024,1024,1194,1024,95.9,0,100,4.288,4.287,4.287,4.288,0,0,75.11,10,Assisted_Takeoff,
0.352655938960196,36.8960329428699,5804.3069770764,0,0,0.60894686988,5300,2017-11-08 05:47:20,15,17.121,5804.3069770764,0,0,0.60894686988,95.5, 1.3, -0.3,0,0,1024,1024,1216,1024,95.9,0,100,4.288,4.287,4.287,4.288,0,0,75.11,10,Assisted_Takeoff,
0.35265595468323,36.8960329729502,5804.3069770764,0,0,0.61926839252,5400,2017-11-08 05:47:20,15,17.121,5804.3069770764,0,0,0.61926839252,95.7, 1.8, 0,0,0,1024,1024,1227,1024,95.9,0,100,4.288,4.287,4.287,4.288,0,0,75.11,10,Assisted_Takeoff,
0.352655993488643,36.8960329835156,5804.3069770764,0,0,0.63352036148,5500,2017-11-08 05:47:21,15,17.121,5804.3069770764,0,0,0.63352036148,96, 1.8, 0.6,0,0,1024,1024,1241,1024,95.9,0,100,4.288,4.287,4.287,4.288,0,0,75.11,10,Assisted_Takeoff,
0.35265603606024,36.8960329601919,5804.3069770764,0,0,0.6431922778,5600,2017-11-08 05:47:21,15,17.121,5804.3069770764,0,0,0.6431922778,96, 1.2, 0.8,0,0,1024,1024,1271,1024,95.9,0,100,4.288,4.287,4.287,4.288,0,0,75.11,6,GPS_Atti,
0.352656052251045,36.8960329155429,5804.3069770764,0,0,0.64113191028,5700,2017-11-08 05:47:21,15,17.149,5804.3069770764,0,0,0.6431922778,96, 0.7, 0.4,0,0,1024,1024,1298,1024,95.9,0,100,4.288,4.278,4.279,4.284,0,0,75.11,6,GPS_Atti,Home Point Recorded. RTH Altitude:  30m.
0.352656047510644,36.8960328621678,5804.3069770764,0,0,0.63126970524,5800,2017-11-08 05:47:21,15,17.149,5804.3069770764,0,0,0.6431922778,95.9, 0.7, -0.1,0,0,1024,1024,1300,1024,95.9,0,100,4.288,4.278,4.279,4.284,0,0,75.11,6,GPS_Atti,
0.352656047942182,36.896032795608,5804.6350610764,0.328084,0,0.62174870756,5900,2017-11-08 05:47:21,15,17.149,5804.6350610764,0.328084,0,0.6431922778,95.9, 0.4, -2,0,0,1024,1024,1300,1024,95.9,0,100,4.288,4.278,4.279,4.284,0,0,75.11,6,GPS_Atti,
0.352656103864984,36.8960327222676,5804.6350610764,0.328084,0,0.63124345852,6000,2017-11-08 05:47:21,15,17.149,5804.6350610764,0.328084,0,0.6431922778,95.9, 0, -1.2,0,0,1024,1024,1290,1024,95.9,0,100,4.288,4.278,4.279,4.284,0,0,75.11,6,GPS_Atti,Obstacle Avoided. Revise Flight Route
0.352656238859328,36.8960326534686,5804.9631450764,0.656168,0,0.67051183248,6100,2017-11-08 05:47:21,15,17.149,5804.9631450764,0.656168,0,0.67051183248,96, 0, 1.5,0,0,1024,1024,1276,1024,95.9,0,100,4.288,4.278,4.279,4.284,0,0,75.11,6,GPS_Atti,
0.352656360781337,36.896032576156,5805.2912290764,0.984252,0,0.70656826408,6200,2017-11-08 05:47:21,15,17.149,5805.2912290764,0.984252,0,0.70656826408,95.9, -0.8, 2.8,0,0,1024,1024,1269,1024,95.9,0,100,4.288,4.278,4.279,4.284,0,0,75.11,6,GPS_Atti,
0.352656429772809,36.8960325070273,5805.6193130764,1.312336,0,0.72612863216,6300,2017-11-08 05:47:21,14,17.149,5805.6193130764,1.312336,0,0.72612863216,95.8, -1.1, 1,0,0,1024,1024,1251,1024,95.9,0,100,4.288,4.278,4.279,4.284,0,0,75.11,6,GPS_Atti,
0.352656449025903,36.8960324456455,5805.9473970764,1.64042,0,0.72934385536,6400,2017-11-08 05:47:21,14,17.149,5805.9473970764,1.64042,0,0.72934385536,95.9, -1.2, -0.3,0,0,1024,1024,1251,1024,95.9,0,100,4.288,4.278,4.279,4.284,0,0,75.11,6,GPS_Atti,
0.352656449521764,36.8960324014114,5806.6035650764,2.296588,0,0.72727364532,6500,2017-11-08 05:47:22,15,17.149,5806.6035650764,2.296588,0,0.72934385536,95.9, -1.1, -1.2,0,0,1024,1024,1245,1024,95.9,0,100,4.288,4.278,4.279,4.284,0,0,75.11,6,GPS_Atti,
0.352656438314812,36.8960323578172,5806.9316490764,2.624672,0,0.72133860576,6600,2017-11-08 05:47:22,15,17.149,5806.9316490764,2.624672,0,0.72934385536,95.8, -0.9, -2,0,0,1024,1024,1237,1024,95.9,0,100,4.288,4.278,4.279,4.284,0,0,75.11,6,GPS_Atti,
0.352656460118863,36.8960323177033,5807.2597330764,2.952756,0,0.72784123064,6700,2017-11-08 05:47:22,15,16.628,5807.2597330764,2.952756,0,0.72934385536,95.8, -1.2, -1.1,0,0,1024,1024,1237,1024,95.9,0,100,4.179,4.182,4.178,4.184,0,0,75.11,6,GPS_Atti,
0.352656501597775,36.8960322706003,5807.5878170764,3.28084,0,0.74166340956,6800,2017-11-08 05:47:22,15,16.628,5807.5878170764,3.28084,0,0.74166340956,95.7, -1.3, -0.2,0,0,1024,1024,1231,1024,95.9,0,100,4.179,4.182,4.178,4.184,0,0,75.11,6,GPS_Atti,
0.352656534079126,36.8960322262197,5807.9159010764,3.608924,0,0.75268703196,6900,2017-11-08 05:47:22,15,16.628,5807.9159010764,3.608924,0,0.75268703196,95.7, -1.5, -0.8,0,0,1024,1024,1231,1024,95.9,0,100,4.179,4.182,4.178,4.184,0,0,75.11,6,GPS_Atti,
0.352656571257723,36.8960321695169,5808.2439850764,3.937008,0,0.76572509012,7000,2017-11-08 05:47:22,15,16.628,5808.2439850764,3.937008,0,0.76572509012,95.8, -1.7, -1,0,0,1024,1024,1228,1024,95.9,0,100,4.179,4.182,4.178,4.184,0,0,75.11,6,GPS_Atti,
0.352656638847513,36.8960321090884,5808.5720690764,4.265092,0.223694,0.79044950036,7100,2017-11-08 05:47:22,15,16.628,5808.5720690764,4.265092,0.223694,0.79044950036,95.8, -2.1, -0.7,0,0,1024,1024,1220,1024,95.9,0,100,4.179,4.182,4.178,4.184,0,0,75.11,6,GPS_Atti,
0.352656724107141,36.8960320370509,5808.9001530764,4.593176,0.223694,0.82239832028,7200,2017-11-08 05:47:22,15,16.628,5808.9001530764,4.593176,0.223694,0.82239832028,95.9, -2.5, -0.1,0,0,1024,1024,1220,1024,95.9,0,100,4.179,4.182,4.178,4.184,0,0,75.11,6,GPS_Atti,
0.35265681446502,36.8960319468683,5809.2282370764,4.92126,0,0.8574803424,7300,2017-11-08 05:47:22,14,16.628,5809.2282370764,4.92126,0.223694,0.8574803424,95.9, -3.1, 0.3,0,0,1024,1024,1226,1024,95.9,0,100,4.179,4.182,4.178,4.184,0,0,75.11,6,GPS_Atti,
0.352656893954664,36.8960318548068,5809.5563210764,5.249344,0,0.88976052716,7400,2017-11-08 05:47:22,14,16.628,5809.5563210764,5.249344,0.223694,0.88976052716,95.9, -3.1, 0.6,0,0,1024,1024,1228,1024,95.9,0,100,4.179,4.182,4.178,4.184,0,0,75.11,6,GPS_Atti,
0.352656943816805,36.8960317681908,5809.8844050764,5.577428,0,0.9120571158,7500,2017-11-08 05:47:23,15,16.628,5809.8844050764,5.577428,0.223694,0.9120571158,95.9, -3, 0.3,0,0,1024,1024,1235,1024,95.9,0,100,4.179,4.182,4.178,4.184,0,0,75.11,6,GPS_Atti,
0.352656973396269,36.8960316942889,5810.2124890764,5.905512,0,0.92713585644,7600,2017-11-08 05:47:23,15,16.628,5810.2124890764,5.905512,0.223694,0.92713585644,95.9, -3.2, 0,0,0,1024,1024,1244,1024,95.9,0,100,4.179,4.182,4.178,4.184,0,0,75.11,6,GPS_Atti,
0.352656967956859,36.89603163104,5810.2124890764,5.905512,0,0.92956695888,7700,2017-11-08 05:47:23,15,16.628,5810.2124890764,5.905512,0.223694,0.92956695888,95.9, -3.3, 0.1,0,0,1024,1024,1253,1024,95.9,0,100,4.179,4.182,4.178,4.184,0,0,75.11,6,GPS_Atti,
0.352656948290141,36.8960316043784,5810.5405730764,6.233596,0,0.92457023956,7800,2017-11-08 05:47:23,15,16.628,5810.5405730764,6.233596,0.223694,0.92956695888,95.9, -2.9, 0.1,0,0,1024,1024,1272,1024,95.9,0,100,4.179,4.182,4.178,4.184,0,0,75.11,6,GPS_Atti,
0.352656940965807,36.8960316260207,5810.8686570764,6.56168,0,0.92029858588,7900,2017-11-08 05:47:23,15,16.628,5810.8686570764,6.56168,0.223694,0.92956695888,96, -2.1, 0,0,0,1024,1024,1282,1024,95.9,0,100,4.179,4.182,4.178,4.184,0,0,75.11,6,GPS_Atti,
0.352656944182798,36.8960316723553,5811.1967410764,6.889764,0,0.91812010812,8000,2017-11-08 05:47:23,15,16.628,5811.1967410764,6.889764,0.223694,0.92956695888,96, -1.5, -0.1,0,0,1024,1024,1287,1024,95.9,0,100,4.179,4.182,4.178,4.184,0,0,75.11,6,GPS_Atti,
0.352656905141667,36.8960317204599,5811.5248250764,7.217848,0,0.90094819156,8100,2017-11-08 05:47:23,15,16.628,5811.5248250764,7.217848,0.223694,0.92956695888,96, -1.5, -0.4,0,0,1024,1024,1289,1024,95.9,0,100,4.179,4.182,4.178,4.184,0,0,75.11,6,GPS_Atti,
0.352656844364473,36.8960317636248,5812.1809930764,7.874016,0,0.87646984432,8200,2017-11-08 05:47:23,15,16.628,5812.1809930764,7.874016,0.223694,0.92956695888,95.9, -1.7, -0.6,0,0,1024,1024,1294,1024,95.9,0,100,4.179,4.182,4.178,4.184,0,0,75.11,6,GPS_Atti,
0.352656761280853,36.8960318187563,5812.5090770764,8.2021,0,0.84347771728,8300,2017-11-08 05:47:23,15,16.628,5812.5090770764,8.2021,0.223694,0.92956695888,95.8, -1.9, -1,0,0,1024,1024,1297,1024,95.9,0,100,4.179,4.182,4.178,4.184,0,0,75.11,6,GPS_Atti,
0.352656684072659,36.8960318740416,5812.8371610764,8.530184,0,0.81289700764,8400,2017-11-08 05:47:23,15,16.628,5812.8371610764,8.530184,0.223694,0.92956695888,95.7, -2.1, -1.6,0,0,1024,1024,1296,1024,95.9,0,100,4.179,4.182,4.178,4.184,0,0,75.11,6,GPS_Atti,
0.352656579856722,36.8960319711704,5813.8214130764,9.514436,0,0.77144359424,8600,2017-11-08 05:47:24,14,16.628,5813.8214130764,9.514436,0.223694,0.92956695888,95.7, -1.5, -2.1,0,0,1024,1024,1296,1024,95.9,0,100,4.179,4.182,4.178,4.184,0,0,75.11,6,GPS_Atti,
0.352656554063797,36.8960320502818,5814.1494970764,9.84252,0,0.76020015556,8700,2017-11-08 05:47:24,15,16.683,5814.1494970764,9.84252,0.223694,0.92956695888,95.8, -1.2, -1.6,0,0,1024,1024,1300,1024,95.9,0,100,4.185,4.187,4.176,4.187,0,0,75.11,6,GPS_Atti,
0.352656551997709,36.8960321466873,5814.8056650764,10.498688,0,0.75865159908,8800,2017-11-08 05:47:24,15,16.683,5814.8056650764,10.498688,0.223694,0.92956695888,96, -0.4, -1,0,0,1024,1024,1324,1024,95.9,0,100,4.185,4.187,4.176,4.187,0,0,75.11,6,GPS_Atti,
0.352656568849662,36.8960322542836,5815.1337490764,10.826772,0,0.76582679616,8900,2017-11-08 05:47:24,14,16.683,5815.1337490764,10.826772,0.223694,0.92956695888,96.2, -0.4, -0.2,0,0,1024,1024,1334,1024,95.9,0,100,4.185,4.187,4.176,4.187,0,0,75.11,6,GPS_Atti,
0.352656608825926,36.8960323299003,5815.4618330764,11.154856,0,0.78228020876,9000,2017-11-08 05:47:24,14,16.683,5815.4618330764,11.154856,0.223694,0.92956695888,96.3, -1.1, 0,0,0,1024,1024,1331,1024,95.9,0,100,4.185,4.187,4.176,4.187,0,0,75.11,6,GPS_Atti,
0.352656630147551,36.8960323992356,5816.1180010764,11.811024,0,0.79258204636,9100,2017-11-08 05:47:24,15,16.683,5816.1180010764,11.811024,0.223694,0.92956695888,96.2, -1.9, 0,0,0,1024,1024,1330,1024,95.9,0,100,4.185,4.187,4.176,4.187,0,0,75.11,6,GPS_Atti,
0.352656647265754,36.8960324597027,5816.4460850764,12.139108,0,0.8016404456,9200,2017-11-08 05:47:24,15,16.683,5816.4460850764,12.139108,0.223694,0.92956695888,96.1, -2.2, -0.2,0,0,1024,1024,1331,1024,95.9,0,100,4.185,4.187,4.176,4.187,0,0,75.11,6,GPS_Atti,
0.352656643108744,36.8960325311562,5817.1022530764,12.795276,0,0.80428808348,9300,2017-11-08 05:47:24,15,16.683,5817.1022530764,12.795276,0.223694,0.92956695888,96, -1.9, -0.8,0,0,1024,1024,1332,1024,95.9,0,100,4.185,4.187,4.176,4.187,0,0,75.11,6,GPS_Atti,
0.352656650304431,36.8960326008373,5817.7584210764,13.451444,0,0.81169293936,9400,2017-11-08 05:47:24,15,16.683,5817.7584210764,13.451444,0.223694,0.92956695888,96, -1.5, -0.2,0,0,1024,1024,1331,1024,95.9,0,100,4.185,4.187,4.176,4.187,0,0,75.11,6,GPS_Atti,
0.352656670099796,36.8960326721393,5818.0865050764,13.779528,0,0.82443244108,9500,2017-11-08 05:47:25,16,16.683,5818.0865050764,13.779528,0.223694,0.92956695888,96, -1.3, 0.3,0,0,1024,1024,1332,1024,95.9,0,100,4.185,4.187,4.176,4.187,0,0,75.11,6,GPS_Atti,
0.352656706710881,36.8960327238668,5818.7426730764,14.435696,0,0.84195868836,9600,2017-11-08 05:47:25,16,16.683,5818.7426730764,14.435696,0.223694,0.92956695888,96, -1.8, 0.3,0,0,1024,1024,1333,1024,95.9,0,100,4.185,4.187,4.176,4.187,0,0,75.11,6,GPS_Atti,
0.352656714001425,36.8960327705606,5819.3988410764,15.091864,0,0.8489501584,9700,2017-11-08 05:47:25,16,16.628,5819.3988410764,15.091864,0.223694,0.92956695888,95.9, -1.8, 0.2,0,0,1024,1024,1334,1024,95.9,0,99,4.166,4.17,4.157,4.17,0,0,75.11,6,GPS_Atti,
0.352656712627018,36.896032806356,5819.7269250764,15.419948,0,0.85207023724,9800,2017-11-08 05:47:25,16,16.628,5819.7269250764,15.419948,0.223694,0.92956695888,95.9, -1.5, 0.2,0,0,1024,1024,1335,1024,95.9,0,99,4.166,4.17,4.157,4.17,0,0,75.11,6,GPS_Atti,
0.35265670894307,36.8960327962798,5820.3830930764,16.076116,0,0.84974740252,9900,2017-11-08 05:47:25,16,16.628,5820.3830930764,16.076116,0.223694,0.92956695888,95.9, -1.9, 0.1,0,0,1024,1024,1335,1024,95.9,0,99,4.166,4.17,4.157,4.17,0,0,75.11,6,GPS_Atti,
0.352656702748877,36.8960327510629,5821.0392610764,16.732284,0,0.84310370152,10000,2017-11-08 05:47:25,16,16.628,5821.0392610764,16.732284,0.223694,0.92956695888,95.9, -2.6, -0.3,0,0,1024,1024,1335,1024,95.9,0,99,4.166,4.17,4.157,4.17,0,0,75.11,6,GPS_Atti,
0.352656680871546,36.8960327031574,5821.3673450764,17.060368,0,0.830954751,10100,2017-11-08 05:47:25,16,16.628,5821.3673450764,17.060368,0.223694,0.92956695888,95.9, -3.2, -0.8,0,0,1024,1024,1338,1024,95.9,0,99,4.166,4.17,4.157,4.17,0,0,75.11,6,GPS_Atti,
0.352656664277701,36.8960326667031,5822.0235130764,17.716536,0,0.82190619428,10200,2017-11-08 05:47:25,16,16.628,5822.0235130764,17.716536,0.223694,0.92956695888,95.9, -3.6, -0.9,0,0,1024,1024,1336,1024,95.9,0,99,4.166,4.17,4.157,4.17,0,0,75.11,6,GPS_Atti,
0.352656657018505,36.8960326493318,5822.6796810764,18.372704,0,0.81788388444,10300,2017-11-08 05:47:25,16,16.628,5822.6796810764,18.372704,0.223694,0.92956695888,96, -3.6, -0.8,0,0,1024,1024,1345,1024,95.9,0,99,4.166,4.17,4.157,4.17,0,0,75.11,6,GPS_Atti,
0.352656660546122,36.8960326396127,5823.0077650764,18.700788,0,0.81834976372,10400,2017-11-08 05:47:25,16,16.628,5823.0077650764,18.700788,0.223694,0.92956695888,95.9, -3.5, -0.2,0,0,1024,1024,1354,1024,95.9,0,99,4.166,4.17,4.157,4.17,0,0,75.11,6,GPS_Atti,
0.352656661064374,36.8960326271571,5823.6639330764,19.356956,0,0.81754595792,10500,2017-11-08 05:47:26,16,16.628,5823.6639330764,19.356956,0.223694,0.92956695888,95.9, -3.9, 0.2,0,0,1024,1024,1371,1024,95.9,0,99,4.166,4.17,4.157,4.17,0,0,75.11,6,GPS_Atti,
0.352656635115119,36.896032615827,5824.3201010764,20.013124,0,0.80741144316,10600,2017-11-08 05:47:26,16,16.628,5824.3201010764,20.013124,0.223694,0.92956695888,95.9, -4.2, 0,0,0,1024,1024,1384,1024,95.9,0,99,4.166,4.17,4.157,4.17,0,0,75.11,6,GPS_Atti,
0.352656585701615,36.8960326171168,5824.9762690764,20.669292,0.223694,0.78990816176,10700,2017-11-08 05:47:26,16,16.573,5824.9762690764,20.669292,0.223694,0.92956695888,96, -4, -0.5,0,0,1024,1024,1376,1024,95.9,0,99,4.166,4.17,4.157,4.17,0,0,75.11,6,GPS_Atti,
0.352656517562225,36.8960326449614,5825.3043530764,20.997376,0.223694,0.76800855476,10800,2017-11-08 05:47:26,16,16.573,5825.3043530764,20.997376,0.223694,0.92956695888,96, -3, -2.3,0,0,1024,1024,1376,1024,95.9,0,99,4.166,4.17,4.157,4.17,0,0,75.11,6,GPS_Atti,
0.352656460924943,36.8960327194639,5825.9605210764,21.653544,0,0.75503283256,10900,2017-11-08 05:47:26,16,16.573,5825.9605210764,21.653544,0.223694,0.92956695888,96.2, -1.9, -3.3,0,0,1024,1024,1366,1024,95.9,0,99,4.166,4.17,4.157,4.17,0,0,75.11,6,GPS_Atti,
0.352656456288763,36.8960328072504,5826.6166890764,22.309712,0,0.7629265336,11000,2017-11-08 05:47:26,16,16.573,5826.6166890764,22.309712,0.223694,0.92956695888,96.3, -2.3, -1.4,0,0,1024,1024,1359,1024,95.9,0,99,4.166,4.17,4.157,4.17,0,0,75.11,6,GPS_Atti,
0.352656468990219,36.8960328825541,5827.2728570764,22.96588,0,0.77640750516,11100,2017-11-08 05:47:26,16,16.573,5827.2728570764,22.96588,0.223694,0.92956695888,96.4, -2.9, 0.2,0,0,1024,1024,1359,1024,95.9,0,99,4.166,4.17,4.157,4.17,0,0,75.11,6,GPS_Atti,
0.352656448462461,36.8960329596274,5827.9290250764,23.622048,0,0.7796588176,11200,2017-11-08 05:47:26,16,16.573,5827.9290250764,23.622048,0.223694,0.92956695888,96.3, -2.6, 0,0,0,1024,1024,1366,1024,95.9,0,99,4.166,4.17,4.157,4.17,0,0,75.11,6,GPS_Atti,
0.352656386767639,36.8960330508931,5828.5851930764,24.278216,0.223694,0.77253283312,11300,2017-11-08 05:47:26,16,16.573,5828.5851930764,24.278216,0.223694,0.92956695888,96, -2.3, -1.1,0,0,1024,1024,1366,1024,95.9,0,99,4.166,4.17,4.157,4.17,0,0,75.11,6,GPS_Atti,
0.352656308315314,36.8960331395457,5829.2413610764,24.934384,0.223694,0.7616141976,11400,2017-11-08 05:47:26,16,16.573,5829.2413610764,24.934384,0.223694,0.92956695888,95.8, -2.3, -2.6,0,0,1024,1024,1366,1024,95.9,0,99,4.166,4.17,4.157,4.17,0,0,75.11,6,GPS_Atti,
0.352656215509476,36.8960332203664,5829.8975290764,25.590552,0,0.7470636722,11500,2017-11-08 05:47:27,16,16.573,5829.8975290764,25.590552,0.223694,0.92956695888,95.8, -1.7, -2.1,0,0,1024,1024,1365,1024,95.9,0,99,4.166,4.17,4.157,4.17,0,0,75.11,6,GPS_Atti,
0.352656124596705,36.8960332673091,5830.5536970764,26.24672,0,0.72852364536,11600,2017-11-08 05:47:27,16,16.573,5830.5536970764,26.24672,0.223694,0.92956695888,95.9, -2.1, -1.3,0,0,1024,1024,1365,1024,95.9,0,99,4.166,4.17,4.157,4.17,0,0,75.11,6,GPS_Atti,
0.352655996430834,36.896033292467,5831.2098650764,26.902888,0,0.6958169514,11700,2017-11-08 05:47:27,16,16.519,5831.2098650764,26.902888,0.223694,0.92956695888,95.9, -3, -1.7,0,0,1024,1024,1371,1024,95.9,0,99,4.166,4.17,4.157,4.169,0,0,75.11,6,GPS_Atti,
0.352655858535011,36.8960333075255,5831.8660330764,27.559056,0.223694,0.65983269828,11800,2017-11-08 05:47:27,16,16.519,5831.8660330764,27.559056,0.223694,0.92956695888,95.9, -3.1, -2.5,0,0,1024,1024,1372,1024,95.9,0,99,4.166,4.17,4.157,4.169,0,0,75.11,6,GPS_Atti,
0.352655708523971,36.8960333089194,5832.5222010764,28.215224,0.223694,0.61923886496,11900,2017-11-08 05:47:27,16,16.519,5832.5222010764,28.215224,0.223694,0.92956695888,95.9, -2.9, -3.1,0,0,1024,1024,1372,1024,95.9,0,99,4.166,4.17,4.157,4.169,0,0,75.11,6,GPS_Atti,
0.352655582685147,36.8960332915479,5833.1783690764,28.871392,0.223694,0.58208335196,12000,2017-11-08 05:47:27,16,16.519,5833.1783690764,28.871392,0.223694,0.92956695888,95.9, -2.9, -3.2,0,0,1024,1024,1376,1024,95.9,0,99,4.166,4.17,4.157,4.169,0,0,75.11,6,GPS_Atti,
0.352655453128585,36.8960332895799,5833.8345370764,29.52756,0,0.54969818032,12100,2017-11-08 05:47:27,16,16.519,5833.8345370764,29.52756,0.223694,0.92956695888,95.9, -2.9, -3.3,0,0,1024,1024,1376,1024,95.9,0,99,4.166,4.17,4.157,4.169,0,0,75.11,6,GPS_Atti,
0.352655349653183,36.8960332894375,5834.4907050764,30.183728,0,0.52587272024,12200,2017-11-08 05:47:27,16,16.519,5834.4907050764,30.183728,0.223694,0.92956695888,95.9, -3, -3.3,0,0,1024,1024,1375,1024,95.9,0,99,4.166,4.17,4.157,4.169,0,0,75.11,6,GPS_Atti,
0.352655266314711,36.8960332682804,5835.1468730764,30.839896,0,0.50162075096,12300,2017-11-08 05:47:27,16,16.519,5835.1468730764,30.839896,0.223694,0.92956695888,96, -3.3, -3.2,0,0,1024,1024,1365,1024,95.9,0,99,4.166,4.17,4.157,4.169,0,0,75.11,6,GPS_Atti,
0.352655218413217,36.8960332329721,5835.8030410764,31.496064,0,0.48106300752,12400,2017-11-08 05:47:27,16,16.519,5835.8030410764,31.496064,0.223694,0.92956695888,96, -3.4, -3.2,0,0,1024,1024,1362,1024,95.9,0,99,4.166,4.17,4.157,4.169,0,0,75.11,6,GPS_Atti,
0.352655177472506,36.8960332085408,5836.4592090764,32.152232,0,0.4653215372,12500,2017-11-08 05:47:28,16,16.519,5836.4592090764,32.152232,0.223694,0.92956695888,96, -3.7, -3,0,0,1024,1024,1365,1024,95.9,0,99,4.166,4.17,4.157,4.169,0,0,75.11,6,GPS_Atti,
0.352655155810537,36.896033194042,5837.1153770764,32.8084,0,0.45655841356,12600,2017-11-08 05:47:28,16,16.519,5837.1153770764,32.8084,0.223694,0.92956695888,96, -3.4, -3,0,0,1024,1024,1364,1024,95.9,0,99,4.166,4.17,4.157,4.169,0,0,75.11,6,GPS_Atti,
0.352655163372624,36.8960331956329,5837.7715450764,33.464568,0,0.45855644512,12700,2017-11-08 05:47:28,16,16.573,5837.7715450764,33.464568,0.223694,0.92956695888,95.9, -3.3, -3,0,0,1024,1024,1363,1024,95.9,0,99,4.158,4.162,4.151,4.165,0,0,75.11,6,GPS_Atti,
0.352655204675663,36.8960331937867,5838.4277130764,34.120736,0,0.466453427,12800,2017-11-08 05:47:28,16,16.573,5838.4277130764,34.120736,0.223694,0.92956695888,95.9, -3.4, -2.9,0,0,1024,1024,1364,1024,95.9,0,99,4.158,4.162,4.151,4.165,0,0,75.11,6,GPS_Atti,
0.352655284639999,36.8960331749672,5839.0838810764,34.776904,0,0.47833991032,12900,2017-11-08 05:47:28,16,16.573,5839.0838810764,34.776904,0.223694,0.92956695888,95.9, -3.6, -2.6,0,0,1024,1024,1363,1024,95.9,0,99,4.158,4.162,4.151,4.165,0,0,75.11,6,GPS_Atti,
0.352655384050805,36.8960331463887,5839.7400490764,35.433072,0,0.49385500268,13000,2017-11-08 05:47:28,16,16.573,5839.7400490764,35.433072,0.223694,0.92956695888,95.9, -3.8, -2.4,0,0,1024,1024,1363,1024,95.9,0,99,4.158,4.162,4.151,4.165,0,0,75.11,6,GPS_Atti,
0.352655475358881,36.8960331324214,5840.3962170764,36.08924,0,0.513287418,13100,2017-11-08 05:47:28,16,16.573,5840.3962170764,36.08924,0.223694,0.92956695888,96, -3.8, -2.3,0,0,1024,1024,1366,1024,95.9,0,99,4.158,4.162,4.151,4.165,0,0,75.11,6,GPS_Atti,
0.352655559123191,36.896033130614,5841.0523850764,36.745408,0,0.5350557914,13200,2017-11-08 05:47:28,16,16.573,5841.0523850764,36.745408,0.223694,0.92956695888,96, -3.8, -2.1,0,0,1024,1024,1370,1024,95.9,0,99,4.158,4.162,4.151,4.165,0,0,75.11,6,GPS_Atti,
0.352655632814353,36.8960331626192,5841.7085530764,37.401576,0,0.5628937188,13300,2017-11-08 05:47:28,16,16.573,5841.7085530764,37.401576,0.223694,0.92956695888,96, -3.7, -1.9,0,0,1024,1024,1371,1024,95.9,0,99,4.158,4.162,4.151,4.165,0,0,75.11,6,GPS_Atti,
0.352655703488822,36.8960332111534,5842.3647210764,38.057744,0,0.59396983528,13400,2017-11-08 05:47:28,16,16.573,5842.3647210764,38.057744,0.223694,0.92956695888,96, -3.6, -1.8,0,0,1024,1024,1371,1024,95.9,0,99,4.158,4.162,4.151,4.165,0,0,75.11,6,GPS_Atti,
0.352655773677608,36.8960332682836,5843.0208890764,38.713912,0,0.62697508568,13500,2017-11-08 05:47:29,16,16.573,5843.0208890764,38.713912,0.223694,0.92956695888,96, -3.6, -1.9,0,0,1024,1024,1371,1024,95.9,0,99,4.158,4.162,4.151,4.165,0,0,75.11,6,GPS_Atti,
0.352655859904532,36.8960333089256,5843.6770570764,39.37008,0,0.66054464056,13600,2017-11-08 05:47:29,16,16.573,5843.6770570764,39.37008,0.223694,0.92956695888,96, -3.6, -1.9,0,0,1024,1024,1372,1024,95.9,0,99,4.158,4.162,4.151,4.165,0,0,75.11,6,GPS_Atti,
0.352655956731812,36.8960333671631,5844.3332250764,40.026248,0,0.7012959542,13700,2017-11-08 05:47:29,16,16.519,5844.3332250764,40.026248,0.223694,0.92956695888,95.9, -3.8, -1.7,0,0,1024,1024,1374,1024,95.9,0,99,4.15,4.152,4.139,4.154,0,0,75.11,6,GPS_Atti,
0.35265605899606,36.8960334260117,5844.9893930764,40.682416,0,0.7437828322,13800,2017-11-08 05:47:29,16,16.519,5844.9893930764,40.682416,0.223694,0.92956695888,95.9, -3.8, -1.4,0,0,1024,1024,1374,1024,95.9,0,99,4.15,4.152,4.139,4.154,0,0,75.11,6,GPS_Atti,
0.35265613481397,36.8960335023447,5845.9736450764,41.666668,0,0.78281170484,13900,2017-11-08 05:47:29,16,16.519,5845.9736450764,41.666668,0.223694,0.92956695888,95.9, -3.8, -1.4,0,0,1024,1024,1374,1024,95.9,0,99,4.15,4.152,4.139,4.154,0,0,75.11,6,GPS_Atti,
0.352656195895275,36.8960335780128,5846.6298130764,42.322836,0,0.81756564296,14000,2017-11-08 05:47:29,16,16.519,5846.6298130764,42.322836,0.223694,0.92956695888,95.9, -3.7, -1.5,0,0,1024,1024,1375,1024,95.9,0,99,4.15,4.152,4.139,4.154,0,0,75.11,6,GPS_Atti,
0.352656275380034,36.8960336630005,5846.9578970764,42.65092,0,0.85970475192,14100,2017-11-08 05:47:29,16,16.519,5846.9578970764,42.65092,0.223694,0.92956695888,95.9, -3.4, -1.6,0,0,1024,1024,1376,1024,95.9,0,99,4.15,4.152,4.139,4.154,0,0,75.11,6,GPS_Atti,
0.35265637225861,36.8960337432626,5847.6140650764,43.307088,0,0.90560370352,14200,2017-11-08 05:47:29,16,16.519,5847.6140650764,43.307088,0.223694,0.92956695888,95.9, -3.3, -1.4,0,0,1024,1024,1377,1024,95.9,0,99,4.15,4.152,4.139,4.154,0,0,75.11,6,GPS_Atti,
0.352656452871473,36.8960338206769,5848.5983170764,44.29134,0,0.94629596204,14300,2017-11-08 05:47:29,15,16.519,5848.5983170764,44.29134,0.223694,0.94629596204,95.9, -3.3, -1.3,0,0,1024,1024,1377,1024,95.9,0,99,4.15,4.152,4.139,4.154,0,0,75.11,6,GPS_Atti,
0.352656515667531,36.8960338919316,5849.2544850764,44.947508,0,0.98059058256,14400,2017-11-08 05:47:29,15,16.519,5849.2544850764,44.947508,0.223694,0.98059058256,95.9, -3.3, -1.4,0,0,1024,1024,1379,1024,95.9,0,99,4.15,4.152,4.139,4.154,0,0,75.11,6,GPS_Atti,
0.352656557691156,36.8960339803053,5849.9106530764,45.603676,0,1.01329727652,14500,2017-11-08 05:47:30,16,16.519,5849.9106530764,45.603676,0.223694,1.01329727652,95.9, -3.2, -1.6,0,0,1024,1024,1381,1024,95.9,0,99,4.15,4.152,4.139,4.154,0,0,75.11,6,GPS_Atti,
0.352656595615582,36.8960340713916,5850.5668210764,46.259844,0,1.04575790748,14600,2017-11-08 05:47:30,16,16.519,5850.5668210764,46.259844,0.223694,1.04575790748,95.9, -3, -1.7,0,0,1024,1024,1380,1024,95.9,0,99,4.15,4.152,4.139,4.154,0,0,75.11,6,GPS_Atti,
0.352656602477437,36.8960341504009,5851.5510730764,47.244096,0,1.06716210764,14700,2017-11-08 05:47:30,16,16.491,5851.5510730764,47.244096,0.223694,1.06716210764,95.9, -2.9, -1.6,0,0,1024,1024,1380,1024,95.9,0,99,4.15,4.152,4.139,4.154,0,0,75.11,6,GPS_Atti,
0.352656610000035,36.8960342151481,5852.2072410764,47.900264,0,1.08545935232,14800,2017-11-08 05:47:30,16,16.491,5852.2072410764,47.900264,0.223694,1.08545935232,96, -3, -1.5,0,0,1024,1024,1380,1024,95.9,0,99,4.15,4.152,4.139,4.154,0,0,75.11,6,GPS_Atti,
0.352656614146867,36.8960342880708,5852.8634090764,48.556432,0,1.1052001666,14900,2017-11-08 05:47:30,16,16.491,5852.8634090764,48.556432,0.223694,1.1052001666,95.9, -2.9, -1.3,0,0,1024,1024,1380,1024,95.9,0,99,4.15,4.152,4.139,4.154,0,0,75.11,6,GPS_Atti,
0.352656630881572,36.8960343603692,5853.8476610764,49.540684,0,1.1282644718,15000,2017-11-08 05:47:30,16,16.491,5853.8476610764,49.540684,0.223694,1.1282644718,95.9, -2.9, -1.3,0,0,1024,1024,1380,1024,95.9,0,99,4.15,4.152,4.139,4.154,0,0,75.11,6,GPS_Atti,
0.352656643256932,36.896034393623,5854.5038290764,50.196852,0,1.14011486588,15100,2017-11-08 05:47:30,16,16.491,5854.5038290764,50.196852,0.223694,1.14011486588,95.9, -2.8, -1.7,0,0,1024,1024,1380,1024,95.9,0,99,4.15,4.152,4.139,4.154,0,0,75.11,6,GPS_Atti,
0.352656666003852,36.896034406035,5855.1599970764,50.85302,0,1.14914045672,15200,2017-11-08 05:47:30,16,16.491,5855.1599970764,50.85302,0.223694,1.14914045672,95.9, -2.9, -1.5,0,0,1024,1024,1378,1024,95.9,0,99,4.15,4.152,4.139,4.154,0,0,75.11,6,GPS_Atti,
0.352656678615337,36.896034427274,5855.8161650764,51.509188,0,1.15791014204,15300,2017-11-08 05:47:30,16,16.491,5855.8161650764,51.509188,0.223694,1.15791014204,95.9, -3, -1.2,0,0,1024,1024,1378,1024,95.9,0,99,4.15,4.152,4.139,4.154,0,0,75.11,6,GPS_Atti,
0.352656671171719,36.8960344620101,5856.4723330764,52.165356,0,1.16518376432,15400,2017-11-08 05:47:30,16,16.491,5856.4723330764,52.165356,0.223694,1.16518376432,95.9, -3, -1.5,0,0,1024,1024,1380,1024,95.9,0,99,4.15,4.152,4.139,4.154,0,0,75.11,6,GPS_Atti,
0.35265661784832,36.8960344951236,5857.4565850764,53.149608,0,1.16076775368,15500,2017-11-08 05:47:31,16,16.491,5857.4565850764,53.149608,0.223694,1.16518376432,95.9, -2.9, -1.9,0,0,1024,1024,1380,1024,95.9,0,99,4.15,4.152,4.139,4.154,0,0,75.11,6,GPS_Atti,
0.352656576272517,36.8960345110723,5858.1127530764,53.805776,0,1.154937701,15600,2017-11-08 05:47:31,16,16.491,5858.1127530764,53.805776,0.223694,1.16518376432,95.9, -3, -1.9,0,0,1024,1024,1380,1024,95.9,0,99,4.15,4.152,4.139,4.154,0,0,75.11,6,GPS_Atti,
0.352656535439691,36.8960345021837,5858.7689210764,54.461944,0,1.14264767436,15700,2017-11-08 05:47:31,16,16.491,5858.7689210764,54.461944,0.223694,1.16518376432,95.9, -3.4, -1.7,0,0,1024,1024,1381,1024,95.9,0,99,4.143,4.147,4.134,4.147,0,0,75.11,6,GPS_Atti,
0.352656515240878,36.8960344748069,5859.7531730764,55.446196,0,1.13027890756,15800,2017-11-08 05:47:31,16,16.491,5859.7531730764,55.446196,0.223694,1.16518376432,95.9, -3.7, -1.5,0,0,1024,1024,1382,1024,95.9,0,99,4.143,4.147,4.134,4.147,0,0,75.11,6,GPS_Atti,
0.352656489850587,36.8960344433951,5860.4093410764,56.102364,0,1.11555449764,15900,2017-11-08 05:47:31,16,16.491,5860.4093410764,56.102364,0.223694,1.16518376432,95.9, -3.8, -1.6,0,0,1024,1024,1380,1024,95.9,0,99,4.143,4.147,4.134,4.147,0,0,75.11,6,GPS_Atti,
0.352656468702392,36.8960344106107,5861.0655090764,56.758532,0,1.1014764132,16000,2017-11-08 05:47:31,16,16.491,5861.0655090764,56.758532,0.223694,1.16518376432,95.9, -4, -1.9,0,0,1024,1024,1381,1024,95.9,0,99,4.143,4.147,4.134,4.147,0,0,75.11,6,GPS_Atti,
0.352656427862645,36.8960343881287,5862.0497610764,57.742784,0,1.08548887988,16100,2017-11-08 05:47:31,16,16.491,5862.0497610764,57.742784,0.223694,1.16518376432,95.9, -4, -2,0,0,1024,1024,1370,1024,95.9,0,99,4.143,4.147,4.134,4.147,0,0,75.11,6,GPS_Atti,
0.352656393535859,36.896034372953,5862.7059290764,58.398952,0,1.07310042804,16200,2017-11-08 05:47:31,16,16.491,5862.7059290764,58.398952,0.223694,1.16518376432,95.9, -4.1, -2,0,0,1024,1024,1368,1024,95.9,0,99,4.143,4.147,4.134,4.147,0,0,75.11,6,GPS_Atti,
0.352656366844848,36.8960343770288,5863.3620970764,59.05512,0,1.0678970158,16300,2017-11-08 05:47:31,16,16.491,5863.3620970764,59.05512,0.223694,1.16518376432,96, -4.1, -1.9,0,0,1024,1024,1379,1024,95.9,0,99,4.143,4.147,4.134,4.147,0,0,75.11,6,GPS_Atti,
0.352656356846202,36.8960343853912,5864.3463490764,60.039372,0,1.06787404992,16400,2017-11-08 05:47:31,16,16.491,5864.3463490764,60.039372,0.223694,1.16518376432,95.9, -4.1, -1.6,0,0,1024,1024,1384,1024,95.9,0,99,4.143,4.147,4.134,4.147,0,0,75.11,6,GPS_Atti,
0.352656319368785,36.8960343868097,5865.0025170764,60.69554,0,1.05952431212,16500,2017-11-08 05:47:32,16,16.491,5865.0025170764,60.69554,0.223694,1.16518376432,95.9, -3.8, -1.8,0,0,1024,1024,1386,1024,95.9,0,99,4.143,4.147,4.134,4.147,0,0,75.11,6,GPS_Atti,
0.352656277005221,36.8960343793,5865.6586850764,61.351708,0,1.04762798628,16600,2017-11-08 05:47:32,16,16.491,5865.6586850764,61.351708,0.223694,1.16518376432,95.9, -3.5, -2.2,0,0,1024,1024,1394,1024,95.9,0,99,4.143,4.147,4.134,4.147,0,0,75.11,6,GPS_Atti,
0.352656223727419,36.8960343730579,5866.3148530764,62.007876,0,1.03373362888,16700,2017-11-08 05:47:32,16,16.491,5866.3148530764,62.007876,0.223694,1.16518376432,95.9, -3.5, -2.5,0,0,1024,1024,1390,1024,95.9,0,99,4.136,4.139,4.126,4.142,0,0,75.11,6,GPS_Atti,
0.352656199645175,36.8960343717015,5866.9710210764,62.664044,0,1.0279363846,16800,2017-11-08 05:47:32,16,16.491,5866.9710210764,62.664044,0.223694,1.16518376432,95.9, -3.4, -2.2,0,0,1024,1024,1383,1023,95.9,0,99,4.136,4.139,4.126,4.142,0,0,75.11,6,GPS_Atti,
0.352656174909111,36.8960343468214,5867.9552730764,63.648296,0,1.01523297212,16900,2017-11-08 05:47:32,16,16.491,5867.9552730764,63.648296,0.223694,1.16518376432,95.9, -3.3, -1.7,0,0,1024,1024,1381,1023,95.9,0,99,4.136,4.139,4.126,4.142,0,0,75.11,6,GPS_Atti,
0.35265616449399,36.8960343082055,5868.6114410764,64.304464,0,1.00177824728,17000,2017-11-08 05:47:32,16,16.491,5868.6114410764,64.304464,0.223694,1.16518376432,96, -3.6, -1.6,0,0,1024,1024,1381,1023,95.9,0,99,4.136,4.139,4.126,4.142,0,0,75.11,6,GPS_Atti,
0.352656127420427,36.8960342655577,5869.2676090764,64.960632,0,0.98118769544,17100,2017-11-08 05:47:32,16,16.491,5869.2676090764,64.960632,0.223694,1.16518376432,95.9, -3.9, -1.5,0,0,1024,1024,1409,1024,95.9,0,99,4.136,4.139,4.126,4.142,0,0,75.11,6,GPS_Atti,
0.352656100236811,36.8960342350808,5870.2518610764,65.944884,0,0.9663222094,17200,2017-11-08 05:47:32,16,16.491,5870.2518610764,65.944884,0.223694,1.16518376432,95.9, -3.8, -1.7,0,0,1024,1024,1420,1024,95.9,0,99,4.136,4.139,4.126,4.142,0,0,75.11,6,GPS_Atti,
0.35265607383607,36.8960341953298,5870.9080290764,66.601052,0,0.94896328496,17300,2017-11-08 05:47:32,16,16.491,5870.9080290764,66.601052,0.223694,1.16518376432,95.9, -3.5, -1.8,0,0,1024,1024,1437,1024,95.9,0,99,4.136,4.139,4.126,4.142,0,0,75.11,6,GPS_Atti,
0.352656077149953,36.8960341493412,5871.5641970764,67.25722,0,0.93655186724,17400,2017-11-08 05:47:32,16,16.491,5871.5641970764,67.25722,0.223694,1.16518376432,95.9, -3.5, -1.7,0,0,1024,1024,1437,1024,95.9,0,99,4.136,4.139,4.126,4.142,0,0,75.11,6,GPS_Atti,
0.35265609004723,36.8960340853734,5872.5484490764,68.241472,0,0.9214567224,17500,2017-11-08 05:47:33,16,16.491,5872.5484490764,68.241472,0.223694,1.16518376432,95.9, -3.9, -1.1,0,0,1024,1024,1440,1024,95.9,0,99,4.136,4.139,4.126,4.142,0,0,75.11,6,GPS_Atti,
0.352656120881003,36.8960340318746,5873.2046170764,68.89764,0,0.91391407124,17600,2017-11-08 05:47:33,16,16.491,5873.2046170764,68.89764,0.223694,1.16518376432,95.9, -4.2, -1,0,0,1024,1024,1440,1024,95.9,0,99,4.136,4.139,4.126,4.142,0,0,75.11,6,GPS_Atti,
0.352656110479317,36.8960340002591,5873.8607850764,69.553808,0,0.90274609188,17700,2017-11-08 05:47:33,16,16.464,5873.8607850764,69.553808,0.223694,1.16518376432,95.9, -4.2, -0.8,0,0,1024,1024,1432,1024,95.9,0,99,4.129,4.134,4.123,4.138,0,0,75.11,6,GPS_Atti,
0.352656082578371,36.8960339913581,5874.8450370764,70.53806,0,0.89358926744,17800,2017-11-08 05:47:33,16,16.464,5874.8450370764,70.53806,0.223694,1.16518376432,95.9, -4.2, -1,0,0,1024,1024,1432,1024,95.9,0,99,4.129,4.134,4.123,4.138,0,0,75.11,6,GPS_Atti,
0.352656020581473,36.8960339760371,5875.8292890764,71.522312,0,0.87460960804,17900,2017-11-08 05:47:33,16,16.464,5875.8292890764,71.522312,0.223694,1.16518376432,95.9, -4, -1.7,0,0,1024,1024,1431,1023,95.9,0,99,4.129,4.134,4.123,4.138,0,0,75.11,6,GPS_Atti,
0.352655975381974,36.8960339554913,5876.4854570764,72.17848,0,0.85827430568,18000,2017-11-08 05:47:33,16,16.464,5876.4854570764,72.17848,0.223694,1.16518376432,96, -4.1, -2,0,0,1024,1024,1431,1023,95.9,0,99,4.129,4.134,4.123,4.138,0,0,75.11,6,GPS_Atti,
0.352655935465555,36.8960339463733,5877.4697090764,73.162732,0,0.84646000084,18100,2017-11-08 05:47:33,16,16.464,5877.4697090764,73.162732,0.223694,1.16518376432,96, -4.1, -2,0,0,1024,1024,1432,1024,95.9,0,99,4.129,4.134,4.123,4.138,0,0,75.11,6,GPS_Atti,
0.352655923605597,36.8960339479224,5878.1258770764,73.8189,0,0.8441765362,18200,2017-11-08 05:47:33,16,16.464,5878.1258770764,73.8189,0.223694,1.16518376432,96, -4.1, -1.8,0,0,1024,1024,1434,1024,95.9,0,99,4.129,4.134,4.123,4.138,0,0,75.11,6,GPS_Atti,
0.35265589140841,36.8960339341123,5879.1101290764,74.803152,0,0.8329068508,18300,2017-11-08 05:47:33,16,16.464,5879.1101290764,74.803152,0.223694,1.16518376432,96, -3.9, -1.6,0,0,1024,1024,1438,1024,95.9,0,99,4.129,4.134,4.123,4.138,0,0,75.11,6,GPS_Atti,
0.352655858992196,36.8960339154237,5879.7662970764,75.45932,0,0.82022968504,18400,2017-11-08 05:47:33,16,16.464,5879.7662970764,75.45932,0.223694,1.16518376432,95.9, -3.7, -1.8,0,0,1024,1024,1438,1024,95.9,0,99,4.129,4.134,4.123,4.138,0,0,75.11,6,GPS_Atti,
0.352655799151765,36.8960338704824,5880.7505490764,76.443572,0,0.79389110152,18500,2017-11-08 05:47:34,16,16.464,5880.7505490764,76.443572,0.223694,1.16518376432,95.9, -3.8, -1.9,0,0,1024,1024,1435,1024,95.9,0,99,4.129,4.134,4.123,4.138,0,0,75.11,6,GPS_Atti,
0.352655750187304,36.8960338190938,5881.7348010764,77.427824,0,0.7681430692,18600,2017-11-08 05:47:34,16,16.464,5881.7348010764,77.427824,0.223694,1.16518376432,96, -4, -2,0,0,1024,1024,1435,1024,95.9,0,99,4.129,4.134,4.123,4.138,0,0,75.11,6,GPS_Atti,
0.352655703605663,36.896033766771,5882.3909690764,78.083992,0,0.74266078492,18700,2017-11-08 05:47:34,16,16.464,5882.3909690764,78.083992,0.223694,1.16518376432,96, -4.2, -2.3,0,0,1024,1024,1437,1024,95.9,0,99,4.129,4.134,4.123,4.138,0,0,75.11,6,GPS_Atti,
0.352655693460864,36.8960337363624,5883.3752210764,79.068244,0,0.7315945116,18800,2017-11-08 05:47:34,16,16.464,5883.3752210764,79.068244,0.223694,1.16518376432,96, -4.4, -2.1,0,0,1024,1024,1464,1024,95.9,0,99,4.129,4.134,4.123,4.138,0,0,75.11,6,GPS_Atti,
0.352655683602264,36.8960337039415,5884.3594730764,80.052496,0,0.72003611228,18900,2017-11-08 05:47:34,16,16.464,5884.3594730764,80.052496,0.223694,1.16518376432,96, -4.4, -1.7,0,0,1024,1024,1455,1024,95.9,0,99,4.129,4.134,4.123,4.138,0,0,75.11,6,GPS_Atti,
0.352655683812741,36.896033682642,5885.0156410764,80.708664,0,0.71396327744,19000,2017-11-08 05:47:34,16,16.464,5885.0156410764,80.708664,0.223694,1.16518376432,96, -4.1, -1.4,0,0,1024,1024,1434,1024,95.9,0,99,4.129,4.134,4.123,4.138,0,0,75.11,6,GPS_Atti,
0.352655673213606,36.8960336776112,5885.9998930764,81.692916,0,0.71013125632,19100,2017-11-08 05:47:34,16,16.464,5885.9998930764,81.692916,0.223694,1.16518376432,96, -4, -1.7,0,0,1024,1024,1428,1024,95.9,0,99,4.129,4.134,4.123,4.138,0,0,75.11,6,GPS_Atti,
0.352655675861456,36.8960336839575,5886.9841450764,82.677168,0,0.7125492354,19200,2017-11-08 05:47:34,16,16.464,5886.9841450764,82.677168,0.223694,1.16518376432,96, -4.5, -1.8,0,0,1024,1024,1440,1024,95.9,0,99,4.129,4.134,4.123,4.138,0,0,75.11,6,GPS_Atti,
0.352655649785996,36.8960336755758,5887.9683970764,83.66142,0,0.70430120364,19300,2017-11-08 05:47:34,16,16.464,5887.9683970764,83.66142,0.223694,1.16518376432,96, -4.3, -1.7,0,0,1024,1024,1416,1024,95.9,0,99,4.129,4.134,4.123,4.138,0,0,75.11,6,GPS_Atti,
0.352655619450527,36.8960336720827,5888.9526490764,84.645672,0,0.6965879488,19400,2017-11-08 05:47:34,16,16.464,5888.9526490764,84.645672,0.223694,1.16518376432,96, -3.7, -1.6,0,0,1024,1024,1402,1024,95.9,0,99,4.129,4.134,4.123,4.138,0,0,75.11,6,GPS_Atti,
0.352655577240445,36.8960336598027,5889.9369010764,85.629924,0,0.68382220036,19500,2017-11-08 05:47:35,16,16.464,5889.9369010764,85.629924,0.223694,1.16518376432,96, -4, -1.9,0,0,1024,1024,1380,1024,95.9,0,99,4.129,4.134,4.123,4.138,0,0,75.11,6,GPS_Atti,
0.35265556053953,36.8960336576221,5890.5930690764,86.286092,0,0.67960304012,19600,2017-11-08 05:47:35,16,16.464,5890.5930690764,86.286092,0.223694,1.16518376432,96, -4.1, -1.9,0,0,1024,1024,1387,1024,95.9,0,99,4.129,4.134,4.123,4.138,0,0,75.11,6,GPS_Atti,
0.35265551941277,36.8960336709221,5891.5773210764,87.270344,0,0.67494752816,19700,2017-11-08 05:47:35,16,16.409,5891.5773210764,87.270344,0.223694,1.16518376432,96, -4.3, -2,0,0,1024,1024,1390,1024,95.9,0,99,4.121,4.125,4.114,4.131,0,0,75.11,6,GPS_Atti,
0.352655485877815,36.8960337043941,5892.2334890764,87.926512,0,0.67830382748,19800,2017-11-08 05:47:35,16,16.409,5892.2334890764,87.926512,0.223694,1.16518376432,96, -3.6, -1.8,0,0,1024,1024,1382,1023,95.9,0,99,4.121,4.125,4.114,4.131,0,0,75.11,6,GPS_Atti,
0.352655424911315,36.8960337106043,5893.2177410764,88.910764,0,0.66837600564,19900,2017-11-08 05:47:35,16,16.409,5893.2177410764,88.910764,0.223694,1.16518376432,95.9, -3.1, -1.9,0,0,1024,1024,1372,1022,95.9,0,99,4.121,4.125,4.114,4.131,0,0,75.11,6,GPS_Atti,
0.352655383180809,36.8960336885136,5893.8739090764,89.566932,0,0.65363847236,20000,2017-11-08 05:47:35,16,16.409,5893.8739090764,89.566932,0.223694,1.16518376432,96, -3.5, -2,0,0,1024,1024,1384,1022,95.9,0,99,4.121,4.125,4.114,4.131,0,0,75.11,6,GPS_Atti,
0.352655343844116,36.8960336436811,5894.5300770764,90.2231,0,0.63227036144,20100,2017-11-08 05:47:35,16,16.409,5894.5300770764,90.2231,0.223694,1.16518376432,96, -4.1, -2,0,0,1024,1024,1391,1024,95.9,0,99,4.121,4.125,4.114,4.131,0,0,75.11,6,GPS_Atti,
0.35265532814103,36.8960336141315,5895.1862450764,90.879268,0,0.62006891748,20200,2017-11-08 05:47:35,16,16.409,5895.1862450764,90.879268,0.223694,1.16518376432,96, -3.9, -2.2,0,0,1024,1024,1410,1023,95.9,0,99,4.121,4.125,4.114,4.131,0,0,75.11,6,GPS_Atti,
0.352655293905845,36.8960335919164,5895.8424130764,91.535436,0,0.60681760472,20300,2017-11-08 05:47:35,16,16.409,5895.8424130764,91.535436,0.223694,1.16518376432,95.9, -3.7, -2.2,0,0,1024,1024,1407,1023,95.9,0,99,4.121,4.125,4.114,4.131,0,0,75.11,6,GPS_Atti,
0.352655280859566,36.8960335830891,5896.8266650764,92.519688,0,0.60166996676,20400,2017-11-08 05:47:35,16,16.409,5896.8266650764,92.519688,0.223694,1.16518376432,95.9, -3.5, -1.9,0,0,1024,1024,1385,1022,95.9,0,99,4.121,4.125,4.114,4.131,0,0,75.11,6,GPS_Atti,
0.352655248660343,36.8960335762461,5897.4828330764,93.175856,0,0.59380579328,20500,2017-11-08 05:47:36,16,16.409,5897.4828330764,93.175856,0.223694,1.16518376432,95.9, -3.7, -2,0,0,1024,1024,1405,1024,95.9,0,99,4.121,4.125,4.114,4.131,0,0,75.11,6,GPS_Atti,
0.352655232753702,36.8960335693632,5898.1390010764,93.832024,0,0.5888451632,20600,2017-11-08 05:47:36,16,16.409,5898.1390010764,93.832024,0.223694,1.16518376432,96, -4, -2.1,0,0,1024,1024,1434,1024,95.9,0,99,4.121,4.125,4.114,4.131,0,0,75.11,6,GPS_Atti,
0.352655219039354,36.8960335423065,5899.1232530764,94.816276,0,0.57777888988,20700,2017-11-08 05:47:36,16,16.382,5899.1232530764,94.816276,0.223694,1.16518376432,96, -3.9, -1.8,0,0,1024,1024,1420,1024,95.9,0,99,4.119,4.124,4.128,4.15,0,0,75.11,6,GPS_Atti,
0.352655232989012,36.8960335172996,5899.7794210764,95.472444,0,0.57219818104,20800,2017-11-08 05:47:36,16,16.382,5899.7794210764,95.472444,0.223694,1.16518376432,96, -3.4, -1.4,0,0,1024,1024,1416,1024,95.9,0,99,4.119,4.124,4.128,4.15,0,0,75.11,6,GPS_Atti,
0.352655258266534,36.8960334889949,5900.4355890764,96.128612,0,0.56778873208,20900,2017-11-08 05:47:36,16,16.382,5900.4355890764,96.128612,0.223694,1.16518376432,96, -3.7, -1.4,0,0,1024,1024,1396,1024,95.9,0,99,4.119,4.124,4.128,4.15,0,0,75.11,6,GPS_Atti,
0.352655298975191,36.8960334672264,5901.4198410764,97.112864,0,0.56868112056,21000,2017-11-08 05:47:36,16,16.382,5901.4198410764,97.112864,0.223694,1.16518376432,96, -4.1, -1.8,0,0,1024,1024,1394,1024,95.9,0,99,4.119,4.124,4.128,4.15,0,0,75.11,6,GPS_Atti,
0.35265532955167,36.8960334574843,5902.0760090764,97.769032,0,0.57169293168,21100,2017-11-08 05:47:36,16,16.382,5902.0760090764,97.769032,0.223694,1.16518376432,96, -4.1, -1.7,0,0,1024,1024,1406,1024,95.9,0,99,4.119,4.124,4.128,4.15,0,0,75.11,6,GPS_Atti,
0.352655363616683,36.896033454428,5902.7321770764,98.4252,0,0.57766077964,21200,2017-11-08 05:47:36,16,16.382,5902.7321770764,98.4252,0.223694,1.16518376432,96, -4.5, -1.6,0,0,1024,1024,1413,1024,95.9,0,99,4.119,4.124,4.128,4.15,0,0,75.11,6,GPS_Atti,
0.352655384582899,36.8960334515296,5903.7164290764,99.409452,0,0.58113190836,21300,2017-11-08 05:47:36,16,16.382,5903.7164290764,99.409452,0.223694,1.16518376432,96, -3.9, -1.4,0,0,1024,1024,1415,1024,95.9,0,99,4.119,4.124,4.128,4.15,0,0,75.11,6,GPS_Atti,
0.352655402236861,36.8960334456975,5904.3725970764,100.06562,0,0.58311353572,21400,2017-11-08 05:47:36,16,16.382,5904.3725970764,100.06562,0.223694,1.16518376432,96, -3.5, -1.2,0,0,1024,1024,1409,1024,95.9,0,99,4.119,4.124,4.128,4.15,0,0,75.11,6,GPS_Atti,
0.352655417504337,36.8960334314805,5905.0287650764,100.721788,0,0.58218177716,21500,2017-11-08 05:47:37,16,16.382,5905.0287650764,100.721788,0.223694,1.16518376432,96, -3.4, -1.1,0,0,1024,1024,1426,1024,95.9,0,99,4.119,4.124,4.128,4.15,0,0,75.11,6,GPS_Atti,
0.3526554536676,36.89603342326,5906.0130170764,101.70604,0,0.58770999256,21600,2017-11-08 05:47:37,16,16.382,5906.0130170764,101.70604,0.223694,1.16518376432,95.9, -3.6, -1.2,0,0,1024,1024,1429,1024,95.9,0,99,4.119,4.124,4.128,4.15,0,0,75.11,6,GPS_Atti,
0.35265546566679,36.8960334318817,5906.6691850764,102.362208,0,0.59287075388,21700,2017-11-08 05:47:37,16,16.354,5906.6691850764,102.362208,0.223694,1.16518376432,96, -3.6, -1.2,0,0,1024,1024,1430,1024,95.9,0,99,4.121,4.112,4.111,4.14,0,0,75.11,6,GPS_Atti,
0.352655481272169,36.8960334489414,5907.6534370764,103.34646,0,0.6012795468,21800,2017-11-08 05:47:37,16,16.354,5907.6534370764,103.34646,0.223694,1.16518376432,96, -3.6, -1,0,0,1024,1024,1431,1024,95.9,0,99,4.121,4.112,4.111,4.14,0,0,75.11,6,GPS_Atti,
0.352655466985015,36.8960334602062,5908.3096050764,104.002628,0,0.60137469116,21900,2017-11-08 05:47:37,16,16.354,5908.3096050764,104.002628,0.223694,1.16518376432,96, -3.9, -1.4,0,0,1024,1024,1414,1024,95.9,0,99,4.121,4.112,4.111,4.14,0,0,75.11,6,GPS_Atti,
0.352655460049472,36.8960334671927,5909.2938570764,104.98688,0,0.60189306388,22000,2017-11-08 05:47:37,16,16.354,5909.2938570764,104.98688,0.223694,1.16518376432,96, -4, -1.4,0,0,1024,1024,1425,1024,95.9,0,99,4.121,4.112,4.111,4.14,0,0,75.11,6,GPS_Atti,
0.352655436137401,36.8960334771698,5909.9500250764,105.643048,0,0.599655531,22100,2017-11-08 05:47:37,16,16.354,5909.9500250764,105.643048,0.223694,1.16518376432,96, -4.3, -1.5,0,0,1024,1024,1422,1024,95.9,0,99,4.121,4.112,4.111,4.14,0,0,75.11,6,GPS_Atti,
0.352655425394149,36.8960334926244,5910.9342770764,106.6273,0,0.60196196152,22200,2017-11-08 05:47:37,16,16.354,5910.9342770764,106.6273,0.223694,1.16518376432,96, -4.1, -1.6,0,0,1024,1024,1434,1024,95.9,0,99,4.121,4.112,4.111,4.14,0,0,75.11,6,GPS_Atti,
0.352655430705319,36.8960334951181,5911.5904450764,107.283468,0,0.60382547864,22300,2017-11-08 05:47:37,16,16.354,5911.5904450764,107.283468,0.223694,1.16518376432,96, -3.7, -1.5,0,0,1024,1024,1418,1024,95.9,0,99,4.121,4.112,4.111,4.14,0,0,75.11,6,GPS_Atti,
0.352655460769652,36.8960334901163,5912.5746970764,108.26772,0,0.60876642368,22400,2017-11-08 05:47:37,16,16.354,5912.5746970764,108.26772,0.223694,1.16518376432,96, -3.7, -1.2,0,0,1024,1024,1394,1024,95.9,0,99,4.121,4.112,4.111,4.14,0,0,75.11,6,GPS_Atti,
0.352655482160892,36.896033477752,5913.2308650764,108.923888,0,0.60981957332,22500,2017-11-08 05:47:38,16,16.354,5913.2308650764,108.923888,0.223694,1.16518376432,96, -3.8, -1.4,0,0,1024,1024,1425,1024,95.9,0,99,4.121,4.112,4.111,4.14,0,0,75.11,6,GPS_Atti,
0.352655506488217,36.8960334755393,5914.2151170764,109.90814,0,0.614583353,22600,2017-11-08 05:47:38,16,16.354,5914.2151170764,109.90814,0.223694,1.16518376432,96, -4.3, -1.3,0,0,1024,1024,1415,1024,95.9,0,99,4.121,4.112,4.111,4.14,0,0,75.11,6,GPS_Atti,
0.352655517037684,36.8960334710021,5914.8712850764,110.564308,0,0.61565290684,22700,2017-11-08 05:47:38,16,16.354,5914.8712850764,110.564308,0.223694,1.16518376432,96, -4, -1.1,0,0,1024,1024,1406,1024,95.9,0,99,4.121,4.112,4.111,4.14,0,0,75.11,6,GPS_Atti,
0.352655529776187,36.8960334890995,5915.5274530764,111.220476,0,0.62371721156,22800,2017-11-08 05:47:38,16,16.354,5915.5274530764,111.220476,0.223694,1.16518376432,96, -3.5, -0.8,0,0,1024,1024,1394,1022,95.9,0,99,4.121,4.112,4.111,4.14,0,0,75.11,6,GPS_Atti,
0.352655516610625,36.8960334932218,5916.5117050764,112.204728,0,0.62194555796,22900,2017-11-08 05:47:38,16,16.354,5916.5117050764,112.204728,0.223694,1.16518376432,96, -3.8, -1.1,0,0,1024,1024,1420,1023,95.9,0,99,4.121,4.112,4.111,4.14,0,0,75.11,6,GPS_Atti,
0.352655503947844,36.8960335008081,5917.1678730764,112.860896,0,0.62132876004,23000,2017-11-08 05:47:38,16,16.354,5917.1678730764,112.860896,0.223694,1.16518376432,96, -3.7, -1,0,0,1024,1024,1415,1023,95.9,0,99,4.121,4.112,4.111,4.14,0,0,75.11,6,GPS_Atti,
0.352655496759892,36.8960334963011,5917.8240410764,113.517064,0,0.61843177832,23100,2017-11-08 05:47:38,16,16.354,5917.8240410764,113.517064,0.223694,1.16518376432,96, -3.7, -1.1,0,0,1024,1024,1473,1023,95.9,0,99,4.121,4.112,4.111,4.14,0,0,75.11,6,GPS_Atti,
0.352655500425113,36.8960334992201,5918.8082930764,114.501316,0,0.62008860252,23200,2017-11-08 05:47:38,16,16.354,5918.8082930764,114.501316,0.223694,1.16518376432,96, -3.2, -1.2,0,0,1024,1024,1434,1022,95.9,0,99,4.121,4.112,4.111,4.14,0,0,75.11,6,GPS_Atti,
0.352655498290223,36.8960334866165,5919.4644610764,115.157484,0,0.61595802496,23300,2017-11-08 05:47:38,16,16.354,5919.4644610764,115.157484,0.223694,1.16518376432,96, -3.4, -1.2,0,0,1024,1024,1434,1022,95.9,0,99,4.121,4.112,4.111,4.14,0,0,75.11,6,GPS_Atti,
0.352655494777262,36.8960334789192,5920.4487130764,116.141736,0,0.61294949468,23400,2017-11-08 05:47:38,16,16.354,5920.4487130764,116.141736,0.223694,1.16518376432,96, -3.3, -1.3,0,0,1024,1024,1445,1024,95.9,0,99,4.121,4.112,4.111,4.14,0,0,75.11,6,GPS_Atti,
0.35265548538399,36.8960334520031,5921.4329650764,117.125988,0,0.60308072796,23500,2017-11-08 05:47:39,16,16.354,5921.4329650764,117.125988,0.223694,1.16518376432,96, -4, -1.5,0,0,1024,1024,1485,1015,95.9,0,99,4.121,4.112,4.111,4.14,0,0,75.11,6,GPS_Atti,
0.352655482244757,36.8960334450538,5922.0891330764,117.782156,0,0.60037403496,23600,2017-11-08 05:47:39,16,16.354,5922.0891330764,117.782156,0.223694,1.16518376432,96, -3.8, -1.5,0,0,1024,1024,1484,1017,95.9,0,99,4.121,4.112,4.111,4.14,0,0,75.11,6,GPS_Atti,
0.352655459438806,36.8960334484639,5923.0733850764,118.766408,0,0.59629595084,23700,2017-11-08 05:47:39,16,16.628,5923.0733850764,118.766408,0.223694,1.16518376432,96, -3.4, -1.4,0,0,1024,1024,1484,1017,95.9,0,99,4.13,4.149,4.132,4.117,0,0,75.11,6,GPS_Atti,
