latitude,longitude,altitude(feet),ascent(feet),speed(mph),distance(feet),time(millisecond),datetime(utc),satellites,gpslevel,voltage(v),max_altitude(feet),max_ascent(feet),max_speed(mph),max_distance(feet), xSpeed(mph), ySpeed(mph), zSpeed(mph), compass_heading(degrees), pitch(degrees), roll(degrees),isPhoto,isVideo,rc_elevator,rc_aileron,rc_throttle,rc_rudder,gimbal_heading(degrees),gimbal_pitch(degrees),battery_percent,voltageCell1,voltageCell2,voltageCell3,voltageCell4,voltageCell5,voltageCell6,current(A),battery_temperature(f),flycStateRaw,flycState,message
0.375909940037772,36.925447345194,5349.4180304333,0,0,0,0,2018-04-17 07:14:34,11,0,0,5349.4180304333,0,0,0,0,0,0,288.6, 6.5, 1,0,0,364,364,364,1684,293,0,99,4.295,4.293,4.29,4.293,0,0,0,85.91,41,Motors_Started,
0.375909934104435,36.9254473424329,5349.4180304333,0,0,0.00238767724176,100,2018-04-17 07:14:34,11,0,0,5349.4180304333,0,0,0.00238767724176,0,0,0,288.6, 6.5, 1,0,0,448,424,364,1684,293,0,99,4.295,4.293,4.29,4.293,0,0,0,85.91,41,Motors_Started,
0.375909931579125,36.925447340799,5349.4180304333,0,0,0.0034778216336,200,2018-04-17 07:14:34,11,0,0,5349.4180304333,0,0,0.0034778216336,0,0,0,288.6, 6.4, 1,0,0,646,633,531,1562,293,0,99,4.295,4.293,4.29,4.293,0,0,0,85.91,41,Motors_Started,Setting new Return-To-Home altitude to 30m (98 ft). Setting new Maximum Flight Altitude to 150m (492 ft)
0.37590992620409,36.9254473305494,5349.4180304333,0,0,0.0073499346184,300,2018-04-17 07:14:34,11,0,0,5349.4180304333,0,0,0.0073499346184,0,0,0,288.5, 6.5, 1,0,0,1024,1024,1024,1024,292,0,99,4.295,4.293,4.29,4.293,0,0,0,85.91,41,Motors_Started,
0.375909923995207,36.9254473235994,5349.4180304333,0,0,0.0098148625188,400,2018-04-17 07:14:34,11,0,0,5349.4180304333,0,0,0.0098148625188,0,0,0,288.6, 6.5, 1,0,0,1024,1024,1024,1024,290.4,0,99,4.295,4.293,4.29,4.293,0,0,0,85.91,41,Motors_Started,
0.375909919879213,36.9254473375946,5349.4180304333,0,0,0.00786007243,500,2018-04-17 07:14:34,11,0,0,5349.4180304333,0,0,0.0098148625188,0,0,0,288.5, 6.5, 1,0,0,1024,1024,1024,1024,290.4,0,99,4.295,4.293,4.29,4.293,0,0,0,85.91,41,Motors_Started,
0.375909918001058,36.9254473586514,5349.4180304333,0,0,0.0094206695928,600,2018-04-17 07:14:34,11,0,0,5349.4180304333,0,0,0.0098148625188,0,0,0,288.5, 6.5, 1,0,0,1024,1024,1024,1024,289.8,0,99,4.295,4.293,4.29,4.293,0,0,0,85.91,41,Motors_Started,
0.375909914849611,36.925447376117,5349.4180304333,0,0,0.0145512143764,700,2018-04-17 07:14:35,11,0,0,5349.4180304333,0,0,0.0145512143764,0,0,0,288.5, 6.5, 1,0,0,1024,1024,1024,1024,289.5,0,99,4.295,4.293,4.29,4.293,0,0,0,85.91,41,Motors_Started,
0.375909913477698,36.9254473877879,5349.4180304333,0,0,0.0183138457304,800,2018-04-17 07:14:35,11,0,0,5349.4180304333,0,0,0.0183138457304,0,0,0,288.5, 6.5, 1,0,0,1024,1024,1024,1024,289.3,0,99,4.295,4.293,4.29,4.293,0,0,0,85.91,41,Motors_Started,
0.375909910958648,36.9254473950949,5349.4180304333,0,0,0.0210717198344,900,2018-04-17 07:14:35,11,0,0,5349.4180304333,0,0,0.0210717198344,0,0,0,288.6, 6.6, 1.1,0,0,1024,1024,1024,1024,289.2,0,99,4.295,4.293,4.29,4.293,0,0,0,85.91,41,Motors_Started,
0.375909910157504,36.9254474023043,5349.4180304333,0,0,0.0235158800176,1000,2018-04-17 07:14:35,11,0,0,5349.4180304333,0,0,0.0235158800176,0,0,0,288.6, 6.7, 1.1,0,0,1024,1024,1024,1024,289.1,0,99,4.295,4.293,4.29,4.293,0,0,0,85.91,41,Motors_Started,
0.375909908809509,36.9254474331291,5349.4180304333,0,0,0.034045604764,1100,2018-04-17 07:14:35,11,0,0,5349.4180304333,0,0,0.034045604764,0,0,0,288.6, 6.7, 1.1,0,0,1024,1024,1024,1024,289,0,99,4.295,4.293,4.29,4.293,0,0,0,85.91,41,Motors_Started,
0.375909907118777,36.9254474576482,5349.4180304333,0,0,0.042749673284,1200,2018-04-17 07:14:35,11,0,17.16,5349.4180304333,0,0,0.042749673284,0,0,0,288.5, 6.5, 1,0,0,1024,1024,1024,1024,289,0,99,4.295,4.293,4.29,4.293,0,0,1.684,85.91,41,Motors_Started,
0.375909904945517,36.9254475146103,5349.4180304333,0,0,0.063122377348,1300,2018-04-17 07:14:35,11,0,17.16,5349.4180304333,0,0,0.063122377348,0,0,0,288.5, 6.6, 1.1,0,0,1024,1024,1024,1024,288.9,0,99,4.295,4.293,4.29,4.293,0,0,1.684,85.91,41,Motors_Started,
0.375909902256142,36.925447558202,5349.4180304333,0,0,0.07892716788,1400,2018-04-17 07:14:35,11,0,17.16,5349.4180304333,0,0,0.07892716788,0,0,0,288.5, 6.7, 1.1,0,0,1024,1024,1024,1024,288.9,0,99,4.295,4.293,4.29,4.293,0,0,1.684,85.91,41,Motors_Started,
0.375909900338801,36.9254476035016,5349.4180304333,0,0,0.09534777208,1500,2018-04-17 07:14:35,11,0,17.16,5349.4180304333,0,0,0.09534777208,0,0,0,288.6, 6.9, 1.1,0,0,1024,1024,1024,1024,288.9,0,99,4.295,4.293,4.29,4.293,0,0,1.684,85.91,10,Assisted_Takeoff,
0.375909898728474,36.9254476247325,5349.4180304333,0,0,0.103094819572,1600,2018-04-17 07:14:35,11,0,17.16,5349.4180304333,0,0,0.103094819572,0,0,0,288.5, 6.4, 1,0,0,1024,1024,1024,1024,288.9,0,99,4.295,4.293,4.29,4.293,0,0,1.684,85.91,10,Assisted_Takeoff,
0.375909897628765,36.9254476414189,5349.4180304333,0,0,0.109177168848,1700,2018-04-17 07:14:36,11,0,17.16,5349.4180304333,0,0,0.109177168848,0,0,0,288.5, 6.6, 1,0,0,1024,1024,1024,1024,288.8,0,99,4.295,4.293,4.29,4.293,0,0,1.684,85.91,10,Assisted_Takeoff,
0.375909895303805,36.9254476451476,5349.4180304333,0,0,0.110646000916,1800,2018-04-17 07:14:36,11,0,17.16,5349.4180304333,0,0,0.110646000916,0,0,0,288.5, 6.5, 1,0,0,1024,1024,1024,1024,288.8,0,99,4.295,4.293,4.29,4.293,0,0,1.684,85.91,10,Assisted_Takeoff,
0.375909893199347,36.9254476737267,5349.4180304333,0,0,0.12107447894,1900,2018-04-17 07:14:36,11,0,17.16,5349.4180304333,0,0,0.12107447894,0,0,0,288.5, 6.4, 1,0,0,1024,1024,1024,1024,288.8,0,99,4.295,4.293,4.29,4.293,0,0,1.684,85.91,10,Assisted_Takeoff,
0.375909890672663,36.9254477043478,5349.4180304333,0,0,0.132266080348,2000,2018-04-17 07:14:36,11,0,17.16,5349.4180304333,0,0,0.132266080348,0,0,0,288.5, 6.5, 1,0,0,1024,1024,1024,1024,288.8,0,99,4.295,4.293,4.29,4.293,0,0,1.684,85.91,10,Assisted_Takeoff,
0.37590988906829,36.9254477241536,5349.4180304333,0,0,0.139505253808,2100,2018-04-17 07:14:36,11,0,17.16,5349.4180304333,0,0,0.139505253808,0,0,0,288.5, 6.5, 1,0,0,1024,1024,1024,1024,288.8,0,99,4.295,4.293,4.29,4.293,0,0,1.684,85.91,10,Assisted_Takeoff,
0.375909886684298,36.9254477401658,5349.4180304333,0,0,0.145411093892,2200,2018-04-17 07:14:36,11,0,17.291,5349.4180304333,0,0,0.145411093892,0,0,0,288.5, 6.5, 1,0,0,1024,1024,1024,1024,288.8,0,99,4.295,4.293,4.29,4.293,0,0,1.684,85.91,10,Assisted_Takeoff,
0.375909884994788,36.9254477453118,5349.4180304333,0,0,0.147354663508,2300,2018-04-17 07:14:36,11,0,17.291,5349.4180304333,0,0,0.147354663508,0,0,0,288.5, 6.5, 1,0,0,1024,1024,1024,1024,288.8,0,99,4.295,4.293,4.29,4.293,0,0,1.684,85.91,10,Assisted_Takeoff,
0.375909882916486,36.9254477498956,5349.4180304333,0,0,0.149115490336,2400,2018-04-17 07:14:36,11,0,17.291,5349.4180304333,0,0,0.149115490336,0,0,0,288.5, 6.5, 1,0,0,1024,1024,1024,1024,288.7,0,99,4.295,4.293,4.29,4.293,0,0,1.684,85.91,10,Assisted_Takeoff,
0.375909882622501,36.925447745359,5349.4180304333,0,0,0.147492130704,2500,2018-04-17 07:14:36,11,0,17.291,5349.4180304333,0,0,0.149115490336,0,0,0,288.5, 6.5, 1,0,0,1024,1024,1024,1024,288.7,0,99,4.295,4.293,4.29,4.293,0,0,1.684,85.91,10,Assisted_Takeoff,
0.375909881363917,36.9254477433529,5349.4180304333,0,0,0.146833666116,2600,2018-04-17 07:14:36,11,0,17.291,5349.4180304333,0,0,0.149115490336,0,0,0,288.5, 6.5, 1,0,0,1024,1024,1024,1024,288.7,0,99,4.295,4.293,4.29,4.293,0,0,1.684,85.91,10,Assisted_Takeoff,
0.375909882178241,36.9254477326302,5349.4180304333,0,0,0.142920608248,2700,2018-04-17 07:14:37,11,0,17.291,5349.4180304333,0,0,0.149115490336,0,0,0,288.5, 6.5, 1,0,0,1024,1024,1024,1024,288.7,0,99,4.295,4.293,4.29,4.293,0,0,1.684,85.91,10,Assisted_Takeoff,
0.375909881757136,36.9254477257797,5349.4180304333,0,0,0.140472117356,2800,2018-04-17 07:14:37,11,0,17.291,5349.4180304333,0,0,0.149115490336,0,0,0,288.5, 6.5, 1,0,0,1024,1024,1024,1024,288.7,0,99,4.295,4.293,4.29,4.293,0,0,1.684,85.91,10,Assisted_Takeoff,
0.375909883113223,36.9254476881791,5349.4180304333,0,0,0.12684711692,2900,2018-04-17 07:14:37,11,0,17.291,5349.4180304333,0,0,0.149115490336,0,0,0,288.5, 6.5, 1,0,0,1024,1024,1024,1024,288.7,0,99,4.295,4.293,4.29,4.293,0,0,1.684,85.91,10,Assisted_Takeoff,
0.375909883073936,36.9254476501729,5349.4180304333,0,0,0.113193245092,3000,2018-04-17 07:14:37,11,0,17.291,5349.4180304333,0,0,0.149115490336,0,0,0,288.5, 6.5, 1,0,0,1024,1024,1024,1024,288.7,0,99,4.295,4.293,4.29,4.293,0,0,1.684,85.91,10,Assisted_Takeoff,
0.375909884983643,36.9254476341617,5349.4180304333,0,0,0.107323822332,3100,2018-04-17 07:14:37,11,0,17.291,5349.4180304333,0,0,0.149115490336,0,0,0,288.5, 6.4, 1,0,0,1024,1024,1024,1024,288.7,0,99,4.295,4.293,4.29,4.293,0,0,1.684,85.91,10,Assisted_Takeoff,
0.375909885271674,36.9254476364732,5349.4180304333,0,0,0.108132877476,3200,2018-04-17 07:14:37,11,0,17.133,5349.4180304333,0,0,0.149115490336,0,0,0,288.5, 6.5, 1,0,0,1024,1024,1024,1024,288.7,0,99,4.286,4.284,4.279,4.281,0,0,3.568,85.91,10,Assisted_Takeoff,
0.375909886137396,36.9254476409988,5349.4180304333,0,0,0.109698822408,3300,2018-04-17 07:14:37,11,0,17.133,5349.4180304333,0,0,0.149115490336,0,0,0,288.5, 6.4, 1,0,0,1024,1024,1032,1024,288.7,0,99,4.286,4.284,4.279,4.281,0,0,3.568,85.91,10,Assisted_Takeoff,
0.375909885623571,36.9254476415395,5349.4180304333,0,0,0.109926840788,3400,2018-04-17 07:14:37,11,0,17.133,5349.4180304333,0,0,0.149115490336,0,0,0,288.5, 6.4, 1,0,0,1024,1024,1032,1024,288.7,0,99,4.286,4.284,4.279,4.281,0,0,3.568,85.91,10,Assisted_Takeoff,
0.375909886239937,36.9254476437519,5349.4180304333,0,0,0.11068077782,3500,2018-04-17 07:14:37,11,0,17.133,5349.4180304333,0,0,0.149115490336,0,0,0,288.5, 6.5, 1,0,0,1024,1024,1050,1024,288.7,0,99,4.286,4.284,4.279,4.281,0,0,3.568,85.91,10,Assisted_Takeoff,
0.375909885414265,36.9254476437488,5349.4180304333,0,0,0.11073327126,3600,2018-04-17 07:14:37,11,0,17.133,5349.4180304333,0,0,0.149115490336,0,0,0,288.5, 6.4, 1,0,0,1024,1024,1111,1024,288.7,0,99,4.286,4.284,4.279,4.281,0,0,3.568,85.91,10,Assisted_Takeoff,
0.375909886109559,36.9254476209284,5349.4180304333,0,0,0.102505580708,3700,2018-04-17 07:14:38,11,0,17.133,5349.4180304333,0,0,0.149115490336,0,0,0,288.5, 6.5, 1,0,0,1024,1024,1146,1024,288.7,0,99,4.286,4.284,4.279,4.281,0,0,3.568,85.91,10,Assisted_Takeoff,
0.375909885623673,36.9254475906072,5349.4180304333,0,0,0.091711617108,3800,2018-04-17 07:14:38,11,0,17.133,5349.4180304333,0,0,0.149115490336,0,0,0,288.5, 6.4, 1,0,0,1024,1024,1159,1024,288.7,0,99,4.286,4.284,4.279,4.281,0,0,3.568,85.91,10,Assisted_Takeoff,
0.375909886245585,36.9254475622263,5349.4180304333,0,0,0.081578414684,3900,2018-04-17 07:14:38,11,0,17.133,5349.4180304333,0,0,0.149115490336,0,0,0,288.5, 6.4, 1,0,0,1024,1024,1165,1024,288.7,0,99,4.286,4.284,4.279,4.281,0,0,3.568,85.91,10,Assisted_Takeoff,
0.375909885744432,36.9254475432791,5349.4180304333,0,0,0.074935369852,4000,2018-04-17 07:14:38,11,0,17.133,5349.4180304333,0,0,0.149115490336,0,0,0,288.5, 6.4, 1,0,0,1024,1024,1219,1024,288.7,0,99,4.286,4.284,4.279,4.281,0,0,3.568,85.91,10,Assisted_Takeoff,
0.375909886019283,36.9254475296524,5349.4180304333,0,0,0.07012467416,4100,2018-04-17 07:14:38,11,0,17.133,5349.4180304333,0,0,0.149115490336,0,0,0,288.5, 6.5, 1,0,0,1024,1024,1248,1024,288.7,0,99,4.286,4.284,4.279,4.281,0,0,3.568,85.91,10,Assisted_Takeoff,
0.375909885627845,36.9254475224004,5349.4180304333,0,0,0.06763123576,4200,2018-04-17 07:14:38,11,0,17.133,5349.4180304333,0,0,0.149115490336,0,0,0,288.5, 6.6, 1.1,0,0,1024,1024,1256,1024,288.7,0,99,4.291,4.292,4.289,4.291,0,0,1.944,85.91,10,Assisted_Takeoff,
0.375909882585912,36.9254475116678,5349.4180304333,0,0,0.06425197056,4300,2018-04-17 07:14:38,11,0,17.133,5349.4180304333,0,0,0.149115490336,0,0,0,288.4, 5.8, 1.1,0,0,1024,1024,1261,1024,288.7,0,99,4.291,4.292,4.289,4.291,0,0,1.944,85.91,10,Assisted_Takeoff,
0.37590986624926,36.9254475688398,5349.4180304333,0,0.223694,0.08592191876,4400,2018-04-17 07:14:38,11,0,17.133,5349.4180304333,0,0.223694,0.149115490336,0,0.223694,0,288.5, 4.4, 1.5,0,0,1024,1024,1276,1024,288.7,0,99,4.291,4.292,4.289,4.291,0,0,1.944,85.91,10,Assisted_Takeoff,
0.37590984624235,36.9254477028229,5349.4180304333,0,0.223694,0.134891080432,4500,2018-04-17 07:14:38,11,0,17.133,5349.4180304333,0,0.223694,0.149115490336,0,0.447388,-0.447388,288.5, 2.8, 1.7,0,0,1024,1024,1303,1024,288.7,0,99,4.291,4.292,4.289,4.291,0,0,1.944,85.91,6,P-GPS,Obstacle Avoided. Revise Flight Route
0.375909842675091,36.9254479094333,5349.4180304333,0,0.447388,0.208900269152,4600,2018-04-17 07:14:38,11,0,17.133,5349.4180304333,0,0.447388,0.208900269152,0,0.447388,-0.894776,288.6, 0.6, 0.9,0,0,1024,1024,1331,1024,288.7,0,99,4.291,4.292,4.289,4.291,0,0,1.944,85.91,6,P-GPS,
0.375909833321257,36.9254481604324,5349.4180304333,0,0.447388,0.29997048204,4700,2018-04-17 07:14:39,11,0,17.133,5349.4180304333,0,0.447388,0.29997048204,0,0.447388,-1.342164,288.5, -0.4, 0.2,0,0,1024,1024,1348,1024,288.7,0,99,4.291,4.292,4.289,4.291,0,0,1.944,85.91,6,P-GPS,
0.37590982541791,36.925448391555,5349.7461144333,0.328084,0.447388,0.3840387262,4800,2018-04-17 07:14:39,11,0,17.133,5349.7461144333,0.328084,0.447388,0.3840387262,0,0.447388,-1.789552,288.4, -0.4, -0.1,0,0,1024,1024,1380,1024,288.7,0,99,4.291,4.292,4.289,4.291,0,0,1.944,85.91,6,P-GPS,
0.375909822698764,36.9254486232541,5350.0741984333,0.656168,0.447388,0.46825132732,4900,2018-04-17 07:14:39,11,0,17.133,5350.0741984333,0.656168,0.447388,0.46825132732,0,0.447388,-2.23694,288.4, -0.8, -0.6,0,0,1024,1024,1419,1024,288.7,0,99,4.291,4.292,4.289,4.291,0,0,1.944,85.91,6,P-GPS,
0.375909813725529,36.9254488402795,5350.4022824333,0.984252,0.447388,0.54741143484,5000,2018-04-17 07:14:39,11,0,17.133,5350.4022824333,0.984252,0.447388,0.54741143484,0,0.447388,-2.684328,288.5, -2, -0.7,0,0,1024,1024,1435,1024,288.7,0,99,4.291,4.292,4.289,4.291,0,0,1.944,85.91,6,P-GPS,
0.375909757471288,36.9254490223962,5351.0584504333,1.64042,0.223694,0.61552823492,5100,2018-04-17 07:14:39,11,0,17.133,5351.0584504333,1.64042,0.447388,0.61552823492,0,0.223694,-3.131716,288.5, -2.1, 0.4,0,0,1024,1024,1446,1024,288.7,0,99,4.291,4.292,4.289,4.291,0,0,1.944,85.91,6,P-GPS,
0.3759097085826,36.9254491502853,5351.3865344333,1.968504,0.223694,0.66396327584,5200,2018-04-17 07:14:39,11,0,16.792,5351.3865344333,1.968504,0.447388,0.66396327584,0,0.223694,-3.802798,288.4, -1.8, -0.6,0,0,1024,1024,1449,1024,288.7,0,99,4.236,4.242,4.234,4.246,0,0,9.282,85.91,6,P-GPS,Home Point Recorded. RTH Altitude:  30m.
0.375909667648479,36.9254492967591,5352.0427024333,2.624672,0.223694,0.718914065,5300,2018-04-17 07:14:39,11,0,16.792,5352.0427024333,2.624672,0.447388,0.718914065,0,0.223694,-4.47388,288.6, -1.2, -1.6,0,0,1024,1024,1461,1024,288.7,0,99,4.236,4.242,4.234,4.246,0,0,9.282,85.91,6,P-GPS,
0.375909596287137,36.9254494239672,5352.6988704333,3.28084,0.223694,0.76872377788,5400,2018-04-17 07:14:39,11,0,16.792,5352.6988704333,3.28084,0.447388,0.76872377788,0,0.223694,-5.144962,288.6, -1.1, 0,0,0,1024,1024,1460,1024,288.7,0,99,4.236,4.242,4.234,4.246,0,0,9.282,85.91,6,P-GPS,
0.375909493953083,36.9254495731368,5353.6831224333,4.265092,0.223694,0.82897968532,5500,2018-04-17 07:14:39,11,0,16.792,5353.6831224333,4.265092,0.447388,0.82897968532,0,0.223694,-5.816044,288.3, -1.8, 0.8,0,0,1024,1024,1479,1024,288.7,0,99,4.236,4.242,4.234,4.246,0,0,9.282,85.91,6,P-GPS,
0.375909420433328,36.9254497224065,5354.6673744333,5.249344,0.223694,0.88778218064,5600,2018-04-17 07:14:39,11,0,16.792,5354.6673744333,5.249344,0.447388,0.88778218064,0,0.223694,-6.039738,288.3, -2.3, -0.3,0,0,1024,1024,1551,1024,288.7,0,99,4.236,4.242,4.234,4.246,0,0,9.282,85.91,6,P-GPS,
0.375909356898376,36.9254498782595,5355.6516264333,6.233596,0.223694,0.94833992536,5700,2018-04-17 07:14:40,11,0,16.792,5355.6516264333,6.233596,0.447388,0.94833992536,0,0.223694,-6.487126,288.3, -2.3, -0.4,0,0,1024,1024,1520,1024,288.7,0,99,4.236,4.242,4.234,4.246,0,0,9.282,85.91,6,P-GPS,
0.375909198836806,36.9254501533997,5357.6201304333,8.2021,0.223694,1.05963914152,5900,2018-04-17 07:14:40,11,0,16.792,5357.6201304333,8.2021,0.447388,1.05963914152,0,0.223694,-7.158208,288.2, -3.6, -0.4,0,0,1024,1024,1581,1024,288.7,0,99,4.236,4.242,4.234,4.246,0,0,9.282,85.91,6,P-GPS,
0.375909110407946,36.9254502684161,5358.6043824333,9.186352,0.223694,1.10863520608,6000,2018-04-17 07:14:40,11,0,16.792,5358.6043824333,9.186352,0.447388,1.10863520608,0,0.223694,-7.381902,288.2, -4.1, -0.6,0,0,1024,1024,1596,1024,288.7,0,99,4.236,4.242,4.234,4.246,0,0,9.282,85.91,6,P-GPS,
0.375909031006569,36.9254503553687,5359.5886344333,10.170604,0.223694,1.14722444616,6100,2018-04-17 07:14:40,11,0,16.792,5359.5886344333,10.170604,0.447388,1.14722444616,0,0.223694,-7.605596,288.3, -4.4, -0.3,0,0,1024,1024,1598,1024,288.7,0,99,4.236,4.242,4.234,4.246,0,0,9.282,85.91,6,P-GPS,
0.375908971921608,36.9254504018912,5360.9009704333,11.48294,0,1.16980974872,6200,2018-04-17 07:14:40,11,0,16.608,5360.9009704333,11.48294,0.447388,1.16980974872,0,0,-8.052984,288.2, -3.9, -0.5,0,0,1024,1024,1602,1024,288.7,0,99,4.236,4.242,4.234,4.246,0,0,9.282,85.91,6,P-GPS,
0.375908931016774,36.9254504212765,5362.2133064333,12.795276,0,1.18112208504,6300,2018-04-17 07:14:40,11,0,16.608,5362.2133064333,12.795276,0.447388,1.18112208504,0,0,-8.276678,288.3, -3.7, -0.6,0,0,1024,1024,1650,1024,288.7,0,99,4.236,4.242,4.234,4.246,0,0,9.282,85.91,6,P-GPS,
0.375908884144991,36.9254504250247,5363.5256424333,14.107612,0,1.18785436872,6400,2018-04-17 07:14:40,11,0,16.608,5363.5256424333,14.107612,0.447388,1.18785436872,0,0,-8.724066,288.3, -3.8, 0.2,0,0,1024,1024,1662,1024,288.6,0,99,4.236,4.242,4.234,4.246,0,0,9.282,85.91,6,P-GPS,
0.375908895961235,36.925450396752,5364.8379784333,15.419948,0,1.17669951272,6500,2018-04-17 07:14:40,11,0,16.608,5364.8379784333,15.419948,0.447388,1.18785436872,0,0,-9.171454,288.2, -2.9, -0.5,0,0,1024,1024,1681,1024,288.6,0,99,4.236,4.242,4.234,4.246,0,0,9.282,85.91,6,P-GPS,
0.375908926451737,36.9254503642505,5366.1503144333,16.732284,0,1.16189964348,6600,2018-04-17 07:14:40,11,0,16.608,5366.1503144333,16.732284,0.447388,1.18785436872,0,0,-9.618842,288.3, -3, -1.4,0,0,1024,1024,1684,1024,288.6,0,99,4.236,4.242,4.234,4.246,0,0,9.282,85.91,6,P-GPS,
0.375908964516564,36.9254503538165,5367.4626504333,18.04462,0,1.15393048312,6700,2018-04-17 07:14:40,11,0,16.608,5367.4626504333,18.04462,0.447388,1.18785436872,0,0,-9.842536,288.3, -3.7, -1.8,0,0,1024,1024,1684,1024,288.6,0,99,4.236,4.242,4.234,4.246,0,0,9.282,85.91,6,P-GPS,
0.375908979670508,36.9254503271299,5369.1030704333,19.68504,0,1.14296591584,6800,2018-04-17 07:14:41,11,0,16.608,5369.1030704333,19.68504,0.447388,1.18785436872,0,0,-10.289924,288.3, -3.4, -1.5,0,0,1024,1024,1684,1024,288.6,0,99,4.236,4.242,4.234,4.246,0,0,9.282,85.91,6,P-GPS,
0.375908960575246,36.9254503147848,5370.7434904333,21.32546,0,1.14084321236,6900,2018-04-17 07:14:41,11,0,16.608,5370.7434904333,21.32546,0.447388,1.18785436872,0,0,-10.737312,288.4, -3.9, -1.1,0,0,1024,1024,1684,1024,288.6,0,99,4.236,4.242,4.234,4.246,0,0,9.282,85.91,6,P-GPS,
0.375908925159821,36.9254502885219,5372.3839104333,22.96588,0,1.13589570564,7000,2018-04-17 07:14:41,11,0,16.608,5372.3839104333,22.96588,0.447388,1.18785436872,0,0,-10.961006,288.5, -4.2, -1.1,0,0,1024,1024,1684,1024,288.6,0,99,4.236,4.242,4.234,4.246,0,0,9.282,85.91,6,P-GPS,
0.37590889974467,36.9254502049354,5373.6962464333,24.278216,0,1.11024609852,7100,2018-04-17 07:14:41,11,0,16.608,5373.6962464333,24.278216,0.447388,1.18785436872,0,0,-10.961006,288.4, -4.2, -1.2,0,0,1024,1024,1684,1024,288.6,0,99,4.236,4.242,4.234,4.246,0,0,9.282,85.91,6,P-GPS,
0.375908875506375,36.9254500661276,5375.6647504333,26.24672,0,1.06598428608,7200,2018-04-17 07:14:41,11,0,16.713,5375.6647504333,26.24672,0.447388,1.18785436872,0,0,-11.1847,288.4, -3.7, -0.8,0,0,1024,1024,1684,1024,288.6,0,99,4.192,4.203,4.192,4.179,0,0,18.384,85.91,6,P-GPS,
0.375908867252454,36.9254498576784,5377.3051704333,27.88714,0,0.99672575368,7300,2018-04-17 07:14:41,11,0,16.713,5377.3051704333,27.88714,0.447388,1.18785436872,0,0,-11.1847,288.4, -3.1, -0.5,0,0,1024,1024,1684,1024,288.6,0,99,4.192,4.203,4.192,4.179,0,0,18.384,85.91,6,P-GPS,
0.375908861062382,36.9254496399538,5378.9455904333,29.52756,0,0.92515750992,7400,2018-04-17 07:14:41,11,0,16.713,5378.9455904333,29.52756,0.447388,1.18785436872,0,0,-11.1847,288.3, -2.7, -0.8,0,0,1024,1024,1684,1024,288.6,0,99,4.192,4.203,4.192,4.179,0,0,18.384,85.91,6,P-GPS,
0.375908844920024,36.9254494347848,5380.5860104333,31.16798,0,0.86072509316,7500,2018-04-17 07:14:41,11,0,16.713,5380.5860104333,31.16798,0.447388,1.18785436872,0,0,-11.1847,288.3, -2.6, -1,0,0,1024,1024,1684,1024,288.6,0,99,4.192,4.203,4.192,4.179,0,0,18.384,85.91,6,P-GPS,
0.375908810846767,36.925449244925,5382.2264304333,32.8084,0,0.8062992384,7600,2018-04-17 07:14:42,11,0,16.713,5382.2264304333,32.8084,0.447388,1.18785436872,0,0,-11.1847,288.3, -2.9, -0.7,0,0,1024,1024,1684,1024,288.6,0,99,4.192,4.203,4.192,4.179,0,0,18.384,85.91,6,P-GPS,
0.375908797298825,36.9254490321177,5383.8668504333,34.44882,0,0.74338256972,7700,2018-04-17 07:14:42,11,0,16.713,5383.8668504333,34.44882,0.447388,1.18785436872,0,0,-11.1847,288.3, -2.5, -0.8,0,0,1024,1024,1684,1024,288.6,0,99,4.192,4.203,4.192,4.179,0,0,18.384,85.91,6,P-GPS,
0.375908796294686,36.9254488096614,5385.5072704333,36.08924,0,0.67794621592,7800,2018-04-17 07:14:42,11,0,16.713,5385.5072704333,36.08924,0.447388,1.18785436872,0,0,-11.1847,288.2, -2.1, -0.8,0,0,1024,1024,1684,1024,288.6,0,99,4.192,4.203,4.192,4.179,0,0,18.384,85.91,6,P-GPS,
0.375908791934222,36.9254485643905,5387.1476904333,37.72966,0,0.61100067572,7900,2018-04-17 07:14:42,11,0,16.713,5387.1476904333,37.72966,0.447388,1.18785436872,0,0,-11.1847,288.3, -1.8, -1,0,0,1024,1024,1684,1024,288.6,-0.1,99,4.192,4.203,4.192,4.179,0,0,18.384,85.91,6,P-GPS,
0.375908783920853,36.9254483384677,5388.7881104333,39.37008,0,0.55609909916,8000,2018-04-17 07:14:42,11,0,16.713,5388.7881104333,39.37008,0.447388,1.18785436872,0,0,-10.961006,288.3, -2, -1.4,0,0,1024,1024,1684,1024,288.6,-0.7,99,4.192,4.203,4.192,4.179,0,0,18.384,85.91,6,P-GPS,
0.37590880094252,36.925448125552,5390.4285304333,41.0105,0,0.50376642032,8100,2018-04-17 07:14:42,11,0,16.713,5390.4285304333,41.0105,0.447388,1.18785436872,0,0,-10.961006,288.3, -2.4, -1.1,0,0,1024,1024,1684,1024,288.6,-1.4,99,4.192,4.203,4.192,4.179,0,0,18.384,85.91,6,P-GPS,
0.375908825304551,36.9254479219417,5392.0689504333,42.65092,0,0.45791996216,8200,2018-04-17 07:14:42,11,0,16.713,5392.0689504333,42.65092,0.447388,1.18785436872,0,0,-10.961006,288.3, -2.2, -1.3,0,0,1024,1024,1684,1024,288.6,-2.1,99,4.192,4.203,4.192,4.179,0,0,18.384,85.91,6,P-GPS,
0.375908865461115,36.9254477416806,5393.7093704333,44.29134,0,0.41789371416,8300,2018-04-17 07:14:42,11,0,16.713,5393.7093704333,44.29134,0.447388,1.18785436872,0,0,-10.961006,288.3, -2.2, -2.1,0,0,1024,1024,1684,1024,288.6,-3.6,99,4.192,4.203,4.192,4.179,0,0,18.384,85.91,6,P-GPS,
0.37590887816995,36.9254473922095,5396.9902104333,47.57218,0,0.38780184968,8500,2018-04-17 07:14:42,11,0,16.713,5396.9902104333,47.57218,0.447388,1.18785436872,0,0,-10.961006,288.3, -1.9, -1.1,0,0,1024,1024,1684,1024,288.6,-4.3,99,4.192,4.203,4.192,4.179,0,0,18.384,85.91,6,P-GPS,
0.375908889968663,36.9254472270871,5398.6306304333,49.2126,0,0.3855315084,8600,2018-04-17 07:14:42,11,0,16.713,5398.6306304333,49.2126,0.447388,1.18785436872,0,0,-10.961006,288.3, -2, -1.4,0,0,1024,1024,1684,1024,288.6,-4.3,99,4.192,4.203,4.192,4.179,0,0,18.384,85.91,6,P-GPS,
0.37590893688131,36.9254470730491,5400.2710504333,50.85302,0,0.37922901476,8700,2018-04-17 07:14:43,11,0,16.713,5400.2710504333,50.85302,0.447388,1.18785436872,0,0,-10.961006,288.3, -1.7, -1.8,0,0,1024,1024,1684,1024,288.6,-5.1,99,4.192,4.203,4.192,4.179,0,0,18.384,85.91,6,P-GPS,
0.375908977862197,36.9254469239608,5401.9114704333,52.49344,0,0.38321523536,8800,2018-04-17 07:14:43,11,0,16.713,5401.9114704333,52.49344,0.447388,1.18785436872,0,0,-10.961006,288.3, -0.6, -2,0,0,1024,1024,1684,1024,288.6,-5.9,99,4.192,4.203,4.192,4.179,0,0,18.384,85.91,6,P-GPS,
0.375908985108111,36.9254468183856,5403.5518904333,54.13386,0,0.39790355604,8900,2018-04-17 07:14:43,11,0,16.713,5403.5518904333,54.13386,0.447388,1.18785436872,0,0,-10.961006,288.3, -1.5, -2,0,0,1024,1024,1684,1024,288.6,-6.6,99,4.192,4.203,4.192,4.179,0,0,18.384,85.91,6,P-GPS,
0.375908949313615,36.9254467471413,5405.1923104333,55.77428,0,0.42221458044,9000,2018-04-17 07:14:43,11,0,16.713,5405.1923104333,55.77428,0.447388,1.18785436872,0,0,-11.1847,288.3, -3.2, -1.3,0,0,1024,1024,1684,1024,288.6,-6.6,99,4.192,4.203,4.192,4.179,0,0,18.384,85.91,6,P-GPS,
0.375908918962879,36.9254467123742,5406.8327304333,57.4147,0,0.43828085392,9100,2018-04-17 07:14:43,11,0,16.713,5406.8327304333,57.4147,0.447388,1.18785436872,0,0,-11.1847,288.3, -3.4, -1.1,0,0,1024,1024,1684,1024,288.6,-8.2,99,4.192,4.203,4.192,4.179,0,0,18.384,85.91,6,P-GPS,
0.37590890122546,36.9254466661582,5408.4731504333,59.05512,0,0.45279529008,9200,2018-04-17 07:14:43,11,0,16.608,5408.4731504333,59.05512,0.447388,1.18785436872,0,0,-11.1847,288.3, -2.6, -1.1,0,0,1024,1024,1684,1024,288.6,-9,99,4.166,4.175,4.169,4.167,0,0,17.13,85.91,6,P-GPS,
0.375908885402633,36.9254466440539,5410.1135704333,60.69554,0,0.46205382056,9300,2018-04-17 07:14:43,11,0,16.608,5410.1135704333,60.69554,0.447388,1.18785436872,0,0,-11.1847,288.4, -2.2, -1.2,0,0,1024,1024,1684,1024,288.6,-10,99,4.166,4.175,4.169,4.167,0,0,17.13,85.91,6,P-GPS,
0.375908871506611,36.9254466236582,5411.7539904333,62.33596,0,0.4704068392,9400,2018-04-17 07:14:43,11,0,16.608,5411.7539904333,62.33596,0.447388,1.18785436872,0,0,-11.1847,288.4, -2.4, -1.5,0,0,1024,1024,1676,1024,288.6,-11,99,4.166,4.175,4.169,4.167,0,0,17.13,85.91,6,P-GPS,
0.37590887363341,36.9254466286576,5413.3944104333,63.97638,0,0.46874673416,9500,2018-04-17 07:14:43,11,0,16.608,5413.3944104333,63.97638,0.447388,1.18785436872,0,0,-11.408394,288.4, -2.7, -1.7,0,0,1024,1024,1676,1024,288.6,-11.2,99,4.166,4.175,4.169,4.167,0,0,17.13,85.91,6,P-GPS,
0.375908886049023,36.9254466213499,5415.3629144333,65.944884,0,0.46649607792,9600,2018-04-17 07:14:44,11,0,16.608,5415.3629144333,65.944884,0.447388,1.18785436872,0,0,-11.1847,288.3, -2.7, -1.5,0,0,1024,1024,1654,1024,288.6,-11.3,99,4.166,4.175,4.169,4.167,0,0,17.13,85.91,6,P-GPS,
0.375908913371566,36.9254466096115,5417.0033344333,67.585304,0,0.460793978,9700,2018-04-17 07:14:44,11,0,16.608,5417.0033344333,67.585304,0.447388,1.18785436872,0,0,-10.961006,288.3, -2, -1.7,0,0,1024,1024,1654,1024,288.6,-11.5,99,4.166,4.175,4.169,4.167,0,0,17.13,85.91,6,P-GPS,
0.3759089445295,36.9254465977945,5418.6437544333,69.225724,0,0.45417652372,9800,2018-04-17 07:14:44,11,0,16.608,5418.6437544333,69.225724,0.447388,1.18785436872,0,0,-10.961006,288.4, -1.6, -2,0,0,1024,1024,1649,1024,288.6,-11.5,99,4.166,4.175,4.169,4.167,0,0,17.13,85.91,6,P-GPS,
0.375909068680824,36.9254466956036,5421.9245944333,72.506564,0,0.39653216492,10000,2018-04-17 07:14:44,11,0,16.608,5421.9245944333,72.506564,0.447388,1.18785436872,0,0,-10.513618,288.4, -2.6, -2.3,0,0,1024,1024,1666,1024,288.6,-11.5,99,4.166,4.175,4.169,4.167,0,0,17.13,85.91,6,P-GPS,
0.375909131081322,36.925446768947,5423.5650144333,74.146984,0,0.362368778,10100,2018-04-17 07:14:44,11,0,16.608,5423.5650144333,74.146984,0.447388,1.18785436872,0,0,-10.289924,288.3, -2.4, -2.9,0,0,1024,1024,1676,1024,288.6,-11.7,99,4.166,4.175,4.169,4.167,0,0,17.13,85.91,6,P-GPS,
0.375909171669398,36.9254468439932,5425.2054344333,75.787404,0,0.33470473512,10200,2018-04-17 07:14:44,11,0,16.634,5425.2054344333,75.787404,0.447388,1.18785436872,0,0,-10.513618,288.3, -2.6, -2.8,0,0,1024,1024,1676,1024,288.6,-13,99,4.166,4.175,4.169,4.167,0,0,17.13,85.91,6,P-GPS,
0.37590920401501,36.9254469772356,5426.8458544333,77.427824,0,0.300224090972,10300,2018-04-17 07:14:44,11,0,16.634,5426.8458544333,77.427824,0.447388,1.18785436872,0,0,-10.737312,288.4, -2.7, -3.5,0,0,1024,1024,1681,1024,288.6,-14.5,99,4.166,4.175,4.169,4.167,0,0,17.13,85.91,6,P-GPS,
0.375909222495419,36.9254471096548,5428.4862744333,79.068244,0,0.27553806656,10400,2018-04-17 07:14:44,11,0,16.634,5428.4862744333,79.068244,0.447388,1.18785436872,0,0,-10.961006,288.4, -3, -3.3,0,0,1024,1024,1684,1024,288.6,-16.2,99,4.166,4.175,4.169,4.167,0,0,17.13,85.91,6,P-GPS,
0.375909215906989,36.9254472452224,5430.1266944333,80.708664,0,0.26670440486,10500,2018-04-17 07:14:44,11,0,16.634,5430.1266944333,80.708664,0.447388,1.18785436872,0,0,-10.961006,288.4, -3, -2.7,0,0,1024,1024,1684,1024,288.6,-18.3,99,4.166,4.175,4.169,4.167,0,0,17.13,85.91,6,P-GPS,
0.375909192233809,36.9254473463656,5431.7671144333,82.349084,0,0.27283629482,10600,2018-04-17 07:14:44,11,0,16.634,5431.7671144333,82.349084,0.447388,1.18785436872,0,0,-10.961006,288.4, -3.1, -2.2,0,0,1024,1024,1684,1024,288.6,-21.1,99,4.166,4.175,4.169,4.167,0,0,17.13,85.91,6,P-GPS,
0.375909156355333,36.9254474757294,5433.4075344333,83.989504,0,0.289865166756,10700,2018-04-17 07:14:44,11,0,16.634,5433.4075344333,83.989504,0.447388,1.18785436872,0,0,-10.961006,288.4, -3.3, -2.2,0,0,1024,1024,1684,1024,288.6,-21.1,99,4.166,4.175,4.169,4.167,0,0,17.13,85.91,6,P-GPS,
0.375909113281183,36.9254475786447,5435.0479544333,85.629924,0,0.313435705568,10800,2018-04-17 07:14:45,11,0,16.634,5435.0479544333,85.629924,0.447388,1.18785436872,0,0,-10.961006,288.4, -3.1, -1.9,0,0,1024,1024,1684,1024,288.6,-26.5,99,4.166,4.175,4.169,4.167,0,0,17.13,85.91,6,P-GPS,
0.375909075683769,36.9254476861615,5436.6883744333,87.270344,0,0.3390091972,10900,2018-04-17 07:14:45,11,0,16.634,5436.6883744333,87.270344,0.447388,1.18785436872,0,0,-10.737312,288.4, -3.3, -1.8,0,0,1024,1024,1684,1024,288.6,-26.7,99,4.166,4.175,4.169,4.167,0,0,17.13,85.91,6,P-GPS,
0.375909040504137,36.9254477569684,5438.3287944333,88.910764,0,0.36094489344,11000,2018-04-17 07:14:45,11,0,16.634,5438.3287944333,88.910764,0.447388,1.18785436872,0,0,-10.961006,288.4, -2.7, -1.4,0,0,1024,1024,1684,1024,288.6,-26.7,99,4.166,4.175,4.169,4.167,0,0,17.13,85.91,6,P-GPS,
0.375909000507288,36.9254478207309,5439.9692144333,90.551184,0,0.38419292568,11100,2018-04-17 07:14:45,11,0,16.634,5439.9692144333,90.551184,0.447388,1.18785436872,0,0,-10.961006,288.4, -2.5, -0.8,0,0,1024,1024,1684,1024,288.6,-26.7,99,4.166,4.175,4.169,4.167,0,0,17.13,85.91,6,P-GPS,
0.375908968282875,36.9254478764825,5441.9377184333,92.519688,0,0.40407153524,11200,2018-04-17 07:14:45,11,0,16.555,5441.9377184333,92.519688,0.447388,1.18785436872,0,0,-11.1847,288.3, -2.7, -0.8,0,0,1024,1024,1684,1024,288.6,-26.7,99,4.17,4.177,4.17,4.167,0,0,15.824,85.91,6,P-GPS,
0.375908975031325,36.9254480019558,5443.5781384333,94.160108,0,0.42588255956,11300,2018-04-17 07:14:45,11,0,16.555,5443.5781384333,94.160108,0.447388,1.18785436872,0,0,-11.408394,288.3, -3.1, -1,0,0,1024,1024,1684,1024,288.6,-26.7,99,4.17,4.177,4.17,4.167,0,0,15.824,85.91,6,P-GPS,
0.375909008254153,36.9254481434137,5445.2185584333,95.800528,0,0.44764437128,11400,2018-04-17 07:14:45,11,0,16.555,5445.2185584333,95.800528,0.447388,1.18785436872,0,0,-11.408394,288.3, -3.5, -2.1,0,0,1024,1024,1684,1024,288.6,-26.7,99,4.17,4.177,4.17,4.167,0,0,15.824,85.91,6,P-GPS,
0.375909060337568,36.9254483140474,5447.1870624333,97.769032,0,0.47745080268,11500,2018-04-17 07:14:45,11,0,16.555,5447.1870624333,97.769032,0.447388,1.18785436872,0,0,-11.1847,288.3, -3.9, -2.5,0,0,1024,1024,1684,1024,288.5,-26.7,99,4.17,4.177,4.17,4.167,0,0,15.824,85.91,6,P-GPS,
0.375909095363044,36.9254484504263,5448.8274824333,99.409452,0,0.50751642044,11600,2018-04-17 07:14:46,11,0,16.555,5448.8274824333,99.409452,0.447388,1.18785436872,0,0,-11.408394,288.3, -4.2, -2.6,0,0,1024,1024,1684,1024,288.5,-26.7,99,4.17,4.177,4.17,4.167,0,0,15.824,85.91,6,P-GPS,
0.375909114822199,36.925448596876,5450.4679024333,101.049872,0,0.54698492564,11700,2018-04-17 07:14:46,11,0,16.555,5450.4679024333,101.049872,0.447388,1.18785436872,0,0,-11.1847,288.3, -3.9, -2.6,0,0,1024,1024,1684,1024,288.5,-26.7,99,4.17,4.177,4.17,4.167,0,0,15.824,85.91,6,P-GPS,
0.375909112067788,36.9254487026274,5452.1083224333,102.690292,0,0.58010828628,11800,2018-04-17 07:14:46,11,0,16.555,5452.1083224333,102.690292,0.447388,1.18785436872,0,0,-10.961006,288.4, -3.5, -2.4,0,0,1024,1024,1684,1024,288.5,-26.7,99,4.17,4.177,4.17,4.167,0,0,15.824,85.91,6,P-GPS,
0.375909118734193,36.9254488325384,5454.0768264333,104.658796,0,0.6198819096,11900,2018-04-17 07:14:46,11,0,16.555,5454.0768264333,104.658796,0.447388,1.18785436872,0,0,-11.1847,288.4, -3.5, -2,0,0,1024,1024,1684,1024,288.5,-26.7,99,4.17,4.177,4.17,4.167,0,0,15.824,85.91,6,P-GPS,
0.375909124584759,36.9254489344542,5455.7172464333,106.299216,0,0.65170277676,12000,2018-04-17 07:14:46,11,0,16.555,5455.7172464333,106.299216,0.447388,1.18785436872,0,0,-11.1847,288.3, -3.8, -1.7,0,0,1024,1024,1684,1024,288.5,-26.7,99,4.17,4.177,4.17,4.167,0,0,15.824,85.91,6,P-GPS,
0.375909120853256,36.9254490416993,5457.3576664333,107.939636,0,0.68733926084,12100,2018-04-17 07:14:46,11,0,16.555,5457.3576664333,107.939636,0.447388,1.18785436872,0,0,-11.1847,288.3, -3.4, -1.8,0,0,1024,1024,1684,1024,288.5,-26.7,99,4.17,4.177,4.17,4.167,0,0,15.824,85.91,6,P-GPS,
0.375909104256664,36.9254491215845,5458.9980864333,109.580056,0,0.71625330376,12200,2018-04-17 07:14:46,11,0,16.555,5458.9980864333,109.580056,0.447388,1.18785436872,0,0,-11.1847,288.4, -3.4, -2,0,0,1024,1024,1684,1024,288.5,-26.7,99,4.164,4.171,4.166,4.163,0,0,16.698,85.91,6,P-GPS,
0.375909109720781,36.9254492238708,5460.9665904333,111.54856,0,0.74938322608,12300,2018-04-17 07:14:46,11,0,16.555,5460.9665904333,111.54856,0.447388,1.18785436872,0,0,-10.961006,288.4, -3.3, -1.9,0,0,1024,1024,1684,1024,288.5,-26.7,99,4.164,4.171,4.166,4.163,0,0,16.698,85.91,6,P-GPS,
0.375909125699709,36.9254492996122,5462.6070104333,113.18898,0,0.77247705884,12400,2018-04-17 07:14:46,11,0,16.555,5462.6070104333,113.18898,0.447388,1.18785436872,0,0,-10.961006,288.4, -3.3, -2,0,0,1024,1024,1684,1024,288.5,-26.7,99,4.164,4.171,4.166,4.163,0,0,16.698,85.91,6,P-GPS,
0.375909116053354,36.9254493760161,5464.2474304333,114.8294,0,0.79959648228,12500,2018-04-17 07:14:46,11,0,16.555,5464.2474304333,114.8294,0.447388,1.18785436872,0,0,-10.961006,288.4, -3.6, -1.9,0,0,1024,1024,1684,1024,288.5,-26.7,99,4.164,4.171,4.166,4.163,0,0,16.698,85.91,6,P-GPS,
0.375909084480191,36.9254494056735,5465.8878504333,116.46982,0,0.81397968484,12600,2018-04-17 07:14:46,11,0,16.555,5465.8878504333,116.46982,0.447388,1.18785436872,0,0,-11.1847,288.4, -3.4, -0.8,0,0,1024,1024,1684,1024,288.5,-26.7,99,4.164,4.171,4.166,4.163,0,0,16.698,85.91,6,P-GPS,
0.375909070747396,36.9254494289806,5467.5282704333,118.11024,0,0.82375658804,12700,2018-04-17 07:14:47,11,0,16.555,5467.5282704333,118.11024,0.447388,1.18785436872,0,0,-11.1847,288.4, -2.6, -0.4,0,0,1024,1024,1684,1024,288.5,-26.7,99,4.164,4.171,4.166,4.163,0,0,16.698,85.91,6,P-GPS,
0.375909115037498,36.9254494642092,5469.1686904333,119.75066,0,0.82963257248,12800,2018-04-17 07:14:47,11,0,16.555,5469.1686904333,119.75066,0.447388,1.18785436872,0,0,-10.961006,288.4, -3.4, -2.1,0,0,1024,1024,1684,1024,288.5,-26.7,99,4.164,4.171,4.166,4.163,0,0,16.698,85.91,6,P-GPS,
0.37590919003242,36.9254495180361,5471.1371944333,121.719164,0,0.83864175912,12900,2018-04-17 07:14:47,11,0,16.555,5471.1371944333,121.719164,0.447388,1.18785436872,0,0,-10.961006,288.5, -3.5, -3.3,0,0,1024,1024,1684,1024,288.5,-26.7,99,4.164,4.171,4.166,4.163,0,0,16.698,85.91,6,P-GPS,
0.375909258296515,36.925449535381,5472.7776144333,123.359584,0,0.83688979056,13000,2018-04-17 07:14:47,11,0,16.555,5472.7776144333,123.359584,0.447388,1.18785436872,0,0,-10.961006,288.5, -2.8, -2.8,0,0,1024,1024,1684,1024,288.5,-26.7,99,4.164,4.171,4.166,4.163,0,0,16.698,85.91,6,P-GPS,
0.375909350261138,36.9254495307872,5474.4180344333,125.000004,0,0.8259186616,13100,2018-04-17 07:14:47,11,0,16.555,5474.4180344333,125.000004,0.447388,1.18785436872,0,0,-10.961006,288.4, -2, -2.5,0,0,1024,1024,1684,1024,288.5,-26.7,99,4.164,4.171,4.166,4.163,0,0,16.698,85.91,6,P-GPS,
0.375909452100215,36.9254495192724,5476.0584544333,126.640424,0,0.8129265352,13200,2018-04-17 07:14:47,11,0,16.634,5476.0584544333,126.640424,0.447388,1.18785436872,0,0,-10.961006,288.3, -1.6, -3.5,0,0,1024,1024,1684,1024,288.5,-26.7,99,4.164,4.171,4.166,4.163,0,0,16.196,85.91,6,P-GPS,
0.375909545523373,36.9254495585814,5477.6988744333,128.280844,0,0.82026249344,13300,2018-04-17 07:14:47,11,0,16.634,5477.6988744333,128.280844,0.447388,1.18785436872,0,0,-11.1847,288.4, -2.1, -3.6,0,0,1024,1024,1684,1024,288.5,-26.7,99,4.164,4.171,4.166,4.163,0,0,16.196,85.91,6,P-GPS,
0.3759095979868,36.9254496183447,5479.6673784333,130.249348,0,0.83867784836,13400,2018-04-17 07:14:47,11,0,16.634,5479.6673784333,130.249348,0.447388,1.18785436872,0,0,-11.1847,288.5, -3, -3,0,0,1024,1024,1684,1024,288.5,-26.7,99,4.164,4.171,4.166,4.163,0,0,16.196,85.91,6,P-GPS,
0.375909612417944,36.9254497079076,5481.3077984333,131.889768,0,0.87026249504,13500,2018-04-17 07:14:47,11,0,16.634,5481.3077984333,131.889768,0.447388,1.18785436872,0,0,-10.961006,288.5, -3.5, -2.9,0,0,1024,1024,1684,1024,288.5,-26.7,99,4.164,4.171,4.166,4.163,0,0,16.196,85.91,6,P-GPS,
0.375909605671478,36.9254497670748,5482.9482184333,133.530188,0,0.89198493668,13600,2018-04-17 07:14:47,11,0,16.634,5482.9482184333,133.530188,0.447388,1.18785436872,0,0,-10.961006,288.5, -3.9, -2.7,0,0,1024,1024,1684,1024,288.5,-26.7,99,4.164,4.171,4.166,4.163,0,0,16.196,85.91,6,P-GPS,
0.375909619010369,36.9254497920516,5484.5886384333,135.170608,0,0.90036748288,13700,2018-04-17 07:14:48,11,0,16.634,5484.5886384333,135.170608,0.447388,1.18785436872,0,0,-11.1847,288.5, -3.4, -2.5,0,0,1024,1024,1684,1024,288.5,-26.7,99,4.164,4.171,4.166,4.163,0,0,16.196,85.91,6,P-GPS,
0.375909658229178,36.9254497735488,5486.2290584333,136.811028,0,0.89190947736,13800,2018-04-17 07:14:48,11,0,16.634,5486.2290584333,136.811028,0.447388,1.18785436872,0,0,-11.1847,288.5, -2.8, -2.9,0,0,1024,1024,1684,1024,288.5,-26.7,99,4.164,4.171,4.166,4.163,0,0,16.196,85.91,6,P-GPS,
0.375909715969883,36.9254497433963,5487.8694784333,138.451448,0,0.87877627484,13900,2018-04-17 07:14:48,11,0,16.634,5487.8694784333,138.451448,0.447388,1.18785436872,0,0,-11.408394,288.4, -2.2, -3.2,0,0,1024,1024,1684,1024,288.5,-26.7,99,4.164,4.171,4.166,4.163,0,0,16.196,85.91,6,P-GPS,
0.375909757691433,36.9254497098781,5489.8379824333,140.419952,0,0.86529530328,14000,2018-04-17 07:14:48,11,0,16.634,5489.8379824333,140.419952,0.447388,1.18785436872,0,0,-11.408394,288.4, -2.3, -3.2,0,0,1024,1024,1684,1024,288.5,-26.7,99,4.164,4.171,4.166,4.163,0,0,16.196,85.91,6,P-GPS,
0.375909788366636,36.9254496967659,5491.4784024333,142.060372,0,0.85973427948,14100,2018-04-17 07:14:48,11,0,16.634,5491.4784024333,142.060372,0.447388,1.18785436872,0,0,-11.1847,288.4, -2.8, -2.9,0,0,1024,1024,1684,1024,288.5,-26.7,99,4.164,4.171,4.166,4.163,0,0,16.196,85.91,6,P-GPS,
0.375909800637877,36.9254496794689,5493.1188224333,143.700792,0,0.85315619528,14200,2018-04-17 07:14:48,11,0,16.529,5493.1188224333,143.700792,0.447388,1.18785436872,0,0,-10.961006,288.5, -2.9, -2.4,0,0,1024,1024,1684,1024,288.5,-26.7,99,4.155,4.166,4.162,4.159,0,0,16.196,85.91,6,P-GPS,
0.375909807933459,36.9254496689602,5494.7592424333,145.341212,0,0.84917653636,14300,2018-04-17 07:14:48,11,0,16.529,5494.7592424333,145.341212,0.447388,1.18785436872,0,0,-10.961006,288.4, -2.6, -2.3,0,0,1024,1024,1684,1024,288.5,-26.7,99,4.155,4.166,4.162,4.159,0,0,16.196,85.91,6,P-GPS,
0.375909808283015,36.9254496584309,5496.3996624333,146.981632,0,0.84533139188,14400,2018-04-17 07:14:48,11,0,16.529,5496.3996624333,146.981632,0.447388,1.18785436872,0,0,-11.1847,288.4, -2.6, -2.4,0,0,1024,1024,1684,1024,288.5,-26.7,99,4.155,4.166,4.162,4.159,0,0,16.196,85.91,6,P-GPS,
0.375909867006945,36.9254496368943,5500.0085864333,150.590556,0,0.836532179,14600,2018-04-17 07:14:49,11,0,16.529,5500.0085864333,150.590556,0.447388,1.18785436872,0,0,-11.1847,288.4, -3.2, -2.8,0,0,1024,1024,1684,1024,288.5,-26.7,99,4.155,4.166,4.162,4.159,0,0,16.196,85.91,6,P-GPS,
0.375909918975783,36.9254495639525,5503.2894264333,153.871396,0,0.8095308658,14800,2018-04-17 07:14:49,11,0,16.529,5503.2894264333,153.871396,0.447388,1.18785436872,0,0,-11.1847,288.4, -2.9, -2.6,0,0,1024,1024,1684,1024,288.5,-26.7,99,4.155,4.166,4.162,4.159,0,0,16.196,85.91,6,P-GPS,
0.375909976569522,36.9254495571195,5504.9298464333,155.511816,0,0.80711288672,14900,2018-04-17 07:14:49,11,0,16.529,5504.9298464333,155.511816,0.447388,1.18785436872,0,0,-11.408394,288.5, -3, -3.2,0,0,1024,1024,1684,1024,288.5,-26.7,99,4.155,4.166,4.162,4.159,0,0,16.196,85.91,6,P-GPS,
0.375910043755253,36.9254495728994,5506.8983504333,157.48032,0,0.81363847748,15000,2018-04-17 07:14:49,11,0,16.529,5506.8983504333,157.48032,0.447388,1.18785436872,0,0,-11.408394,288.5, -3.4, -3.8,0,0,1024,1024,1684,1024,288.5,-26.7,99,4.155,4.166,4.162,4.159,0,0,16.196,85.91,6,P-GPS,
0.375910167296852,36.9254495790501,5510.5072744333,161.089244,0,0.8192093438,15200,2018-04-17 07:14:49,11,0,16.555,5510.5072744333,161.089244,0.447388,1.18785436872,0,0,-11.1847,288.7, -3.5, -3.4,0,0,1024,1024,1684,1024,288.5,-26.7,99,4.155,4.163,4.158,4.158,0,0,16.466,85.91,6,P-GPS,
0.375910260436521,36.9254494433393,5513.4600304333,164.042,0.223694,0.77436354184,15400,2018-04-17 07:14:49,11,0,16.555,5513.4600304333,164.042,0.447388,1.18785436872,0,-0.223694,-10.961006,288.7, -2.6, -3.1,0,0,1024,1024,1684,1024,288.5,-26.7,99,4.155,4.163,4.158,4.158,0,0,16.466,85.91,6,P-GPS,
0.375910291334312,36.9254493641144,5515.4285344333,166.010504,0.223694,0.7476542234,15500,2018-04-17 07:14:49,11,0,16.555,5515.4285344333,166.010504,0.447388,1.18785436872,0,-0.223694,-11.1847,288.6, -2.6, -2.4,0,0,1024,1024,1684,1024,288.5,-26.7,99,4.155,4.163,4.158,4.158,0,0,16.466,85.91,6,P-GPS,
0.37591034700613,36.9254492807207,5517.0689544333,167.650924,0.223694,0.72160107296,15600,2018-04-17 07:14:49,11,0,16.555,5517.0689544333,167.650924,0.447388,1.18785436872,0,-0.223694,-11.1847,288.6, -2, -3.5,0,0,1024,1024,1684,1024,288.5,-26.7,99,4.155,4.163,4.158,4.158,0,0,16.466,85.91,6,P-GPS,
0.375910420728436,36.9254491792912,5518.7093744333,169.291344,0.223694,0.69175527148,15700,2018-04-17 07:14:50,11,0,16.555,5518.7093744333,169.291344,0.447388,1.18785436872,0,-0.223694,-10.961006,288.5, -1.5, -3.3,0,0,1024,1024,1684,1024,288.5,-26.7,99,4.155,4.163,4.158,4.158,0,0,16.466,85.91,6,P-GPS,
0.37591047998619,36.925449058949,5520.3497944333,170.931764,0.223694,0.65555120208,15800,2018-04-17 07:14:50,11,0,16.555,5520.3497944333,170.931764,0.447388,1.18785436872,0,-0.223694,-10.961006,288.5, -1, -3.1,0,0,1024,1024,1684,1024,288.5,-26.7,99,4.155,4.163,4.158,4.158,0,0,16.466,85.91,6,P-GPS,
0.375910538484478,36.9254489679722,5521.6621304333,172.2441,0.223694,0.63103348476,15900,2018-04-17 07:14:50,11,0,16.555,5521.6621304333,172.2441,0.447388,1.18785436872,0,-0.223694,-10.737312,288.4, -0.9, -3.2,0,0,1024,1024,1684,1024,288.5,-26.7,99,4.155,4.163,4.158,4.158,0,0,16.466,85.91,6,P-GPS,
0.375910579773981,36.9254488941472,5523.3025504333,173.88452,0,0.61142718492,16000,2018-04-17 07:14:50,11,0,16.555,5523.3025504333,173.88452,0.447388,1.18785436872,0,0,-10.961006,288.4, -1.1, -3.6,0,0,1024,1024,1684,1024,288.5,-26.7,99,4.155,4.163,4.158,4.158,0,0,16.466,85.91,6,P-GPS,
0.375910606995458,36.9254488344709,5524.9429704333,175.52494,0,0.59535106892,16100,2018-04-17 07:14:50,11,0,16.555,5524.9429704333,175.52494,0.447388,1.18785436872,0,0,-10.737312,288.4, -1.5, -3.2,0,0,1024,1024,1684,1024,288.5,-26.7,99,4.155,4.163,4.158,4.158,0,0,16.466,85.91,6,P-GPS,
0.375910623473988,36.9254487596939,5526.5833904333,177.16536,0,0.57315290548,16200,2018-04-17 07:14:50,11,0,16.45,5526.5833904333,177.16536,0.447388,1.18785436872,0,0,-10.961006,288.4, -1.8, -3.3,0,0,1024,1024,1684,1024,288.5,-26.7,99,4.145,4.154,4.149,4.15,0,0,17.082,85.91,6,P-GPS,
0.375910630627132,36.9254486957622,5528.2238104333,178.80578,0.223694,0.55342521456,16300,2018-04-17 07:14:50,11,0,16.45,5528.2238104333,178.80578,0.447388,1.18785436872,0,-0.223694,-10.737312,288.5, -1.3, -3.2,0,0,1024,1024,1684,1024,288.5,-26.7,99,4.145,4.154,4.149,4.15,0,0,17.082,85.91,6,P-GPS,
0.375910624475278,36.9254486166443,5529.8642304333,180.4462,0.223694,0.526820883,16400,2018-04-17 07:14:50,11,0,16.45,5529.8642304333,180.4462,0.447388,1.18785436872,0,-0.223694,-10.737312,288.4, -0.8, -2.8,0,0,1024,1024,1684,1024,288.5,-26.7,99,4.145,4.154,4.149,4.15,0,0,17.082,85.91,6,P-GPS,
0.375910640529802,36.9254485475374,5531.1765664333,181.758536,0,0.50768702412,16500,2018-04-17 07:14:50,11,0,16.45,5531.1765664333,181.758536,0.447388,1.18785436872,0,0,-10.737312,288.4, -0.7, -2.8,0,0,1024,1024,1684,1024,288.5,-26.7,99,4.145,4.154,4.149,4.15,0,0,17.082,85.91,6,P-GPS,
0.375910666285476,36.9254484821793,5532.8169864333,183.398956,0,0.4922244252,16600,2018-04-17 07:14:50,11,0,16.45,5532.8169864333,183.398956,0.447388,1.18785436872,0,0,-10.961006,288.4, -0.6, -2.9,0,0,1024,1024,1684,1024,288.5,-26.7,99,4.145,4.154,4.149,4.15,0,0,17.082,85.91,6,P-GPS,
0.375910691235986,36.9254484679779,5534.4574064333,185.039376,0,0.49287075068,16700,2018-04-17 07:14:51,11,0,16.45,5534.4574064333,185.039376,0.447388,1.18785436872,0,0,-10.961006,288.4, -1.2, -3.3,0,0,1024,1024,1684,1024,288.5,-26.7,99,4.145,4.154,4.149,4.15,0,0,17.082,85.91,6,P-GPS,
0.375910701703217,36.925448471181,5536.0978264333,186.679796,0,0.49597114448,16800,2018-04-17 07:14:51,11,0,16.45,5536.0978264333,186.679796,0.447388,1.18785436872,0,0,-10.961006,288.4, -1.8, -3.6,0,0,1024,1024,1684,1024,288.5,-26.7,99,4.145,4.154,4.149,4.15,0,0,17.082,85.91,6,P-GPS,
0.375910681777576,36.9254484619364,5539.3786664333,189.960636,0,0.48912075056,17000,2018-04-17 07:14:51,11,0,16.45,5539.3786664333,189.960636,0.447388,1.18785436872,0,0,-10.961006,288.3, -1.4, -2.8,0,0,1024,1024,1684,1024,288.5,-26.7,99,4.145,4.154,4.149,4.15,0,0,17.082,85.91,6,P-GPS,
0.375910669858994,36.925448481122,5541.0190864333,191.601056,0,0.4926017218,17100,2018-04-17 07:14:51,11,0,16.45,5541.0190864333,191.601056,0.447388,1.18785436872,0,0,-10.961006,288.3, -1.3, -2.8,0,0,1024,1024,1684,1024,288.5,-26.7,99,4.145,4.154,4.149,4.15,0,0,17.082,85.91,6,P-GPS,
0.375910661607465,36.9254485240499,5542.6595064333,193.241476,0,0.50427166968,17200,2018-04-17 07:14:51,11,0,16.503,5542.6595064333,193.241476,0.447388,1.18785436872,0,0,-10.961006,288.3, -1.9, -3.5,0,0,1024,1024,1684,1024,288.5,-26.7,99,4.145,4.154,4.149,4.15,0,0,17.082,85.91,6,P-GPS,
0.375910651686984,36.9254485930799,5544.2999264333,194.881896,0,0.52411419,17300,2018-04-17 07:14:51,11,0,16.503,5544.2999264333,194.881896,0.447388,1.18785436872,0,0,-11.1847,288.3, -2.2, -4,0,0,1024,1024,1684,1024,288.5,-26.7,99,4.145,4.154,4.149,4.15,0,0,17.082,85.91,6,P-GPS,
0.375910617416991,36.9254486674081,5545.9403464333,196.522316,0,0.54202101472,17400,2018-04-17 07:14:51,11,0,16.503,5545.9403464333,196.522316,0.447388,1.18785436872,0,0,-11.1847,288.4, -3.1, -3.8,0,0,1024,1024,1684,1024,288.5,-26.7,99,4.145,4.154,4.149,4.15,0,0,17.082,85.91,6,P-GPS,
0.375910575215865,36.9254487521107,5547.5807664333,198.162736,0,0.56319227524,17500,2018-04-17 07:14:51,11,0,16.503,5547.5807664333,198.162736,0.447388,1.18785436872,0,0,-10.961006,288.5, -3.4, -3.3,0,0,1024,1024,1684,1024,288.5,-26.7,99,4.145,4.154,4.149,4.15,0,0,17.082,85.91,6,P-GPS,
0.375910527582555,36.9254488077147,5549.2211864333,199.803156,0,0.57503938848,17600,2018-04-17 07:14:52,11,0,16.503,5549.2211864333,199.803156,0.447388,1.18785436872,0,0,-10.961006,288.4, -2.9, -2.8,0,0,1024,1024,1684,1024,288.5,-26.7,99,4.145,4.154,4.149,4.15,0,0,17.082,85.91,6,P-GPS,
0.375910486544952,36.9254488429932,5550.8616064333,201.443576,0,0.58169949368,17700,2018-04-17 07:14:52,11,0,16.503,5550.8616064333,201.443576,0.447388,1.18785436872,0,0,-10.961006,288.4, -3.2, -2.8,0,0,1024,1024,1684,1024,288.5,-26.7,99,4.145,4.154,4.149,4.15,0,0,17.082,85.91,6,P-GPS,
0.375910453463723,36.9254488612892,5552.5020264333,203.083996,0,0.58399280084,17800,2018-04-17 07:14:52,11,0,16.503,5552.5020264333,203.083996,0.447388,1.18785436872,0,0,-10.961006,288.5, -3.2, -2.6,0,0,1024,1024,1684,1024,288.5,-26.7,99,4.145,4.154,4.149,4.15,0,0,17.082,85.91,6,P-GPS,
0.37591046468472,36.9254488779062,5554.1424464333,204.724416,0,0.59105316852,17900,2018-04-17 07:14:52,11,0,16.503,5554.1424464333,204.724416,0.447388,1.18785436872,0,0,-10.737312,288.6, -3.3, -3.1,0,0,1024,1024,1684,1024,288.5,-26.7,99,4.145,4.154,4.149,4.15,0,0,17.082,85.91,6,P-GPS,
0.375910507682155,36.9254488890875,5555.7828664333,206.364836,0,0.60014437616,18000,2018-04-17 07:14:52,11,0,16.503,5555.7828664333,206.364836,0.447388,1.18785436872,0,0,-10.961006,288.5, -2.7, -3.9,0,0,1024,1024,1684,1024,288.5,-26.7,99,4.145,4.154,4.149,4.15,0,0,17.082,85.91,6,P-GPS,
0.375910562227599,36.9254488967399,5557.4232864333,208.005256,0,0.60988847096,18100,2018-04-17 07:14:52,11,0,16.503,5557.4232864333,208.005256,0.447388,1.18785436872,0,0,-10.961006,288.5, -2.3, -4.2,0,0,1024,1024,1684,1024,288.5,-26.7,99,4.145,4.154,4.149,4.15,0,0,17.082,85.91,6,P-GPS,
0.375910590627968,36.9254489008879,5559.0637064333,209.645676,0,0.61521655512,18200,2018-04-17 07:14:52,11,0,16.582,5559.0637064333,209.645676,0.447388,1.18785436872,0,0,-11.1847,288.5, -2.2, -4.1,0,0,1024,1024,1684,1024,288.5,-26.7,98,4.148,4.159,4.151,4.149,0,0,16.612,85.91,6,P-GPS,
0.375910591938356,36.9254489156589,5560.7041264333,211.286096,0,0.62037731644,18300,2018-04-17 07:14:52,11,0,16.582,5560.7041264333,211.286096,0.447388,1.18785436872,0,0,-11.1847,288.5, -2, -3.2,0,0,1024,1024,1684,1024,288.5,-26.7,98,4.148,4.159,4.151,4.149,0,0,16.612,85.91,6,P-GPS,
0.375910583733034,36.9254489397506,5562.3445464333,212.926516,0,0.62737534816,18400,2018-04-17 07:14:52,11,0,16.582,5562.3445464333,212.926516,0.447388,1.18785436872,0,0,-11.1847,288.4, -2.1, -3.1,0,0,1024,1024,1684,1024,288.5,-26.7,98,4.148,4.159,4.151,4.149,0,0,16.612,85.91,6,P-GPS,
0.375910603167394,36.9254490188407,5564.3130504333,214.89502,0,0.65680120212,18500,2018-04-17 07:14:52,11,0,16.582,5564.3130504333,214.89502,0.447388,1.18785436872,0,0,-11.1847,288.4, -2.5, -3.9,0,0,1024,1024,1684,1024,288.5,-26.7,98,4.148,4.159,4.151,4.149,0,0,16.612,85.91,6,P-GPS,
0.375910631431889,36.92544910905,5565.9534704333,216.53544,0,0.69120080952,18600,2018-04-17 07:14:52,11,0,16.582,5565.9534704333,216.53544,0.447388,1.18785436872,0,0,-11.1847,288.5, -2.8, -4.4,0,0,1024,1024,1684,1024,288.5,-26.7,98,4.148,4.159,4.151,4.149,0,0,16.612,85.91,6,P-GPS,
0.37591065751488,36.9254492436602,5567.5938904333,218.17586,0,0.74045606044,18700,2018-04-17 07:14:52,11,0,16.582,5567.5938904333,218.17586,0.447388,1.18785436872,0,0,-11.1847,288.5, -3.3, -4.4,0,0,1024,1024,1684,1024,288.5,-26.7,98,4.148,4.159,4.151,4.149,0,0,16.612,85.91,6,P-GPS,
0.37591069024233,36.9254493619508,5569.2343104333,219.81628,0,0.7850557994,18800,2018-04-17 07:14:53,11,0,16.582,5569.2343104333,219.81628,0.447388,1.18785436872,0,0,-11.1847,288.6, -3.3, -4.7,0,0,1024,1024,1684,1024,288.5,-26.7,98,4.148,4.159,4.151,4.149,0,0,16.612,85.91,6,P-GPS,
0.375910739033667,36.9254494877471,5570.8747304333,221.4567,0,0.83428152276,18900,2018-04-17 07:14:53,11,0,16.582,5570.8747304333,221.4567,0.447388,1.18785436872,0,0,-11.1847,288.6, -3, -5,0,0,1024,1024,1684,1024,288.5,-26.7,98,4.148,4.159,4.151,4.149,0,0,16.612,85.91,6,P-GPS,
0.375910786265362,36.9254495799842,5572.5151504333,223.09712,0,0.87184385992,19000,2018-04-17 07:14:53,11,0,16.582,5572.5151504333,223.09712,0.447388,1.18785436872,0,0,-10.961006,288.6, -3.3, -5.4,0,0,1024,1024,1684,1024,288.5,-26.7,98,4.148,4.159,4.151,4.149,0,0,16.612,85.91,6,P-GPS,
0.375910824413087,36.9254496491716,5574.1555704333,224.73754,0,0.90038716792,19100,2018-04-17 07:14:53,11,0,16.582,5574.1555704333,224.73754,0.447388,1.18785436872,0,0,-10.961006,288.6, -3.4, -5.2,0,0,1024,1024,1684,1024,288.5,-26.7,98,4.148,4.159,4.151,4.149,0,0,16.612,85.91,6,P-GPS,
0.375910841655358,36.9254496599986,5575.7959904333,226.37796,0,0.90634189252,19200,2018-04-17 07:14:53,11,0,16.503,5575.7959904333,226.37796,0.447388,1.18785436872,0,0,-10.737312,288.6, -2.7, -4.7,0,0,1024,1024,1684,1024,288.5,-26.7,98,4.144,4.154,4.144,4.142,0,0,17.016,85.91,6,P-GPS,
0.375910814565276,36.9254496532143,5579.0768304333,229.6588,0,0.90048559312,19400,2018-04-17 07:14:53,11,0,16.503,5579.0768304333,229.6588,0.447388,1.18785436872,0,0,-11.1847,288.4, -2, -4.1,0,0,1024,1024,1684,1024,288.5,-26.7,98,4.144,4.154,4.144,4.142,0,0,17.016,85.91,6,P-GPS,
0.375910854466428,36.9254498204817,5582.3576704333,232.93964,0,0.96274281296,19600,2018-04-17 07:14:54,11,0,16.503,5582.3576704333,232.93964,0.447388,1.18785436872,0,0,-11.1847,288.5, -3.3, -4.9,0,0,1024,1024,1684,1024,288.5,-26.7,98,4.144,4.154,4.144,4.142,0,0,17.016,85.91,6,P-GPS,
0.37591093595397,36.925449995645,5585.9665944333,236.548564,0,1.03300856324,19800,2018-04-17 07:14:54,11,0,16.503,5585.9665944333,236.548564,0.447388,1.18785436872,0,0,-11.1847,288.5, -3.2, -5.3,0,0,1024,1024,1684,1024,288.5,-26.7,98,4.144,4.154,4.144,4.142,0,0,17.016,85.91,6,P-GPS,
0.375911041595406,36.9254501363835,5589.2474344333,239.829404,0,1.09478021876,20000,2018-04-17 07:14:54,11,0,16.503,5589.2474344333,239.829404,0.447388,1.18785436872,0,0,-11.1847,288.5, -2.8, -5.3,0,0,1024,1024,1684,1024,288.5,-26.7,98,4.144,4.154,4.144,4.142,0,0,17.016,85.91,6,P-GPS,
0.375911103572967,36.9254502043233,5590.8878544333,241.469824,0,1.12620082344,20100,2018-04-17 07:14:54,11,0,16.503,5590.8878544333,241.469824,0.447388,1.18785436872,0,0,-10.961006,288.4, -2.9, -5.8,0,0,1024,1024,1684,1024,288.5,-26.7,98,4.144,4.154,4.144,4.142,0,0,17.016,85.91,6,P-GPS,
0.375911149948406,36.9254502365172,5592.5282744333,243.110244,0,1.14351381612,20200,2018-04-17 07:14:54,11,0,16.503,5592.5282744333,243.110244,0.447388,1.18785436872,0,0,-10.961006,288.4, -2.5, -5.7,0,0,1024,1024,1684,1024,288.5,-26.7,98,4.144,4.154,4.144,4.142,0,0,17.016,85.91,6,P-GPS,
0.375911218974279,36.9254502931208,5594.1686944333,244.750664,0,1.17238520812,20300,2018-04-17 07:14:54,11,0,16.503,5594.1686944333,244.750664,0.447388,1.18785436872,0,0,-11.1847,288.4, -2.7, -5.7,0,0,1024,1024,1684,1024,288.5,-26.7,98,4.144,4.154,4.144,4.142,0,0,17.016,85.91,6,P-GPS,
0.375911285974979,36.9254503459145,5595.8091144333,246.391084,0,1.19987536648,20400,2018-04-17 07:14:54,11,0,16.503,5595.8091144333,246.391084,0.447388,1.19987536648,0,0,-11.1847,288.5, -3, -6.1,0,0,1024,1024,1684,1024,288.5,-26.7,98,4.144,4.154,4.144,4.142,0,0,17.016,85.91,6,P-GPS,
0.375911340386789,36.9254504213064,5597.4495344333,248.031504,0,1.23311683736,20500,2018-04-17 07:14:54,11,0,16.503,5597.4495344333,248.031504,0.447388,1.23311683736,0,0,-11.1847,288.6, -2.8, -6,0,0,1024,1024,1684,1024,288.5,-26.7,98,4.144,4.154,4.144,4.142,0,0,17.016,85.91,6,P-GPS,
0.375911355079629,36.925450482288,5599.0899544333,249.671924,0,1.2555938722,20600,2018-04-17 07:14:54,11,0,16.503,5599.0899544333,249.671924,0.447388,1.2555938722,0,0,-11.1847,288.5, -2.7, -5.3,0,0,1024,1024,1684,1024,288.5,-26.7,98,4.144,4.154,4.144,4.142,0,0,17.016,85.91,6,P-GPS,
0.375911380195528,36.9254505760037,5601.0584584333,251.640428,0,1.29054137988,20700,2018-04-17 07:14:55,11,0,16.503,5601.0584584333,251.640428,0.447388,1.29054137988,0,0,-11.408394,288.4, -3.3, -6.2,0,0,1024,1024,1634,1024,288.5,-26.7,98,4.144,4.154,4.144,4.142,0,0,17.016,85.91,6,P-GPS,
0.375911402323435,36.9254506571831,5602.6988784333,253.280848,0,1.32088914988,20800,2018-04-17 07:14:55,11,0,16.503,5602.6988784333,253.280848,0.447388,1.32088914988,0,0,-10.961006,288.6, -4, -7.3,0,0,1024,1024,1571,1024,288.5,-26.7,98,4.144,4.154,4.144,4.142,0,0,17.016,85.91,6,P-GPS,
0.375911400755244,36.9254507245786,5604.3392984333,254.921268,0,1.3431923002,20900,2018-04-17 07:14:55,11,0,16.503,5604.3392984333,254.921268,0.447388,1.3431923002,0,0,-10.737312,288.5, -3.4, -6.9,0,0,1024,1024,1419,1024,288.5,-26.7,98,4.144,4.154,4.144,4.142,0,0,17.016,85.91,6,P-GPS,
0.375911342693887,36.9254507528352,5605.6516344333,256.233604,0.223694,1.34445870444,21000,2018-04-17 07:14:55,11,0,16.503,5605.6516344333,256.233604,0.447388,1.34445870444,-0.223694,0,-10.06623,288.7, -4.3, -5.8,0,0,1024,1024,1354,1024,288.5,-26.7,98,4.144,4.154,4.144,4.142,0,0,17.016,85.91,6,P-GPS,
0.375911271299035,36.9254507841108,5607.2920544333,257.874024,0.223694,1.34539374384,21100,2018-04-17 07:14:55,11,0,16.555,5607.2920544333,257.874024,0.447388,1.34539374384,-0.223694,0,-9.171454,288.8, -5.1, -5.1,0,0,1024,1024,1061,1024,288.5,-26.7,98,4.143,4.151,4.145,4.144,0,0,16.586,85.91,6,P-GPS,
0.375911142233042,36.9254508406689,5609.2605584333,259.842528,0.223694,1.34861552872,21300,2018-04-17 07:14:55,11,0,16.555,5609.2605584333,259.842528,0.447388,1.34861552872,-0.223694,0,-6.263432,288.8, -5.2, -4.8,0,0,1024,1024,1104,1024,288.5,-26.7,98,4.143,4.151,4.145,4.144,0,0,16.586,85.91,6,P-GPS,
0.375911091200457,36.925450883944,5609.9167264333,260.498696,0,1.35768048964,21400,2018-04-17 07:14:55,11,0,16.555,5609.9167264333,260.498696,0.447388,1.35768048964,0,0,-4.47388,288.8, -5, -4.4,0,0,1024,1024,1110,1024,288.5,-26.7,98,4.143,4.151,4.145,4.144,0,0,16.586,85.91,6,P-GPS,
0.375911056940234,36.9254509537419,5610.2448104333,260.82678,0,1.37817261628,21500,2018-04-17 07:14:55,11,0,16.555,5610.2448104333,260.82678,0.447388,1.37817261628,0,0,-2.908022,288.8, -4.8, -4.8,0,0,1024,1024,1110,1024,288.5,-26.7,98,4.143,4.151,4.145,4.144,0,0,16.586,85.91,6,P-GPS,
0.375911016172546,36.925450999003,5610.5728944333,261.154864,0,1.38967852216,21600,2018-04-17 07:14:56,11,0,16.555,5610.5728944333,261.154864,0.447388,1.38967852216,0,0,-2.013246,288.6, -3.6, -3.6,0,0,1024,1024,1080,1024,288.5,-26.7,98,4.143,4.151,4.145,4.144,0,0,16.586,85.91,6,P-GPS,
0.375911019920206,36.9254510759449,5610.9009784333,261.482948,0,1.41700791936,21700,2018-04-17 07:14:56,11,0,16.555,5610.9009784333,261.482948,0.447388,1.41700791936,0,0,-1.342164,288.5, -2.9, -3.6,0,0,1024,1024,1024,1024,288.5,-26.7,98,4.143,4.151,4.145,4.144,0,0,16.586,85.91,6,P-GPS,
0.37591104745984,36.9254511731128,5610.9009784333,261.482948,0,1.4538550334,21800,2018-04-17 07:14:56,11,0,16.555,5610.9009784333,261.482948,0.447388,1.4538550334,0,0,-0.894776,288.5, -3.3, -4.5,0,0,1024,1024,1024,1024,288.5,-26.7,98,4.143,4.151,4.145,4.144,0,0,16.586,85.91,6,P-GPS,
0.375911093997716,36.9254513253045,5610.9009784333,261.482948,0,1.51191277804,21900,2018-04-17 07:14:56,11,0,16.555,5610.9009784333,261.482948,0.447388,1.51191277804,0,0,-0.223694,288.5, -3.6, -4.8,0,0,1024,1024,1024,1024,288.5,-26.7,98,4.143,4.151,4.145,4.144,0,0,16.586,85.91,6,P-GPS,
0.375911120173732,36.9254514752016,5610.9009784333,261.482948,0,1.5671096302,22000,2018-04-17 07:14:56,11,0,16.555,5610.9009784333,261.482948,0.447388,1.5671096302,0,0,-0.223694,288.5, -4, -4.7,0,0,1024,1024,1024,1024,288.5,-26.7,98,4.143,4.151,4.145,4.144,0,0,16.586,85.91,6,P-GPS,
0.375911142422959,36.9254516666418,5610.9009784333,261.482948,0.223694,1.63653876628,22100,2018-04-17 07:14:56,11,0,16.555,5610.9009784333,261.482948,0.447388,1.63653876628,0,0.223694,-0.223694,288.4, -4.7, -4.8,0,0,1024,1024,1072,1024,288.5,-26.7,98,4.143,4.151,4.145,4.144,0,0,16.586,85.91,6,P-GPS,
0.375911147627263,36.9254518395694,5611.2290624333,261.811032,0.223694,1.69789703596,22200,2018-04-17 07:14:56,11,0,16.398,5611.2290624333,261.811032,0.447388,1.69789703596,0,0.223694,-0.223694,288.5, -5.4, -4.9,0,0,1024,1024,1111,1024,288.4,-26.7,98,4.143,4.151,4.145,4.144,0,0,16.586,85.91,6,P-GPS,
0.375911108369549,36.9254521362283,5611.2290624333,261.811032,0,1.79919297096,22400,2018-04-17 07:14:56,11,0,16.398,5611.2290624333,261.811032,0.447388,1.79919297096,0,0,-0.447388,288.5, -5.8, -5.1,0,0,1024,1024,1177,1024,288.4,-26.7,98,4.143,4.151,4.145,4.144,0,0,16.586,85.91,6,P-GPS,
0.375911074466973,36.9254522958196,5611.5571464333,262.139116,0,1.85300858948,22600,2018-04-17 07:14:57,11,0,16.398,5611.5571464333,262.139116,0.447388,1.85300858948,0,0,-0.894776,288.4, -6.2, -4.8,0,0,1024,1024,1200,1024,288.4,-26.7,98,4.143,4.151,4.145,4.144,0,0,16.586,85.91,6,P-GPS,
