latitude,longitude,altitude(feet),ascent(feet),speed(mph),distance(feet),time(millisecond),datetime(utc),satellites,voltage(v),max_altitude(feet),max_ascent(feet),max_speed(mph),max_distance(feet),compass_heading(degrees), pitch(degrees), roll(degrees),isPhoto,isVideo,rc_elevator,rc_aileron,rc_throttle,rc_rudder,gimbal_heading(degrees),gimbal_pitch(degrees),battery_percent,voltageCell1,voltageCell2,voltageCell3,voltageCell4,voltageCell5,voltageCell6,battery_temperature(f),flycStateRaw,flycState,message
0.350066444601887,36.9146630558945,5413.7564560486,0,0,0,0,2017-11-12 06:38:27,10,0,5413.7564560486,0,0,0,5.3, 0.3, 7.3,0,0,1024,1024,1024,1024,9.8,0,99,4.299,4.298,4.301,4.301,0,0,85.91,41,Motors_Started,
0.350066446078479,36.9146630730479,5413.7564560486,0,0,0.0062814306472,100,2017-11-12 06:38:27,10,0,5413.7564560486,0,0,0.0062814306472,5.3, 0.3, 7.3,0,0,1024,1024,1024,1024,9.8,0,99,4.299,4.298,4.301,4.301,0,0,85.91,41,Motors_Started,
0.35006644749034,36.9146631017516,5413.7564560486,0,0,0.016763780064,200,2017-11-12 06:38:27,10,0,5413.7564560486,0,0,0.016763780064,5.4, 0.3, 7.3,0,0,1024,1024,1024,1024,9.8,0,99,4.299,4.298,4.301,4.301,0,0,85.91,41,Motors_Started,
0.350066465189083,36.9146631336432,5413.7564560486,0,0,0.029343668918,300,2017-11-12 06:38:27,10,0,5413.7564560486,0,0,0.029343668918,5.3, 0.4, 7.3,0,0,1024,1024,1024,1024,9.8,0,99,4.299,4.298,4.301,4.301,0,0,85.91,41,Motors_Started,
0.350066497629316,36.9146631535352,5413.7564560486,0,0,0.04053805904,400,2017-11-12 06:38:27,10,0,5413.7564560486,0,0,0.04053805904,5.4, 0.4, 7.3,0,0,1024,1024,1024,1024,9.8,0,99,4.299,4.298,4.301,4.301,0,0,85.91,41,Motors_Started,
0.350066526141335,36.9146631686974,5413.7564560486,0,0,0.050781825772,500,2017-11-12 06:38:28,10,0,5413.7564560486,0,0,0.050781825772,5.3, 0.4, 7.3,0,0,1024,1024,1024,1024,9.8,0,99,4.299,4.298,4.301,4.301,0,0,85.91,41,Motors_Started,
0.350066543709803,36.9146631787217,5413.7564560486,0,0,0.05758202284,600,2017-11-12 06:38:28,10,17.162,5413.7564560486,0,0,0.05758202284,5.4, 0.4, 7.3,0,0,1024,1024,1024,1024,9.8,0,99,4.299,4.298,4.301,4.301,0,0,85.91,41,Motors_Started,Setting new Return-To-Home altitude to 30m (98 ft). Setting new Maximum Flight Altitude to 120m (394 ft)
0.350066559193863,36.9146631851109,5413.7564560486,0,0,0.06301181304,700,2017-11-12 06:38:28,10,17.162,5413.7564560486,0,0,0.06301181304,5.3, 0.4, 7.3,0,0,1024,1024,1024,1024,9.8,0,99,4.299,4.298,4.301,4.301,0,0,85.91,41,Motors_Started,
0.350066572617534,36.9146631893456,5413.7564560486,0,0,0.067469162264,900,2017-11-12 06:38:28,10,17.162,5413.7564560486,0,0,0.067469162264,5.4, 0.4, 7.3,0,0,1024,1024,1024,1024,9.8,0,99,4.299,4.298,4.301,4.301,0,0,85.91,41,Motors_Started,
0.350066574005782,36.9146631898792,5413.7564560486,0,0,0.067960632096,1000,2017-11-12 06:38:28,10,17.162,5413.7564560486,0,0,0.067960632096,5.4, 0.5, 7.4,0,0,1024,1024,1024,1024,9.8,0,99,4.299,4.298,4.301,4.301,0,0,85.91,41,Motors_Started,
0.350066571374624,36.9146631875985,5413.7564560486,0,0,0.066695212108,1100,2017-11-12 06:38:28,10,17.162,5413.7564560486,0,0,0.067960632096,5.4, 0.4, 7.3,0,0,364,369,364,1684,9.8,0,99,4.299,4.298,4.301,4.301,0,0,85.91,41,Motors_Started,
0.350066570797748,36.91466318462,5413.7564560486,0,0,0.065769030976,1200,2017-11-12 06:38:28,10,17.162,5413.7564560486,0,0,0.067960632096,5.3, 0.4, 7.3,0,0,655,602,585,1559,9.8,0,99,4.299,4.298,4.301,4.301,0,0,85.91,41,Motors_Started,
0.350066565519147,36.9146631802505,5413.7564560486,0,0,0.063283138508,1300,2017-11-12 06:38:28,10,17.162,5413.7564560486,0,0,0.067960632096,5.4, 0.4, 7.4,0,0,932,870,937,1211,9.8,0,99,4.299,4.298,4.301,4.301,0,0,85.91,41,Motors_Started,
0.350066562793945,36.9146631768169,5413.7564560486,0,0,0.061691931108,1400,2017-11-12 06:38:28,10,17.162,5413.7564560486,0,0,0.067960632096,5.4, 0.4, 7.4,0,0,1024,1024,1024,1024,8,0,99,4.299,4.298,4.301,4.301,0,0,85.91,41,Motors_Started,
0.350066556228874,36.9146631736308,5413.7564560486,0,0,0.059193243364,1500,2017-11-12 06:38:28,10,17.162,5413.7564560486,0,0,0.067960632096,5.4, 0.5, 7.4,0,0,1024,1024,1024,1024,7.1,0,99,4.299,4.298,4.301,4.301,0,0,85.91,41,Motors_Started,
0.350066554903727,36.9146631686386,5413.7564560486,0,0,0.0575459336,1600,2017-11-12 06:38:29,10,17.162,5413.7564560486,0,0,0.067960632096,5.4, 0.4, 7.3,0,0,1024,1024,1024,1024,6.6,0,99,4.299,4.298,4.301,4.301,0,0,85.91,10,Assisted_Takeoff,
0.350066570367431,36.9146631637945,5413.7564560486,0,0,0.060458335268,1700,2017-11-12 06:38:29,10,17.162,5413.7564560486,0,0,0.067960632096,5.3, 0.4, 7.3,0,0,1024,1024,1024,1024,6.4,0,99,4.299,4.298,4.301,4.301,0,0,85.91,10,Assisted_Takeoff,
0.350066598387253,36.9146631610458,5413.7564560486,0,0,0.067970146532,1800,2017-11-12 06:38:29,10,17.162,5413.7564560486,0,0,0.067970146532,5.3, 0.4, 7.3,0,0,1024,1024,1024,1024,6.2,0,99,4.299,4.298,4.301,4.301,0,0,85.91,10,Assisted_Takeoff,
0.350066627956539,36.9146631582647,5413.7564560486,0,0,0.076616800352,1900,2017-11-12 06:38:29,10,17.162,5413.7564560486,0,0,0.076616800352,5.3, 0.4, 7.3,0,0,1024,1024,1024,1024,6.1,0,99,4.299,4.298,4.301,4.301,0,0,85.91,10,Assisted_Takeoff,
0.350066644227544,36.914663157448,5413.7564560486,0,0,0.08171588188,2000,2017-11-12 06:38:29,10,17.162,5413.7564560486,0,0,0.08171588188,5.3, 0.4, 7.3,0,0,1024,1024,1024,1024,6.1,0,99,4.299,4.298,4.301,4.301,0,0,85.91,10,Assisted_Takeoff,
0.350066658009066,36.9146631574872,5413.7564560486,0,0,0.08623359856,2100,2017-11-12 06:38:29,10,17.162,5413.7564560486,0,0,0.08623359856,5.3, 0.4, 7.3,0,0,1024,1024,1024,1024,6,0,99,4.299,4.298,4.301,4.301,0,0,85.91,10,Assisted_Takeoff,
0.350066666948409,36.9146631572641,5413.7564560486,0,0,0.089155842748,2200,2017-11-12 06:38:29,10,17.162,5413.7564560486,0,0,0.089155842748,5.3, 0.4, 7.3,0,0,1024,1024,1029,1024,5.9,0,99,4.299,4.298,4.301,4.301,0,0,85.91,10,Assisted_Takeoff,
0.350066671655834,36.9146631584003,5413.7564560486,0,0,0.090891079024,2300,2017-11-12 06:38:29,10,17.162,5413.7564560486,0,0,0.090891079024,5.3, 0.4, 7.3,0,0,1024,1024,1056,1024,5.9,0,99,4.299,4.298,4.301,4.301,0,0,85.91,10,Assisted_Takeoff,
0.35006667533856,36.9146631583293,5413.7564560486,0,0,0.092106958328,2400,2017-11-12 06:38:29,10,17.162,5413.7564560486,0,0,0.092106958328,5.3, 0.4, 7.3,0,0,1024,1024,1081,1024,5.8,0,99,4.299,4.298,4.301,4.301,0,0,85.91,10,Assisted_Takeoff,
0.350066692122118,36.9146631592248,5413.7564560486,0,0,0.097860567436,2500,2017-11-12 06:38:30,10,17.162,5413.7564560486,0,0,0.097860567436,5.3, 0.4, 7.3,0,0,1024,1024,1102,1024,5.8,0,99,4.299,4.298,4.301,4.301,0,0,85.91,10,Assisted_Takeoff,
0.350066721473193,36.9146631597966,5413.7564560486,0,0,0.107895016576,2600,2017-11-12 06:38:30,10,17,5413.7564560486,0,0,0.107895016576,5.3, 0.4, 7.3,0,0,1024,1024,1108,1024,5.8,0,99,4.281,4.276,4.271,4.285,0,0,85.91,10,Assisted_Takeoff,
0.35006674864663,36.9146631437291,5413.7564560486,0,0,0.115466539128,2700,2017-11-12 06:38:30,10,17,5413.7564560486,0,0,0.115466539128,5.3, 0.4, 7.3,0,0,1024,1024,1108,1024,5.7,0,99,4.281,4.276,4.271,4.285,0,0,85.91,10,Assisted_Takeoff,
0.350066764477142,36.9146631144851,5413.7564560486,0,0,0.118647969676,2800,2017-11-12 06:38:30,10,17,5413.7564560486,0,0,0.118647969676,5.3, 0.4, 7.3,0,0,1024,1024,1135,1024,5.7,0,99,4.281,4.276,4.271,4.285,0,0,85.91,10,Assisted_Takeoff,
0.350066756192026,36.9146630837219,5413.7564560486,0,0,0.114135830424,2900,2017-11-12 06:38:30,10,17,5413.7564560486,0,0,0.118647969676,5.3, 0.4, 7.3,0,0,1024,1024,1220,1024,5.7,0,99,4.281,4.276,4.271,4.285,0,0,85.91,10,Assisted_Takeoff,
0.35006673248066,36.9146630654098,5413.7564560486,0,0,0.105089898376,3000,2017-11-12 06:38:30,10,17,5413.7564560486,0,0,0.118647969676,5.4, 0.5, 7.3,0,0,1024,1024,1360,1024,5.7,0,99,4.281,4.276,4.271,4.285,0,0,85.91,10,Assisted_Takeoff,
0.350066716937976,36.9146630503503,5413.7564560486,0,0,0.099382221028,3100,2017-11-12 06:38:30,10,17,5413.7564560486,0,0,0.118647969676,5.4, 0.5, 7.3,0,0,1024,1024,1358,1024,5.7,0,99,4.281,4.276,4.271,4.285,0,0,85.91,10,Assisted_Takeoff,
0.35006672556303,36.9146630515849,5413.7564560486,0,0,0.102520672572,3200,2017-11-12 06:38:30,10,17,5413.7564560486,0,0,0.118647969676,5.8, 0.3, 6.7,0,0,1024,1024,1366,1024,5.7,0,99,4.281,4.276,4.271,4.285,0,0,85.91,10,Assisted_Takeoff,
0.350066726744059,36.9146631180007,5413.7564560486,0,0.223694,0.105403874764,3300,2017-11-12 06:38:30,10,17,5413.7564560486,0,0.223694,0.118647969676,5.9, 0.8, 3.2,0,0,1024,1024,1401,1024,5.7,0,99,4.281,4.276,4.271,4.285,0,0,85.91,10,Assisted_Takeoff,
0.350066711518107,36.9146632479417,5413.7564560486,0,0.223694,0.119971132448,3400,2017-11-12 06:38:30,10,17,5413.7564560486,0,0.223694,0.119971132448,5.8, 1.2, 0,0,0,1024,1024,1444,1024,5.7,0,99,4.281,4.276,4.271,4.285,0,0,85.91,6,GPS_Atti,
0.35006666212333,36.9146633880791,5413.7564560486,0,0,0.144867786788,3500,2017-11-12 06:38:31,9,17,5413.7564560486,0,0.223694,0.144867786788,5.9, 0.6, -0.8,0,0,1024,1024,1481,1024,5.7,0,99,4.281,4.276,4.271,4.285,0,0,85.91,6,GPS_Atti,
0.350066592243948,36.9146635006694,5413.7564560486,0,0,0.170979992348,3600,2017-11-12 06:38:31,9,17.162,5413.7564560486,0,0.223694,0.170979992348,5.9, 0.3, -0.8,0,0,1024,1024,1553,1024,5.7,0,99,4.29,4.276,4.29,4.293,0,0,85.91,6,GPS_Atti,
0.35006652222737,36.9146635691974,5414.0845400486,0.328084,0,0.189404205536,3700,2017-11-12 06:38:31,9,17.162,5414.0845400486,0.328084,0.223694,0.189404205536,5.8, 0.3, -0.5,0,0,1024,1024,1603,1024,5.7,0,99,4.29,4.276,4.29,4.293,0,0,85.91,6,GPS_Atti,Home Point Recorded. RTH Altitude:  30m.
0.350066470729864,36.9146635700484,5414.4126240486,0.656168,0,0.187827433832,3800,2017-11-12 06:38:31,9,17.162,5414.4126240486,0.656168,0.223694,0.189404205536,6, -0.4, -0.3,0,0,1024,1024,1641,1024,5.7,0,99,4.29,4.276,4.29,4.293,0,0,85.91,6,GPS_Atti,
0.350066440531999,36.914663512994,5415.0687920486,1.312336,0,0.166775923972,3900,2017-11-12 06:38:31,9,17.162,5415.0687920486,1.312336,0.223694,0.189404205536,6.1, -1.2, 0.2,0,0,1024,1024,1684,1024,5.7,0,99,4.29,4.276,4.29,4.293,0,0,85.91,6,GPS_Atti,
0.350066477449638,36.9146634085613,5415.7249600486,1.968504,0,0.129224741668,4000,2017-11-12 06:38:31,9,17.162,5415.7249600486,1.968504,0.223694,0.189404205536,6, -0.3, 0.8,0,0,1024,1024,1684,1024,5.7,0,99,4.29,4.276,4.29,4.293,0,0,85.91,6,GPS_Atti,
0.35006656013836,36.914663267385,5416.7092120486,2.952756,0.223694,0.087924215412,4100,2017-11-12 06:38:31,9,17.162,5416.7092120486,2.952756,0.223694,0.189404205536,6, 1.2, 2.1,0,0,1024,1024,1684,1024,5.7,0,99,4.29,4.276,4.29,4.293,0,0,85.91,6,GPS_Atti,
0.350066656176252,36.9146631402323,5417.6934640486,3.937008,0.223694,0.083099412108,4200,2017-11-12 06:38:31,9,17.162,5417.6934640486,3.937008,0.223694,0.189404205536,5.9, 2.7, 2.1,0,0,1024,1024,1684,1024,5.7,0,99,4.29,4.276,4.29,4.293,0,0,85.91,6,GPS_Atti,
0.350066704391629,36.9146630527255,5419.0058000486,5.249344,0,0.094791341616,4300,2017-11-12 06:38:31,11,17.162,5419.0058000486,5.249344,0.223694,0.189404205536,5.7, 2.8, 0.6,0,0,1024,1024,1684,1024,5.7,0,99,4.29,4.276,4.29,4.293,0,0,85.91,6,GPS_Atti,
0.350066684812033,36.9146629813238,5420.3181360486,6.56168,0,0.091766407136,4400,2017-11-12 06:38:31,11,17.162,5420.3181360486,6.56168,0.223694,0.189404205536,5.7, 1.7, 0.4,0,0,1024,1024,1684,1024,5.7,0,99,4.29,4.276,4.29,4.293,0,0,85.91,6,GPS_Atti,
0.350066608727465,36.9146628444367,5421.9585560486,8.2021,0,0.097661092364,4500,2017-11-12 06:38:31,12,17.162,5421.9585560486,8.2021,0.223694,0.189404205536,5.7, 0.5, 1.1,0,0,1024,1024,1684,1024,5.7,0,99,4.29,4.276,4.29,4.293,0,0,85.91,6,GPS_Atti,
0.350066514821614,36.9146626572445,5423.5989760486,9.84252,0,0.14768373176,4600,2017-11-12 06:38:32,12,16.73,5423.5989760486,9.84252,0.223694,0.189404205536,5.7, -0.1, 2.3,0,0,1024,1024,1684,1024,5.7,0,99,4.29,4.276,4.29,4.293,0,0,85.91,6,GPS_Atti,
0.350066421071279,36.9146624260439,5425.2393960486,11.48294,0,0.229956700272,4700,2017-11-12 06:38:32,12,16.73,5425.2393960486,11.48294,0.223694,0.229956700272,5.7, -0.2, 3.1,0,0,1024,1024,1684,1024,5.7,0,99,4.29,4.276,4.29,4.293,0,0,85.91,6,GPS_Atti,
0.35006634510803,36.9146621966083,5426.8798160486,13.12336,0,0.31559876338,4800,2017-11-12 06:38:32,12,16.73,5426.8798160486,13.12336,0.223694,0.31559876338,5.8, -0.2, 2.6,0,0,1024,1024,1684,1024,5.7,0,99,4.29,4.276,4.29,4.293,0,0,85.91,6,GPS_Atti,
0.350066280097696,36.9146619131145,5428.5202360486,14.76378,0,0.42123360928,4900,2017-11-12 06:38:32,12,16.73,5428.5202360486,14.76378,0.223694,0.42123360928,5.9, -0.5, 2,0,0,1024,1024,1684,1027,5.7,0,99,4.29,4.276,4.29,4.293,0,0,85.91,6,GPS_Atti,
0.350066290664669,36.9146612248576,5431.8010760486,18.04462,0,0.67039700308,5100,2017-11-12 06:38:32,12,16.73,5431.8010760486,18.04462,0.223694,0.67039700308,5.9, 0.1, 1.3,0,0,1024,1024,1684,1024,5.7,0,99,4.29,4.276,4.29,4.293,0,0,85.91,6,GPS_Atti,
0.350066376652212,36.9146608593602,5433.4414960486,19.68504,0,0.8017716792,5200,2017-11-12 06:38:32,12,16.73,5433.4414960486,19.68504,0.223694,0.8017716792,5.8, -0.3, 1.7,0,0,1024,1024,1684,1024,5.7,0,99,4.29,4.276,4.29,4.293,0,0,85.91,6,GPS_Atti,
0.350066522362938,36.9146604061635,5435.0819160486,21.32546,0,0.96715226192,5300,2017-11-12 06:38:32,12,16.73,5435.0819160486,21.32546,0.223694,0.96715226192,5.7, -0.9, 2.3,0,0,1024,1024,1684,1111,5.7,0,99,4.29,4.276,4.29,4.293,0,0,85.91,6,GPS_Atti,
0.350066840674886,36.9146596942101,5438.3627560486,24.6063,0,1.23497051196,5500,2017-11-12 06:38:33,12,16.73,5438.3627560486,24.6063,0.223694,1.23497051196,5.9, 0.9, 0.7,0,0,1024,1024,1684,1024,5.8,0,99,4.29,4.276,4.29,4.293,0,0,85.91,6,GPS_Atti,
0.350066989907122,36.9146594303145,5440.0031760486,26.24672,0,1.33764439976,5600,2017-11-12 06:38:33,12,16.406,5440.0031760486,26.24672,0.223694,1.33764439976,6.5, 2.5, -0.2,0,0,1024,1024,1684,1026,6.1,0,99,4.15,4.152,4.135,4.147,0,0,85.91,6,GPS_Atti,
0.350067133008063,36.914659132948,5441.3155120486,27.559056,0,1.45312996776,5700,2017-11-12 06:38:33,12,16.406,5441.3155120486,27.559056,0.223694,1.45312996776,7.1, 1.6, 0.8,0,0,1024,1024,1684,1024,6.1,0,99,4.15,4.152,4.135,4.147,0,0,85.91,6,GPS_Atti,
0.350067363371008,36.9146585904765,5444.5963520486,30.839896,0.223694,1.663303859,5900,2017-11-12 06:38:33,12,16.406,5444.5963520486,30.839896,0.223694,1.663303859,7, -0.2, 1.7,0,0,1024,1024,1684,1024,6.1,0,99,4.15,4.152,4.135,4.147,0,0,85.91,6,GPS_Atti,
0.350067501151009,36.9146583177994,5446.2367720486,32.480316,0.31540854,1.77111882308,6000,2017-11-12 06:38:33,12,16.406,5446.2367720486,32.480316,0.31540854,1.77111882308,6.9, 0.3, 2.8,0,0,1024,1024,1684,1024,6.1,0,99,4.15,4.152,4.135,4.147,0,0,85.91,6,GPS_Atti,
0.35006767091426,36.9146580758223,5447.8771920486,34.120736,0.31540854,1.87122053232,6100,2017-11-12 06:38:33,12,16.406,5447.8771920486,34.120736,0.31540854,1.87122053232,7, 1.5, 3.5,0,0,1024,1024,1684,1042,6.2,0,99,4.15,4.152,4.135,4.147,0,0,85.91,6,GPS_Atti,
0.350067857249982,36.9146578510688,5449.1895280486,35.433072,0,1.96764441992,6200,2017-11-12 06:38:33,12,16.406,5449.1895280486,35.433072,0.31540854,1.96764441992,7.1, 2.1, 3.7,0,0,1024,1024,1684,1042,6.2,-7.4,99,4.15,4.152,4.135,4.147,0,0,85.91,6,GPS_Atti,
0.350068204043822,36.9146575714835,5452.4703680486,38.713912,0,2.1013944242,6400,2017-11-12 06:38:33,12,16.406,5452.4703680486,38.713912,0.31540854,2.1013944242,7, 2, 3.7,0,0,1024,1024,1684,1052,6.2,-13.1,99,4.15,4.152,4.135,4.147,0,0,85.91,6,GPS_Atti,
0.350068385504797,36.9146575246007,5454.1107880486,40.354332,0.223694,2.13868773248,6500,2017-11-12 06:38:34,12,16.406,5454.1107880486,40.354332,0.31540854,2.13868773248,7, 2.2, 3,0,0,1024,1024,1684,1045,6.2,-18.7,99,4.15,4.152,4.135,4.147,0,0,85.91,6,GPS_Atti,
0.350068586806327,36.9146574656803,5455.4231240486,41.666668,0.223694,2.18417657908,6600,2017-11-12 06:38:34,12,16.568,5455.4231240486,41.666668,0.31540854,2.18417657908,7.1, 2.9, 2.9,0,0,1024,1024,1684,1045,6.2,-24.4,99,4.168,4.176,4.166,4.174,0,0,85.91,6,GPS_Atti,
0.350068783025279,36.9146574605173,5457.0635440486,43.307088,0.223694,2.21254272172,6700,2017-11-12 06:38:34,12,16.568,5457.0635440486,43.307088,0.31540854,2.21254272172,7.2, 3.3, 3.2,0,0,1024,1024,1684,1045,6.2,-30,99,4.168,4.176,4.166,4.174,0,0,85.91,6,GPS_Atti,
0.35006896948802,36.914657439796,5458.7039640486,44.947508,0.223694,2.24654862832,6800,2017-11-12 06:38:34,12,16.568,5458.7039640486,44.947508,0.31540854,2.24654862832,7.1, 3.5, 3.4,0,0,1024,1024,1684,1048,6.2,-30,99,4.168,4.176,4.166,4.174,0,0,85.91,6,GPS_Atti,
0.35006914376715,36.9146574708124,5460.3443840486,46.587928,0.223694,2.26316936376,6900,2017-11-12 06:38:34,12,16.568,5460.3443840486,46.587928,0.31540854,2.26316936376,7.1, 3.5, 2.7,0,0,1024,1024,1684,1052,6.3,-35.7,99,4.168,4.176,4.166,4.174,0,0,85.91,6,GPS_Atti,
0.350069312787627,36.9146574677654,5461.9848040486,48.228348,0.223694,2.29166345916,7000,2017-11-12 06:38:34,12,16.568,5461.9848040486,48.228348,0.31540854,2.29166345916,7.1, 3.8, 2.1,0,0,1024,1024,1684,1054,6.3,-41.3,99,4.168,4.176,4.166,4.174,0,0,85.91,6,GPS_Atti,
0.350069462567835,36.9146574808323,5463.6252240486,49.868768,0.223694,2.31293314488,7100,2017-11-12 06:38:34,12,16.568,5463.6252240486,49.868768,0.31540854,2.31293314488,7.2, 4.2, 2.1,0,0,1024,1024,1684,1046,6.3,-46.9,99,4.168,4.176,4.166,4.174,0,0,85.91,6,GPS_Atti,
0.350069574315835,36.9146574534684,5465.2656440486,51.509188,0.223694,2.34132881508,7200,2017-11-12 06:38:34,12,16.568,5465.2656440486,51.509188,0.31540854,2.34132881508,7.3, 3.9, 2.8,0,0,1024,1024,1684,1051,6.3,-52.6,99,4.168,4.176,4.166,4.174,0,0,85.91,6,GPS_Atti,
0.350069647987506,36.9146574434923,5466.9060640486,53.149608,0,2.35771661088,7300,2017-11-12 06:38:34,12,16.568,5466.9060640486,53.149608,0.31540854,2.35771661088,7.3, 3.5, 3.1,0,0,1024,1024,1684,1051,6.3,-58.2,99,4.168,4.176,4.166,4.174,0,0,85.91,6,GPS_Atti,
0.3500697073592,36.9146574272714,5468.5464840486,54.790028,0,2.37364836992,7400,2017-11-12 06:38:34,12,16.568,5468.5464840486,54.790028,0.31540854,2.37364836992,7.4, 3.2, 3.2,0,0,1024,1024,1684,1056,6.3,-63.8,99,4.168,4.176,4.166,4.174,0,0,85.91,6,GPS_Atti,
0.350069762161939,36.9146574331786,5470.5149880486,56.758532,0,2.38188327832,7500,2017-11-12 06:38:34,12,16.568,5470.5149880486,56.758532,0.31540854,2.38188327832,7.5, 2.8, 2.7,0,0,1024,1024,1684,1056,6.3,-63.8,99,4.168,4.176,4.166,4.174,0,0,85.91,6,GPS_Atti,
0.350069836936118,36.9146574293126,5472.1554080486,58.398952,0,2.39706700584,7600,2017-11-12 06:38:35,12,16.433,5472.1554080486,58.398952,0.31540854,2.39706700584,7.8, 2.8, 2.2,0,0,1024,1024,1684,1054,6.3,-63.8,99,4.15,4.156,4.144,4.156,0,0,85.91,6,GPS_Atti,
0.350069909880078,36.9146574137811,5473.7958280486,60.039372,0,2.41574482796,7700,2017-11-12 06:38:35,12,16.433,5473.7958280486,60.039372,0.31540854,2.41574482796,8, 2.8, 1.7,0,0,1024,1024,1684,1057,6.3,-63.8,99,4.15,4.156,4.144,4.156,0,0,85.91,6,GPS_Atti,
0.350069972263987,36.9146573730736,5475.7643320486,62.007876,0,2.4403380046,7800,2017-11-12 06:38:35,12,16.433,5475.7643320486,62.007876,0.31540854,2.4403380046,8.1, 3, 1.7,0,0,1024,1024,1684,1057,6.5,-86.5,99,4.15,4.156,4.144,4.156,0,0,85.91,6,GPS_Atti,
0.350070037467495,36.9146573156125,5477.4047520486,63.648296,0,2.47071530216,7900,2017-11-12 06:38:35,12,16.433,5477.4047520486,63.648296,0.31540854,2.47071530216,8.3, 3.5, 2.2,0,0,1024,1024,1684,1058,6.6,-89.9,99,4.15,4.156,4.144,4.156,0,0,85.91,6,GPS_Atti,
0.350070088862943,36.9146572638915,5479.3732560486,65.6168,0,2.49666674656,8000,2017-11-12 06:38:35,12,16.433,5479.3732560486,65.6168,0.31540854,2.49666674656,8.4, 3.5, 3,0,0,1024,1024,1684,1058,6.6,-89.9,99,4.15,4.156,4.144,4.156,0,0,85.91,6,GPS_Atti,
0.350070145203289,36.9146572069989,5481.0136760486,67.25722,0,2.52519036952,8100,2017-11-12 06:38:35,12,16.433,5481.0136760486,67.25722,0.31540854,2.52519036952,8.5, 3.3, 3,0,0,1024,1024,1684,1061,6.6,-89.9,99,4.15,4.156,4.144,4.156,0,0,85.91,6,GPS_Atti,
0.350070213203942,36.9146571644622,5482.9821800486,69.225724,0,2.55160113152,8200,2017-11-12 06:38:35,12,16.433,5482.9821800486,69.225724,0.31540854,2.55160113152,8.5, 2.9, 2.2,0,0,1024,1024,1684,1055,6.8,-90,99,4.15,4.156,4.144,4.156,0,0,85.91,6,GPS_Atti,
0.350070293754009,36.914657094551,5484.6226000486,70.866144,0,2.58894693324,8300,2017-11-12 06:38:35,12,16.433,5484.6226000486,70.866144,0.31540854,2.58894693324,8.5, 2.7, 2,0,0,1024,1024,1684,1058,6.8,-90,99,4.15,4.156,4.144,4.156,0,0,85.91,6,GPS_Atti,
0.350070371966199,36.9146569901926,5486.5911040486,72.834648,0,2.63641412636,8400,2017-11-12 06:38:35,12,16.433,5486.5911040486,72.834648,0.31540854,2.63641412636,8.6, 3.1, 3.1,0,0,1024,1024,1684,1060,6.9,-89.9,99,4.15,4.156,4.144,4.156,0,0,85.91,6,GPS_Atti,
0.350070476181942,36.9146568778168,5488.2315240486,74.475068,0,2.69151255332,8500,2017-11-12 06:38:36,12,16.433,5488.2315240486,74.475068,0.31540854,2.69151255332,8.7, 3.7, 4,0,0,1024,1024,1684,1060,6.9,-89.9,99,4.15,4.156,4.144,4.156,0,0,85.91,6,GPS_Atti,
0.350070571202903,36.9146568170893,5490.2000280486,76.443572,0,2.72906504796,8600,2017-11-12 06:38:36,12,16.487,5490.2000280486,76.443572,0.31540854,2.72906504796,8.8, 4, 3.8,0,0,1024,1024,1684,1050,7,-89.9,99,4.15,4.156,4.144,4.156,0,0,85.91,6,GPS_Atti,
0.350070670109617,36.914656755744,5491.8404480486,78.083992,0,2.76769693896,8700,2017-11-12 06:38:36,12,16.487,5491.8404480486,78.083992,0.31540854,2.76769693896,9, 3.9, 4.1,0,0,1024,1024,1684,1052,7,-89.9,99,4.15,4.156,4.144,4.156,0,0,85.91,6,GPS_Atti,
0.350070759578213,36.9146566934951,5493.4808680486,79.724412,0,2.80478027348,8800,2017-11-12 06:38:36,12,16.487,5493.4808680486,79.724412,0.31540854,2.80478027348,9.1, 4.1, 4.4,0,0,1024,1024,1684,1049,7.1,-89.9,99,4.15,4.156,4.144,4.156,0,0,85.91,6,GPS_Atti,
0.350070831840059,36.9146566275697,5495.4493720486,81.692916,0,2.83949484152,8900,2017-11-12 06:38:36,12,16.487,5495.4493720486,81.692916,0.31540854,2.83949484152,9.2, 4.5, 4.5,0,0,1024,1024,1684,1028,7.3,-90,99,4.15,4.156,4.144,4.156,0,0,85.91,6,GPS_Atti,
0.350070856618895,36.9146565513499,5499.0582960486,85.30184,0,2.86757227024,9100,2017-11-12 06:38:36,12,16.487,5499.0582960486,85.30184,0.31540854,2.86757227024,9.3, 3.5, 3.5,0,0,1024,1024,1684,1031,7.3,-89.9,99,4.15,4.156,4.144,4.156,0,0,85.91,6,GPS_Atti,
0.350070848989177,36.9146565687554,5500.6987160486,86.94226,0,2.86075468472,9200,2017-11-12 06:38:36,12,16.487,5500.6987160486,86.94226,0.31540854,2.86757227024,9.3, 3.8, 3.2,0,0,1024,1024,1684,1027,7.4,-89.9,99,4.15,4.156,4.144,4.156,0,0,85.91,6,GPS_Atti,
0.350070814836941,36.9146565872407,5502.3391360486,88.58268,0,2.84818250584,9300,2017-11-12 06:38:36,12,16.487,5502.3391360486,88.58268,0.31540854,2.86757227024,9.3, 3.9, 3.4,0,0,1024,1024,1684,1027,7.5,-89.9,99,4.15,4.156,4.144,4.156,0,0,85.91,6,GPS_Atti,
0.350070752838872,36.9146566125131,5503.9795560486,90.2231,0,2.82791347632,9400,2017-11-12 06:38:36,12,16.487,5503.9795560486,90.2231,0.31540854,2.86757227024,9.3, 4.1, 3.4,0,0,1024,1024,1684,1033,7.5,-89.9,99,4.15,4.156,4.144,4.156,0,0,85.91,6,GPS_Atti,
0.35007067227817,36.9146566459078,5505.6199760486,91.86352,0,2.80150271432,9500,2017-11-12 06:38:37,13,16.487,5505.6199760486,91.86352,0.31540854,2.86757227024,9.3, 3.9, 3.4,0,0,1024,1024,1684,1028,7.6,-90,99,4.15,4.156,4.144,4.156,0,0,85.91,6,GPS_Atti,
0.350070594916609,36.9146566817071,5507.5884800486,93.832024,0,2.77510835652,9600,2017-11-12 06:38:37,13,16.487,5507.5884800486,93.832024,0.31540854,2.86757227024,9.2, 3.5, 2.9,0,0,1024,1024,1684,1030,7.7,-90,99,4.151,4.158,4.147,4.16,0,0,85.91,6,GPS_Atti,
0.350070492500198,36.9146567250409,5509.2289000486,95.472444,0,2.74156504836,9700,2017-11-12 06:38:37,13,16.487,5509.2289000486,95.472444,0.31540854,2.86757227024,9.2, 3.2, 2.6,0,0,1024,1024,1684,1032,7.7,-90,99,4.151,4.158,4.147,4.16,0,0,85.91,6,GPS_Atti,
0.350070378202271,36.9146567740821,5510.8693200486,97.112864,0,2.70414378732,9800,2017-11-12 06:38:37,13,16.487,5510.8693200486,97.112864,0.31540854,2.86757227024,9.2, 3.1, 2.5,0,0,1024,1024,1684,1033,7.8,-90,99,4.151,4.158,4.147,4.16,0,0,85.91,6,GPS_Atti,
0.350070084341874,36.9146569051422,5516.1186640486,102.362208,0,2.60753945352,10100,2017-11-12 06:38:37,13,16.487,5516.1186640486,102.362208,0.31540854,2.86757227024,9.2, 3, 2.6,0,0,1024,1024,1684,1036,7.8,-90,99,4.151,4.158,4.147,4.16,0,0,85.91,6,GPS_Atti,
0.350069969258948,36.9146569430463,5517.7590840486,104.002628,0,2.57441937372,10200,2017-11-12 06:38:37,13,16.487,5517.7590840486,104.002628,0.31540854,2.86757227024,9.2, 3.2, 2.5,0,0,1024,1024,1684,1038,7.9,-89.9,99,4.151,4.158,4.147,4.16,0,0,85.91,6,GPS_Atti,
0.350069838985413,36.9146569724283,5519.3995040486,105.643048,0,2.54164050128,10300,2017-11-12 06:38:37,13,16.487,5519.3995040486,105.643048,0.31540854,2.86757227024,9.2, 3, 2.4,0,0,1024,1024,1684,1039,7.9,-90,99,4.151,4.158,4.147,4.16,0,0,85.91,6,GPS_Atti,
0.350069582099034,36.9146569866274,5522.6803440486,108.923888,0,2.49271333436,10500,2017-11-12 06:38:37,13,16.487,5522.6803440486,108.923888,0.31540854,2.86757227024,9.2, 2.6, 2.5,0,0,1024,1024,1684,1040,8,-90,99,4.151,4.158,4.147,4.16,0,0,85.91,6,GPS_Atti,
0.350069442521893,36.9146570000037,5524.3207640486,110.564308,0,2.46536753296,10600,2017-11-12 06:38:38,13,16.487,5524.3207640486,110.564308,0.31540854,2.86757227024,9.2, 2.4, 2.8,0,0,1024,1024,1684,1043,8,-90,99,4.151,4.158,4.147,4.16,0,0,85.91,6,GPS_Atti,
0.350069300594551,36.9146570277102,5526.2892680486,112.532812,0,2.4336943036,10700,2017-11-12 06:38:38,13,16.487,5526.2892680486,112.532812,0.31540854,2.86757227024,9.2, 2.5, 2.9,0,0,1024,1024,1684,1045,8,-90,99,4.151,4.158,4.147,4.16,0,0,85.91,6,GPS_Atti,
0.350069189585661,36.9146570744191,5527.9296880486,114.173232,0,2.4011319666,10800,2017-11-12 06:38:38,13,16.487,5527.9296880486,114.173232,0.31540854,2.86757227024,9.2, 2.5, 2.6,0,0,1024,1024,1684,1045,8.1,-90,99,4.151,4.158,4.147,4.16,0,0,85.91,6,GPS_Atti,
0.350069068758068,36.9146571284585,5529.5701080486,115.813652,0,2.36503944576,10900,2017-11-12 06:38:38,13,16.487,5529.5701080486,115.813652,0.31540854,2.86757227024,9.3, 2.5, 2.2,0,0,1024,1024,1684,1047,8.1,-90,99,4.151,4.158,4.147,4.16,0,0,85.91,6,GPS_Atti,
0.350068947852208,36.9146571631042,5531.2105280486,117.454072,0,2.33588918236,11000,2017-11-12 06:38:38,13,16.487,5531.2105280486,117.454072,0.31540854,2.86757227024,9.3, 2.3, 1.9,0,0,1024,1024,1684,1046,8.1,-90,99,4.151,4.158,4.147,4.16,0,0,85.91,6,GPS_Atti,
0.35006881524384,36.9146571793781,5533.1790320486,119.422576,0,2.3118931186,11100,2017-11-12 06:38:38,13,16.487,5533.1790320486,119.422576,0.31540854,2.86757227024,9.4, 2.1, 1.9,0,0,1024,1024,1684,1049,8.1,-90,99,4.151,4.158,4.147,4.16,0,0,85.91,6,GPS_Atti,
0.350068705906446,36.9146571760297,5534.8194520486,121.062996,0,2.29840558536,11200,2017-11-12 06:38:38,13,16.487,5534.8194520486,121.062996,0.31540854,2.86757227024,9.4, 2.2, 2.1,0,0,1024,1024,1684,1049,8.2,-89.9,99,4.151,4.158,4.147,4.16,0,0,85.91,6,GPS_Atti,
0.350068605235631,36.9146571743799,5536.4598720486,122.703416,0,2.28604338024,11300,2017-11-12 06:38:38,13,16.487,5536.4598720486,122.703416,0.31540854,2.86757227024,9.5, 2.6, 2.1,0,0,1024,1024,1684,1049,8.2,-90,99,4.151,4.158,4.147,4.16,0,0,85.91,6,GPS_Atti,
0.35006853267807,36.9146571812913,5538.1002920486,124.343836,0,2.27467526964,11400,2017-11-12 06:38:38,13,16.487,5538.1002920486,124.343836,0.31540854,2.86757227024,9.6, 2.7, 2.2,0,0,1024,1024,1684,1046,8.2,-89.9,99,4.151,4.158,4.147,4.16,0,0,85.91,6,GPS_Atti,
0.350068468488064,36.9146571741438,5540.0687960486,126.31234,0,2.2694062406,11500,2017-11-12 06:38:39,13,16.487,5540.0687960486,126.31234,0.31540854,2.86757227024,9.6, 2.6, 2.5,0,0,1024,1024,1684,1049,8.3,-89.9,99,4.151,4.158,4.147,4.16,0,0,85.91,6,GPS_Atti,
0.350068385536145,36.9146571991684,5541.7092160486,127.95276,0,2.25106962584,11600,2017-11-12 06:38:39,14,16.46,5541.7092160486,127.95276,0.31540854,2.86757227024,9.7, 2.6, 2.6,0,0,1024,1024,1684,1046,8.3,-90,99,4.138,4.144,4.132,4.147,0,0,85.91,6,GPS_Atti,
0.350068280004425,36.9146572277812,5545.3181400486,131.561684,0,2.2292979716,11800,2017-11-12 06:38:39,14,16.46,5545.3181400486,131.561684,0.31540854,2.86757227024,9.9, 2.8, 2.5,0,0,1024,1024,1684,1046,8.4,-90,99,4.138,4.144,4.132,4.147,0,0,85.91,6,GPS_Atti,
0.350068236966278,36.9146572563212,5546.9585600486,133.202104,0,2.21467854856,11900,2017-11-12 06:38:39,14,16.46,5546.9585600486,133.202104,0.31540854,2.86757227024,9.9, 2.7, 2.4,0,0,1024,1024,1684,1045,8.4,-90,99,4.138,4.144,4.132,4.147,0,0,85.91,6,GPS_Atti,
0.350068199972305,36.91465729084,5548.5989800486,134.842524,0,2.19868117272,12000,2017-11-12 06:38:39,14,16.46,5548.5989800486,134.842524,0.31540854,2.86757227024,10, 2.6, 2.3,0,0,1024,1024,1684,1045,8.5,-90,99,4.138,4.144,4.132,4.147,0,0,85.91,6,GPS_Atti,
0.350068169996315,36.9146573199629,5550.2394000486,136.482944,0,2.18534455812,12100,2017-11-12 06:38:39,14,16.46,5550.2394000486,136.482944,0.31540854,2.86757227024,10, 2.6, 2.4,0,0,1024,1024,1684,1045,8.5,-90,99,4.138,4.144,4.132,4.147,0,0,85.91,6,GPS_Atti,
0.350068129995421,36.9146573418999,5551.8798200486,138.123364,0,2.1735072874,12200,2017-11-12 06:38:39,14,16.46,5551.8798200486,138.123364,0.31540854,2.86757227024,10, 2.6, 2.5,0,0,1024,1024,1684,1044,8.6,-89.9,99,4.138,4.144,4.132,4.147,0,0,85.91,6,GPS_Atti,
0.350068091811259,36.9146573722738,5553.8483240486,140.091868,0,2.15896004284,12300,2017-11-12 06:38:39,14,16.46,5553.8483240486,140.091868,0.31540854,2.86757227024,10.1, 2.5, 2.4,0,0,1024,1024,1684,1044,8.6,-89.9,99,4.138,4.144,4.132,4.147,0,0,85.91,6,GPS_Atti,
0.350068064380934,36.9146574021895,5555.4887440486,141.732288,0,2.1457021684,12400,2017-11-12 06:38:39,14,16.46,5555.4887440486,141.732288,0.31540854,2.86757227024,10.1, 2.5, 2.5,0,0,1024,1024,1684,1044,8.6,-89.9,99,4.138,4.144,4.132,4.147,0,0,85.91,6,GPS_Atti,
0.350068042140053,36.9146574324157,5557.1291640486,143.372708,0,2.13287080316,12500,2017-11-12 06:38:40,14,16.406,5557.1291640486,143.372708,0.31540854,2.86757227024,10.1, 2.5, 2.6,0,0,1024,1024,1684,1054,8.7,-90,99,4.138,4.144,4.132,4.147,0,0,85.91,6,GPS_Atti,
0.350068046471917,36.9146574460094,5560.7380880486,146.981632,0,2.12853353268,12700,2017-11-12 06:38:40,14,16.406,5560.7380880486,146.981632,0.31540854,2.86757227024,10.2, 2.5, 2.9,0,0,1024,1024,1684,1054,8.8,-90,99,4.138,4.144,4.132,4.147,0,0,85.91,6,GPS_Atti,
0.350068056496822,36.9146574447674,5562.3785080486,148.622052,0,2.12997710228,12800,2017-11-12 06:38:40,14,16.406,5562.3785080486,148.622052,0.31540854,2.86757227024,10.3, 2.4, 2.9,0,0,1024,1024,1684,1054,8.8,-90,99,4.138,4.144,4.132,4.147,0,0,85.91,6,GPS_Atti,
0.35006807157255,36.9146574448906,5564.0189280486,150.262472,0,2.13146004196,12900,2017-11-12 06:38:40,14,16.406,5564.0189280486,150.262472,0.31540854,2.86757227024,10.4, 2.3, 2.9,0,0,1024,1024,1684,1061,8.9,-90,99,4.138,4.144,4.132,4.147,0,0,85.91,6,GPS_Atti,
0.350068040220728,36.9146574557852,5567.6278520486,153.871396,0,2.12447841444,13100,2017-11-12 06:38:40,14,16.406,5567.6278520486,153.871396,0.31540854,2.86757227024,10.8, 2.3, 2.9,0,0,1024,1024,1684,1062,8.9,-90,99,4.138,4.144,4.132,4.147,0,0,85.91,6,GPS_Atti,
0.350068038551573,36.9146574621746,5569.2682720486,155.511816,0,2.12207027788,13200,2017-11-12 06:38:40,14,16.406,5569.2682720486,155.511816,0.31540854,2.86757227024,11, 2.4, 2.9,0,0,1024,1024,1684,1062,9.1,-90,99,4.138,4.144,4.132,4.147,0,0,85.91,6,GPS_Atti,
0.350068041853039,36.914657467509,5570.9086920486,157.152236,0,2.12052828308,13300,2017-11-12 06:38:40,14,16.406,5570.9086920486,157.152236,0.31540854,2.86757227024,11.3, 2.5, 3.1,0,0,1024,1024,1684,1065,9.1,-90,99,4.138,4.144,4.132,4.147,0,0,85.91,6,GPS_Atti,
0.350068053623433,36.9146574711485,5572.5491120486,158.792656,0,2.12043641956,13400,2017-11-12 06:38:40,14,16.406,5572.5491120486,158.792656,0.31540854,2.86757227024,11.5, 2.3, 3.2,0,0,1024,1024,1684,1073,9.4,-90,99,4.138,4.144,4.132,4.147,0,0,85.91,6,GPS_Atti,
0.350068073794154,36.9146574838958,5574.1895320486,160.433076,0,2.11802172132,13500,2017-11-12 06:38:41,14,16.406,5574.1895320486,160.433076,0.31540854,2.86757227024,11.8, 2.4, 3.1,0,0,1024,1024,1684,1070,9.7,-89.9,99,4.138,4.144,4.132,4.147,0,0,85.91,6,GPS_Atti,
0.350068117682756,36.9146575024978,5576.1580360486,162.40158,0,2.11607290236,13600,2017-11-12 06:38:41,14,16.46,5576.1580360486,162.40158,0.31540854,2.86757227024,12.2, 2.5, 2.9,0,0,1024,1024,1684,1063,9.9,-90,98,4.132,4.14,4.125,4.14,0,0,85.91,6,GPS_Atti,
0.35006815453139,36.9146575088878,5577.7984560486,164.042,0,2.11776253496,13700,2017-11-12 06:38:41,14,16.46,5577.7984560486,164.042,0.31540854,2.86757227024,12.5, 2.5, 3,0,0,1024,1024,1684,1057,10.1,-90,98,4.132,4.14,4.125,4.14,0,0,85.91,6,GPS_Atti,
0.350068180694582,36.9146575029239,5579.4388760486,165.68242,0,2.1226706716,13800,2017-11-12 06:38:41,14,16.46,5579.4388760486,165.68242,0.31540854,2.86757227024,12.8, 2.4, 2.9,0,0,1024,1024,1684,1056,10.2,-90,98,4.132,4.14,4.125,4.14,0,0,85.91,6,GPS_Atti,
0.350068210394958,36.9146574934923,5581.0792960486,167.32284,0,2.12920938572,13900,2017-11-12 06:38:41,14,16.46,5581.0792960486,167.32284,0.31540854,2.86757227024,13, 2.5, 2.9,0,0,1024,1024,1684,1057,10.2,-90,98,4.132,4.14,4.125,4.14,0,0,85.91,6,GPS_Atti,
0.350068252812667,36.9146574958096,5582.7197160486,168.96326,0,2.1331365512,14000,2017-11-12 06:38:41,14,16.46,5582.7197160486,168.96326,0.31540854,2.86757227024,13.2, 2.6, 2.8,0,0,1024,1024,1684,1054,10.4,-90,98,4.132,4.14,4.125,4.14,0,0,85.91,6,GPS_Atti,
0.350068294509993,36.9146574894379,5584.3601360486,170.60368,0,2.14009849368,14100,2017-11-12 06:38:41,14,16.46,5584.3601360486,170.60368,0.31540854,2.86757227024,13.3, 2.7, 2.7,0,0,1024,1024,1684,1056,10.6,-89.9,98,4.132,4.14,4.125,4.14,0,0,85.91,6,GPS_Atti,
0.350068338219466,36.9146574860483,5586.0005560486,172.2441,0,2.14635177472,14200,2017-11-12 06:38:41,14,16.46,5586.0005560486,172.2441,0.31540854,2.86757227024,13.5, 2.7, 2.7,0,0,1024,1024,1684,1051,11.1,-90,98,4.132,4.14,4.125,4.14,0,0,85.91,6,GPS_Atti,
0.350068394179112,36.9146575243737,5590.9218160486,177.16536,0,2.13981634144,14500,2017-11-12 06:38:42,14,16.46,5590.9218160486,177.16536,0.31540854,2.86757227024,13.8, 2.4, 2.8,0,0,1024,1024,1684,1050,11.2,-90,98,4.132,4.14,4.125,4.14,0,0,85.91,6,GPS_Atti,
0.350068423869106,36.9146575355151,5592.5622360486,178.80578,0,2.1396162102,14600,2017-11-12 06:38:42,14,16.433,5592.5622360486,178.80578,0.31540854,2.86757227024,13.9, 2.4, 2.8,0,0,1024,1024,1684,1052,11.4,-90,98,4.129,4.136,4.119,4.136,0,0,87.71,6,GPS_Atti,
0.350068445953249,36.9146575424789,5594.2026560486,180.4462,0,2.1399606984,14700,2017-11-12 06:38:42,14,16.433,5594.2026560486,180.4462,0.31540854,2.86757227024,14, 2.4, 2.9,0,0,1024,1024,1684,1053,11.5,-90,98,4.129,4.136,4.119,4.136,0,0,87.71,6,GPS_Atti,
0.350068458785592,36.9146575486553,5595.8430760486,182.08662,0,2.13944560652,14800,2017-11-12 06:38:42,14,16.433,5595.8430760486,182.08662,0.31540854,2.86757227024,14.1, 2.3, 2.9,0,0,1024,1024,1684,1053,11.7,-89.9,98,4.129,4.136,4.119,4.136,0,0,87.71,6,GPS_Atti,
0.35006847713327,36.9146575525604,5597.4834960486,183.72704,0,2.14041673516,14900,2017-11-12 06:38:42,14,16.433,5597.4834960486,183.72704,0.31540854,2.86757227024,14.3, 2.3, 2.8,0,0,1024,1024,1684,1053,11.8,-89.9,98,4.129,4.136,4.119,4.136,0,0,87.71,6,GPS_Atti,
0.350068517089383,36.9146575561148,5599.4520000486,185.695544,0,2.14429796888,15000,2017-11-12 06:38:42,14,16.433,5599.4520000486,185.695544,0.31540854,2.86757227024,14.4, 2.5, 2.9,0,0,1024,1024,1684,1054,11.8,-89.9,98,4.129,4.136,4.119,4.136,0,0,87.71,6,GPS_Atti,
0.350068565051333,36.9146575526412,5601.0924200486,187.335964,0,2.15171266728,15100,2017-11-12 06:38:42,14,16.433,5601.0924200486,187.335964,0.31540854,2.86757227024,14.5, 2.6, 3.1,0,0,1024,1024,1684,1057,12.2,-89.9,98,4.129,4.136,4.119,4.136,0,0,87.71,6,GPS_Atti,
0.350068667544987,36.9146575621761,5604.3732600486,190.616804,0,2.16221463612,15300,2017-11-12 06:38:42,14,16.433,5604.3732600486,190.616804,0.31540854,2.86757227024,14.7, 2.9, 3.1,0,0,1024,1024,1684,1056,12.2,-89.9,98,4.129,4.136,4.119,4.136,0,0,87.71,6,GPS_Atti,
0.350068709151426,36.914657596074,5606.0136800486,192.257224,0,2.15652565956,15400,2017-11-12 06:38:42,14,16.433,5606.0136800486,192.257224,0.31540854,2.86757227024,14.9, 2.7, 2.9,0,0,1024,1024,1684,1057,12.4,-90,98,4.129,4.136,4.119,4.136,0,0,87.71,6,GPS_Atti,
0.35006874495633,36.914657628223,5607.6541000486,193.897644,0,2.15076122368,15500,2017-11-12 06:38:43,14,16.433,5607.6541000486,193.897644,0.31540854,2.86757227024,15, 2.6, 3,0,0,1024,1024,1684,1058,12.5,-90,98,4.129,4.136,4.119,4.136,0,0,87.71,6,GPS_Atti,
0.350068784343912,36.9146576452946,5609.2945200486,195.538064,0,2.1506890452,15600,2017-11-12 06:38:43,14,16.406,5609.2945200486,195.538064,0.31540854,2.86757227024,15.2, 2.6, 3,0,0,1024,1024,1684,1058,12.8,-90,98,4.129,4.136,4.119,4.136,0,0,87.71,6,GPS_Atti,
0.350068857050272,36.9146576655763,5612.5753600486,198.818904,0,2.15459980648,15800,2017-11-12 06:38:43,14,16.406,5612.5753600486,198.818904,0.31540854,2.86757227024,15.5, 2.4, 3.1,0,0,1024,1024,1684,1058,12.9,-90,98,4.129,4.136,4.119,4.136,0,0,87.71,6,GPS_Atti,
0.350068899484062,36.9146576675939,5614.2157800486,200.459324,0,2.1603019064,15900,2017-11-12 06:38:43,14,16.406,5614.2157800486,200.459324,0.31540854,2.86757227024,15.7, 2.3, 3.1,0,0,1024,1024,1684,1056,13.1,-90,98,4.129,4.136,4.119,4.136,0,0,87.71,6,GPS_Atti,
0.350068941074319,36.9146576711275,5615.8562000486,202.099744,0,2.16546594856,16000,2017-11-12 06:38:43,14,16.406,5615.8562000486,202.099744,0.31540854,2.86757227024,15.8, 2.3, 3.1,0,0,1024,1024,1684,1056,13.2,-90,98,4.129,4.136,4.119,4.136,0,0,87.71,6,GPS_Atti,
0.350068980524596,36.9146576690714,5617.4966200486,203.740164,0,2.17223760232,16100,2017-11-12 06:38:43,14,16.406,5617.4966200486,203.740164,0.31540854,2.86757227024,16, 2.2, 3.2,0,0,1024,1024,1684,1052,13.4,-90,98,4.129,4.136,4.119,4.136,0,0,87.71,6,GPS_Atti,
0.350069003508658,36.9146576727259,5619.1370400486,205.380584,0,2.17461949216,16200,2017-11-12 06:38:43,14,16.406,5619.1370400486,205.380584,0.31540854,2.86757227024,16.1, 2.3, 3.3,0,0,1024,1024,1684,1053,13.6,-90,98,4.129,4.136,4.119,4.136,0,0,87.71,6,GPS_Atti,
0.350069032247845,36.9146576744801,5621.1055440486,207.349088,0,2.17856634268,16300,2017-11-12 06:38:43,14,16.406,5621.1055440486,207.349088,0.31540854,2.86757227024,16.2, 2.3, 3.2,0,0,1024,1024,1684,1050,13.6,-90,98,4.129,4.136,4.119,4.136,0,0,87.71,6,GPS_Atti,
0.350069069507559,36.9146576847066,5622.7459640486,208.989508,0,2.18113852124,16400,2017-11-12 06:38:43,14,16.406,5622.7459640486,208.989508,0.31540854,2.86757227024,16.3, 2.4, 3.1,0,0,1024,1024,1684,1050,13.8,-90,98,4.129,4.136,4.119,4.136,0,0,87.71,6,GPS_Atti,
0.350069111168246,36.9146576883441,5624.3863840486,210.629928,0,2.18666673664,16500,2017-11-12 06:38:44,14,16.406,5624.3863840486,210.629928,0.31540854,2.86757227024,16.4, 2.3, 3.2,0,0,1024,1024,1684,1052,14,-90,98,4.129,4.136,4.119,4.136,0,0,87.71,6,GPS_Atti,
0.350069152580798,36.9146576967506,5625.6987200486,211.942264,0,2.19069232732,16600,2017-11-12 06:38:44,14,16.487,5625.6987200486,211.942264,0.31540854,2.86757227024,16.5, 2.3, 3.2,0,0,1024,1024,1684,1050,14.3,-90,98,4.124,4.13,4.114,4.132,0,0,87.71,6,GPS_Atti,
0.350069249410419,36.9146577496813,5628.9795600486,215.223104,0,2.18976056876,16800,2017-11-12 06:38:44,14,16.487,5628.9795600486,215.223104,0.31540854,2.86757227024,16.7, 2.4, 3,0,0,1024,1024,1684,1050,14.3,-90,98,4.124,4.13,4.114,4.132,0,0,87.71,6,GPS_Atti,
0.350069289661076,36.9146577781506,5630.9480640486,217.191608,0,2.18751319336,16900,2017-11-12 06:38:44,14,16.487,5630.9480640486,217.191608,0.31540854,2.86757227024,16.7, 2.4, 3.1,0,0,1024,1024,1684,1050,14.4,-90,98,4.124,4.13,4.114,4.132,0,0,87.71,6,GPS_Atti,
0.35006930578603,36.9146577964175,5632.5884840486,218.832028,0,2.18445216964,17000,2017-11-12 06:38:44,14,16.487,5632.5884840486,218.832028,0.31540854,2.86757227024,16.8, 2.3, 3.2,0,0,1024,1024,1684,1050,14.6,-90,98,4.124,4.13,4.114,4.132,0,0,87.71,6,GPS_Atti,
0.350069353719585,36.9146578254564,5635.8693240486,222.112868,0,2.18359915124,17200,2017-11-12 06:38:44,14,16.487,5635.8693240486,222.112868,0.31540854,2.86757227024,17, 2.3, 3,0,0,1024,1024,1684,1052,14.6,-90,98,4.124,4.13,4.114,4.132,0,0,87.71,6,GPS_Atti,
0.350069377962638,36.9146578418491,5637.5097440486,223.753288,0,2.18269692024,17300,2017-11-12 06:38:44,14,16.487,5637.5097440486,223.753288,0.31540854,2.86757227024,17.1, 2.4, 3,0,0,1024,1024,1684,1052,14.8,-89.9,98,4.124,4.13,4.114,4.132,0,0,87.71,6,GPS_Atti,
0.350069387386748,36.9146578765039,5639.1501640486,225.393708,0,2.17338261548,17400,2017-11-12 06:38:44,14,16.487,5639.1501640486,225.393708,0.31540854,2.86757227024,17.2, 2.3, 2.9,0,0,1024,1024,1684,1057,15,-89.9,98,4.124,4.13,4.114,4.132,0,0,87.71,6,GPS_Atti,
0.350069402609443,36.9146579017651,5640.7905840486,227.034128,0,2.16813327148,17500,2017-11-12 06:38:45,14,16.487,5640.7905840486,227.034128,0.31540854,2.86757227024,17.3, 2.2, 3,0,0,1024,1024,1684,1057,15.1,-90,98,4.124,4.13,4.114,4.132,0,0,87.71,6,GPS_Atti,
0.350069432337808,36.9146579176692,5642.4310040486,228.674548,0,2.1685368148,17600,2017-11-12 06:38:45,14,16.379,5642.4310040486,228.674548,0.31540854,2.86757227024,17.5, 2.2, 3,0,0,1024,1024,1684,1053,15.2,-90,98,4.122,4.127,4.111,4.129,0,0,87.71,6,GPS_Atti,
0.350069459713681,36.9146579371367,5644.0714240486,230.314968,0,2.16745085676,17700,2017-11-12 06:38:45,14,16.379,5644.0714240486,230.314968,0.31540854,2.86757227024,17.6, 2.2, 3,0,0,1024,1024,1684,1053,15.2,-90,98,4.122,4.127,4.111,4.129,0,0,87.71,6,GPS_Atti,
0.350069473170634,36.9146579763272,5645.7118440486,231.955388,0,2.15765426852,17800,2017-11-12 06:38:45,14,16.379,5645.7118440486,231.955388,0.31540854,2.86757227024,17.7, 2.3, 2.9,0,0,1024,1024,1684,1061,15.4,-90,98,4.122,4.127,4.111,4.129,0,0,87.71,6,GPS_Atti,
0.350069477928031,36.9146580128679,5647.3522640486,233.595808,0,2.14710964876,17900,2017-11-12 06:38:45,14,16.379,5647.3522640486,233.595808,0.31540854,2.86757227024,17.8, 2.2, 2.6,0,0,1024,1024,1684,1058,15.7,-90,98,4.122,4.127,4.111,4.129,0,0,87.71,6,GPS_Atti,
0.350069482102344,36.9146580463129,5650.3050200486,236.548564,0,2.1374508558,18100,2017-11-12 06:38:45,14,16.379,5650.3050200486,236.548564,0.31540854,2.86757227024,18.2, 2.2, 2.9,0,0,1024,1024,1684,1054,15.7,-90,98,4.122,4.127,4.111,4.129,0,0,87.71,6,GPS_Atti,
0.350069500083622,36.9146580714194,5651.9454400486,238.188984,0,2.13304468768,18200,2017-11-12 06:38:45,14,16.379,5651.9454400486,238.188984,0.31540854,2.86757227024,18.4, 2.1, 2.9,0,0,1024,1024,1684,1056,15.9,-89.9,98,4.122,4.127,4.111,4.129,0,0,87.71,6,GPS_Atti,
0.350069517952131,36.9146580866125,5653.5858600486,239.829404,0,2.1317421942,18300,2017-11-12 06:38:45,14,16.379,5653.5858600486,239.829404,0.31540854,2.86757227024,18.5, 1.9, 3.1,0,0,1024,1024,1684,1051,16,-90,98,4.122,4.127,4.111,4.129,0,0,87.71,6,GPS_Atti,
0.350069534574066,36.9146581199831,5656.8667000486,243.110244,0,2.12460964804,18500,2017-11-12 06:38:46,14,16.379,5656.8667000486,243.110244,0.31540854,2.86757227024,18.8, 1.9, 2.9,0,0,1024,1024,1684,1053,16.3,-90,98,4.122,4.127,4.111,4.129,0,0,87.71,6,GPS_Atti,
0.350069546768669,36.9146581668788,5658.5071200486,244.750664,0,2.11250662928,18600,2017-11-12 06:38:46,14,16.352,5658.5071200486,244.750664,0.31540854,2.86757227024,19, 2, 2.8,0,0,1024,1024,1684,1056,16.4,-90,98,4.118,4.124,4.108,4.127,0,0,87.71,6,GPS_Atti,
0.350069572161607,36.9146582100477,5660.1475400486,246.391084,0,2.10423563164,18700,2017-11-12 06:38:46,14,16.352,5660.1475400486,246.391084,0.31540854,2.86757227024,19, 2.1, 2.8,0,0,1024,1024,1684,1052,16.6,-90,98,4.118,4.124,4.108,4.127,0,0,87.71,6,GPS_Atti,
0.350069613410806,36.9146582406224,5661.7879600486,248.031504,0,2.10310702268,18800,2017-11-12 06:38:46,14,16.352,5661.7879600486,248.031504,0.31540854,2.86757227024,19.2, 2.2, 2.8,0,0,1024,1024,1684,1057,16.7,-89.9,98,4.118,4.124,4.108,4.127,0,0,87.71,6,GPS_Atti,
0.350069655742309,36.9146582723464,5663.4283800486,249.671924,0,2.1020177838,18900,2017-11-12 06:38:46,14,16.352,5663.4283800486,249.671924,0.31540854,2.86757227024,19.4, 2.4, 2.7,0,0,1024,1024,1684,1055,16.9,-89.9,98,4.118,4.124,4.108,4.127,0,0,87.71,6,GPS_Atti,
0.350069676882464,36.9146583129602,5665.0688000486,251.312344,0,2.09406502764,19000,2017-11-12 06:38:46,14,16.352,5665.0688000486,251.312344,0.31540854,2.86757227024,19.5, 2.3, 2.6,0,0,1024,1024,1684,1057,16.9,-89.9,98,4.118,4.124,4.108,4.127,0,0,87.71,6,GPS_Atti,
0.350069689708852,36.9146583383729,5666.7092200486,252.952764,0,2.0890584658,19100,2017-11-12 06:38:46,14,16.352,5666.7092200486,252.952764,0.31540854,2.86757227024,19.7, 2.2, 2.6,0,0,1024,1024,1684,1056,17.2,-90,98,4.118,4.124,4.108,4.127,0,0,87.71,6,GPS_Atti,
0.350069692476902,36.9146583464534,5668.3496400486,254.593184,0,2.0872047912,19200,2017-11-12 06:38:46,14,16.352,5668.3496400486,254.593184,0.31540854,2.86757227024,19.8, 2.1, 2.7,0,0,1024,1024,1684,1064,17.3,-90,98,4.118,4.124,4.108,4.127,0,0,87.71,6,GPS_Atti,
0.350069689770682,36.914658352921,5669.9900600486,256.233604,0,2.08470151028,19300,2017-11-12 06:38:46,14,16.352,5669.9900600486,256.233604,0.31540854,2.86757227024,20, 2.2, 2.7,0,0,1024,1024,1684,1066,17.5,-89.9,98,4.118,4.124,4.108,4.127,0,0,87.71,6,GPS_Atti,
0.350069688292717,36.9146583753863,5671.6304800486,257.874024,0,2.07765098512,19400,2017-11-12 06:38:46,14,16.352,5671.6304800486,257.874024,0.31540854,2.86757227024,20.2, 2.2, 2.7,0,0,1024,1024,1684,1066,17.7,-89.9,98,4.118,4.124,4.108,4.127,0,0,87.71,6,GPS_Atti,
0.35006968899539,36.9146583926623,5673.2709000486,259.514444,0,2.0726214574,19500,2017-11-12 06:38:47,14,16.352,5673.2709000486,259.514444,0.31540854,2.86757227024,20.4, 2, 2.8,0,0,1024,1024,1684,1063,17.7,-89.9,98,4.118,4.124,4.108,4.127,0,0,87.71,6,GPS_Atti,
0.350069725390655,36.9146583842093,5674.9113200486,261.154864,0,2.08275597216,19600,2017-11-12 06:38:47,14,16.352,5674.9113200486,261.154864,0.31540854,2.86757227024,20.7, 2, 3,0,0,1024,1024,1684,1072,17.7,-89.9,98,4.118,4.124,4.108,4.127,0,0,87.71,6,GPS_Atti,
0.350069757053917,36.9146583891031,5676.5517400486,262.795284,0,2.08796266524,19700,2017-11-12 06:38:47,14,16.352,5676.5517400486,262.795284,0.31540854,2.86757227024,21, 2.1, 3,0,0,1024,1024,1684,1065,18.2,-90,98,4.118,4.124,4.108,4.127,0,0,87.71,6,GPS_Atti,
0.350069777498115,36.9146584168438,5678.1921600486,264.435704,0,2.08405846564,19800,2017-11-12 06:38:47,14,16.352,5678.1921600486,264.435704,0.31540854,2.86757227024,21.3, 2.3, 3,0,0,1024,1024,1684,1065,18.4,-89.9,98,4.118,4.124,4.108,4.127,0,0,87.71,6,GPS_Atti,
0.350069791395002,36.9146584419177,5679.8325800486,266.076124,0,2.0796096466,19900,2017-11-12 06:38:47,14,16.352,5679.8325800486,266.076124,0.31540854,2.86757227024,21.6, 2.2, 3,0,0,1024,1024,1684,1048,18.7,-90,98,4.118,4.124,4.108,4.127,0,0,87.71,6,GPS_Atti,
0.350069800907965,36.9146584581857,5681.4730000486,267.716544,0,2.076853741,20000,2017-11-12 06:38:47,14,16.352,5681.4730000486,267.716544,0.31540854,2.86757227024,21.8, 2.2, 3.1,0,0,1024,1024,1684,1044,18.9,-90,98,4.118,4.124,4.108,4.127,0,0,87.71,6,GPS_Atti,
0.350069816467544,36.9146584705792,5683.1134200486,269.356964,0,2.07656174624,20100,2017-11-12 06:38:47,14,16.352,5683.1134200486,269.356964,0.31540854,2.86757227024,21.9, 2.3, 2.9,0,0,1024,1024,1684,1059,19.1,-90,98,4.118,4.124,4.108,4.127,0,0,87.71,6,GPS_Atti,
0.350069846639303,36.9146584764504,5684.7538400486,270.997384,0,2.0813813002,20200,2017-11-12 06:38:47,14,16.352,5684.7538400486,270.997384,0.31540854,2.86757227024,21.9, 2.4, 2.8,0,0,1024,1024,1684,1038,19.3,-90,98,4.118,4.124,4.108,4.127,0,0,87.71,6,GPS_Atti,
0.350069871153034,36.9146584682854,5686.3942600486,272.637804,0,2.08911424008,20300,2017-11-12 06:38:47,14,16.352,5686.3942600486,272.637804,0.31540854,2.86757227024,22, 2.3, 3,0,0,1024,1024,1684,1045,19.4,-89.9,98,4.118,4.124,4.108,4.127,0,0,87.71,6,GPS_Atti,
0.350069881321445,36.9146584547474,5688.0346800486,274.278224,0,2.0952920618,20400,2017-11-12 06:38:47,14,16.352,5688.0346800486,274.278224,0.31540854,2.86757227024,22, 2.2, 3.3,0,0,1024,1024,1684,1045,19.6,-90,98,4.118,4.124,4.108,4.127,0,0,87.71,6,GPS_Atti,
0.350069881970533,36.9146584376411,5689.6751000486,275.918644,0,2.10043641892,20500,2017-11-12 06:38:48,14,16.352,5689.6751000486,275.918644,0.31540854,2.86757227024,22.1, 2, 3.4,0,0,1024,1024,1684,1054,19.7,-90,98,4.118,4.124,4.108,4.127,0,0,87.71,6,GPS_Atti,
0.350069879099179,36.914658436351,5691.3155200486,277.559064,0,2.10018707508,20600,2017-11-12 06:38:48,14,16.352,5691.3155200486,277.559064,0.31540854,2.86757227024,22.1, 1.9, 3.3,0,0,1024,1024,1684,1052,19.8,-90,98,4.118,4.124,4.109,4.125,0,0,87.71,6,GPS_Atti,
0.350069878033566,36.9146584549631,5692.9559400486,279.199484,0,2.09451122188,20700,2017-11-12 06:38:48,14,16.352,5692.9559400486,279.199484,0.31540854,2.86757227024,22.2, 2.1, 3,0,0,1024,1024,1684,1056,20,-90,98,4.118,4.124,4.109,4.125,0,0,87.71,6,GPS_Atti,
0.350069887868197,36.9146584957724,5694.2682760486,280.51182,0,2.08475728456,20800,2017-11-12 06:38:48,14,16.352,5694.2682760486,280.51182,0.31540854,2.86757227024,22.3, 2.3, 2.9,0,0,1024,1024,1684,1061,20.1,-90,98,4.118,4.124,4.109,4.125,0,0,87.71,6,GPS_Atti,
0.35006990941989,36.9146585291505,5695.9086960486,282.15224,0,2.07981962036,20900,2017-11-12 06:38:48,14,16.352,5695.9086960486,282.15224,0.31540854,2.86757227024,22.4, 2.3, 3.1,0,0,1024,1024,1684,1061,20.2,-89.9,98,4.118,4.124,4.109,4.125,0,0,87.71,6,GPS_Atti,
0.350069957144597,36.9146585439234,5697.5491160486,283.79266,0,2.08619429248,21000,2017-11-12 06:38:48,14,16.352,5697.5491160486,283.79266,0.31540854,2.86757227024,22.6, 2.6, 3.2,0,0,1024,1024,1684,1069,20.2,-89.9,98,4.118,4.124,4.109,4.125,0,0,87.71,6,GPS_Atti,
0.350070026250289,36.9146585530889,5700.8299560486,287.0735,0,2.09916017216,21200,2017-11-12 06:38:48,14,16.352,5700.8299560486,287.0735,0.31540854,2.86757227024,23, 2.6, 3.3,0,0,1024,1024,1684,1069,20.5,-89.9,98,4.118,4.124,4.109,4.125,0,0,87.71,6,GPS_Atti,
0.350070050570108,36.9146585613268,5702.4703760486,288.71392,0,2.10234914864,21300,2017-11-12 06:38:48,14,16.352,5702.4703760486,288.71392,0.31540854,2.86757227024,23.3, 3, 3.6,0,0,1024,1024,1684,1058,20.5,-89.9,98,4.118,4.124,4.109,4.125,0,0,87.71,6,GPS_Atti,
0.350070071705454,36.9146585895327,5704.1107960486,290.35434,0,2.09918641888,21400,2017-11-12 06:38:48,14,16.352,5704.1107960486,290.35434,0.31540854,2.86757227024,23.7, 3, 3.6,0,0,1024,1024,1684,1056,21,-89.9,98,4.118,4.124,4.109,4.125,0,0,87.71,6,GPS_Atti,
0.350070080944507,36.9146586169384,5705.7512160486,291.99476,0,2.09356633996,21500,2017-11-12 06:38:49,14,16.352,5705.7512160486,291.99476,0.31540854,2.86757227024,23.9, 2.6, 3.2,0,0,1024,1024,1684,1056,21.2,-90,98,4.118,4.124,4.109,4.125,0,0,87.71,6,GPS_Atti,
0.350070084901779,36.9146586251971,5707.3916360486,293.63518,0,2.09215229792,21600,2017-11-12 06:38:49,14,16.406,5707.3916360486,293.63518,0.31540854,2.86757227024,24, 2, 3.1,0,0,1024,1024,1684,1060,21.3,-90,98,4.114,4.12,4.105,4.123,0,0,87.71,6,GPS_Atti,
0.350070094400213,36.9146586227765,5709.0320560486,295.2756,0,2.09503615628,21700,2017-11-12 06:38:49,14,16.406,5709.0320560486,295.2756,0.31540854,2.86757227024,24.1, 1.7, 3.2,0,0,1024,1024,1684,1055,21.7,-89.9,98,4.114,4.12,4.105,4.123,0,0,87.71,6,GPS_Atti,
0.350070134754302,36.9146585997732,5712.3128960486,298.55644,0,2.11088261348,21900,2017-11-12 06:38:49,14,16.406,5712.3128960486,298.55644,0.31540854,2.86757227024,24.5, 2.4, 3.9,0,0,1024,1024,1684,1059,22.1,-90,98,4.114,4.12,4.105,4.123,0,0,87.71,6,GPS_Atti,
0.350070162638555,36.9146585756688,5715.5937360486,301.83728,0,2.1241470496,22100,2017-11-12 06:38:49,14,16.406,5715.5937360486,301.83728,0.31540854,2.86757227024,24.8, 2.3, 3.6,0,0,1024,1024,1684,1056,22.2,-90,98,4.114,4.12,4.105,4.123,0,0,87.71,6,GPS_Atti,
0.350070168031733,36.914658609602,5717.2341560486,303.4777,0,2.115895737,22200,2017-11-12 06:38:49,14,16.406,5717.2341560486,303.4777,0.31540854,2.86757227024,25, 1.9, 3.2,0,0,1024,1024,1684,1054,22.4,-90,98,4.114,4.12,4.105,4.123,0,0,87.71,6,GPS_Atti,
0.350070178406346,36.9146586451267,5718.8745760486,305.11812,0,2.10842198348,22300,2017-11-12 06:38:49,14,16.406,5718.8745760486,305.11812,0.31540854,2.86757227024,25.1, 1.7, 2.8,0,0,1024,1024,1684,1055,22.6,-90,98,4.114,4.12,4.105,4.123,0,0,87.71,6,GPS_Atti,
0.350070188217975,36.9146586677783,5720.5149960486,306.75854,0,2.10444232456,22400,2017-11-12 06:38:49,14,16.406,5720.5149960486,306.75854,0.31540854,2.86757227024,25.3, 2.2, 3,0,0,1024,1024,1684,1054,22.6,-90,98,4.114,4.12,4.105,4.123,0,0,87.71,6,GPS_Atti,
0.350070206782771,36.9146586747442,5722.1554160486,308.39896,0,2.10691607792,22500,2017-11-12 06:38:50,14,16.406,5722.1554160486,308.39896,0.31540854,2.86757227024,25.5, 2.4, 3.3,0,0,1024,1024,1684,1056,22.7,-89.9,98,4.114,4.12,4.105,4.123,0,0,87.71,6,GPS_Atti,
0.350070218448448,36.9146586682113,5723.7958360486,310.03938,0,2.11149613056,22600,2017-11-12 06:38:50,14,16.298,5723.7958360486,310.03938,0.31540854,2.86757227024,25.6, 2.4, 3.4,0,0,1024,1024,1684,1050,22.9,-90,98,4.11,4.117,4.101,4.119,0,0,87.71,6,GPS_Atti,
0.350070206600284,36.9146586606083,5725.4362560486,311.6798,0,2.11078746912,22700,2017-11-12 06:38:50,14,16.298,5725.4362560486,311.6798,0.31540854,2.86757227024,25.7, 2.2, 3.5,0,0,1024,1024,1684,1050,23,-90,98,4.11,4.117,4.101,4.119,0,0,87.71,6,GPS_Atti,
0.350070165598303,36.9146586661648,5727.0766760486,313.32022,0,2.09954403044,22800,2017-11-12 06:38:50,14,16.298,5727.0766760486,313.32022,0.31540854,2.86757227024,25.8, 1.9, 3.5,0,0,1024,1024,1684,1053,23.2,-90,98,4.11,4.117,4.101,4.119,0,0,87.71,6,GPS_Atti,
0.35007011911414,36.9146586574816,5728.7170960486,314.96064,0,2.09104665484,22900,2017-11-12 06:38:50,14,16.298,5728.7170960486,314.96064,0.31540854,2.86757227024,25.9, 1.5, 3.6,0,0,1024,1024,1684,1053,23.4,-90,98,4.11,4.117,4.101,4.119,0,0,87.71,6,GPS_Atti,
0.350070096145319,36.9146586298661,5730.3575160486,316.60106,0,2.09344494888,23000,2017-11-12 06:38:50,14,16.298,5730.3575160486,316.60106,0.31540854,2.86757227024,26, 1.6, 3.8,0,0,1024,1024,1684,1058,23.5,-90,98,4.11,4.117,4.101,4.119,0,0,87.71,6,GPS_Atti,
0.350070077780695,36.9146586117116,5731.9979360486,318.24148,0,2.09431109064,23100,2017-11-12 06:38:50,14,16.298,5731.9979360486,318.24148,0.31540854,2.86757227024,26.2, 1.8, 4,0,0,1024,1024,1684,1051,23.6,-90,98,4.11,4.117,4.101,4.119,0,0,87.71,6,GPS_Atti,
0.350070065967657,36.9146586576095,5733.6383560486,319.8819,0,2.07863195628,23200,2017-11-12 06:38:50,14,16.298,5733.6383560486,319.8819,0.31540854,2.86757227024,26.4, 1.9, 3.8,0,0,1024,1024,1684,1041,23.8,-90,98,4.11,4.117,4.101,4.119,0,0,87.71,6,GPS_Atti,
0.350070044737912,36.9146586989166,5735.2787760486,321.52232,0,2.06207683764,23300,2017-11-12 06:38:50,14,16.298,5735.2787760486,321.52232,0.31540854,2.86757227024,26.5, 1.9, 3.3,0,0,1024,1024,1684,1064,24,-90,98,4.11,4.117,4.101,4.119,0,0,87.71,6,GPS_Atti,
0.350070015679779,36.9146587105248,5736.9191960486,323.16274,0,2.0520669948,23400,2017-11-12 06:38:50,14,16.298,5736.9191960486,323.16274,0.31540854,2.86757227024,26.6, 1.8, 2.9,0,0,1024,1024,1684,1066,24.1,-89.9,98,4.11,4.117,4.101,4.119,0,0,87.71,6,GPS_Atti,
0.35006998086871,36.91465871613,5738.5596160486,324.80316,0,2.04244101024,23500,2017-11-12 06:38:51,14,16.298,5738.5596160486,324.80316,0.31540854,2.86757227024,26.6, 1.6, 2.7,0,0,1024,1024,1684,1063,24.3,-90,98,4.11,4.117,4.101,4.119,0,0,87.71,6,GPS_Atti,
0.35006996782892,36.9146587325688,5740.2000360486,326.44358,0,2.03478681052,23600,2017-11-12 06:38:51,14,16.298,5740.2000360486,326.44358,0.31540854,2.86757227024,26.8, 1.2, 3,0,0,1024,1024,1684,1060,24.5,-90,98,4.11,4.117,4.101,4.119,0,0,87.71,6,GPS_Atti,
0.350069953792801,36.9146587449371,5741.8404560486,328.084,0,2.02805452684,23700,2017-11-12 06:38:51,14,16.298,5741.8404560486,328.084,0.31540854,2.86757227024,27.1, 1.1, 3.4,0,0,1024,1024,1684,1073,24.7,-90,98,4.11,4.117,4.101,4.119,0,0,87.71,6,GPS_Atti,
0.350069934863971,36.9146587434206,5743.4808760486,329.72442,0,2.0241306422,23800,2017-11-12 06:38:51,14,16.298,5743.4808760486,329.72442,0.31540854,2.86757227024,27.3, 1.3, 3.5,0,0,1024,1024,1684,1059,24.7,-90,98,4.11,4.117,4.101,4.119,0,0,87.71,6,GPS_Atti,
0.350069912879519,36.9146587522248,5745.1212960486,331.36484,0,2.01659127188,23900,2017-11-12 06:38:51,14,16.298,5745.1212960486,331.36484,0.31540854,2.86757227024,27.6, 1.3, 3.3,0,0,1024,1024,1684,1058,25,-90,98,4.11,4.117,4.101,4.119,0,0,87.71,6,GPS_Atti,
0.350069913483927,36.9146587547568,5746.7617160486,333.00526,0,2.0160105632,24000,2017-11-12 06:38:51,14,16.298,5746.7617160486,333.00526,0.31540854,2.86757227024,28, 1.4, 3.5,0,0,1024,1024,1684,1058,25.2,-90,98,4.11,4.117,4.101,4.119,0,0,87.71,6,GPS_Atti,
0.35006989783916,36.9146587712839,5748.4021360486,334.64568,0,2.00773300388,24100,2017-11-12 06:38:51,14,16.298,5748.4021360486,334.64568,0.31540854,2.86757227024,28.1, 1.2, 3.6,0,0,1024,1024,1684,1058,25.4,-90,98,4.11,4.117,4.101,4.119,0,0,87.71,6,GPS_Atti,
0.350069856981653,36.9146588142965,5750.0425560486,336.2861,0,1.98616148088,24200,2017-11-12 06:38:51,14,16.298,5750.0425560486,336.2861,0.31540854,2.86757227024,28.3, 1.1, 3.1,0,0,1024,1024,1684,1064,25.6,-90,98,4.11,4.117,4.101,4.119,0,0,87.71,6,GPS_Atti,
0.350069819024404,36.9146588599733,5751.6829760486,337.92652,0,1.96449809436,24300,2017-11-12 06:38:51,14,16.298,5751.6829760486,337.92652,0.31540854,2.86757227024,28.5, 1.1, 3.1,0,0,1024,1024,1684,1071,25.8,-90,98,4.11,4.117,4.101,4.119,0,0,87.71,6,GPS_Atti,
0.35006980812014,36.9146588864138,5753.3233960486,339.56694,0,1.95448825152,24400,2017-11-12 06:38:51,14,16.298,5753.3233960486,339.56694,0.31540854,2.86757227024,28.8, 1.2, 3,0,0,1024,1024,1684,1061,26.1,-90,98,4.11,4.117,4.101,4.119,0,0,87.71,6,GPS_Atti,
0.350069792051519,36.9146589104422,5754.9638160486,341.20736,0,1.94398628268,24500,2017-11-12 06:38:52,14,16.298,5754.9638160486,341.20736,0.31540854,2.86757227024,29.1, 1.1, 3,0,0,1024,1024,1684,1064,26.9,-90,98,4.11,4.117,4.101,4.119,0,0,87.71,6,GPS_Atti,
0.350069747757181,36.9146588798993,5759.8850760486,346.12862,0,1.9426017682,24800,2017-11-12 06:38:52,14,16.298,5759.8850760486,346.12862,0.31540854,2.86757227024,29.9, 0.7, 3.6,0,0,1024,1024,1684,1064,27.1,-90,98,4.11,4.117,4.101,4.119,0,0,87.71,6,GPS_Atti,
0.350069770939201,36.9146588887389,5761.5254960486,347.76904,0,1.94533798876,24900,2017-11-12 06:38:52,14,16.298,5761.5254960486,347.76904,0.31540854,2.86757227024,30.2, 1.3, 3.6,0,0,1024,1024,1684,1064,27.4,-89.9,98,4.11,4.117,4.101,4.119,0,0,87.71,6,GPS_Atti,
0.350069806090284,36.9146589492405,5763.1659160486,349.40946,0,1.93623365776,25000,2017-11-12 06:38:52,14,16.298,5763.1659160486,349.40946,0.31540854,2.86757227024,30.5, 1.7, 3.5,0,0,1024,1024,1684,1064,27.7,-89.9,98,4.11,4.117,4.101,4.119,0,0,87.71,6,GPS_Atti,
0.350069824320104,36.9146590247097,5764.8063360486,351.04988,0,1.91927171496,25100,2017-11-12 06:38:52,14,16.298,5764.8063360486,351.04988,0.31540854,2.86757227024,30.8, 1.9, 3.1,0,0,1024,1024,1684,1064,27.7,-89.9,98,4.11,4.117,4.101,4.119,0,0,87.71,6,GPS_Atti,
0.350069815822985,36.9146591040282,5766.4467560486,352.6903,0,1.89517394516,25200,2017-11-12 06:38:52,14,16.298,5766.4467560486,352.6903,0.31540854,2.86757227024,31, 1.7, 2.7,0,0,1024,1024,1684,1066,27.9,-89.9,98,4.11,4.117,4.101,4.119,0,0,87.71,6,GPS_Atti,
0.350069799482618,36.9146591754865,5768.0871760486,354.33072,0,1.87151252708,25300,2017-11-12 06:38:52,14,16.298,5768.0871760486,354.33072,0.31540854,2.86757227024,31.4, 1.5, 2.7,0,0,1024,1024,1684,1066,28.2,-90,98,4.11,4.117,4.101,4.119,0,0,87.71,6,GPS_Atti,
0.350069731398036,36.9146592338049,5769.7275960486,355.97114,0,1.83917656804,25400,2017-11-12 06:38:52,14,16.298,5769.7275960486,355.97114,0.31540854,2.86757227024,31.6, 1.2, 2.4,0,0,1024,1024,1684,1068,28.5,-90,98,4.11,4.117,4.101,4.119,0,0,87.71,6,GPS_Atti,
0.350069681321144,36.9146592771657,5771.3680160486,357.61156,0,1.8152723678,25500,2017-11-12 06:38:53,14,16.298,5771.3680160486,357.61156,0.31540854,2.86757227024,31.9, 1, 2.6,0,0,1024,1024,1684,1064,28.8,-90,98,4.11,4.117,4.101,4.119,0,0,87.71,6,GPS_Atti,
0.350069657952871,36.9146593000924,5773.0084360486,359.25198,0,1.80337276112,25600,2017-11-12 06:38:53,14,16.298,5773.0084360486,359.25198,0.31540854,2.86757227024,32.2, 0.8, 3,0,0,1024,1024,1684,1069,28.8,-90,98,4.103,4.11,4.091,4.11,0,0,87.71,6,GPS_Atti,
