latitude,longitude,altitude(feet),ascent(feet),speed(mph),distance(feet),time(millisecond),datetime(utc),satellites,voltage(v),max_altitude(feet),max_ascent(feet),max_speed(mph),max_distance(feet),compass_heading(degrees), pitch(degrees), roll(degrees),isPhoto,isVideo,rc_elevator,rc_aileron,rc_throttle,rc_rudder,gimbal_heading(degrees),gimbal_pitch(degrees),battery_percent,voltageCell1,voltageCell2,voltageCell3,voltageCell4,voltageCell5,voltageCell6,battery_temperature(f),flycStateRaw,flycState,message
0.0656895062273718,36.9677207659382,5927.863523353,0,0,0,100,2017-11-03 04:40:15,17,0,5927.863523353,0,0,0,54, 0, 1,0,0,1024,1024,1024,1024,58.5,-0.6,89,4.175,4.175,4.175,4.175,0,0,71.51,41,Motors_Started,
0.0656894780390062,36.9677207356646,5927.863523353,0,0,0.015092028042,200,2017-11-03 04:40:16,17,16.701,5927.863523353,0,0,0.015092028042,54, 0, 1,0,0,1024,1024,1024,1024,58.5,-0.6,89,4.175,4.175,4.175,4.175,0,0,71.51,41,Motors_Started,
0.065689462168191,36.9677207202382,5927.863523353,0,0,0.023160597854,300,2017-11-03 04:40:16,17,16.701,5927.863523353,0,0,0.023160597854,54, 0, 1,0,0,1024,1024,1024,1024,58.5,-0.6,89,4.175,4.175,4.175,4.175,0,0,71.51,41,Motors_Started,
0.0656894479217487,36.9677207062485,5927.863523353,0,0,0.030443406486,400,2017-11-03 04:40:16,17,16.701,5927.863523353,0,0,0.030443406486,54, 0, 1,0,0,1024,1024,1024,1024,58.5,-0.6,89,4.175,4.175,4.175,4.175,0,0,71.51,41,Motors_Started,
0.0656894408266182,36.9677207012939,5927.863523353,0,0,0.033550526008,500,2017-11-03 04:40:16,17,16.701,5927.863523353,0,0,0.033550526008,54, 0, 1,0,0,1024,1024,1024,1024,58.5,-0.6,89,4.175,4.175,4.175,4.175,0,0,71.51,41,Motors_Started,
0.0656894196397476,36.9677206802802,5927.863523353,0,0,0.044437993548,600,2017-11-03 04:40:16,17,16.701,5927.863523353,0,0,0.044437993548,54, 0, 1,0,0,1024,1024,1024,1024,58.5,-0.6,89,4.175,4.175,4.175,4.175,0,0,71.51,41,Motors_Started,
0.0656893891984298,36.9677206518806,5927.863523353,0,0,0.059622377236,700,2017-11-03 04:40:16,17,16.701,5927.863523353,0,0,0.059622377236,54, 0, 1,0,0,1024,1024,1024,1024,58.5,-0.6,89,4.175,4.175,4.175,4.175,0,0,71.51,41,Motors_Started,
0.0656893601640875,36.9677206228002,5927.863523353,0,0,0.074614175616,800,2017-11-03 04:40:16,17,16.701,5927.863523353,0,0,0.074614175616,54, 0, 1,0,0,1024,1024,1024,1024,58.5,-0.6,89,4.175,4.175,4.175,4.175,0,0,71.51,41,Motors_Started,
0.065689344882769,36.9677206087821,5927.863523353,0,0,0.082176183732,900,2017-11-03 04:40:16,17,16.701,5927.863523353,0,0,0.082176183732,54, 0, 1,0,0,1024,1024,1024,1024,58.5,-0.6,89,4.175,4.175,4.175,4.175,0,0,71.51,41,Motors_Started,
0.0656893339990636,36.9677205972039,5927.863523353,0,0,0.087968834836,1000,2017-11-03 04:40:16,17,16.701,5927.863523353,0,0,0.087968834836,54, 0, 1,0,0,1024,1024,1024,1024,58.5,-0.6,89,4.175,4.175,4.175,4.175,0,0,71.51,41,Motors_Started,
0.0656893311053186,36.9677205943074,5927.863523353,0,0,0.089462273204,1100,2017-11-03 04:40:16,17,16.701,5927.863523353,0,0,0.089462273204,54, 0, 1,0,0,1024,1024,1024,1024,58.5,-0.6,89,4.175,4.175,4.175,4.175,0,0,71.51,41,Motors_Started,
0.0656893298343181,36.9677205915052,5927.863523353,0,0,0.0905101735,1200,2017-11-03 04:40:17,17,16.675,5927.863523353,0,0,0.0905101735,54, 0, 1,0,0,1024,1024,1024,1024,58.5,-0.6,89,4.174,4.175,4.175,4.175,0,0,71.51,41,Motors_Started,Setting new Return-To-Home altitude to 30m (98 ft). Setting new Maximum Flight Altitude to 100m (328 ft)
0.0656893319374535,36.9677205932374,5927.863523353,0,0,0.089520015988,1300,2017-11-03 04:40:17,17,16.675,5927.863523353,0,0,0.0905101735,54, 0, 1,0,0,1024,1024,1024,1024,58.5,-0.6,89,4.174,4.175,4.175,4.175,0,0,71.51,41,Motors_Started,
0.0656893396285945,36.9677205807465,5927.863523353,0,0,0.09088418926,1400,2017-11-03 04:40:17,17,16.675,5927.863523353,0,0,0.09088418926,54, -0.1, 0.9,0,0,1024,1024,1024,1024,58.5,-0.6,89,4.174,4.175,4.175,4.175,0,0,71.51,41,Motors_Started,
0.0656893460422212,36.9677205568016,5927.863523353,0,0,0.096113520136,1500,2017-11-03 04:40:17,17,16.675,5927.863523353,0,0,0.096113520136,54.1, -0.1, 0.9,0,0,1024,1024,1024,1024,58.6,-0.6,89,4.174,4.175,4.175,4.175,0,0,71.51,10,Assisted_Takeoff,
0.0656893518069129,36.9677205288078,5927.863523353,0,0,0.103244425876,1600,2017-11-03 04:40:17,17,16.675,5927.863523353,0,0,0.103244425876,54, 0, 1,0,0,1024,1024,1024,1024,58.6,-0.6,89,4.174,4.175,4.175,4.175,0,0,71.51,10,Assisted_Takeoff,
0.0656893590477892,36.9677205171637,5927.863523353,0,0,0.105459977128,1700,2017-11-03 04:40:17,17,16.675,5927.863523353,0,0,0.105459977128,54, 0, 1,0,0,1024,1024,1024,1024,58.6,-0.6,89,4.174,4.175,4.175,4.175,0,0,71.51,10,Assisted_Takeoff,
0.0656893651552684,36.9677205059628,5927.863523353,0,0,0.10791667012,1800,2017-11-03 04:40:17,17,16.675,5927.863523353,0,0,0.10791667012,54, 0, 1,0,0,1024,1024,1024,1024,58.6,-0.6,89,4.174,4.175,4.175,4.175,0,0,71.51,10,Assisted_Takeoff,
0.0656893715811084,36.9677205030498,5927.863523353,0,0,0.107763454892,1900,2017-11-03 04:40:17,17,16.675,5927.863523353,0,0,0.10791667012,54, 0, 1,0,0,1024,1024,1024,1024,58.6,-0.6,89,4.174,4.175,4.175,4.175,0,0,71.51,10,Assisted_Takeoff,
0.0656893783692772,36.9677205023299,5927.863523353,0,0,0.106893376124,2000,2017-11-03 04:40:17,17,16.675,5927.863523353,0,0,0.10791667012,54, 0, 1,0,0,467,413,474,1618,58.6,-0.6,89,4.174,4.175,4.175,4.175,0,0,71.51,10,Assisted_Takeoff,
0.0656893844539582,36.967720505723,5927.863523353,0,0,0.104820869496,2100,2017-11-03 04:40:17,17,16.675,5927.863523353,0,0,0.10791667012,54, 0, 1,0,0,722,708,768,1350,58.5,-0.6,89,4.174,4.175,4.175,4.175,0,0,71.51,10,Assisted_Takeoff,
0.0656893894288546,36.967720510334,5927.863523353,0,0,0.102531827428,2200,2017-11-03 04:40:18,17,16.568,5927.863523353,0,0,0.10791667012,54, 0, 1,0,0,888,915,1024,1062,57.7,-0.6,89,4.151,4.149,4.143,4.144,0,0,71.51,10,Assisted_Takeoff,
0.0656893945095999,36.967720516812,5927.863523353,0,0,0.099614176416,2300,2017-11-03 04:40:18,17,16.568,5927.863523353,0,0,0.10791667012,54, 0, 1,0,0,1024,1024,1024,1024,56.2,-0.6,89,4.151,4.149,4.143,4.144,0,0,71.51,10,Assisted_Takeoff,
0.0656893971102249,36.9677205234378,5927.863523353,0,0,0.097020344312,2400,2017-11-03 04:40:18,17,16.568,5927.863523353,0,0,0.10791667012,54, 0, 1,0,0,1024,1024,1024,1024,55.5,-0.6,89,4.151,4.149,4.143,4.144,0,0,71.51,10,Assisted_Takeoff,
0.0656894012782273,36.967720531284,5927.863523353,0,0,0.09378609224,2500,2017-11-03 04:40:18,17,16.568,5927.863523353,0,0,0.10791667012,54, 0, 1,0,0,1024,1024,1024,1024,55.2,-0.6,89,4.151,4.149,4.143,4.144,0,0,71.51,10,Assisted_Takeoff,
0.0656894031248828,36.9677205377294,5927.863523353,0,0,0.09136483232,2600,2017-11-03 04:40:18,17,16.568,5927.863523353,0,0,0.10791667012,54, 0, 1,0,0,1024,1024,1024,1024,55,-0.6,89,4.151,4.149,4.143,4.144,0,0,71.51,10,Assisted_Takeoff,
0.0656894074598007,36.9677205451072,5927.863523353,0,0,0.088261485764,2700,2017-11-03 04:40:18,17,16.568,5927.863523353,0,0,0.10791667012,54, 0, 1,0,0,1024,1024,1024,1024,54.8,-0.6,89,4.151,4.149,4.143,4.144,0,0,71.51,10,Assisted_Takeoff,
0.0656894094611584,36.9677205488296,5927.863523353,0,0,0.086723427972,2800,2017-11-03 04:40:18,17,16.568,5927.863523353,0,0,0.10791667012,54, 0, 1,0,0,1024,1024,1024,1024,54.8,-0.6,89,4.151,4.149,4.143,4.144,0,0,71.51,10,Assisted_Takeoff,
0.0656894139165812,36.9677205546075,5927.863523353,0,0,0.08413878222,2900,2017-11-03 04:40:18,17,16.568,5927.863523353,0,0,0.10791667012,54, 0, 1,0,0,1024,1024,1024,1024,54.7,-0.6,89,4.151,4.149,4.143,4.144,0,0,71.51,10,Assisted_Takeoff,
0.0656894146599659,36.9677205572057,5927.863523353,0,0,0.083161419984,3000,2017-11-03 04:40:18,17,16.568,5927.863523353,0,0,0.10791667012,54, 0, 1,0,0,1024,1024,1024,1024,54.7,-0.6,89,4.151,4.149,4.143,4.144,0,0,71.51,10,Assisted_Takeoff,
0.0656894177987917,36.9677205627556,5927.863523353,0,0,0.080847443532,3100,2017-11-03 04:40:18,17,16.568,5927.863523353,0,0,0.10791667012,54, 0, 1,0,0,1024,1024,1024,1024,54.6,-0.6,89,4.151,4.149,4.143,4.144,0,0,71.51,10,Assisted_Takeoff,
0.0656894169837555,36.9677205646751,5927.863523353,0,0,0.080325789972,3200,2017-11-03 04:40:19,17,16.648,5927.863523353,0,0,0.10791667012,54, 0, 1,0,0,1024,1024,1024,1024,54.6,-0.6,88,4.163,4.164,4.166,4.165,0,0,71.51,10,Assisted_Takeoff,
0.0656894190934047,36.9677205704193,5927.863523353,0,0,0.078098099612,3300,2017-11-03 04:40:19,17,16.648,5927.863523353,0,0,0.10791667012,54, 0, 1,0,0,1024,1024,1024,1024,54.5,-0.6,88,4.163,4.164,4.166,4.165,0,0,71.51,10,Assisted_Takeoff,
0.065689418764459,36.9677205599796,5927.863523353,0,0,0.08163878214,3400,2017-11-03 04:40:19,17,16.648,5927.863523353,0,0,0.10791667012,54, 0, 1,0,0,1024,1024,1024,1024,54.5,-0.6,88,4.163,4.164,4.166,4.165,0,0,71.51,10,Assisted_Takeoff,
0.0656894202691412,36.9677205342687,5927.863523353,0,0,0.090155186612,3500,2017-11-03 04:40:19,17,16.648,5927.863523353,0,0,0.10791667012,54, 0, 1,0,0,1024,1024,1024,1024,54.5,-0.6,88,4.163,4.164,4.166,4.165,0,0,71.51,10,Assisted_Takeoff,
0.0656894168396382,36.9677204969936,5927.863523353,0,0,0.103401906196,3600,2017-11-03 04:40:19,17,16.648,5927.863523353,0,0,0.10791667012,54, 0, 1,0,0,1024,1024,1024,1024,54.4,-0.6,88,4.163,4.164,4.166,4.165,0,0,71.51,10,Assisted_Takeoff,
0.0656894184029444,36.9677204840017,5927.863523353,0,0,0.10773950476,3700,2017-11-03 04:40:19,17,16.648,5927.863523353,0,0,0.10791667012,54, 0, 1,0,0,1024,1024,1024,1024,54.4,-0.6,88,4.163,4.164,4.166,4.165,0,0,71.51,10,Assisted_Takeoff,
0.06568941510046,36.9677204664036,5927.863523353,0,0,0.114230318616,3800,2017-11-03 04:40:19,17,16.648,5927.863523353,0,0,0.114230318616,54, 0, 1,0,0,1024,1024,1024,1024,54.4,-0.6,88,4.163,4.164,4.166,4.165,0,0,71.51,10,Assisted_Takeoff,
0.0656894152405062,36.967720461123,5927.863523353,0,0,0.116060371168,3900,2017-11-03 04:40:19,17,16.648,5927.863523353,0,0,0.116060371168,54, 0, 1,0,0,1024,1024,1024,1024,54.4,-0.6,88,4.163,4.164,4.166,4.165,0,0,71.51,10,Assisted_Takeoff,
0.0656894114942707,36.9677204527753,5927.863523353,0,0,0.119370738728,4000,2017-11-03 04:40:19,17,16.648,5927.863523353,0,0,0.119370738728,54, 0, 1,0,0,1024,1024,1024,1024,54.4,-0.6,88,4.163,4.164,4.166,4.165,0,0,71.51,10,Assisted_Takeoff,
0.0656894126048695,36.9677204541263,5927.863523353,0,0,0.118781827948,4100,2017-11-03 04:40:19,17,16.648,5927.863523353,0,0,0.119370738728,54, 0, 1,0,0,1024,1024,1024,1024,54.4,-0.6,88,4.163,4.164,4.166,4.165,0,0,71.51,10,Assisted_Takeoff,
0.0656893945486825,36.9677204541691,5927.863523353,0,0,0.120826447436,4200,2017-11-03 04:40:20,17,16.648,5927.863523353,0,0,0.120826447436,54, 0, 1,0,0,1024,1024,1024,1024,54.4,-0.6,88,4.163,4.164,4.166,4.165,0,0,71.51,10,Assisted_Takeoff,
0.0656893655143403,36.9677204592597,5927.863523353,0,0,0.123107287404,4300,2017-11-03 04:40:20,17,16.648,5927.863523353,0,0,0.123107287404,54, 0, 1,0,0,1024,1024,1024,1024,54.4,-0.6,88,4.163,4.164,4.166,4.165,0,0,71.51,10,Assisted_Takeoff,
0.0656893463125429,36.9677204428607,5927.863523353,0,0,0.13152395434,4400,2017-11-03 04:40:20,17,16.648,5927.863523353,0,0,0.13152395434,54, 0, 1,0,0,1024,1024,1024,1024,54.4,-0.6,88,4.163,4.164,4.166,4.165,0,0,71.51,10,Assisted_Takeoff,
0.0656893575089096,36.9677204202315,5927.863523353,0,0,0.137306762924,4500,2017-11-03 04:40:20,17,16.648,5927.863523353,0,0,0.137306762924,54, 0, 1,0,0,1024,1024,1024,1024,54.3,-0.6,88,4.163,4.164,4.166,4.165,0,0,71.51,10,Assisted_Takeoff,
0.0656893519200898,36.9677203914604,5927.863523353,0,0,0.147772642524,4600,2017-11-03 04:40:20,17,16.648,5927.863523353,0,0,0.147772642524,54, -0.1, 1,0,0,1024,1024,1024,1024,54.3,-0.6,88,4.163,4.164,4.166,4.165,0,0,71.51,10,Assisted_Takeoff,
0.0656893315140581,36.9677203808056,5927.863523353,0,0,0.1542979052,4700,2017-11-03 04:40:20,17,16.648,5927.863523353,0,0,0.1542979052,54, 0, 1,0,0,1024,1024,1024,1024,54.3,-0.6,88,4.163,4.164,4.166,4.165,0,0,71.51,10,Assisted_Takeoff,
0.0656893077167917,36.9677203673565,5927.863523353,0,0,0.162459978952,4800,2017-11-03 04:40:20,17,16.648,5927.863523353,0,0,0.162459978952,54, 0, 1,0,0,830,1024,1024,1024,54.3,-0.6,88,4.163,4.164,4.166,4.165,0,0,71.51,10,Assisted_Takeoff,
0.065689295750171,36.9677203650489,5927.863523353,0,0,0.165197839932,4900,2017-11-03 04:40:20,17,16.648,5927.863523353,0,0,0.165197839932,54, 0, 1,0,0,816,1024,1024,1024,54.3,-0.6,88,4.163,4.164,4.166,4.165,0,0,71.51,10,Assisted_Takeoff,
0.0656892831484571,36.9677203602035,5927.863523353,0,0,0.168931435852,5000,2017-11-03 04:40:20,17,16.648,5927.863523353,0,0,0.168931435852,54, 0, 1,0,0,812,1024,1024,1024,54.3,-0.6,88,4.163,4.164,4.166,4.165,0,0,71.51,10,Assisted_Takeoff,
0.0656892783258202,36.9677203632782,5927.863523353,0,0,0.16880906052,5100,2017-11-03 04:40:20,17,16.648,5927.863523353,0,0,0.168931435852,54, -0.1, 1,0,0,812,1024,1024,1024,54.3,-0.6,88,4.163,4.164,4.166,4.165,0,0,71.51,10,Assisted_Takeoff,
0.0656892738264295,36.9677203634811,5927.863523353,0,0,0.169559388628,5200,2017-11-03 04:40:21,17,16.648,5927.863523353,0,0,0.169559388628,54, -0.1, 1,0,0,876,1024,1024,1024,54.3,-0.6,88,4.168,4.169,4.168,4.168,0,0,71.51,10,Assisted_Takeoff,
0.0656892734575869,36.9677203697696,5927.863523353,0,0,0.167644690404,5300,2017-11-03 04:40:21,17,16.648,5927.863523353,0,0,0.169559388628,54, -0.1, 1,0,0,1024,1024,1024,1024,54.3,-0.6,88,4.168,4.169,4.168,4.168,0,0,71.51,10,Assisted_Takeoff,
0.0656892736757984,36.9677203558645,5927.863523353,0,0,0.171998693168,5400,2017-11-03 04:40:21,17,16.648,5927.863523353,0,0,0.171998693168,54, -0.1, 1,0,0,1024,1024,1024,1024,54.3,-0.6,88,4.168,4.169,4.168,4.168,0,0,71.51,10,Assisted_Takeoff,
0.0656892758611702,36.9677203353561,5927.863523353,0,0,0.178167984704,5500,2017-11-03 04:40:21,17,16.648,5927.863523353,0,0,0.178167984704,54, -0.1, 1,0,0,1024,1024,1024,1024,54.3,-0.6,88,4.168,4.169,4.168,4.168,0,0,71.51,10,Assisted_Takeoff,
0.0656892784976211,36.9677203050049,5927.863523353,0,0,0.187576777656,5600,2017-11-03 04:40:21,17,16.648,5927.863523353,0,0,0.187576777656,54, -0.1, 1,0,0,1024,1024,1024,1024,54.3,-0.6,88,4.168,4.169,4.168,4.168,0,0,71.51,10,Assisted_Takeoff,
0.065689282550004,36.9677202947643,5927.863523353,0,0,0.190294953596,5700,2017-11-03 04:40:21,17,16.648,5927.863523353,0,0,0.190294953596,54, -0.1, 1,0,0,1024,1024,1024,1024,54.3,-0.6,88,4.168,4.169,4.168,4.168,0,0,71.51,10,Assisted_Takeoff,
0.0656892856367196,36.9677202807013,5927.863523353,0,0,0.19447343142,5800,2017-11-03 04:40:21,17,16.648,5927.863523353,0,0,0.19447343142,54, -0.1, 1,0,0,1024,1024,1024,1024,54.3,-0.6,88,4.168,4.169,4.168,4.168,0,0,71.51,10,Assisted_Takeoff,
0.0656892891101906,36.9677202783787,5927.863523353,0,0,0.194726384184,5900,2017-11-03 04:40:21,17,16.648,5927.863523353,0,0,0.194726384184,54, -0.1, 1,0,0,1024,1024,1024,1024,54.3,-0.6,88,4.168,4.169,4.168,4.168,0,0,71.51,10,Assisted_Takeoff,
0.06568929119867,36.9677202716865,5927.863523353,0,0,0.196654205768,6000,2017-11-03 04:40:21,17,16.648,5927.863523353,0,0,0.196654205768,54, -0.1, 1,0,0,1024,1024,1024,1024,54.3,-0.6,88,4.168,4.169,4.168,4.168,0,0,71.51,10,Assisted_Takeoff,
0.0656892950450547,36.967720276313,5927.863523353,0,0,0.19454725032,6100,2017-11-03 04:40:21,17,16.648,5927.863523353,0,0,0.196654205768,54, -0.1, 1,0,0,1024,1024,1024,1024,54.3,-0.6,88,4.168,4.169,4.168,4.168,0,0,71.51,10,Assisted_Takeoff,
0.0656892970171004,36.9677202777272,5927.863523353,0,0,0.193789048196,6200,2017-11-03 04:40:22,17,16.648,5927.863523353,0,0,0.196654205768,54, -0.1, 1,0,0,1024,1024,1024,1024,54.3,-0.6,88,4.167,4.169,4.168,4.168,0,0,73.31,10,Assisted_Takeoff,
0.0656893007983474,36.9677202860242,5927.863523353,0,0,0.190463260688,6300,2017-11-03 04:40:22,17,16.648,5927.863523353,0,0,0.196654205768,54, -0.1, 1,0,0,1024,1024,1024,1024,54.3,-0.6,88,4.167,4.169,4.168,4.168,0,0,73.31,10,Assisted_Takeoff,
0.0656893025481105,36.9677202900955,5927.863523353,0,0,0.188846462736,6400,2017-11-03 04:40:22,17,16.648,5927.863523353,0,0,0.196654205768,54, -0.1, 1,0,0,1024,1024,1024,1024,54.3,-0.6,88,4.167,4.169,4.168,4.168,0,0,73.31,10,Assisted_Takeoff,
0.0656893065776951,36.9677202998501,5927.863523353,0,0,0.184996396996,6500,2017-11-03 04:40:22,17,16.648,5927.863523353,0,0,0.196654205768,54, -0.1, 1,0,0,1024,1024,1024,1024,54.3,-0.6,88,4.167,4.169,4.168,4.168,0,0,73.31,10,Assisted_Takeoff,
0.0656892918060796,36.967720303679,5927.863523353,0,0,0.185915688364,6600,2017-11-03 04:40:22,17,16.648,5927.863523353,0,0,0.196654205768,54, -0.1, 1,0,0,1024,1024,1024,1024,54.3,-0.6,88,4.167,4.169,4.168,4.168,0,0,73.31,10,Assisted_Takeoff,
0.065689266375484,36.9677203134485,5927.863523353,0,0,0.186849743512,6700,2017-11-03 04:40:22,17,16.648,5927.863523353,0,0,0.196654205768,54, -0.1, 1,0,0,1024,1024,1024,1024,54.3,-0.6,88,4.167,4.169,4.168,4.168,0,0,73.31,10,Assisted_Takeoff,
0.065689235746895,36.9677203170429,5927.863523353,0,0,0.191212604544,6800,2017-11-03 04:40:22,17,16.648,5927.863523353,0,0,0.196654205768,54, -0.1, 1,0,0,1024,1024,1024,1024,54.3,-0.6,88,4.167,4.169,4.168,4.168,0,0,73.31,10,Assisted_Takeoff,
0.0656892204558059,36.967720325722,5927.863523353,0,0,0.191486882768,6900,2017-11-03 04:40:22,17,16.648,5927.863523353,0,0,0.196654205768,54, -0.1, 1,0,0,1024,1024,1024,1024,54.3,-0.6,88,4.167,4.169,4.168,4.168,0,0,73.31,10,Assisted_Takeoff,
0.0656892020519461,36.9677203429272,5927.863523353,0,0,0.19009351002,7000,2017-11-03 04:40:22,17,16.648,5927.863523353,0,0,0.196654205768,54, -0.1, 1,0,0,1024,1024,1024,1024,54.3,-0.6,88,4.167,4.169,4.168,4.168,0,0,73.31,10,Assisted_Takeoff,
0.0656891953606697,36.9677203830988,5927.863523353,0,0,0.179928155364,7100,2017-11-03 04:40:22,17,16.648,5927.863523353,0,0,0.196654205768,54, -0.1, 1,0,0,1024,1024,1024,1024,54.3,-0.6,88,4.167,4.169,4.168,4.168,0,0,73.31,10,Assisted_Takeoff,
0.0656891880929241,36.9677204176991,5927.863523353,0,0,0.172091212856,7200,2017-11-03 04:40:23,17,16.648,5927.863523353,0,0,0.196654205768,54, -0.1, 1,0,0,1024,1024,1024,1024,54.3,-0.6,88,4.167,4.169,4.168,4.168,0,0,73.31,10,Assisted_Takeoff,
0.0656891875840354,36.9677204467474,5927.863523353,0,0,0.164553154872,7300,2017-11-03 04:40:23,17,16.648,5927.863523353,0,0,0.196654205768,54, -0.1, 1,0,0,1024,1024,1024,1024,54.3,-0.6,88,4.167,4.169,4.168,4.168,0,0,73.31,10,Assisted_Takeoff,
0.0656891870385067,36.9677204657629,5927.863523353,0,0,0.159863522176,7400,2017-11-03 04:40:23,17,16.648,5927.863523353,0,0,0.196654205768,54, -0.1, 1,0,0,1024,1024,1024,1024,54.3,-0.6,88,4.167,4.169,4.168,4.168,0,0,73.31,10,Assisted_Takeoff,
0.0656891903849591,36.9677204834958,5927.863523353,0,0,0.154590228044,7500,2017-11-03 04:40:23,17,16.648,5927.863523353,0,0,0.196654205768,54, -0.1, 1,0,0,1024,1024,1024,1024,54.3,-0.6,88,4.167,4.169,4.168,4.168,0,0,73.31,10,Assisted_Takeoff,
0.0656891938226043,36.9677204885045,5927.863523353,0,0,0.152437997004,7600,2017-11-03 04:40:23,17,16.648,5927.863523353,0,0,0.196654205768,54, -0.2, 1,0,0,1024,1024,1024,1024,54.3,-0.6,88,4.167,4.169,4.168,4.168,0,0,73.31,10,Assisted_Takeoff,
0.0656891996117227,36.9677204995517,5927.863523353,0,0,0.148191277708,7700,2017-11-03 04:40:23,17,16.648,5927.863523353,0,0,0.196654205768,54, -0.2, 1,0,0,1024,1024,1024,1024,54.3,-0.6,88,4.167,4.169,4.168,4.168,0,0,73.31,10,Assisted_Takeoff,
0.0656892036527065,36.9677204936368,5927.863523353,0,0,0.148516408952,7800,2017-11-03 04:40:23,17,16.648,5927.863523353,0,0,0.196654205768,54, -0.2, 1,0,0,1024,1024,1024,1024,54.3,-0.6,88,4.167,4.169,4.168,4.168,0,0,73.31,10,Assisted_Takeoff,
0.065689210696541,36.9677205030134,5927.863523353,0,0,0.144319886508,7900,2017-11-03 04:40:23,17,16.648,5927.863523353,0,0,0.196654205768,54, -0.2, 1,0,0,1024,1024,1024,1024,54.3,-0.6,88,4.167,4.169,4.168,4.168,0,0,73.31,10,Assisted_Takeoff,
0.0656892216641114,36.9677205039132,5927.863523353,0,0,0.141132550448,8100,2017-11-03 04:40:23,17,16.648,5927.863523353,0,0,0.196654205768,54, -0.2, 1,0,0,1024,1024,1024,1024,54.3,-0.6,88,4.167,4.169,4.168,4.168,0,0,73.31,10,Assisted_Takeoff,
0.065689224435723,36.9677204936358,5927.863523353,0,0,0.142970148932,8200,2017-11-03 04:40:24,17,16.648,5927.863523353,0,0,0.196654205768,54, -0.2, 1,0,0,1024,1024,1025,1024,54.3,-0.6,88,4.168,4.169,4.168,4.167,0,0,73.31,10,Assisted_Takeoff,
0.0656892300261713,36.9677204969679,5927.863523353,0,0,0.140659781404,8300,2017-11-03 04:40:24,17,16.648,5927.863523353,0,0,0.196654205768,54, -0.2, 1.1,0,0,1024,1024,1028,1024,54.3,-0.6,88,4.168,4.169,4.168,4.167,0,0,73.31,10,Assisted_Takeoff,
0.0656892317173104,36.9677204871283,5927.863523353,0,0,0.142753941576,8400,2017-11-03 04:40:24,17,16.648,5927.863523353,0,0,0.196654205768,54, -0.2, 1,0,0,1024,1024,1033,1024,54.3,-0.6,88,4.168,4.169,4.168,4.167,0,0,73.31,10,Assisted_Takeoff,
0.065689237136772,36.9677204915551,5927.863523353,0,0,0.140215883752,8500,2017-11-03 04:40:24,17,16.648,5927.863523353,0,0,0.196654205768,54, -0.2, 1,0,0,1024,1024,1041,1024,54.3,-0.6,88,4.168,4.169,4.168,4.167,0,0,73.31,10,Assisted_Takeoff,
0.0656892377083558,36.9677204832823,5927.863523353,0,0,0.142243114788,8600,2017-11-03 04:40:24,17,16.648,5927.863523353,0,0,0.196654205768,54, -0.2, 1,0,0,1024,1024,1060,1024,54.3,-0.6,88,4.168,4.169,4.168,4.167,0,0,73.31,10,Assisted_Takeoff,
0.0656892279409487,36.9677204844337,5927.863523353,0,0,0.144421264464,8800,2017-11-03 04:40:24,17,16.648,5927.863523353,0,0,0.196654205768,54, -0.2, 1,0,0,1024,1024,1101,1024,54.3,-0.6,88,4.168,4.169,4.168,4.167,0,0,73.31,10,Assisted_Takeoff,
0.0656892021968776,36.9677204909149,5927.863523353,0,0,0.149575792188,8900,2017-11-03 04:40:24,17,16.648,5927.863523353,0,0,0.196654205768,54, -0.2, 1,0,0,1024,1024,1210,1024,54.3,-0.6,88,4.168,4.169,4.168,4.167,0,0,73.31,10,Assisted_Takeoff,
0.0656891825619141,36.967720485705,5927.863523353,0,0,0.1562007924,9000,2017-11-03 04:40:24,17,16.648,5927.863523353,0,0,0.196654205768,54, -0.2, 1,0,0,1024,1024,1295,1024,54.3,-0.6,88,4.168,4.169,4.168,4.167,0,0,73.31,10,Assisted_Takeoff,
0.0656891980931987,36.9677204931053,5927.863523353,0,0,0.150158797456,9100,2017-11-03 04:40:24,17,16.648,5927.863523353,0,0,0.196654205768,54, -0.3, 1,0,0,1024,1024,1329,1024,54.3,-0.6,88,4.168,4.169,4.168,4.167,0,0,73.31,10,Assisted_Takeoff,
0.0656891984433142,36.9677205044951,5927.863523353,0,0,0.14733924356,9200,2017-11-03 04:40:25,17,16.648,5927.863523353,0,0,0.196654205768,54, -0.5, 0.9,0,0,1024,1024,1371,1024,54.3,-0.6,88,4.167,4.168,4.168,4.167,0,0,73.31,10,Assisted_Takeoff,
0.0656891848962886,36.9677205445146,5927.863523353,0,0,0.142376316892,9300,2017-11-03 04:40:25,17,16.648,5927.863523353,0,0,0.196654205768,53.9, -0.6, 0.8,0,0,1024,1024,1385,1024,54.3,-0.6,88,4.167,4.168,4.168,4.167,0,0,73.31,10,Assisted_Takeoff,
0.0656891803553725,36.9677205967874,5927.863523353,0,0,0.133957025284,9400,2017-11-03 04:40:25,17,16.648,5927.863523353,0,0,0.196654205768,53.5, -0.5, 0,0,0,1024,1024,1417,1024,54.2,-0.6,88,4.167,4.168,4.168,4.167,0,0,73.31,10,Assisted_Takeoff,
0.0656892402332583,36.9677206317539,5927.863523353,0,0,0.108697181956,9500,2017-11-03 04:40:25,17,16.648,5927.863523353,0,0,0.196654205768,53.2, 0, -1.9,0,0,1024,1024,1435,1024,54.2,-0.6,88,4.167,4.168,4.168,4.167,0,0,73.31,10,Assisted_Takeoff,
0.065689358295448,36.9677206486769,5927.863523353,0,0.223694,0.068872705616,9600,2017-11-03 04:40:25,17,16.648,5927.863523353,0,0.223694,0.196654205768,53.1, 0.5, -2.3,0,0,1024,1024,1454,1024,54.2,-0.6,88,4.167,4.168,4.168,4.167,0,0,73.31,6,GPS_Atti,Obstacle Avoided. Revise Flight Route
0.065689553009311,36.9677206399181,5927.863523353,0,0.447388,0.049044292908,9700,2017-11-03 04:40:25,17,16.648,5927.863523353,0,0.447388,0.196654205768,53.1, 0.5, -0.8,0,0,1024,1024,1494,1024,54.2,-0.6,88,4.167,4.168,4.168,4.167,0,0,73.31,6,GPS_Atti,
0.0656898284101313,36.9677205928499,5928.191607353,0.328084,0.671082,0.133437668312,9800,2017-11-03 04:40:25,17,16.648,5928.191607353,0.328084,0.671082,0.196654205768,53, 0.8, 0.4,0,0,1024,1024,1495,1024,54.2,-0.6,88,4.167,4.168,4.168,4.167,0,0,73.31,6,GPS_Atti,
0.0656901940984006,36.9677205529839,5928.519691353,0.656168,0.894776,0.262721137016,9900,2017-11-03 04:40:25,17,16.648,5928.519691353,0.656168,0.894776,0.262721137016,52.9, 1.3, 1.5,0,0,1024,1024,1492,1024,54.2,-0.6,88,4.167,4.168,4.168,4.167,0,0,73.31,6,GPS_Atti,
0.0656906288009406,36.9677205010061,5928.847775353,0.984252,0.894776,0.42082022344,10000,2017-11-03 04:40:25,17,16.648,5928.847775353,0.984252,0.894776,0.42082022344,53, 1.8, 3.2,0,0,1024,1024,1478,1024,54.1,-0.6,88,4.167,4.168,4.168,4.167,0,0,73.31,6,GPS_Atti,
0.0656910939842884,36.9677204914844,5929.503943353,1.64042,0.894776,0.58788387708,10100,2017-11-03 04:40:25,17,16.648,5929.503943353,1.64042,0.894776,0.58788387708,53.1, 2.9, 4.6,0,0,1024,1024,1476,1024,54.1,-0.6,88,4.167,4.168,4.168,4.167,0,0,73.31,6,GPS_Atti,
0.0656915237477578,36.9677205243135,5930.160111353,2.296588,0.671082,0.74135172976,10200,2017-11-03 04:40:26,17,16.113,5930.160111353,2.296588,0.894776,0.74135172976,53.2, 4.5, 4.7,0,0,1024,1024,1481,1024,54.1,-0.6,88,4.084,4.087,4.081,4.073,0,0,73.31,6,GPS_Atti,
0.0656918857655143,36.9677205836954,5931.144363353,3.28084,0.671082,0.87071525096,10300,2017-11-03 04:40:26,17,16.113,5931.144363353,3.28084,0.894776,0.87071525096,53.2, 4.4, 3.8,0,0,1024,1024,1490,1024,54.1,-0.6,88,4.084,4.087,4.081,4.073,0,0,73.31,6,GPS_Atti,
0.065692248594643,36.967720611731,5931.800531353,3.937008,0.671082,1.002132578,10400,2017-11-03 04:40:26,17,16.113,5931.800531353,3.937008,0.894776,1.002132578,53.3, 3.8, 4.3,0,0,1024,1024,1499,1024,54.1,-0.6,88,4.084,4.087,4.081,4.073,0,0,73.31,6,GPS_Atti,
0.0656926430131426,36.9677206136896,5932.784783353,4.92126,0.671082,1.1458005616,10500,2017-11-03 04:40:26,17,16.113,5932.784783353,4.92126,0.894776,1.1458005616,53.3, 3.1, 5.6,0,0,1024,1024,1501,1024,54,-0.9,88,4.084,4.087,4.081,4.073,0,0,73.31,6,GPS_Atti,
0.0656930271105642,36.967720629602,5933.769035353,5.905512,0.671082,1.28555450308,10600,2017-11-03 04:40:26,17,16.113,5933.769035353,5.905512,0.894776,1.28555450308,53.3, 3.7, 5.4,0,0,1024,1024,1501,1024,54,-3.9,88,4.084,4.087,4.081,4.073,0,0,73.31,6,GPS_Atti,
0.0656933898875827,36.9677206571709,5935.081371353,7.217848,0.671082,1.41750660704,10700,2017-11-03 04:40:26,17,16.113,5935.081371353,7.217848,0.894776,1.41750660704,53.3, 4.4, 5.3,0,0,1024,1024,1501,1024,54,-9.5,88,4.084,4.087,4.081,4.073,0,0,73.31,6,GPS_Atti,
0.0656937280453778,36.9677207100357,5936.065623353,8.2021,0.70687304,1.54046264772,10800,2017-11-03 04:40:26,16,16.113,5936.065623353,8.2021,0.894776,1.54046264772,53.3, 4.3, 4.9,0,0,1024,1024,1497,1024,54,-15.1,88,4.084,4.087,4.081,4.073,0,0,73.31,6,GPS_Atti,
0.065694038424768,36.9677208246799,5937.049875353,9.186352,0.70687304,1.653707402,10900,2017-11-03 04:40:26,16,16.113,5937.049875353,9.186352,0.894776,1.653707402,53.3, 4.5, 3.5,0,0,1024,1024,1497,1024,54,-20.8,88,4.084,4.087,4.081,4.073,0,0,73.31,6,GPS_Atti,
0.0656943629817988,36.9677209311273,5938.362211353,10.498688,0.70687304,1.77300858692,11000,2017-11-03 04:40:26,17,16.113,5938.362211353,10.498688,0.894776,1.77300858692,53.4, 5.2, 3.7,0,0,1024,1024,1498,1024,54,-26.4,88,4.084,4.087,4.081,4.073,0,0,73.31,6,GPS_Atti,
0.0656947033290369,36.9677210291917,5939.346463353,11.48294,0.70687304,1.8985892996,11100,2017-11-03 04:40:26,17,16.113,5939.346463353,11.48294,0.894776,1.8985892996,53.4, 5.6, 3.8,0,0,1024,1024,1498,1024,53.9,-32,88,4.084,4.087,4.081,4.073,0,0,73.31,6,GPS_Atti,
0.0656950416732888,36.9677211126882,5940.330715353,12.467192,0.70687304,2.02356305688,11200,2017-11-03 04:40:27,17,15.953,5940.330715353,12.467192,0.894776,2.02356305688,53.4, 5.9, 3.8,0,0,1024,1024,1497,1024,53.9,-37.7,88,4.084,4.087,4.081,4.073,0,0,73.31,6,GPS_Atti,
0.0656953796348563,36.9677212128631,5941.314967353,13.451444,0.50107456,2.14910439948,11300,2017-11-03 04:40:27,17,15.953,5941.314967353,13.451444,0.894776,2.14910439948,53.5, 6.7, 2.6,0,0,1024,1024,1499,1024,53.9,-43.3,88,4.084,4.087,4.081,4.073,0,0,73.31,6,GPS_Atti,
0.0656957280805499,36.967721235563,5942.299219353,14.435696,0.671082,2.27649613584,11400,2017-11-03 04:40:27,17,15.953,5942.299219353,14.435696,0.894776,2.27649613584,53.5, 6, 3.8,0,0,1024,1024,1498,1024,53.9,-48.9,88,4.084,4.087,4.081,4.073,0,0,73.31,6,GPS_Atti,
0.0656960655122625,36.9677212142875,5943.611555353,15.748032,0.447388,2.39873367256,11500,2017-11-03 04:40:27,17,15.953,5943.611555353,15.748032,0.894776,2.39873367256,53.4, 4.8, 4.9,0,0,1024,1024,1498,1024,53.9,-54.6,88,4.084,4.087,4.081,4.073,0,0,73.31,6,GPS_Atti,
0.0656963807080812,36.9677211782922,5944.595807353,16.732284,0.447388,2.51265756072,11600,2017-11-03 04:40:27,17,15.953,5944.595807353,16.732284,0.894776,2.51265756072,53.3, 4.1, 4.6,0,0,1024,1024,1498,1024,53.9,-60.3,88,4.084,4.087,4.081,4.073,0,0,73.31,6,GPS_Atti,
0.0656966815848901,36.9677211914538,5945.580059353,17.716536,0.447388,2.6225230498,11700,2017-11-03 04:40:27,17,15.953,5945.580059353,17.716536,0.894776,2.6225230498,53.2, 4.5, 3.6,0,0,1024,1024,1498,1024,53.9,-65.9,88,4.084,4.087,4.081,4.073,0,0,73.31,6,GPS_Atti,
0.0656969831493094,36.9677211865073,5946.564311353,18.700788,0.447388,2.73226386696,11800,2017-11-03 04:40:27,17,15.953,5946.564311353,18.700788,0.894776,2.73226386696,53.2, 4.8, 3.4,0,0,1024,1024,1496,1024,53.9,-65.9,88,4.084,4.087,4.081,4.073,0,0,73.31,6,GPS_Atti,
0.0656976100596389,36.9677211820901,5948.532815353,20.669292,0.447388,2.96057424172,12000,2017-11-03 04:40:27,17,15.953,5948.532815353,20.669292,0.894776,2.96057424172,53.4, 5, 3.6,0,0,1024,1024,1496,1024,53.8,-77.1,88,4.084,4.087,4.081,4.073,0,0,73.31,6,GPS_Atti,
0.0656979328203688,36.9677210822294,5949.517067353,21.653544,0.447388,3.07660114832,12100,2017-11-03 04:40:27,17,15.953,5949.517067353,21.653544,0.894776,3.07660114832,53.4, 4.7, 4.3,0,0,1024,1024,1496,1024,53.8,-82.7,88,4.084,4.087,4.081,4.073,0,0,73.31,6,GPS_Atti,
0.0656982763370423,36.9677209472132,5950.501319353,22.637796,0.447388,3.20045285832,12200,2017-11-03 04:40:28,17,16.007,5950.501319353,22.637796,0.894776,3.20045285832,53.3, 4.3, 5.2,0,0,1024,1024,1497,1024,53.8,-88.4,88,4.017,4.027,4.025,4.021,0,0,73.31,6,GPS_Atti,
0.0656986335721605,36.9677208215383,5951.485571353,23.622048,0.447388,3.3301838336,12300,2017-11-03 04:40:28,17,16.007,5951.485571353,23.622048,0.894776,3.3301838336,53.3, 3.6, 6.8,0,0,1024,1024,1492,1024,53.8,-89.9,88,4.017,4.027,4.025,4.021,0,0,73.31,6,GPS_Atti,
0.0656989954451382,36.967720688643,5952.469823353,24.6063,0.447388,3.4622376436,12400,2017-11-03 04:40:28,17,16.007,5952.469823353,24.6063,0.894776,3.4622376436,53.3, 3.9, 6.8,0,0,1024,1024,1491,1024,53.8,-89.9,88,4.017,4.027,4.025,4.021,0,0,73.31,6,GPS_Atti,
0.0656993555487606,36.9677205979404,5953.454075353,25.590552,0.447388,3.5940289864,12500,2017-11-03 04:40:28,17,16.007,5953.454075353,25.590552,0.894776,3.5940289864,53.3, 4.5, 6.3,0,0,1024,1024,1488,1024,53.8,-89.9,88,4.017,4.027,4.025,4.021,0,0,73.31,6,GPS_Atti,
0.0656996975744154,36.9677204976643,5954.438327353,26.574804,0.447388,3.7195867332,12600,2017-11-03 04:40:28,17,16.007,5954.438327353,26.574804,0.894776,3.7195867332,53.4, 5, 6.3,0,0,1024,1024,1478,1024,53.8,-89.9,88,4.017,4.027,4.025,4.021,0,0,73.31,6,GPS_Atti,
0.0657000076026725,36.9677204335965,5955.422579353,27.559056,0.447388,3.833333456,12700,2017-11-03 04:40:28,17,16.007,5955.422579353,27.559056,0.894776,3.833333456,53.5, 5.6, 6.5,0,0,1024,1024,1480,1024,53.8,-90,88,4.017,4.027,4.025,4.021,0,0,73.31,6,GPS_Atti,
0.0657003026948411,36.9677203395302,5956.406831353,28.543308,0.447388,3.9421589188,12800,2017-11-03 04:40:28,17,16.007,5956.406831353,28.543308,0.894776,3.9421589188,53.5, 5.4, 6.8,0,0,1024,1024,1498,1024,53.8,-90,88,4.017,4.027,4.025,4.021,0,0,73.31,6,GPS_Atti,
0.0657005877433779,36.9677202607442,5957.391083353,29.52756,0.50107456,4.0472770324,12900,2017-11-03 04:40:28,17,16.007,5957.391083353,29.52756,0.894776,4.0472770324,53.4, 4.7, 6.6,0,0,1024,1024,1531,1024,53.7,-90,88,4.017,4.027,4.025,4.021,0,0,73.31,6,GPS_Atti,
0.0657008606854513,36.9677201415533,5958.375335353,30.511812,0.447388,4.1489174556,13000,2017-11-03 04:40:28,17,16.007,5958.375335353,30.511812,0.894776,4.1489174556,53.5, 4.2, 7.1,0,0,1024,1024,1542,1024,53.7,-90,88,4.017,4.027,4.025,4.021,0,0,73.31,6,GPS_Atti,
0.065701119060279,36.9677200273223,5959.687671353,31.824148,0.447388,4.2455053852,13100,2017-11-03 04:40:28,17,16.087,5959.687671353,31.824148,0.894776,4.2455053852,53.5, 4.4, 7.6,0,0,1024,1024,1515,1024,53.7,-90,88,4.016,4.023,4.021,4.017,0,0,73.31,6,GPS_Atti,
0.0657015176555339,36.9677197792329,5961.656175353,33.792652,0.223694,4.3971130016,13300,2017-11-03 04:40:29,17,16.087,5961.656175353,33.792652,0.894776,4.3971130016,53.6, 4.6, 7.7,0,0,1024,1024,1431,1024,53.7,-90,88,4.016,4.023,4.021,4.017,0,0,73.31,6,GPS_Atti,
0.0657016645700873,36.9677196191001,5962.968511353,35.104988,0.31540854,4.4556431872,13400,2017-11-03 04:40:29,17,16.087,5962.968511353,35.104988,0.894776,4.4556431872,53.6, 4.1, 8.1,0,0,1024,1024,1389,1024,53.7,-90,88,4.016,4.023,4.021,4.017,0,0,73.31,6,GPS_Atti,
0.0657018074505778,36.9677194596337,5963.952763353,36.08924,0.31540854,4.5133203544,13500,2017-11-03 04:40:29,17,16.087,5963.952763353,36.08924,0.894776,4.5133203544,53.5, 3.4, 9.6,0,0,1024,1024,1399,1024,53.7,-90,88,4.016,4.023,4.021,4.017,0,0,73.31,6,GPS_Atti,
0.0657019553047434,36.9677192659235,5964.937015353,37.073492,0.31540854,4.5749017212,13600,2017-11-03 04:40:29,17,16.087,5964.937015353,37.073492,0.894776,4.5749017212,53.5, 3.2, 10.6,0,0,1024,1024,1412,1024,53.7,-90,88,4.016,4.023,4.021,4.017,0,0,73.31,6,GPS_Atti,
0.0657021005037311,36.967719100516,5965.921267353,38.057744,0,4.63500671,13700,2017-11-03 04:40:29,17,16.087,5965.921267353,38.057744,0.894776,4.63500671,53.4, 2.9, 9,0,0,1024,1024,1415,1024,53.7,-90,88,4.016,4.023,4.021,4.017,0,0,73.31,6,GPS_Atti,
0.0657022472998152,36.9677189203945,5966.905519353,39.041996,0.31540854,4.6970802028,13800,2017-11-03 04:40:29,17,16.087,5966.905519353,39.041996,0.894776,4.6970802028,53.4, 2.7, 8.3,0,0,1024,1024,1415,1024,53.7,-89.9,88,4.016,4.023,4.021,4.017,0,0,73.31,6,GPS_Atti,
0.0657024387555688,36.9677187539159,5967.561687353,39.698164,0.31540854,4.7751970032,13900,2017-11-03 04:40:29,17,16.087,5967.561687353,39.698164,0.894776,4.7751970032,53.3, 2.9, 8.5,0,0,1024,1024,1415,1024,53.7,-90,88,4.016,4.023,4.021,4.017,0,0,73.31,6,GPS_Atti,
0.0657026590193109,36.9677185678731,5968.545939353,40.682416,0.50107456,4.865321678,14000,2017-11-03 04:40:29,17,16.087,5968.545939353,40.682416,0.894776,4.865321678,53.5, 3.7, 9.7,0,0,1024,1024,1421,1024,53.6,-90,88,4.016,4.023,4.021,4.017,0,0,73.31,6,GPS_Atti,
0.0657028815250133,36.9677183866891,5969.202107353,41.338584,0.31540854,4.9565618384,14100,2017-11-03 04:40:29,17,16.087,5969.202107353,41.338584,0.894776,4.9565618384,53.6, 3.9, 10.7,0,0,1024,1024,1494,1024,53.6,-90,88,4.016,4.023,4.021,4.017,0,0,73.31,6,GPS_Atti,
0.0657030545463737,36.9677181955654,5970.186359353,42.322836,0.223694,5.0312665652,14200,2017-11-03 04:40:30,17,16.087,5970.186359353,42.322836,0.894776,5.0312665652,53.5, 3.3, 10.8,0,0,1024,1024,1547,1024,53.6,-90,88,4.016,4.023,4.021,4.017,0,0,73.31,6,GPS_Atti,Home Point Recorded. RTH Altitude:  30m.
0.0657031583165248,36.9677180791445,5970.842527353,42.979004,0,5.0765093488,14300,2017-11-03 04:40:30,17,16.087,5970.842527353,42.979004,0.894776,5.0765093488,53.4, 2.4, 9.5,0,0,1024,1024,1569,1024,53.6,-90,88,4.016,4.023,4.021,4.017,0,0,73.31,6,GPS_Atti,
0.0657031894995989,36.9677179782619,5971.826779353,43.963256,0.223694,5.0948820528,14400,2017-11-03 04:40:30,17,16.087,5971.826779353,43.963256,0.894776,5.0948820528,53.3, 2, 7.1,0,0,1024,1024,1605,1024,53.6,-90,88,4.016,4.023,4.021,4.017,0,0,73.31,6,GPS_Atti,
0.065703206169573,36.9677178972496,5972.811031353,44.947508,0,5.1068243104,14500,2017-11-03 04:40:30,17,16.087,5972.811031353,44.947508,0.894776,5.1068243104,53.3, 1.8, 6.4,0,0,1024,1024,1618,1024,53.6,-89.9,88,4.016,4.023,4.021,4.017,0,0,73.31,6,GPS_Atti,
0.0657032174379983,36.9677177872517,5973.795283353,45.93176,0,5.1192258856,14600,2017-11-03 04:40:30,17,16.087,5973.795283353,45.93176,0.894776,5.1192258856,53.3, 2, 7.1,0,0,1024,1024,1637,1024,53.6,-89.9,88,4.016,4.023,4.021,4.017,0,0,73.31,6,GPS_Atti,
0.0657032095713925,36.967717691442,5975.107619353,47.244096,0,5.1239502952,14700,2017-11-03 04:40:30,17,16.087,5975.107619353,47.244096,0.894776,5.1239502952,53.2, 2, 7.7,0,0,1024,1024,1649,1024,53.6,-89.9,88,4.016,4.023,4.021,4.017,0,0,73.31,6,GPS_Atti,
0.065703166569479,36.9677175957972,5976.419955353,48.556432,0,5.1164043632,14800,2017-11-03 04:40:30,17,16.087,5976.419955353,48.556432,0.894776,5.1239502952,53.1, 1.7, 7.3,0,0,1024,1024,1684,1024,53.6,-89.9,88,4.016,4.023,4.021,4.017,0,0,73.31,6,GPS_Atti,
0.0657031397213228,36.9677175427643,5977.732291353,49.868768,0,5.1112862528,14900,2017-11-03 04:40:30,17,16.087,5977.732291353,49.868768,0.894776,5.1239502952,53.1, 1.5, 7.6,0,0,1024,1024,1684,1024,53.6,-90,88,4.016,4.023,4.021,4.017,0,0,73.31,6,GPS_Atti,
0.0657030898734307,36.9677174940137,5979.372711353,51.509188,0,5.0977363836,15000,2017-11-03 04:40:30,17,16.087,5979.372711353,51.509188,0.894776,5.1239502952,53.1, 2, 6.8,0,0,1024,1024,1684,1024,53.6,-89.9,88,4.016,4.023,4.021,4.017,0,0,73.31,6,GPS_Atti,
0.0657030607918636,36.9677174887422,5980.685047353,52.821524,0.223694,5.0878610552,15100,2017-11-03 04:40:30,17,16.087,5980.685047353,52.821524,0.894776,5.1239502952,53.3, 2.7, 7,0,0,1024,1024,1684,1024,53.6,-90,88,4.016,4.023,4.021,4.017,0,0,73.31,6,GPS_Atti,
0.0657030426571041,36.9677174549121,5982.325467353,54.461944,0,5.0843505564,15200,2017-11-03 04:40:31,17,15.713,5982.325467353,54.461944,0.894776,5.1239502952,53.4, 3.3, 7.7,0,0,1024,1024,1684,1024,53.6,-89.9,88,4.036,4.037,4.029,4.02,0,0,73.31,6,GPS_Atti,
0.0657030479751951,36.9677174239769,5983.965887353,56.102364,0,5.0889437324,15300,2017-11-03 04:40:31,17,15.713,5983.965887353,56.102364,0.894776,5.1239502952,53.5, 3.6, 8.4,0,0,1024,1024,1684,1024,53.6,-90,88,4.036,4.037,4.029,4.02,0,0,73.31,6,GPS_Atti,
0.0657030386523532,36.9677173988667,5985.606307353,57.742784,0,5.0878282468,15400,2017-11-03 04:40:31,17,15.713,5985.606307353,57.742784,0.894776,5.1239502952,53.4, 3.5, 8,0,0,1024,1024,1684,1024,53.6,-90,88,4.036,4.037,4.029,4.02,0,0,73.31,6,GPS_Atti,
0.0657029520863059,36.9677173042207,5987.246727353,59.383204,0,5.0656825768,15500,2017-11-03 04:40:31,17,15.713,5987.246727353,59.383204,0.894776,5.1239502952,53.4, 2.8, 7,0,0,1024,1024,1684,1024,53.6,-90,88,4.036,4.037,4.029,4.02,0,0,73.31,6,GPS_Atti,
0.0657028957197525,36.9677172412176,5988.887147353,61.023624,0,5.0515749648,15600,2017-11-03 04:40:31,17,15.713,5988.887147353,61.023624,0.894776,5.1239502952,53.3, 2.7, 6.7,0,0,1024,1024,1684,1024,53.6,-89.9,88,4.036,4.037,4.029,4.02,0,0,73.31,6,GPS_Atti,
0.0657028208467473,36.9677171317228,5990.527567353,62.664044,0,5.0355316572,15700,2017-11-03 04:40:31,17,15.713,5990.527567353,62.664044,0.894776,5.1239502952,53.4, 2.8, 7.3,0,0,1024,1024,1684,1024,53.5,-89.9,88,4.036,4.037,4.029,4.02,0,0,73.31,6,GPS_Atti,
0.0657027850482558,36.9677170775979,5992.167987353,64.304464,0,5.0281825756,15800,2017-11-03 04:40:31,17,15.713,5992.167987353,64.304464,0.894776,5.1239502952,53.4, 2.8, 7.7,0,0,1024,1024,1684,1024,53.5,-90,88,4.036,4.037,4.029,4.02,0,0,73.31,6,GPS_Atti,
0.0657027686563385,36.9677169700462,5993.808407353,65.944884,0.223694,5.0330710272,15900,2017-11-03 04:40:31,17,15.713,5993.808407353,65.944884,0.894776,5.1239502952,53.3, 2.8, 7,0,0,1024,1024,1684,1024,53.5,-90,88,4.036,4.037,4.029,4.02,0,0,73.31,6,GPS_Atti,
0.0657027518862151,36.9677168744238,5995.448827353,67.585304,0,5.03690961,16000,2017-11-03 04:40:31,17,15.713,5995.448827353,67.585304,0.894776,5.1239502952,53.4, 3.3, 6.5,0,0,1024,1024,1684,1024,53.5,-90,88,4.036,4.037,4.029,4.02,0,0,73.31,6,GPS_Atti,
0.0657027463873669,36.9677168222378,5997.089247353,69.225724,0,5.0403873004,16100,2017-11-03 04:40:31,17,15.472,5997.089247353,69.225724,0.894776,5.1239502952,53.5, 3.8, 7,0,0,1024,1024,1684,1024,53.5,-90,88,4.036,4.037,4.029,4.02,0,0,73.31,6,GPS_Atti,
0.0657027182865302,36.9677166159077,6000.370087353,72.506564,0,5.0526248336,16300,2017-11-03 04:40:32,17,15.472,6000.370087353,72.506564,0.894776,5.1239502952,53.4, 3.5, 7.2,0,0,1024,1024,1684,1024,53.5,-90,88,4.036,4.037,4.029,4.02,0,0,73.31,6,GPS_Atti,
0.0657027042432363,36.9677165158949,6002.010507353,74.146984,0,5.0587928128,16400,2017-11-03 04:40:32,17,15.472,6002.010507353,74.146984,0.894776,5.1239502952,53.4, 3.2, 7.2,0,0,1024,1024,1684,1024,53.5,-90,88,4.036,4.037,4.029,4.02,0,0,73.31,6,GPS_Atti,
0.0657026754047144,36.9677163536702,6003.650927353,75.787404,0,5.0672901884,16500,2017-11-03 04:40:32,17,15.472,6003.650927353,75.787404,0.894776,5.1239502952,53.4, 2.8, 7,0,0,1024,1024,1684,1024,53.5,-90,88,4.036,4.037,4.029,4.02,0,0,73.31,6,GPS_Atti,
0.0657026485480089,36.9677162042891,6005.291347353,77.427824,0,5.0755907136,16600,2017-11-03 04:40:32,17,15.472,6005.291347353,77.427824,0.894776,5.1239502952,53.3, 2.4, 6.9,0,0,1024,1024,1684,1024,53.5,-90,88,4.036,4.037,4.029,4.02,0,0,73.31,6,GPS_Atti,
0.0657026376687816,36.9677161089141,6006.931767353,79.068244,0,5.0833663044,16700,2017-11-03 04:40:32,17,15.472,6006.931767353,79.068244,0.894776,5.1239502952,53.3, 2.4, 7.2,0,0,1024,1024,1684,1024,53.5,-89.9,88,4.036,4.037,4.029,4.02,0,0,73.31,6,GPS_Atti,
0.0657026335052575,36.9677159924241,6008.900271353,81.036748,0,5.096292814,16800,2017-11-03 04:40:32,17,15.472,6008.900271353,81.036748,0.894776,5.1239502952,53.4, 3, 7.6,0,0,1024,1024,1684,1024,53.5,-89.9,88,4.036,4.037,4.029,4.02,0,0,73.31,6,GPS_Atti,
0.0657026472737515,36.967715902311,6010.540691353,82.677168,0,5.1123361216,16900,2017-11-03 04:40:32,17,15.472,6010.540691353,82.677168,0.894776,5.1239502952,53.5, 3.4, 7.6,0,0,1024,1024,1684,1024,53.5,-89.9,88,4.036,4.037,4.029,4.02,0,0,73.31,6,GPS_Atti,
0.065702624627795,36.9677157900958,6012.181111353,84.317588,0,5.1189634184,17000,2017-11-03 04:40:32,17,15.472,6012.181111353,84.317588,0.894776,5.1239502952,53.5, 3.8, 7.4,0,0,1024,1024,1684,1024,53.5,-89.9,88,4.036,4.037,4.029,4.02,0,0,73.31,6,GPS_Atti,
0.0657025739892934,36.9677157147833,6013.821531353,85.958008,0,5.11154872,17100,2017-11-03 04:40:32,17,15.472,6013.821531353,85.958008,0.894776,5.1239502952,53.4, 3.6, 7.3,0,0,1024,1024,1684,1024,53.5,-89.9,88,4.036,4.037,4.029,4.02,0,0,73.31,6,GPS_Atti,
0.0657024930812747,36.9677156267095,6015.461951353,87.598428,0,5.0957678796,17200,2017-11-03 04:40:33,17,15.846,6015.461951353,87.598428,0.894776,5.1239502952,53.4, 3.3, 6.5,0,0,1024,1024,1684,1024,53.5,-90,88,3.946,3.955,3.956,3.96,0,0,73.31,6,GPS_Atti,
0.0657024314251281,36.9677155845044,6017.102371353,89.238848,0,5.080544782,17300,2017-11-03 04:40:33,17,15.846,6017.102371353,89.238848,0.894776,5.1239502952,53.3, 3, 5.7,0,0,1024,1024,1684,1024,53.5,-90,88,3.946,3.955,3.956,3.96,0,0,73.31,6,GPS_Atti,
0.0657023927809307,36.9677155477678,6018.742791353,90.879268,0,5.0724739156,17400,2017-11-03 04:40:33,17,15.846,6018.742791353,90.879268,0.894776,5.1239502952,53.3, 3, 6.1,0,0,1024,1024,1684,1024,53.5,-89.9,88,3.946,3.955,3.956,3.96,0,0,73.31,6,GPS_Atti,
0.0657023557484858,36.9677154345206,6020.383211353,92.519688,0,5.0756563304,17500,2017-11-03 04:40:33,17,15.846,6020.383211353,92.519688,0.894776,5.1239502952,53.4, 3.1, 6.8,0,0,1024,1024,1684,1024,53.5,-89.9,88,3.946,3.955,3.956,3.96,0,0,73.31,6,GPS_Atti,
0.0657023156602657,36.967715316458,6022.023631353,94.160108,0,5.0788715536,17600,2017-11-03 04:40:33,17,15.846,6022.023631353,94.160108,0.894776,5.1239502952,53.4, 3.2, 7.1,0,0,1024,1024,1684,1024,53.5,-90,88,3.946,3.955,3.956,3.96,0,0,73.31,6,GPS_Atti,
0.0657022763296792,36.9677152393544,6023.664051353,95.800528,0,5.076771816,17700,2017-11-03 04:40:33,17,15.846,6023.664051353,95.800528,0.894776,5.1239502952,53.4, 3.1, 7.1,0,0,1024,1024,1684,1024,53.5,-90,88,3.946,3.955,3.956,3.96,0,0,73.31,6,GPS_Atti,
0.0657022053099796,36.9677151282548,6025.304471353,97.440948,0,5.0693243092,17800,2017-11-03 04:40:33,17,15.846,6025.304471353,97.440948,0.894776,5.1239502952,53.3, 2.4, 7.1,0,0,1024,1024,1684,1024,53.5,-90,88,3.946,3.955,3.956,3.96,0,0,73.31,6,GPS_Atti,
0.0657021309385351,36.96771503176,6027.272975353,99.409452,0,5.0589896632,17900,2017-11-03 04:40:33,17,15.846,6027.272975353,99.409452,0.894776,5.1239502952,53.3, 1.2, 7.6,0,0,1024,1024,1684,1024,53.5,-90,88,3.946,3.955,3.956,3.96,0,0,73.31,6,GPS_Atti,
0.065702068000396,36.9677149339954,6028.913395353,101.049872,0,5.052985726,18000,2017-11-03 04:40:33,17,15.846,6028.913395353,101.049872,0.894776,5.1239502952,53.2, 0.9, 7.5,0,0,1024,1024,1684,1024,53.5,-89.9,88,3.946,3.955,3.956,3.96,0,0,73.31,6,GPS_Atti,
0.0657020594111681,36.9677149084473,6030.553815353,102.690292,0.223694,5.0541012116,18100,2017-11-03 04:40:33,17,15.846,6030.553815353,102.690292,0.894776,5.1239502952,53.2, 1.5, 6.9,0,0,1024,1024,1684,1024,53.5,-89.9,88,3.946,3.955,3.956,3.96,0,0,73.31,6,GPS_Atti,
0.065702058431252,36.9677148940449,6032.194235353,104.330712,0.223694,5.0559712904,18200,2017-11-03 04:40:34,17,15.846,6032.194235353,104.330712,0.894776,5.1239502952,53.3, 2.8, 6.4,0,0,1024,1024,1684,1024,53.5,-89.9,88,3.961,3.973,3.973,3.971,0,0,73.31,6,GPS_Atti,
0.0657020673376193,36.9677149300386,6033.834655353,105.971132,0.223694,5.0533794268,18300,2017-11-03 04:40:34,17,15.846,6033.834655353,105.971132,0.894776,5.1239502952,53.5, 4.2, 6.3,0,0,1024,1024,1684,1024,53.5,-90,88,3.961,3.973,3.973,3.971,0,0,73.31,6,GPS_Atti,
0.0657020688671353,36.9677149086871,6035.475075353,107.611552,0,5.0571852012,18400,2017-11-03 04:40:34,17,15.846,6035.475075353,107.611552,0.894776,5.1239502952,53.4, 3.8, 7.3,0,0,1024,1024,1684,1024,53.5,-90,88,3.961,3.973,3.973,3.971,0,0,73.31,6,GPS_Atti,
0.0657020806578841,36.9677148670376,6037.115495353,109.251972,0,5.0675198472,18500,2017-11-03 04:40:34,17,15.846,6037.115495353,109.251972,0.894776,5.1239502952,53.2, 2.6, 8,0,0,1024,1024,1684,1024,53.4,-90,88,3.961,3.973,3.973,3.971,0,0,73.31,6,GPS_Atti,
0.0657020908474653,36.9677148304134,6038.755915353,110.892392,0.223694,5.0765749656,18600,2017-11-03 04:40:34,17,15.846,6038.755915353,110.892392,0.894776,5.1239502952,53.2, 2.2, 8.6,0,0,1024,1024,1684,1024,53.4,-89.9,88,3.961,3.973,3.973,3.971,0,0,73.31,6,GPS_Atti,
0.0657021319103091,36.9677148759105,6040.724419353,112.860896,0.223694,5.0830710288,18700,2017-11-03 04:40:34,17,15.846,6040.724419353,112.860896,0.894776,5.1239502952,53.3, 3.1, 8.3,0,0,1024,1024,1684,1024,53.4,-89.9,88,3.961,3.973,3.973,3.971,0,0,73.31,6,GPS_Atti,
0.0657021684420075,36.9677149494405,6042.364839353,114.501316,0.31540854,5.0838912388,18800,2017-11-03 04:40:34,17,15.846,6042.364839353,114.501316,0.894776,5.1239502952,53.5, 4.5, 8.3,0,0,1024,1024,1684,1024,53.4,-89.9,88,3.961,3.973,3.973,3.971,0,0,73.31,6,GPS_Atti,
0.0657022182573307,36.9677150561369,6044.005259353,116.141736,0.223694,5.0843505564,18900,2017-11-03 04:40:34,17,15.846,6044.005259353,116.141736,0.894776,5.1239502952,53.6, 4.8, 8.3,0,0,1024,1024,1684,1024,53.4,-89.9,88,3.961,3.973,3.973,3.971,0,0,73.31,6,GPS_Atti,
0.0657022439704614,36.9677151653094,6045.645679353,117.782156,0.223694,5.0767390076,19000,2017-11-03 04:40:34,17,15.846,6045.645679353,117.782156,0.894776,5.1239502952,53.7, 5.3, 7.9,0,0,1024,1024,1684,1024,53.4,-89.9,88,3.961,3.973,3.973,3.971,0,0,73.31,6,GPS_Atti,
0.0657022818883728,36.9677152980463,6047.286099353,119.422576,0.223694,5.0701773276,19100,2017-11-03 04:40:34,17,15.846,6047.286099353,119.422576,0.894776,5.1239502952,53.7, 5.7, 7.8,0,0,1024,1024,1684,1024,53.4,-89.9,88,3.961,3.973,3.973,3.971,0,0,73.31,6,GPS_Atti,
0.0657022878285294,36.96771541567,6048.926519353,121.062996,0.223694,5.055446356,19200,2017-11-03 04:40:35,17,15.82,6048.926519353,121.062996,0.894776,5.1239502952,53.6, 6, 7.6,0,0,1024,1024,1684,1024,53.4,-89.9,88,3.96,3.975,3.974,3.974,0,0,73.31,6,GPS_Atti,
0.0657022924467965,36.9677155311343,6050.566939353,122.703416,0.223694,5.0408794264,19300,2017-11-03 04:40:35,17,15.82,6050.566939353,122.703416,0.894776,5.1239502952,53.6, 5.9, 7.3,0,0,1024,1024,1684,1024,53.4,-90,88,3.96,3.975,3.974,3.974,0,0,73.31,6,GPS_Atti,
0.0657022903196416,36.9677156365556,6052.207359353,124.343836,0.223694,5.0257219456,19400,2017-11-03 04:40:35,17,15.82,6052.207359353,124.343836,0.894776,5.1239502952,53.5, 5.6, 7.1,0,0,1024,1024,1684,1024,53.4,-90,88,3.96,3.975,3.974,3.974,0,0,73.31,6,GPS_Atti,
0.0657022805884673,36.967715683604,6053.847779353,125.984256,0.223694,5.0160434676,19500,2017-11-03 04:40:35,17,15.82,6053.847779353,125.984256,0.894776,5.1239502952,53.5, 4.9, 7.4,0,0,1024,1024,1684,1024,53.4,-90,88,3.96,3.975,3.974,3.974,0,0,73.31,6,GPS_Atti,
0.0657022693554607,36.9677157422627,6055.488199353,127.624676,0.223694,5.0043636772,19600,2017-11-03 04:40:35,17,15.82,6055.488199353,127.624676,0.894776,5.1239502952,53.4, 4.6, 7.4,0,0,1024,1024,1684,1024,53.4,-89.9,88,3.96,3.975,3.974,3.974,0,0,73.31,6,GPS_Atti,
0.0657022686882057,36.9677158452153,6057.128619353,129.265096,0.223694,4.990485724,19700,2017-11-03 04:40:35,17,15.82,6057.128619353,129.265096,0.894776,5.1239502952,53.4, 4.9, 7.3,0,0,1024,1024,1684,1024,53.4,-89.9,88,3.96,3.975,3.974,3.974,0,0,73.31,6,GPS_Atti,
0.0657022636795191,36.9677159396471,6058.769039353,130.905516,0.223694,4.9764765372,19800,2017-11-03 04:40:35,17,15.82,6058.769039353,130.905516,0.894776,5.1239502952,53.5, 5.4, 7.2,0,0,1024,1024,1684,1024,53.4,-89.9,88,3.96,3.975,3.974,3.974,0,0,73.31,6,GPS_Atti,
0.065702270585343,36.9677160458371,6060.409459353,132.545936,0.223694,4.9652888728,19900,2017-11-03 04:40:35,17,15.82,6060.409459353,132.545936,0.894776,5.1239502952,53.5, 5.7, 7.4,0,0,1024,1024,1684,1024,53.4,-89.9,88,3.96,3.975,3.974,3.974,0,0,73.31,6,GPS_Atti,
0.0657022587913373,36.9677161425835,6062.049879353,134.186356,0.223694,4.9491143316,20000,2017-11-03 04:40:35,17,15.82,6062.049879353,134.186356,0.894776,5.1239502952,53.6, 6.2, 7,0,0,1024,1024,1684,1024,53.4,-89.9,88,3.96,3.975,3.974,3.974,0,0,73.31,6,GPS_Atti,
0.065702240205906,36.9677162562942,6063.690299353,135.826776,0.223694,4.9287075068,20100,2017-11-03 04:40:35,17,15.82,6063.690299353,135.826776,0.894776,5.1239502952,53.6, 6.6, 6.4,0,0,1024,1024,1684,1024,53.4,-89.9,88,3.96,3.975,3.974,3.974,0,0,73.31,6,GPS_Atti,
0.0657021876067578,36.9677163275846,6065.330719353,137.467196,0.223694,4.9019686608,20200,2017-11-03 04:40:36,17,15.766,6065.330719353,137.467196,0.894776,5.1239502952,53.6, 6.5, 5.4,0,0,1024,1024,1684,1024,53.4,-90,88,3.96,3.975,3.974,3.974,0,0,73.31,6,GPS_Atti,
0.0657021421914903,36.9677163688851,6066.971139353,139.107616,0,4.8813649856,20300,2017-11-03 04:40:36,17,15.766,6066.971139353,139.107616,0.894776,5.1239502952,53.5, 5.7, 5.5,0,0,1024,1024,1684,1024,53.4,-90,88,3.96,3.975,3.974,3.974,0,0,73.31,6,GPS_Atti,
0.0657021178609085,36.9677163443284,6068.611559353,140.748036,0,4.8759515996,20400,2017-11-03 04:40:36,17,15.766,6068.611559353,140.748036,0.894776,5.1239502952,53.6, 5.4, 7.3,0,0,1024,1024,1684,1024,53.4,-89.9,88,3.96,3.975,3.974,3.974,0,0,73.31,6,GPS_Atti,
0.0657021251844283,36.9677163216837,6070.251979353,142.388456,0,4.8812009436,20500,2017-11-03 04:40:36,17,15.766,6070.251979353,142.388456,0.894776,5.1239502952,53.5, 4.7, 8.5,0,0,1024,1024,1684,1024,53.4,-90,88,3.96,3.975,3.974,3.974,0,0,73.31,6,GPS_Atti,
0.0657021306181388,36.9677162989854,6072.220483353,144.35696,0,4.885826928,20600,2017-11-03 04:40:36,17,15.766,6072.220483353,144.35696,0.894776,5.1239502952,53.4, 4.2, 8.3,0,0,1024,1024,1684,1024,53.3,-89.9,88,3.96,3.975,3.974,3.974,0,0,73.31,6,GPS_Atti,
0.0657021751255488,36.967716314696,6073.860903353,145.99738,0,4.8992455636,20700,2017-11-03 04:40:36,17,15.766,6073.860903353,145.99738,0.894776,5.1239502952,53.5, 4.8, 8.1,0,0,1024,1024,1684,1024,53.3,-89.9,88,3.96,3.975,3.974,3.974,0,0,73.31,6,GPS_Atti,
0.0657022252433554,36.9677163375741,6075.501323353,147.6378,0.223694,4.9137468764,20800,2017-11-03 04:40:36,17,15.766,6075.501323353,147.6378,0.894776,5.1239502952,53.6, 5.7, 8,0,0,1024,1024,1684,1024,53.3,-89.9,88,3.96,3.975,3.974,3.974,0,0,73.31,6,GPS_Atti,
0.0657022796907876,36.9677163752465,6077.141743353,149.27822,0,4.9280185304,20900,2017-11-03 04:40:36,17,15.766,6077.141743353,149.27822,0.894776,5.1239502952,53.6, 5.9, 8.1,0,0,1024,1024,1684,1024,53.3,-90,88,3.96,3.975,3.974,3.974,0,0,73.31,6,GPS_Atti,
0.0657023739255848,36.9677163713057,6080.422583353,152.55906,0,4.9610237808,21100,2017-11-03 04:40:36,17,15.766,6080.422583353,152.55906,0.894776,5.1239502952,53.6, 6, 8.3,0,0,1024,1024,1684,1024,53.3,-89.9,88,3.96,3.975,3.974,3.974,0,0,73.31,6,GPS_Atti,
0.0657024073156076,36.9677163340595,6082.063003353,154.19948,0,4.9769358548,21200,2017-11-03 04:40:37,17,15.793,6082.063003353,154.19948,0.894776,5.1239502952,53.6, 5.8, 7.5,0,0,1024,1024,1684,1024,53.3,-89.9,88,3.954,3.967,3.966,3.965,0,0,73.31,6,GPS_Atti,
0.0657024508923619,36.9677162890098,6083.703423353,155.8399,0,4.9973426796,21300,2017-11-03 04:40:37,17,15.793,6083.703423353,155.8399,0.894776,5.1239502952,53.5, 5.7, 7,0,0,1024,1024,1684,1024,53.3,-90,88,3.954,3.967,3.966,3.965,0,0,73.31,6,GPS_Atti,
0.0657025243600199,36.9677162139007,6085.343843353,157.48032,0,5.031660266,21400,2017-11-03 04:40:37,17,15.793,6085.343843353,157.48032,0.894776,5.1239502952,53.6, 4.9, 8.6,0,0,1024,1024,1684,1024,53.3,-90,88,3.954,3.967,3.966,3.965,0,0,73.31,6,GPS_Atti,
0.0657025759992004,36.9677160674134,6086.984263353,159.12074,0,5.06725738,21500,2017-11-03 04:40:37,17,15.793,6086.984263353,159.12074,0.894776,5.1239502952,53.5, 4.5, 10.2,0,0,1024,1024,1684,1024,53.3,-90,88,3.954,3.967,3.966,3.965,0,0,73.31,6,GPS_Atti,
0.0657026225503076,36.967715950113,6088.624683353,160.76116,0,5.0978348088,21600,2017-11-03 04:40:37,17,15.793,6088.624683353,160.76116,0.894776,5.1239502952,53.5, 4.4, 10.9,0,0,1024,1024,1684,1024,53.3,-89.9,88,3.954,3.967,3.966,3.965,0,0,73.31,6,GPS_Atti,
0.0657026601014119,36.9677159133603,6090.593187353,162.729664,0,5.115321686,21700,2017-11-03 04:40:37,17,15.793,6090.593187353,162.729664,0.894776,5.1239502952,53.5, 4.9, 10.2,0,0,1024,1024,1684,1024,53.3,-89.9,88,3.954,3.967,3.966,3.965,0,0,73.31,6,GPS_Atti,
0.0657026420415609,36.9677158894523,6092.233607353,164.370084,0,5.1121720796,21800,2017-11-03 04:40:37,17,15.793,6092.233607353,164.370084,0.894776,5.1239502952,53.6, 5.3, 9.2,0,0,1024,1024,1684,1024,53.3,-89.9,88,3.954,3.967,3.966,3.965,0,0,73.31,6,GPS_Atti,
0.0657025944046887,36.9677158768913,6093.874027353,166.010504,0,5.0975067248,21900,2017-11-03 04:40:37,17,15.793,6093.874027353,166.010504,0.894776,5.1239502952,53.5, 4.6, 8.7,0,0,1024,1024,1684,1024,53.3,-90,88,3.954,3.967,3.966,3.965,0,0,73.31,6,GPS_Atti,
0.0657025321411324,36.9677158486336,6095.514447353,167.650924,0,5.0798558056,22000,2017-11-03 04:40:37,17,15.793,6095.514447353,167.650924,0.894776,5.1239502952,53.5, 4.7, 8.6,0,0,1024,1024,1684,1024,53.3,-89.9,88,3.954,3.967,3.966,3.965,0,0,73.31,6,GPS_Atti,
0.0657024943107499,36.9677158467248,6097.154867353,169.291344,0,5.0671917632,22100,2017-11-03 04:40:37,17,15.793,6097.154867353,169.291344,0.894776,5.1239502952,53.6, 5.5, 8.5,0,0,1024,1024,1684,1024,53.3,-89.9,88,3.954,3.967,3.966,3.965,0,0,73.31,6,GPS_Atti,
0.0657024340831558,36.9677158132319,6098.795287353,170.931764,0,5.051017222,22200,2017-11-03 04:40:38,17,15.739,6098.795287353,170.931764,0.894776,5.1239502952,53.6, 5.7, 7.9,0,0,1024,1024,1684,1024,53.3,-90,88,3.95,3.963,3.962,3.961,0,0,73.31,6,GPS_Atti,
0.0657023844897081,36.9677157752674,6100.435707353,172.572184,0,5.0391077728,22300,2017-11-03 04:40:38,17,15.739,6100.435707353,172.572184,0.894776,5.1239502952,53.5, 5.1, 7.7,0,0,1024,1024,1684,1024,53.3,-90,88,3.95,3.963,3.962,3.961,0,0,73.31,6,GPS_Atti,
0.065702353647793,36.9677156871626,6102.076127353,174.212604,0,5.040354492,22400,2017-11-03 04:40:38,17,15.739,6102.076127353,174.212604,0.894776,5.1239502952,53.5, 4.3, 8.3,0,0,1024,1024,1684,1024,53.3,-89.9,88,3.95,3.963,3.962,3.961,0,0,73.31,6,GPS_Atti,
0.0657023704004107,36.9677156259601,6103.716547353,175.853024,0,5.0542652536,22500,2017-11-03 04:40:38,17,15.739,6103.716547353,175.853024,0.894776,5.1239502952,53.5, 4.7, 9.2,0,0,1024,1024,1684,1024,53.3,-89.9,88,3.95,3.963,3.962,3.961,0,0,73.31,6,GPS_Atti,
0.0657023742980914,36.9677155482549,6105.356967353,177.493444,0,5.0661747028,22600,2017-11-03 04:40:38,17,15.739,6105.356967353,177.493444,0.894776,5.1239502952,53.6, 5.2, 9.5,0,0,1024,1024,1684,1024,53.3,-89.9,88,3.95,3.963,3.962,3.961,0,0,73.31,6,GPS_Atti,
0.0657023513529083,36.9677155002547,6106.997387353,179.133864,0,5.0650264088,22700,2017-11-03 04:40:38,17,15.739,6106.997387353,179.133864,0.894776,5.1239502952,53.8, 6, 9.1,0,0,1024,1024,1684,1024,53.3,-89.9,88,3.95,3.963,3.962,3.961,0,0,73.31,6,GPS_Atti,
0.0657023019679015,36.967715413516,6108.637807353,180.774284,0,5.0604988496,22800,2017-11-03 04:40:38,17,15.739,6108.637807353,180.774284,0.894776,5.1239502952,53.8, 5.7, 8.8,0,0,1024,1024,1684,1024,53.3,-89.9,88,3.95,3.963,3.962,3.961,0,0,73.31,6,GPS_Atti,
0.0657022576526479,36.9677153444085,6110.278227353,182.414704,0,5.0553807392,22900,2017-11-03 04:40:38,17,15.739,6110.278227353,182.414704,0.894776,5.1239502952,53.7, 5.4, 8.7,0,0,1024,1024,1684,1024,53.2,-90,88,3.95,3.963,3.962,3.961,0,0,73.31,6,GPS_Atti,
0.0657021904732263,36.96771523061,6111.918647353,184.055124,0,5.0493111852,23000,2017-11-03 04:40:38,17,15.739,6111.918647353,184.055124,0.894776,5.1239502952,53.7, 4.8, 8.5,0,0,1024,1024,1684,1024,53.3,-90,88,3.95,3.963,3.962,3.961,0,0,73.31,6,GPS_Atti,
0.065702121325016,36.9677151277195,6113.559067353,185.695544,0,5.0414043608,23100,2017-11-03 04:40:38,17,15.739,6113.559067353,185.695544,0.894776,5.1239502952,53.7, 3.9, 8.9,0,0,1024,1024,1684,1024,53.2,-90,88,3.95,3.963,3.962,3.961,0,0,73.31,6,GPS_Atti,
0.0657020180824808,36.9677149768322,6115.199487353,187.335964,0,5.0298886124,23200,2017-11-03 04:40:39,17,15.766,6115.199487353,187.335964,0.894776,5.1239502952,53.6, 3.4, 8.6,0,0,1024,1024,1684,1024,53.2,-90,88,3.95,3.963,3.962,3.961,0,0,73.31,6,GPS_Atti,
0.0657019176420906,36.9677148270957,6117.167991353,189.304468,0,5.020013284,23300,2017-11-03 04:40:39,17,15.766,6117.167991353,189.304468,0.894776,5.1239502952,53.5, 2.9, 8.4,0,0,1024,1024,1684,1024,53.3,-90,88,3.95,3.963,3.962,3.961,0,0,73.31,6,GPS_Atti,
0.0657018161281488,36.9677146419618,6118.808411353,190.944888,0,5.0163387432,23400,2017-11-03 04:40:39,17,15.766,6118.808411353,190.944888,0.894776,5.1239502952,53.4, 2.8, 9.1,0,0,1024,1024,1684,1024,53.3,-89.9,88,3.95,3.963,3.962,3.961,0,0,73.31,6,GPS_Atti,
0.0657017427997227,36.967714505494,6120.448831353,192.585308,0,5.0148951736,23500,2017-11-03 04:40:39,17,15.766,6120.448831353,192.585308,0.894776,5.1239502952,53.5, 2.9, 9.9,0,0,1024,1024,1684,1024,53.3,-90,88,3.95,3.963,3.962,3.961,0,0,73.31,6,GPS_Atti,
0.0657016434756309,36.9677143545691,6122.089251353,194.225728,0,5.0081366432,23600,2017-11-03 04:40:39,17,15.766,6122.089251353,194.225728,0.894776,5.1239502952,53.4, 2.6, 9.6,0,0,1024,1024,1684,1024,53.3,-90,88,3.95,3.963,3.962,3.961,0,0,73.31,6,GPS_Atti,
0.0657015601794991,36.9677142461213,6123.729671353,195.866148,0,4.9999673516,23700,2017-11-03 04:40:39,17,15.766,6123.729671353,195.866148,0.894776,5.1239502952,53.4, 2.7, 9,0,0,1024,1024,1684,1024,53.2,-89.9,88,3.95,3.963,3.962,3.961,0,0,73.31,6,GPS_Atti,
0.0657014871853112,36.9677140926014,6125.370091353,197.506568,0,5.0035762756,23800,2017-11-03 04:40:39,17,15.766,6125.370091353,197.506568,0.894776,5.1239502952,53.4, 2.7, 9.3,0,0,1024,1024,1684,1024,53.2,-89.9,88,3.95,3.963,3.962,3.961,0,0,73.31,6,GPS_Atti,
0.0657014617433164,36.9677139453315,6127.010511353,199.146988,0,5.0218833628,23900,2017-11-03 04:40:39,17,15.766,6127.010511353,199.146988,0.894776,5.1239502952,53.4, 2.7, 9.9,0,0,1024,1024,1684,1024,53.2,-89.9,88,3.95,3.963,3.962,3.961,0,0,73.31,6,GPS_Atti,
0.0657014338362645,36.9677137804946,6128.650931353,200.787408,0,5.0431760144,24000,2017-11-03 04:40:39,17,15.766,6128.650931353,200.787408,0.894776,5.1239502952,53.4, 2.7, 10,0,0,1024,1024,1684,1024,53.3,-89.9,88,3.95,3.963,3.962,3.961,0,0,73.31,6,GPS_Atti,
0.0657014211901755,36.967713680985,6130.291351353,202.427828,0,5.0576445188,24100,2017-11-03 04:40:39,17,15.686,6130.291351353,202.427828,0.894776,5.1239502952,53.4, 2.8, 9.9,0,0,1024,1024,1684,1024,53.3,-89.9,88,3.945,3.96,3.959,3.956,0,0,73.31,6,GPS_Atti,
