latitude,longitude,altitude(feet),ascent(feet),speed(mph),distance(feet),time(millisecond),datetime(utc),satellites,gpslevel,voltage(v),max_altitude(feet),max_ascent(feet),max_speed(mph),max_distance(feet), xSpeed(mph), ySpeed(mph), zSpeed(mph), compass_heading(degrees), pitch(degrees), roll(degrees),isPhoto,isVideo,rc_elevator,rc_aileron,rc_throttle,rc_rudder,gimbal_heading(degrees),gimbal_pitch(degrees),battery_percent,voltageCell1,voltageCell2,voltageCell3,voltageCell4,voltageCell5,voltageCell6,current(A),battery_temperature(f),flycStateRaw,flycState,message
0.337736682762847,36.9091308215055,5406.0097169556,0,0,0,0,2018-03-30 05:10:17,13,0,0,5406.0097169556,0,0,0,0,0,0,222.3, -0.1, -1.2,0,0,364,364,364,1684,226.8,0,98,4.288,4.285,4.288,4.28,0,0,0,80.51,41,Motors_Started,
0.33773661000804,36.9091307908054,5406.0097169556,0,0,0.0288109261188,100,2018-03-30 05:10:17,13,0,0,5406.0097169556,0,0,0.0288109261188,0,0,0,222.3, -0.1, -1.2,0,0,364,364,364,1684,226.8,0,98,4.288,4.285,4.288,4.28,0,0,0,80.51,41,Motors_Started,
0.337736544917098,36.9091307718284,5406.0097169556,0,0,0.053458991212,200,2018-03-30 05:10:17,13,0,0,5406.0097169556,0,0,0.053458991212,0,0,0,222.2, -0.1, -1.2,0,0,364,364,364,1684,226.8,0,98,4.288,4.285,4.288,4.28,0,0,0,80.51,41,Motors_Started,
0.33773648615144,36.9091307573481,5406.0097169556,0,0,0.07545603916,300,2018-03-30 05:10:17,13,0,0,5406.0097169556,0,0,0.07545603916,0,0,0,222.3, -0.1, -1.2,0,0,364,364,364,1684,226.8,0,98,4.288,4.285,4.288,4.28,0,0,0,80.51,41,Motors_Started,
0.337736429645247,36.9091307473676,5406.0097169556,0,0,0.096229661872,400,2018-03-30 05:10:17,13,0,0,5406.0097169556,0,0,0.096229661872,0,0,0,222.3, -0.1, -1.2,0,0,364,364,364,1684,226.8,0,98,4.288,4.285,4.288,4.28,0,0,0,80.51,41,Motors_Started,
0.337736380129151,36.9091307229987,5406.0097169556,0,0,0.116117457784,500,2018-03-30 05:10:17,13,0,0,5406.0097169556,0,0,0.116117457784,0,0,0,222.2, -0.1, -1.2,0,0,364,364,364,1684,226.8,0,98,4.288,4.285,4.288,4.28,0,0,0,80.51,41,Motors_Started,
0.337736329701532,36.9091306895508,5406.0097169556,0,0,0.137516736684,600,2018-03-30 05:10:17,13,0,0,5406.0097169556,0,0,0.137516736684,0,0,0,222.3, -0.1, -1.2,0,0,364,364,364,1684,226.8,0,98,4.288,4.285,4.288,4.28,0,0,0,80.51,41,Motors_Started,
0.337736285290201,36.9091306604181,5406.0097169556,0,0,0.156474414456,700,2018-03-30 05:10:18,13,0,17.098,5406.0097169556,0,0,0.156474414456,0,0,0,222.2, -0.1, -1.2,0,0,364,364,364,1684,226.8,0,98,4.288,4.285,4.288,4.28,0,0,1.514,80.51,41,Motors_Started,Setting new Return-To-Home altitude to 30m (98 ft). Setting new Maximum Flight Altitude to 120m (394 ft)
0.337736238102779,36.9091306428708,5406.0097169556,0,0,0.174835635516,800,2018-03-30 05:10:18,13,0,17.098,5406.0097169556,0,0,0.174835635516,0,0,0,222.2, 0, -1.2,0,0,364,364,364,1684,226.8,0,98,4.288,4.285,4.288,4.28,0,0,1.514,80.51,41,Motors_Started,
0.337736195873155,36.9091306328858,5406.0097169556,0,0,0.19050525544,900,2018-03-30 05:10:18,13,0,17.098,5406.0097169556,0,0,0.19050525544,0,0,0,222.3, 0, -1.2,0,0,364,364,364,1684,226.8,0,98,4.288,4.285,4.288,4.28,0,0,1.514,80.51,41,Motors_Started,
0.337736149239404,36.9091306265447,5406.0097169556,0,0,0.207244757288,1000,2018-03-30 05:10:18,13,0,17.098,5406.0097169556,0,0,0.207244757288,0,0,0,222.3, 0, -1.1,0,0,364,364,364,1684,226.8,0,98,4.288,4.285,4.288,4.28,0,0,1.514,80.51,41,Motors_Started,
0.337736128772306,36.9091306079384,5406.0097169556,0,0,0.216622054176,1100,2018-03-30 05:10:18,12,0,17.098,5406.0097169556,0,0,0.216622054176,0,0,0,222.2, 0.2, -1.1,0,0,364,364,364,1684,226.8,0,98,4.288,4.285,4.288,4.28,0,0,1.514,80.51,41,Motors_Started,
0.337736109393822,36.9091305767422,5406.0097169556,0,0,0.227456372108,1200,2018-03-30 05:10:18,12,0,17.098,5406.0097169556,0,0,0.227456372108,0,0,0,222.2, -0.1, -1.2,0,0,364,364,364,1684,226.8,0,98,4.288,4.285,4.288,4.28,0,0,1.514,80.51,41,Motors_Started,
0.337736088864843,36.9091305501266,5406.0097169556,0,0,0.238232619172,1300,2018-03-30 05:10:18,12,0,17.098,5406.0097169556,0,0,0.238232619172,0,0,0,222.3, -0.1, -1.3,0,0,364,364,364,1684,226.8,0,98,4.288,4.285,4.288,4.28,0,0,1.514,80.51,41,Motors_Started,
0.337736063524219,36.9091305344841,5406.0097169556,0,0,0.24901739642,1400,2018-03-30 05:10:18,12,0,17.098,5406.0097169556,0,0,0.24901739642,0,0,0,222.2, 0.1, -1.1,0,0,364,364,364,1684,226.8,0,98,4.288,4.285,4.288,4.28,0,0,1.514,80.51,41,Motors_Started,
0.337736041120901,36.9091305282696,5406.0097169556,0,0,0.257390428184,1500,2018-03-30 05:10:18,13,0,17.098,5406.0097169556,0,0,0.257390428184,0,0,0,222.2, 0.3, -1,0,0,364,364,364,1684,226.8,0,98,4.288,4.285,4.288,4.28,0,0,1.514,80.51,41,Motors_Started,
0.337736005289026,36.9091305221067,5406.0097169556,0,0,0.270236885288,1600,2018-03-30 05:10:18,13,0,17.098,5406.0097169556,0,0,0.270236885288,0,0,0,222.3, 0, -1.2,0,0,394,364,465,1636,226.8,0,98,4.288,4.285,4.288,4.28,0,0,1.514,80.51,10,Assisted_Takeoff,
0.337735957967258,36.9091305219758,5406.0097169556,0,0,0.286132227004,1700,2018-03-30 05:10:19,14,0,17.098,5406.0097169556,0,0,0.286132227004,0,0,0,222.3, -0.1, -1.3,0,0,785,777,813,1243,226.2,0,98,4.288,4.285,4.288,4.28,0,0,1.514,80.51,10,Assisted_Takeoff,
0.337735913038895,36.9091305231271,5406.0097169556,0,0,0.301194563444,1800,2018-03-30 05:10:19,14,0,17.098,5406.0097169556,0,0,0.301194563444,0,0,0,222.3, 0, -1.2,0,0,1024,1024,1022,1024,224.7,0,98,4.288,4.285,4.288,4.28,0,0,1.514,80.51,10,Assisted_Takeoff,
0.337735847064522,36.9091305124377,5406.0097169556,0,0,0.32508695266,1900,2018-03-30 05:10:19,14,0,17.098,5406.0097169556,0,0,0.32508695266,0,0,0,222.3, 0, -1.2,0,0,1024,1024,1024,1024,224.7,0,98,4.288,4.285,4.288,4.28,0,0,1.514,80.51,10,Assisted_Takeoff,
0.337735765537288,36.9091304859084,5406.0097169556,0,0,0.35634515576,2000,2018-03-30 05:10:19,14,0,17.098,5406.0097169556,0,0,0.35634515576,0,0,0,222.2, -0.1, -1.3,0,0,1024,1024,1024,1024,223.9,0,98,4.288,4.285,4.288,4.28,0,0,1.514,80.51,10,Assisted_Takeoff,
0.337735703272103,36.909130463737,5406.0097169556,0,0,0.38045932976,2100,2018-03-30 05:10:19,14,0,17.098,5406.0097169556,0,0,0.38045932976,0,0,0,222.2, 0, -1.2,0,0,1024,1024,1024,1024,223.5,0,98,4.288,4.285,4.288,4.28,0,0,1.514,80.51,10,Assisted_Takeoff,
0.337735662895241,36.9091304494379,5406.0097169556,0,0,0.39608597068,2200,2018-03-30 05:10:19,14,0,17.098,5406.0097169556,0,0,0.39608597068,0,0,0,222.2, 0, -1.2,0,0,1024,1024,1024,1024,223.3,0,98,4.288,4.285,4.288,4.28,0,0,1.514,80.51,10,Assisted_Takeoff,
0.337735600831983,36.9091304404187,5406.0097169556,0,0,0.41851051208,2300,2018-03-30 05:10:19,14,0,17.098,5406.0097169556,0,0,0.41851051208,0,0,0,222.2, -0.1, -1.2,0,0,1024,1024,1024,1024,223.1,0,98,4.288,4.285,4.288,4.28,0,0,1.514,80.51,10,Assisted_Takeoff,
0.337735528846617,36.9091304348511,5406.0097169556,0,0,0.4440124814,2400,2018-03-30 05:10:19,14,0,17.098,5406.0097169556,0,0,0.4440124814,0,0,0,222.2, 0, -1.2,0,0,1024,1024,1024,1024,223,0,98,4.288,4.285,4.288,4.28,0,0,1.514,80.51,10,Assisted_Takeoff,
0.337735474230233,36.9091304159832,5406.0097169556,0,0,0.4650918784,2500,2018-03-30 05:10:19,14,0,17.098,5406.0097169556,0,0,0.4650918784,0,0,0,222.2, -0.1, -1.2,0,0,1024,1024,1024,1024,222.9,0,98,4.288,4.285,4.288,4.28,0,0,1.514,80.51,10,Assisted_Takeoff,
0.337735438996812,36.9091303862069,5406.0097169556,0,0,0.4807742936,2600,2018-03-30 05:10:19,14,0,17.098,5406.0097169556,0,0,0.4807742936,0,0,0,222.2, 0, -1.2,0,0,1024,1024,1024,1024,222.8,0,98,4.288,4.285,4.288,4.28,0,0,1.514,80.51,10,Assisted_Takeoff,
0.337735388705983,36.9091303603117,5406.0097169556,0,0,0.50122376932,2700,2018-03-30 05:10:20,14,0,17.072,5406.0097169556,0,0,0.50122376932,0,0,0,222.2, -0.1, -1.2,0,0,1024,1024,1024,1024,222.8,0,98,4.27,4.264,4.263,4.253,0,0,3.128,80.51,10,Assisted_Takeoff,
0.337735317386243,36.9091303445921,5406.0097169556,0,0,0.52767062056,2800,2018-03-30 05:10:20,14,0,17.072,5406.0097169556,0,0,0.52767062056,0,0,0,222.2, -0.1, -1.2,0,0,1024,1024,1024,1024,222.8,0,98,4.27,4.264,4.263,4.253,0,0,3.128,80.51,10,Assisted_Takeoff,
0.337735227321483,36.9091303359057,5406.0097169556,0,0,0.559793325,2900,2018-03-30 05:10:20,14,0,17.072,5406.0097169556,0,0,0.559793325,0,0,0,222.2, 0, -1.2,0,0,1024,1024,1024,1024,222.7,0,98,4.27,4.264,4.263,4.253,0,0,3.128,80.51,10,Assisted_Takeoff,
0.337735132845676,36.9091303303093,5406.0097169556,0,0,0.59320539956,3000,2018-03-30 05:10:20,14,0,17.072,5406.0097169556,0,0,0.59320539956,0,0,0,222.2, -0.1, -1.2,0,0,1024,1024,1024,1024,222.7,0,98,4.27,4.264,4.263,4.253,0,0,3.128,80.51,10,Assisted_Takeoff,
0.337735039634763,36.9091303126895,5406.0097169556,0,0,0.62757876024,3100,2018-03-30 05:10:20,14,0,17.072,5406.0097169556,0,0,0.62757876024,0,0,0,222.2, 0, -1.2,0,0,1024,1024,1024,1024,222.7,0,98,4.27,4.264,4.263,4.253,0,0,3.128,80.51,10,Assisted_Takeoff,
0.337734962075233,36.9091302834455,5406.0097169556,0,0,0.65776904992,3200,2018-03-30 05:10:20,14,0,17.072,5406.0097169556,0,0,0.65776904992,0,0,0,222.2, -0.1, -1.2,0,0,1024,1024,1024,1024,222.7,0,98,4.27,4.264,4.263,4.253,0,0,3.128,80.51,10,Assisted_Takeoff,
0.337734889722652,36.909130258104,5406.0097169556,0,0,0.68572180672,3300,2018-03-30 05:10:20,14,0,17.072,5406.0097169556,0,0,0.68572180672,0,0,0,222.2, -0.1, -1.2,0,0,1024,1024,1024,1024,222.6,0,98,4.27,4.264,4.263,4.253,0,0,3.128,80.51,10,Assisted_Takeoff,
0.337734823366002,36.9091302423284,5406.0097169556,0,0,0.710547923,3400,2018-03-30 05:10:20,14,0,17.072,5406.0097169556,0,0,0.710547923,0,0,0,222.2, -0.1, -1.2,0,0,1024,1024,1054,1024,222.6,0,98,4.27,4.264,4.263,4.253,0,0,3.128,80.51,10,Assisted_Takeoff,
0.337734764895906,36.9091302131124,5406.0097169556,0,0,0.73409451168,3500,2018-03-30 05:10:20,14,0,17.072,5406.0097169556,0,0,0.73409451168,0,0,0,222.2, -0.1, -1.2,0,0,1024,1024,1073,1024,222.6,0,98,4.27,4.264,4.263,4.253,0,0,3.128,80.51,10,Assisted_Takeoff,
0.337734706830478,36.9091301775881,5406.0097169556,0,0,0.75823165156,3600,2018-03-30 05:10:20,14,0,17.072,5406.0097169556,0,0,0.75823165156,0,0,0,222.2, -0.1, -1.2,0,0,1024,1024,1134,1024,222.6,0,98,4.27,4.264,4.263,4.253,0,0,3.128,80.51,10,Assisted_Takeoff,
0.3377346777025,36.9091301486038,5406.0097169556,0,0,0.77164044464,3700,2018-03-30 05:10:20,14,0,17.072,5406.0097169556,0,0,0.77164044464,0,0,0,222.2, 0, -1.2,0,0,1024,1024,1185,1024,222.6,0,98,4.281,4.278,4.282,4.275,0,0,1.98,80.51,10,Assisted_Takeoff,
0.337734657049759,36.909130130808,5406.0097169556,0,0,0.78085960504,3800,2018-03-30 05:10:21,14,0,17.072,5406.0097169556,0,0,0.78085960504,0,0,0,222.2, 0, -1.2,0,0,1024,1024,1233,1024,222.6,0,98,4.281,4.278,4.282,4.275,0,0,1.98,80.51,10,Assisted_Takeoff,
0.337734647932101,36.9091301220121,5406.0097169556,0,0,0.78504595688,3900,2018-03-30 05:10:21,14,0,17.072,5406.0097169556,0,0,0.78504595688,0,0,0,222.2, 0, -1.2,0,0,1024,1024,1283,1024,222.6,0,98,4.281,4.278,4.282,4.275,0,0,1.98,80.51,10,Assisted_Takeoff,
0.337734620323462,36.9091301163611,5406.0097169556,0,0,0.7952428076,4000,2018-03-30 05:10:21,14,0,17.072,5406.0097169556,0,0,0.7952428076,0,0,0,222.2, 0.3, -1.1,0,0,1024,1024,1314,1024,222.6,0,98,4.281,4.278,4.282,4.275,0,0,1.98,80.51,10,Assisted_Takeoff,
0.337734599622682,36.9091301213922,5406.0097169556,0,0,0.80180776844,4100,2018-03-30 05:10:21,14,0,17.072,5406.0097169556,0,0,0.80180776844,0,0,0,222.1, 0.7, -1,0,0,1024,1024,1349,1024,222.6,0,98,4.281,4.278,4.282,4.275,0,0,1.98,80.51,10,Assisted_Takeoff,
0.337734561391702,36.9091301339879,5406.0097169556,0,0,0.81361223076,4200,2018-03-30 05:10:21,14,0,17.072,5406.0097169556,0,0,0.81361223076,0,0,0,222.1, 1.8, -0.9,0,0,1024,1024,1384,1024,222.6,0,98,4.281,4.278,4.282,4.275,0,0,1.98,80.51,10,Assisted_Takeoff,
0.337734540893663,36.9091301635572,5406.0097169556,0,0,0.81749674532,4300,2018-03-30 05:10:21,14,0,17.072,5406.0097169556,0,0,0.81749674532,0,0,-0.223694,222.1, 2.8, -0.9,0,0,1024,1024,1381,1024,222.5,0,98,4.281,4.278,4.282,4.275,0,0,1.98,80.51,10,Assisted_Takeoff,
0.337734531903838,36.9091302328916,5406.0097169556,0,0.223694,0.81359254572,4400,2018-03-30 05:10:21,14,0,17.072,5406.0097169556,0,0.223694,0.81749674532,0,0.223694,-0.671082,222.1, 1.9, -0.3,0,0,1024,1024,1419,1024,222.5,0,98,4.281,4.278,4.282,4.275,0,0,1.98,80.51,6,P-GPS,
0.337734560511528,36.90913035744,5406.0097169556,0,0.223694,0.79259845056,4500,2018-03-30 05:10:21,14,0,17.072,5406.0097169556,0,0.223694,0.81749674532,0,0.223694,-1.342164,222, 0.2, 0,0,0,1024,1024,1476,1024,222.5,0,98,4.281,4.278,4.282,4.275,0,0,1.98,80.51,6,P-GPS,
0.33773456810252,36.9091305042675,5406.3378009556,0.328084,0.223694,0.7801673478,4600,2018-03-30 05:10:21,14,0,17.072,5406.3378009556,0.328084,0.223694,0.81749674532,0,0.223694,-2.013246,222, -0.4, 0.5,0,0,1024,1024,1515,1024,222.5,0,98,4.281,4.278,4.282,4.275,0,0,1.98,80.51,6,P-GPS,
0.337734560631219,36.909130666903,5406.6658849556,0.656168,0.223694,0.77630907996,4700,2018-03-30 05:10:22,14,0,17.098,5406.6658849556,0.656168,0.223694,0.81749674532,0,0.223694,-2.908022,221.8, -0.1, 1.1,0,0,1024,1024,1609,1024,222.5,0,98,4.257,4.248,4.248,4.234,0,0,3.126,80.51,6,P-GPS,Home Point Recorded. RTH Altitude:  30m.
0.337734476953624,36.9091309697459,5407.6501369556,1.64042,0.223694,0.80660435652,4900,2018-03-30 05:10:22,14,0,17.098,5407.6501369556,1.64042,0.223694,0.81749674532,0,0.223694,-4.47388,221.8, 0.1, 1.9,0,0,1024,1024,1657,1024,222.5,0,98,4.257,4.248,4.248,4.234,0,0,3.126,80.51,6,P-GPS,
0.33773441572413,36.9091310923833,5408.6343889556,2.624672,0.223694,0.83301183768,5000,2018-03-30 05:10:22,14,0,17.098,5408.6343889556,2.624672,0.223694,0.83301183768,0,0,-5.368656,222, -0.2, 1.9,0,0,1024,1024,1684,1024,222.5,0,98,4.257,4.248,4.248,4.234,0,0,3.126,80.51,6,P-GPS,
0.337734348681904,36.9091311740271,5409.2905569556,3.28084,0,0.86124674672,5100,2018-03-30 05:10:22,14,0,17.098,5409.2905569556,3.28084,0.223694,0.86124674672,0,0,-6.487126,222.1, -0.3, 1.2,0,0,1024,1024,1684,1057,222.5,0,98,4.257,4.248,4.248,4.234,0,0,3.126,80.51,6,P-GPS,
0.337734276278027,36.9091312160686,5410.6028929556,4.593176,0,0.88972771876,5200,2018-03-30 05:10:22,14,0,17.098,5410.6028929556,4.593176,0.223694,0.88972771876,0,0,-7.82929,222.2, -0.2, 0.9,0,0,1024,1024,1684,1049,222.5,0,98,4.257,4.248,4.248,4.234,0,0,3.126,80.51,6,P-GPS,
0.337734191741428,36.9091312301825,5411.5871449556,5.577428,0,0.9209974048,5300,2018-03-30 05:10:22,14,0,17.098,5411.5871449556,5.577428,0.223694,0.9209974048,0,0,-8.94776,222.2, 0, 0.6,0,0,1024,1024,1684,1049,222.5,0,98,4.257,4.248,4.248,4.234,0,0,3.126,80.51,6,P-GPS,
0.337734116958395,36.9091312422312,5413.2275649556,7.217848,0,0.94863192012,5400,2018-03-30 05:10:22,14,0,17.098,5413.2275649556,7.217848,0.223694,0.94863192012,0,0,-9.842536,222.4, 0, 0.8,0,0,1024,1024,1684,1037,222.5,0,98,4.257,4.248,4.248,4.234,0,0,3.126,80.51,6,P-GPS,
0.337734047474318,36.9091312653717,5414.5399009556,8.530184,0,0.97502627792,5500,2018-03-30 05:10:22,14,0,17.098,5414.5399009556,8.530184,0.223694,0.97502627792,0,0,-10.737312,222.5, -0.5, 1.1,0,0,1024,1024,1684,1034,222.5,0,98,4.257,4.248,4.248,4.234,0,0,3.126,80.51,6,P-GPS,
0.337733990887517,36.909131290664,5416.1803209556,10.170604,0,0.9969324466,5600,2018-03-30 05:10:22,14,0,17.098,5416.1803209556,10.170604,0.223694,0.9969324466,0,0,-11.1847,222.5, -1.4, 1,0,0,1024,1024,1684,1044,222.5,0,98,4.257,4.248,4.248,4.234,0,0,3.126,80.51,6,P-GPS,
0.337733946242097,36.9091313001311,5417.8207409556,11.811024,0,1.01357286708,5700,2018-03-30 05:10:23,14,0,16.461,5417.8207409556,11.811024,0.223694,1.01357286708,0,0,-11.408394,222.5, -1.8, 0.9,0,0,1024,1024,1684,1056,222.5,0,98,4.257,4.248,4.248,4.234,0,0,3.126,80.51,6,P-GPS,
0.337733893865638,36.909131287322,5419.7892449556,13.779528,0,1.03162404876,5800,2018-03-30 05:10:23,14,0,16.461,5419.7892449556,13.779528,0.223694,1.03162404876,0,0,-11.632088,222.7, -1.2, 0.6,0,0,1024,1024,1684,1040,222.5,0,98,4.257,4.248,4.248,4.234,0,0,3.126,80.51,6,P-GPS,
0.337733735899243,36.9091312070219,5423.0700849556,17.060368,0,1.08432090084,6000,2018-03-30 05:10:23,14,0,16.461,5423.0700849556,17.060368,0.223694,1.08432090084,0,0,-11.408394,223, 0.2, 0.6,0,0,1024,1024,1684,1041,222.5,0,98,4.257,4.248,4.248,4.234,0,0,3.126,80.51,6,P-GPS,
0.337733667191934,36.9091311755508,5424.7105049556,18.700788,0,1.10778546852,6100,2018-03-30 05:10:23,14,0,16.461,5424.7105049556,18.700788,0.223694,1.10778546852,0,0,-11.408394,223, 0.2, 0.2,0,0,1024,1024,1684,1057,222.5,0,98,4.257,4.248,4.248,4.234,0,0,3.126,80.51,6,P-GPS,
0.337733602683567,36.909131159066,5426.3509249556,20.341208,0,1.13049216216,6200,2018-03-30 05:10:23,14,0,16.461,5426.3509249556,20.341208,0.223694,1.13049216216,0,0,-11.408394,223, 0, 0,0,0,1024,1024,1684,1057,222.5,0,98,4.257,4.248,4.248,4.234,0,0,3.126,80.51,6,P-GPS,
0.337733536186057,36.9091311714102,5427.9913449556,21.981628,0,1.155101743,6300,2018-03-30 05:10:23,14,0,16.461,5427.9913449556,21.981628,0.223694,1.155101743,0,0,-11.1847,223.2, -0.4, 0.2,0,0,1024,1024,1684,1053,222.5,0,98,4.257,4.248,4.248,4.234,0,0,3.126,80.51,6,P-GPS,
0.337733448723958,36.9091311858788,5429.6317649556,23.622048,0,1.1874016128,6400,2018-03-30 05:10:23,14,0,16.461,5429.6317649556,23.622048,0.223694,1.1874016128,0,0,-11.1847,223.4, -0.6, 0.3,0,0,1024,1024,1684,1054,222.5,0,98,4.257,4.248,4.248,4.234,0,0,3.126,80.51,6,P-GPS,
0.337733345956114,36.9091311827778,5431.2721849556,25.262468,0,1.22454728328,6500,2018-03-30 05:10:23,14,0,16.461,5431.2721849556,25.262468,0.223694,1.22454728328,0,0,-11.1847,223.6, -0.6, 0.4,0,0,1024,1024,1684,1054,222.5,0,98,4.257,4.248,4.248,4.234,0,0,3.126,80.51,6,P-GPS,
0.337733220158815,36.9091311527417,5432.9126049556,26.902888,0,1.2690945288,6600,2018-03-30 05:10:23,14,0,16.461,5432.9126049556,26.902888,0.223694,1.2690945288,0,0,-10.961006,223.7, -0.2, 0.2,0,0,1024,1024,1684,1055,222.6,0,98,4.257,4.248,4.248,4.234,0,0,3.126,80.51,6,P-GPS,
0.337733089529923,36.9091311300039,5434.5530249556,28.543308,0,1.31581040956,6700,2018-03-30 05:10:24,14,0,16.488,5434.5530249556,28.543308,0.223694,1.31581040956,0,0,-10.961006,223.9, 0, 0.1,0,0,1024,1024,1684,1058,222.6,0,98,4.137,4.127,4.126,4.118,0,0,22.248,80.51,6,P-GPS,
0.33773295634926,36.9091311254819,5436.1934449556,30.183728,0,1.36409453184,6800,2018-03-30 05:10:24,14,0,16.488,5436.1934449556,30.183728,0.223694,1.36409453184,0,0,-10.961006,224.1, -0.1, 0.3,0,0,1024,1024,1684,1054,222.7,0,98,4.137,4.127,4.126,4.118,0,0,22.248,80.51,6,P-GPS,
0.337732836561733,36.9091311416948,5437.8338649556,31.824148,0,1.40813980884,6900,2018-03-30 05:10:24,14,0,16.488,5437.8338649556,31.824148,0.223694,1.40813980884,0,0,-10.961006,224.3, -0.2, 0.5,0,0,1024,1024,1684,1055,222.7,0,98,4.137,4.127,4.126,4.118,0,0,22.248,80.51,6,P-GPS,
0.33773273023004,36.9091311700227,5439.4742849556,33.464568,0,1.44767393084,7000,2018-03-30 05:10:24,14,0,16.488,5439.4742849556,33.464568,0.223694,1.44767393084,0,0,-10.961006,224.4, -0.6, 0.7,0,0,1024,1024,1684,1057,222.8,0,98,4.137,4.127,4.126,4.118,0,0,22.248,80.51,6,P-GPS,
0.337732608064171,36.9091312016484,5441.1147049556,35.104988,0,1.49310700316,7100,2018-03-30 05:10:24,14,0,16.488,5441.1147049556,35.104988,0.223694,1.49310700316,0,0,-10.961006,224.6, -0.9, 0.5,0,0,1024,1024,1684,1061,222.9,0,98,4.137,4.127,4.126,4.118,0,0,22.248,80.51,6,P-GPS,
0.337732460590654,36.9091312203558,5442.7551249556,36.745408,0,1.54731632248,7200,2018-03-30 05:10:24,14,0,16.488,5442.7551249556,36.745408,0.223694,1.54731632248,0,0,-10.961006,224.9, -0.8, 0.2,0,0,1024,1024,1684,1058,223,0,98,4.137,4.127,4.126,4.118,0,0,22.248,80.51,6,P-GPS,
0.337732313663481,36.9091312370775,5444.3955449556,38.385828,0,1.60125661292,7300,2018-03-30 05:10:24,14,0,16.488,5444.3955449556,38.385828,0.223694,1.60125661292,0,0,-10.961006,225.2, -1, 0.1,0,0,1024,1024,1684,1058,223,0,98,4.137,4.127,4.126,4.118,0,0,22.248,80.51,6,P-GPS,
0.337732175688678,36.9091312466989,5446.0359649556,40.026248,0,1.65170280876,7400,2018-03-30 05:10:24,14,0,16.488,5446.0359649556,40.026248,0.223694,1.65170280876,0,0,-10.961006,225.4, -1, 0.3,0,0,1024,1024,1684,1060,223.1,0,98,4.137,4.127,4.126,4.118,0,0,22.248,80.51,6,P-GPS,
0.33773201596112,36.9091312493842,5447.6763849556,41.666668,0,1.70982288936,7500,2018-03-30 05:10:24,14,0,16.488,5447.6763849556,41.666668,0.223694,1.70982288936,0,0,-10.961006,225.6, -0.8, 0.5,0,0,1024,1024,1684,1059,223.3,0,98,4.137,4.127,4.126,4.118,0,0,22.248,80.51,6,P-GPS,
0.337731849432366,36.9091312472425,5449.3168049556,43.307088,0,1.77026580468,7600,2018-03-30 05:10:24,14,0,16.488,5449.3168049556,43.307088,0.223694,1.77026580468,0,0,-10.961006,225.9, -0.8, 0.5,0,0,1024,1024,1684,1063,223.3,0,98,4.137,4.127,4.126,4.118,0,0,22.248,80.51,6,P-GPS,
0.337731682498129,36.9091312555628,5450.9572249556,44.947508,0,1.83120412684,7700,2018-03-30 05:10:25,15,0,16.567,5450.9572249556,44.947508,0.223694,1.83120412684,0,0,-10.961006,226.2, -0.7, 0.4,0,0,1024,1024,1684,1062,223.6,0,98,4.162,4.152,4.151,4.143,0,0,16.132,80.51,6,P-GPS,
0.337731520716289,36.9091312716771,5452.5976449556,46.587928,0,1.8905184332,7800,2018-03-30 05:10:25,15,0,16.567,5452.5976449556,46.587928,0.223694,1.8905184332,0,0,-10.961006,226.4, -0.5, 0.3,0,0,1024,1024,1684,1072,223.8,0,98,4.162,4.152,4.151,4.143,0,0,16.132,80.51,6,P-GPS,
0.337731381644729,36.9091312684067,5454.2380649556,48.228348,0,1.94097119072,7900,2018-03-30 05:10:25,15,0,16.567,5454.2380649556,48.228348,0.223694,1.94097119072,0,0,-10.961006,226.7, -0.4, 0.4,0,0,1024,1024,1684,1075,224.1,0,98,4.162,4.152,4.151,4.143,0,0,16.132,80.51,6,P-GPS,
0.3377312622578,36.9091312433457,5455.8784849556,49.868768,0,1.98364835744,8000,2018-03-30 05:10:25,15,0,16.567,5455.8784849556,49.868768,0.223694,1.98364835744,0,0,-10.961006,227.1, -0.4, 0.3,0,0,1024,1024,1684,1072,224.4,0,98,4.162,4.152,4.151,4.143,0,0,16.132,80.51,6,P-GPS,
0.337731151285855,36.9091312144803,5457.5189049556,51.509188,0,2.02324153456,8100,2018-03-30 05:10:25,15,0,16.567,5457.5189049556,51.509188,0.223694,2.02324153456,0,0,-11.1847,227.5, -0.2, 0.2,0,0,1024,1024,1684,1076,224.7,0,98,4.162,4.152,4.151,4.143,0,0,16.132,80.51,6,P-GPS,
0.337731029929323,36.9091312005939,5459.1593249556,53.149608,0,2.06706371444,8200,2018-03-30 05:10:25,15,0,16.567,5459.1593249556,53.149608,0.223694,2.06706371444,0,0,-11.1847,227.9, -0.1, 0.3,0,0,1024,1024,1684,1068,225.1,0,98,4.162,4.152,4.151,4.143,0,0,16.132,80.51,6,P-GPS,
0.33773093461731,36.9091311961404,5460.7997449556,54.790028,0,2.1016568914,8300,2018-03-30 05:10:25,15,0,16.567,5460.7997449556,54.790028,0.223694,2.1016568914,0,0,-11.1847,228.4, -0.2, 0.5,0,0,1024,1024,1684,1063,225.4,0,98,4.162,4.152,4.151,4.143,0,0,16.132,80.51,6,P-GPS,
0.337730853755295,36.9091312010419,5462.4401649556,56.430448,0,2.13121397896,8400,2018-03-30 05:10:25,15,0,16.567,5462.4401649556,56.430448,0.223694,2.13121397896,0,0,-11.1847,228.8, -0.4, 0.4,0,0,1024,1024,1684,1054,225.7,0,98,4.162,4.152,4.151,4.143,0,0,16.132,80.51,6,P-GPS,
0.33773079549934,36.9091312075499,5464.0805849556,58.070868,0,2.15257880904,8500,2018-03-30 05:10:25,15,0,16.567,5464.0805849556,58.070868,0.223694,2.15257880904,0,0,-11.1847,229.1, -0.6, 0.4,0,0,1024,1024,1684,1073,226,0,98,4.162,4.152,4.151,4.143,0,0,16.132,80.51,6,P-GPS,
0.337730736345297,36.9091312145858,5465.7210049556,59.711288,0,2.17428156564,8600,2018-03-30 05:10:25,15,0,16.567,5465.7210049556,59.711288,0.223694,2.17428156564,0,0,-10.961006,229.3, -0.5, 0.5,0,0,1024,1024,1684,1061,226.4,0,98,4.162,4.152,4.151,4.143,0,0,16.132,80.51,6,P-GPS,
0.337730708625109,36.9091312383181,5467.3614249556,61.351708,0,2.18496069984,8700,2018-03-30 05:10:25,15,0,16.461,5467.3614249556,61.351708,0.223694,2.18496069984,0,0,-10.961006,229.7, -0.6, 0.7,0,0,1024,1024,1684,1062,226.4,0,98,4.152,4.144,4.144,4.136,0,0,17.056,80.51,6,P-GPS,
0.337730688206864,36.9091312636456,5469.0018449556,62.992128,0,2.19305125128,8800,2018-03-30 05:10:26,15,0,16.461,5469.0018449556,62.992128,0.223694,2.19305125128,0,0,-11.1847,230, -0.6, 0.5,0,0,1024,1024,1684,1058,226.7,0,98,4.152,4.144,4.144,4.136,0,0,17.056,80.51,6,P-GPS,
0.337730669123129,36.9091312838795,5470.6422649556,64.632548,0,2.20054797068,8900,2018-03-30 05:10:26,15,0,16.461,5470.6422649556,64.632548,0.223694,2.20054797068,0,0,-11.1847,230.2, -0.5, 0.4,0,0,1024,1024,1684,1059,227,0,98,4.152,4.144,4.144,4.136,0,0,17.056,80.51,6,P-GPS,
0.337730634714922,36.9091312926307,5472.2826849556,66.272968,0,2.21331043828,9000,2018-03-30 05:10:26,15,0,16.461,5472.2826849556,66.272968,0.223694,2.21331043828,0,0,-10.961006,230.4, -0.5, 0.3,0,0,1024,1024,1684,1061,227.2,0,98,4.152,4.144,4.144,4.136,0,0,17.056,80.51,6,P-GPS,
0.337730586394103,36.9091312823953,5473.9231049556,67.913388,0,2.23060374592,9100,2018-03-30 05:10:26,15,0,16.461,5473.9231049556,67.913388,0.223694,2.23060374592,0,0,-11.1847,230.7, -0.5, 0.4,0,0,1024,1024,1684,1057,227.5,0,98,4.152,4.144,4.144,4.136,0,0,17.056,80.51,6,P-GPS,
0.337730531553809,36.9091312556431,5475.5635249556,69.553808,0,2.24984587252,9200,2018-03-30 05:10:26,15,0,16.461,5475.5635249556,69.553808,0.223694,2.24984587252,0,0,-11.1847,230.9, -0.6, 0.3,0,0,1024,1024,1684,1057,227.8,0,98,4.152,4.144,4.144,4.136,0,0,17.056,80.51,6,P-GPS,
0.337730471246014,36.9091312231271,5477.5320289556,71.522312,0,2.27100072884,9300,2018-03-30 05:10:26,15,0,16.461,5477.5320289556,71.522312,0.223694,2.27100072884,0,0,-11.1847,231.1, -0.6, 0.3,0,0,1024,1024,1684,1059,228,0,98,4.152,4.144,4.144,4.136,0,0,17.056,80.51,6,P-GPS,
0.337730423609956,36.9091312017783,5479.1724489556,73.162732,0,2.28785768476,9400,2018-03-30 05:10:26,15,0,16.461,5479.1724489556,73.162732,0.223694,2.28785768476,0,0,-11.1847,231.3, -0.4, 0.4,0,0,1024,1024,1684,1055,228.3,0,98,4.152,4.144,4.144,4.136,0,0,17.056,80.51,6,P-GPS,
0.337730413967124,36.9091312199664,5480.8128689556,74.803152,0,2.2917815694,9500,2018-03-30 05:10:26,15,0,16.461,5480.8128689556,74.803152,0.223694,2.2917815694,0,0,-11.408394,231.5, -0.4, 0.3,0,0,1024,1024,1684,1050,228.5,0,98,4.152,4.144,4.144,4.136,0,0,17.056,80.51,6,P-GPS,
0.337730437082073,36.9091312648479,5482.4532889556,76.443572,0,2.2844652962,9600,2018-03-30 05:10:26,15,0,16.461,5482.4532889556,76.443572,0.223694,2.2917815694,0,0,-11.1847,231.7, -0.3, 0.1,0,0,1024,1024,1684,1053,228.7,0,98,4.152,4.144,4.144,4.136,0,0,17.056,80.51,6,P-GPS,
0.337730457285363,36.9091313017146,5484.0937089556,78.083992,0,2.27811030912,9700,2018-03-30 05:10:27,14,0,16.488,5484.0937089556,78.083992,0.223694,2.2917815694,0,0,-11.1847,231.8, -0.6, 0.2,0,0,1024,1024,1684,1052,228.9,0,98,4.152,4.144,4.144,4.136,0,0,17.056,80.51,6,P-GPS,
0.3377304570012,36.9091313074804,5486.0622129556,80.052496,0,2.27837605716,9800,2018-03-30 05:10:27,14,0,16.488,5486.0622129556,80.052496,0.223694,2.2917815694,0,0,-11.1847,231.9, -0.7, 0.3,0,0,1024,1024,1684,1062,229.1,0,98,4.152,4.144,4.144,4.136,0,0,17.056,80.51,6,P-GPS,
0.337730459256595,36.9091313061536,5487.7026329556,81.692916,0,2.27751647708,9900,2018-03-30 05:10:27,14,0,16.488,5487.7026329556,81.692916,0.223694,2.2917815694,0,0,-10.961006,232.1, -0.8, 0.1,0,0,1024,1024,1684,1063,229.4,0,98,4.152,4.144,4.144,4.136,0,0,17.056,80.51,6,P-GPS,
0.337730459165402,36.909131298131,5489.3430529556,83.333336,0,2.27732618836,10000,2018-03-30 05:10:27,14,0,16.488,5489.3430529556,83.333336,0.223694,2.2917815694,0,0,-11.1847,232.2, -0.7, 0,0,0,1024,1024,1684,1058,229.4,0,98,4.152,4.144,4.144,4.136,0,0,17.056,80.51,6,P-GPS,
0.337730477135281,36.9091312660205,5490.9834729556,84.973756,0,2.26992133248,10100,2018-03-30 05:10:27,14,0,16.488,5490.9834729556,84.973756,0.223694,2.2917815694,0,0,-10.961006,232.5, -0.6, 0.1,0,0,1024,1024,1684,1049,229.6,0,98,4.152,4.144,4.144,4.136,0,0,17.056,80.51,6,P-GPS,
0.337730505287821,36.9091312213309,5492.6238929556,86.614176,0,2.2585630644,10200,2018-03-30 05:10:27,14,0,16.488,5492.6238929556,86.614176,0.223694,2.2917815694,0,0,-11.1847,232.8, -0.6, 0,0,0,1024,1024,1684,1057,229.8,0,98,4.152,4.144,4.144,4.136,0,0,17.056,80.51,6,P-GPS,
0.337730554841372,36.9091311808841,5494.5923969556,88.58268,0,2.23960965172,10300,2018-03-30 05:10:27,15,0,16.488,5494.5923969556,88.58268,0.223694,2.2917815694,0,0,-11.1847,232.9, -0.6, 0,0,0,1024,1024,1684,1057,230,0,98,4.152,4.144,4.144,4.136,0,0,17.056,80.51,6,P-GPS,
0.337730598618832,36.9091311548018,5496.2328169556,90.2231,0,2.22312343072,10400,2018-03-30 05:10:27,15,0,16.488,5496.2328169556,90.2231,0.223694,2.2917815694,0,0,-11.1847,233.1, -0.5, -0.1,0,0,1024,1024,1684,1057,230.2,0,98,4.152,4.144,4.144,4.136,0,0,17.056,80.51,6,P-GPS,
0.337730661523995,36.909131136923,5497.8732369556,91.86352,0,2.19985899428,10500,2018-03-30 05:10:27,15,0,16.488,5497.8732369556,91.86352,0.223694,2.2917815694,0,0,-11.408394,233.2, -0.4, 0,0,0,1024,1024,1684,1059,230.4,0,98,4.152,4.144,4.144,4.136,0,0,17.056,80.51,6,P-GPS,
0.337730713916738,36.909131129107,5499.8417409556,93.832024,0,2.18062014852,10600,2018-03-30 05:10:27,15,0,16.488,5499.8417409556,93.832024,0.223694,2.2917815694,0,0,-11.408394,233.4, -0.6, -0.1,0,0,1024,1024,1684,1061,230.7,0,98,4.152,4.144,4.144,4.136,0,0,17.056,80.51,6,P-GPS,
0.337730781129136,36.9091311291504,5501.4821609556,95.472444,0,2.15613195876,10700,2018-03-30 05:10:27,15,0,16.488,5501.4821609556,95.472444,0.223694,2.2917815694,0,0,-11.408394,233.6, -0.7, -0.2,0,0,1024,1024,1684,1057,230.9,0,98,4.147,4.138,4.139,4.13,0,0,17.06,82.31,6,P-GPS,
0.337730833623656,36.9091311295521,5503.1225809556,97.112864,0,2.13701122324,10800,2018-03-30 05:10:28,15,0,16.488,5503.1225809556,97.112864,0.223694,2.2917815694,0,0,-11.1847,233.8, -0.6, -0.1,0,0,1024,1024,1684,1059,231.1,0,98,4.147,4.138,4.139,4.13,0,0,17.06,82.31,6,P-GPS,
0.337730897600336,36.9091311339334,5504.7630009556,98.753284,0,2.11378943772,10900,2018-03-30 05:10:28,15,0,16.488,5504.7630009556,98.753284,0.223694,2.2917815694,0,0,-11.1847,234, -0.7, -0.3,0,0,1024,1024,1684,1062,231.3,0,98,4.147,4.138,4.139,4.13,0,0,17.06,82.31,6,P-GPS,
0.337730947041524,36.9091311334366,5506.7315049556,100.721788,0,2.0957677836,11000,2018-03-30 05:10:28,15,0,16.488,5506.7315049556,100.721788,0.223694,2.2917815694,0,0,-11.1847,234.2, -0.7, -0.5,0,0,1024,1024,1684,1059,231.7,0,98,4.147,4.138,4.139,4.13,0,0,17.06,82.31,6,P-GPS,
0.337731100820376,36.9091311377651,5510.0123449556,104.002628,0,2.03983602328,11200,2018-03-30 05:10:28,15,0,16.488,5510.0123449556,104.002628,0.223694,2.2917815694,0,0,-11.1847,234.7, -0.7, -0.6,0,0,1024,1024,1684,1062,231.9,0,98,4.147,4.138,4.139,4.13,0,0,17.06,82.31,6,P-GPS,
0.33773120193372,36.9091311393705,5511.6527649556,105.643048,0,2.00303812184,11300,2018-03-30 05:10:28,15,0,16.488,5511.6527649556,105.643048,0.223694,2.2917815694,0,0,-11.1847,234.9, -0.6, -0.7,0,0,1024,1024,1684,1059,232.2,0,98,4.147,4.138,4.139,4.13,0,0,17.06,82.31,6,P-GPS,
0.337731284808492,36.9091311431005,5513.6212689556,107.611552,0,1.972933134,11400,2018-03-30 05:10:28,15,0,16.488,5513.6212689556,107.611552,0.223694,2.2917815694,0,0,-10.961006,235.1, -0.7, -0.7,0,0,1024,1024,1684,1060,232.2,0,98,4.147,4.138,4.139,4.13,0,0,17.06,82.31,6,P-GPS,
0.337731376024154,36.9091311581394,5515.2616889556,109.251972,0,1.94005255552,11500,2018-03-30 05:10:28,15,0,16.488,5515.2616889556,109.251972,0.223694,2.2917815694,0,0,-10.961006,235.4, -0.8, -0.7,0,0,1024,1024,1684,1061,232.4,0,98,4.147,4.138,4.139,4.13,0,0,17.06,82.31,6,P-GPS,
0.337731427065289,36.9091311708763,5516.9021089556,110.892392,0,1.9217684342,11600,2018-03-30 05:10:28,15,0,16.488,5516.9021089556,110.892392,0.223694,2.2917815694,0,0,-10.961006,235.6, -0.8, -0.5,0,0,1024,1024,1684,1061,232.7,0,98,4.147,4.138,4.139,4.13,0,0,17.06,82.31,6,P-GPS,
0.337731502527384,36.9091311663021,5518.5425289556,112.532812,0,1.89418641232,11700,2018-03-30 05:10:29,14,0,16.408,5518.5425289556,112.532812,0.223694,2.2917815694,0,0,-10.961006,235.8, -0.8, -0.5,0,0,1024,1024,1684,1023,232.9,0,98,4.144,4.134,4.135,4.125,0,0,16.822,82.31,6,P-GPS,
0.337731564417212,36.9091311463292,5520.1829489556,114.173232,0,1.87118116224,11800,2018-03-30 05:10:29,14,0,16.408,5520.1829489556,114.173232,0.223694,2.2917815694,0,0,-10.961006,236, -0.7, -0.5,0,0,1024,1024,1684,1024,233.1,0,98,4.144,4.134,4.135,4.125,0,0,16.822,82.31,6,P-GPS,
0.337731638970635,36.9091311260397,5521.8233689556,115.813652,0,1.84357617448,11900,2018-03-30 05:10:29,15,0,16.408,5521.8233689556,115.813652,0.223694,2.2917815694,0,0,-10.961006,236, -0.6, -0.4,0,0,1024,1024,1684,948,233.3,0,98,4.144,4.134,4.135,4.125,0,0,16.822,82.31,6,P-GPS,
0.337731687904563,36.9091311186011,5523.7918729556,117.782156,0,1.8255906096,12000,2018-03-30 05:10:29,15,0,16.408,5523.7918729556,117.782156,0.223694,2.2917815694,0,0,-10.961006,236, -0.7, -0.4,0,0,1024,1024,1684,864,233.4,0,98,4.144,4.134,4.135,4.125,0,0,16.822,82.31,6,P-GPS,
0.337731753306945,36.9091311327375,5525.4322929556,119.422576,0,1.80208995268,12100,2018-03-30 05:10:29,15,0,16.408,5525.4322929556,119.422576,0.223694,2.2917815694,0,0,-10.961006,235.4, -0.7, -0.5,0,0,1024,1024,1684,881,232.9,0,98,4.144,4.134,4.135,4.125,0,0,16.822,82.31,6,P-GPS,
0.337731798690865,36.9091311641793,5527.0727129556,121.062996,0,1.78633207816,12200,2018-03-30 05:10:29,15,0,16.408,5527.0727129556,121.062996,0.223694,2.2917815694,0,0,-10.961006,233.6, -0.5, -0.5,0,0,1024,1024,1684,885,232.3,0,98,4.144,4.134,4.135,4.125,0,0,16.822,82.31,6,P-GPS,
0.337731859608512,36.909131203632,5528.7131329556,122.703416,0,1.7652395578,12300,2018-03-30 05:10:29,15,0,16.408,5528.7131329556,122.703416,0.223694,2.2917815694,0,0,-10.961006,231.9, -1.1, -0.4,0,0,1024,1024,1684,872,231.5,0,98,4.144,4.134,4.135,4.125,0,0,16.822,82.31,6,P-GPS,
0.337731900956334,36.9091312332535,5530.3535529556,124.343836,0,1.75109585656,12400,2018-03-30 05:10:29,15,0,16.408,5530.3535529556,124.343836,0.223694,2.2917815694,0,0,-10.961006,230.2, -1.3, -0.4,0,0,1024,1024,1684,892,230.6,0,98,4.144,4.134,4.135,4.125,0,0,16.822,82.31,6,P-GPS,
0.337731951254083,36.9091312532738,5531.9939729556,125.984256,0,1.73346134156,12500,2018-03-30 05:10:29,15,0,16.408,5531.9939729556,125.984256,0.223694,2.2917815694,0,0,-10.961006,228.3, -1.3, -0.3,0,0,1024,1024,1684,898,229.8,0,98,4.144,4.134,4.135,4.125,0,0,16.822,82.31,6,P-GPS,
0.337731980219217,36.9091312603575,5533.6343929556,127.624676,0,1.72317590816,12600,2018-03-30 05:10:29,15,0,16.408,5533.6343929556,127.624676,0.223694,2.2917815694,0,0,-11.1847,226.7, -1.2, -0.3,0,0,1024,1024,1684,921,228.9,0,98,4.144,4.134,4.135,4.125,0,0,16.822,82.31,6,P-GPS,
0.337732022761502,36.9091312772457,5535.2748129556,129.265096,0,1.70831042212,12700,2018-03-30 05:10:30,15,0,16.461,5535.2748129556,129.265096,0.223694,2.2917815694,0,0,-11.1847,225.4, -1, -0.2,0,0,1024,1024,1684,907,228.9,0,98,4.144,4.134,4.135,4.125,0,0,17.156,82.31,6,P-GPS,
0.337732049546149,36.909131302407,5537.2433169556,131.2336,0,1.6995079284,12800,2018-03-30 05:10:30,15,0,16.461,5537.2433169556,131.2336,0.223694,2.2917815694,0,0,-11.1847,224.2, -1, -0.3,0,0,1024,1024,1684,921,228.1,0,98,4.144,4.134,4.135,4.125,0,0,17.156,82.31,6,P-GPS,
0.337732078470571,36.9091313260885,5538.8837369556,132.87402,0,1.68993115644,12900,2018-03-30 05:10:30,15,0,16.461,5538.8837369556,132.87402,0.223694,2.2917815694,0,0,-10.961006,223, -0.9, -0.3,0,0,1024,1024,1684,927,227.2,0,98,4.144,4.134,4.135,4.125,0,0,17.156,82.31,6,P-GPS,
0.337732084310985,36.9091313437405,5540.5241569556,134.51444,0,1.68852695692,13000,2018-03-30 05:10:30,15,0,16.461,5540.5241569556,134.51444,0.223694,2.2917815694,0,0,-10.961006,221.8, -1.1, -0.2,0,0,1024,1024,1684,944,226.3,0,98,4.144,4.134,4.135,4.125,0,0,17.156,82.31,6,P-GPS,
0.337732110086811,36.909131378645,5542.1645769556,136.15486,0,1.6806759068,13100,2018-03-30 05:10:30,15,0,16.461,5542.1645769556,136.15486,0.223694,2.2917815694,0,0,-10.961006,220.8, -1, -0.1,0,0,1024,1024,1684,936,225.4,0,98,4.144,4.134,4.135,4.125,0,0,17.156,82.31,6,P-GPS,
0.337732136781894,36.9091314204065,5543.8049969556,137.79528,0,1.67292984356,13200,2018-03-30 05:10:30,15,0,16.461,5543.8049969556,137.79528,0.223694,2.2917815694,0,0,-10.961006,220, -1.2, -0.2,0,0,1024,1024,1684,936,224.5,0,98,4.144,4.134,4.135,4.125,0,0,17.156,82.31,6,P-GPS,
0.337732170336796,36.9091314566605,5545.4454169556,139.4357,0,1.66258535504,13300,2018-03-30 05:10:30,15,0,16.461,5545.4454169556,139.4357,0.223694,2.2917815694,0,0,-10.961006,219.2, -1.3, -0.2,0,0,1024,1024,1684,947,223.6,0,98,4.144,4.134,4.135,4.125,0,0,17.156,82.31,6,P-GPS,
0.337732178214394,36.9091314805186,5547.0858369556,141.07612,0,1.66097774344,13400,2018-03-30 05:10:30,15,0,16.461,5547.0858369556,141.07612,0.223694,2.2917815694,0,0,-10.961006,218.3, -1.4, -0.2,0,0,1024,1024,1684,952,222.8,0,98,4.144,4.134,4.135,4.125,0,0,17.156,82.31,6,P-GPS,
0.337732180924125,36.9091314968608,5548.7262569556,142.71654,0,1.66087275656,13500,2018-03-30 05:10:30,15,0,16.461,5548.7262569556,142.71654,0.223694,2.2917815694,0,0,-10.961006,217.5, -1.3, -0.1,0,0,1024,1024,1684,962,222,0,98,4.144,4.134,4.135,4.125,0,0,17.156,82.31,6,P-GPS,
0.337732171785297,36.9091315051891,5550.3666769556,144.35696,0,1.66462275668,13600,2018-03-30 05:10:30,15,0,16.461,5550.3666769556,144.35696,0.223694,2.2917815694,0,0,-10.961006,216.7, -1.2, -0.1,0,0,1024,1024,1684,959,221.3,0,98,4.144,4.134,4.135,4.125,0,0,17.156,82.31,6,P-GPS,
0.337732167626251,36.9091315200163,5552.0070969556,145.99738,0,1.66694231056,13700,2018-03-30 05:10:31,16,0,16.408,5552.0070969556,145.99738,0.223694,2.2917815694,0,0,-11.1847,216.1, -1.1, 0,0,0,1024,1024,1684,954,220.6,0,98,4.136,4.127,4.126,4.119,0,0,17.156,82.31,6,P-GPS,
0.337732155712555,36.9091315548354,5553.9756009556,147.965884,0,1.67322183832,13800,2018-03-30 05:10:31,16,0,16.408,5553.9756009556,147.965884,0.223694,2.2917815694,0,0,-11.1847,215.5, -1.2, 0,0,0,1024,1024,1684,963,219.8,0,98,4.136,4.127,4.126,4.119,0,0,17.156,82.31,6,P-GPS,
0.33773215460847,36.9091315842131,5555.6160209556,149.606304,0,1.67536422684,13900,2018-03-30 05:10:31,16,0,16.408,5555.6160209556,149.606304,0.223694,2.2917815694,0,0,-11.1847,214.8, -1.3, 0.1,0,0,1024,1024,1684,972,219.2,0,98,4.136,4.127,4.126,4.119,0,0,17.156,82.31,6,P-GPS,
0.337732145913393,36.909131602379,5557.2564409556,151.246724,0,1.67960635296,14000,2018-03-30 05:10:31,16,0,16.408,5557.2564409556,151.246724,0.223694,2.2917815694,0,0,-11.1847,214.2, -1.4, 0.1,0,0,1024,1024,1684,984,218.6,0,98,4.136,4.127,4.126,4.119,0,0,17.156,82.31,6,P-GPS,
0.337732144813379,36.9091316080345,5558.8968609556,152.887144,0,1.68035110364,14100,2018-03-30 05:10:31,16,0,16.408,5558.8968609556,152.887144,0.223694,2.2917815694,0,0,-11.1847,213.7, -1.4, 0.1,0,0,1024,1024,1684,1004,218.6,0,98,4.136,4.127,4.126,4.119,0,0,17.156,82.31,6,P-GPS,
0.337732135856937,36.9091316094312,5560.5372809556,154.527564,0,1.68365819036,14200,2018-03-30 05:10:31,16,0,16.408,5560.5372809556,154.527564,0.223694,2.2917815694,0,0,-10.961006,213.3, -1.3, 0.1,0,0,1024,1024,1684,1008,218.1,0,98,4.136,4.127,4.126,4.119,0,0,17.156,82.31,6,P-GPS,
0.337732135743761,36.9091315989383,5562.1777009556,156.167984,0,1.68305123496,14300,2018-03-30 05:10:31,16,0,16.408,5562.1777009556,156.167984,0.223694,2.2917815694,0,0,-10.961006,213.1, -1.3, 0,0,0,1024,1024,1684,1018,217.8,0,98,4.136,4.127,4.126,4.119,0,0,17.156,82.31,6,P-GPS,
0.337732128598148,36.9091315899979,5563.8181209556,157.808404,0,1.68507551324,14400,2018-03-30 05:10:31,16,0,16.408,5563.8181209556,157.808404,0.223694,2.2917815694,0,0,-10.961006,213.1, -1.3, 0,0,0,1024,1024,1684,1023,217.4,0,98,4.136,4.127,4.126,4.119,0,0,17.156,82.31,6,P-GPS,
0.337732132826403,36.909131553257,5565.4585409556,159.448824,0,1.68137144488,14500,2018-03-30 05:10:31,16,0,16.408,5565.4585409556,159.448824,0.223694,2.2917815694,0,0,-10.961006,213.1, -1.4, 0,0,0,1024,1024,1684,1024,217.1,0,98,4.136,4.127,4.126,4.119,0,0,17.156,82.31,6,P-GPS,
0.337732126418476,36.9091315157807,5567.4270449556,161.417328,0,1.68156829528,14600,2018-03-30 05:10:31,16,0,16.408,5567.4270449556,161.417328,0.223694,2.2917815694,0,0,-11.1847,213.1, -1.4, 0,0,0,1024,1024,1684,1023,216.9,0,98,4.136,4.127,4.126,4.119,0,0,17.156,82.31,6,P-GPS,
0.337732127982596,36.9091314735885,5569.0674649556,163.057748,0,1.67875333456,14700,2018-03-30 05:10:31,16,0,16.461,5569.0674649556,163.057748,0.223694,2.2917815694,0,0,-10.961006,213.1, -1.4, 0,0,0,1024,1024,1684,1022,216.7,0,97,4.132,4.124,4.124,4.116,0,0,17.052,82.31,6,P-GPS,
0.337732118969159,36.9091314498452,5570.7078849556,164.698168,0,1.68080385956,14800,2018-03-30 05:10:32,16,0,16.461,5570.7078849556,164.698168,0.223694,2.2917815694,0,0,-10.961006,213.1, -1.3, 0.1,0,0,1024,1024,1684,1023,216.5,0,97,4.132,4.124,4.124,4.116,0,0,17.052,82.31,6,P-GPS,
0.337732120515367,36.9091314433787,5572.3483049556,166.338588,0,1.67992459444,14900,2018-03-30 05:10:32,16,0,16.461,5572.3483049556,166.338588,0.223694,2.2917815694,0,0,-10.961006,213.1, -1.4, 0.2,0,0,1024,1024,1684,1023,216.3,0,97,4.132,4.124,4.124,4.116,0,0,17.052,82.31,6,P-GPS,
0.337732114193747,36.9091314585151,5573.9887249556,167.979008,0,1.68296265228,15000,2018-03-30 05:10:32,16,0,16.461,5573.9887249556,167.979008,0.223694,2.2917815694,0,0,-10.961006,213.1, -1.4, 0.2,0,0,1024,1024,1684,1024,216.1,0,97,4.132,4.124,4.124,4.116,0,0,17.052,82.31,6,P-GPS,
0.337732118039317,36.9091314557989,5575.6291449556,169.619428,0,1.68143706168,15100,2018-03-30 05:10:32,16,0,16.461,5575.6291449556,169.619428,0.223694,2.2917815694,0,0,-11.1847,213.1, -1.4, 0.1,0,0,1024,1024,1684,1024,216,0,97,4.132,4.124,4.124,4.116,0,0,17.052,82.31,6,P-GPS,
0.337732108795455,36.9091314325138,5577.2695649556,171.259848,0,1.68363194364,15200,2018-03-30 05:10:32,16,0,16.461,5577.2695649556,171.259848,0.223694,2.2917815694,0,0,-10.961006,213.1, -1.1, 0.1,0,0,1024,1024,1684,1024,215.9,0,97,4.132,4.124,4.124,4.116,0,0,17.052,82.31,6,P-GPS,
0.337732094603566,36.9091314108266,5578.9099849556,172.900268,0,1.68773955532,15300,2018-03-30 05:10:32,16,0,16.461,5578.9099849556,172.900268,0.223694,2.2917815694,0,0,-11.1847,213.1, -1.1, 0.1,0,0,1024,1024,1684,1024,215.7,0,97,4.132,4.124,4.124,4.116,0,0,17.052,82.31,6,P-GPS,
0.337732061719582,36.9091314024373,5580.5504049556,174.540688,0,1.69925530372,15400,2018-03-30 05:10:32,16,0,16.461,5580.5504049556,174.540688,0.223694,2.2917815694,0,0,-10.961006,213.1, -1.1, 0.1,0,0,1024,1024,1684,1024,215.6,0,97,4.132,4.124,4.124,4.116,0,0,17.052,82.31,6,P-GPS,
0.337732042608163,36.9091313991339,5582.1908249556,176.181108,0,1.70602367664,15500,2018-03-30 05:10:32,16,0,16.461,5582.1908249556,176.181108,0.223694,2.2917815694,0,0,-10.961006,213.1, -1.2, 0.1,0,0,1024,1024,1684,1024,215.6,0,97,4.132,4.124,4.124,4.116,0,0,17.052,82.31,6,P-GPS,
0.337732028987857,36.9091314039447,5583.8312449556,177.821528,0,1.7111713146,15600,2018-03-30 05:10:32,16,0,16.461,5583.8312449556,177.821528,0.223694,2.2917815694,0,0,-11.1847,213.1, -1.3, 0.1,0,0,1024,1024,1684,1024,215.5,0,97,4.132,4.124,4.124,4.116,0,0,17.052,82.31,6,P-GPS,
0.337732028715093,36.9091313923106,5585.7997489556,179.790032,0,1.71074808624,15700,2018-03-30 05:10:33,16,0,16.328,5585.7997489556,179.790032,0.223694,2.2917815694,0,0,-11.1847,213.1, -1.3, 0.2,0,0,1024,1024,1684,1024,215.4,0,97,4.13,4.121,4.12,4.112,0,0,16.908,82.31,6,P-GPS,
0.337732022574231,36.9091313714178,5587.4401689556,181.430452,0,1.71206370308,15800,2018-03-30 05:10:33,16,0,16.328,5587.4401689556,181.430452,0.223694,2.2917815694,0,0,-11.1847,213.1, -1.4, 0.1,0,0,1024,1024,1684,1024,215.3,0,97,4.13,4.121,4.12,4.112,0,0,16.908,82.31,6,P-GPS,
0.337732022991112,36.9091313476887,5589.0805889556,183.070872,0,1.71091868992,15900,2018-03-30 05:10:33,16,0,16.328,5589.0805889556,183.070872,0.223694,2.2917815694,0,0,-11.1847,213.1, -1.3, 0.1,0,0,1024,1024,1684,1024,215.3,0,97,4.13,4.121,4.12,4.112,0,0,16.908,82.31,6,P-GPS,
0.337732012636651,36.9091313364237,5590.7210089556,184.711292,0,1.71421921496,16000,2018-03-30 05:10:33,16,0,16.328,5590.7210089556,184.711292,0.223694,2.2917815694,0,0,-11.1847,213.1, -1.2, 0.1,0,0,1024,1024,1684,1024,215.2,0,97,4.13,4.121,4.12,4.112,0,0,16.908,82.31,6,P-GPS,
0.33773199353826,36.9091313270411,5592.3614289556,186.351712,0,1.72077433328,16100,2018-03-30 05:10:33,16,0,16.328,5592.3614289556,186.351712,0.223694,2.2917815694,0,0,-11.1847,213.1, -1.1, 0.3,0,0,1024,1024,1684,1024,215.1,0,97,4.13,4.121,4.12,4.112,0,0,16.908,82.31,6,P-GPS,
0.337731954188539,36.9091313268861,5594.0018489556,187.992132,0,1.73504270644,16200,2018-03-30 05:10:33,16,0,16.328,5594.0018489556,187.992132,0.223694,2.2917815694,0,0,-10.961006,213.1, -1, 0.6,0,0,1024,1024,1684,1024,215.1,0,97,4.13,4.121,4.12,4.112,0,0,16.908,82.31,6,P-GPS,
0.337731931709498,36.9091313201361,5595.6422689556,189.632552,0,1.74293968832,16300,2018-03-30 05:10:33,16,0,16.328,5595.6422689556,189.632552,0.223694,2.2917815694,0,0,-10.961006,213.1, -1, 0.2,0,0,1024,1024,1684,1024,215,0,97,4.13,4.121,4.12,4.112,0,0,16.908,82.31,6,P-GPS,
0.337731918256923,36.9091313167942,5597.2826889556,191.272972,0,1.74769362548,16400,2018-03-30 05:10:33,16,0,16.328,5597.2826889556,191.272972,0.223694,2.2917815694,0,0,-10.961006,213.1, -1.1, 0,0,0,1024,1024,1684,1024,214.9,0,97,4.13,4.121,4.12,4.112,0,0,16.908,82.31,6,P-GPS,
0.337731916065851,36.9091313204817,5598.9231089556,192.913392,0,1.74862866488,16500,2018-03-30 05:10:33,16,0,16.328,5598.9231089556,192.913392,0.223694,2.2917815694,0,0,-10.961006,213.1, -1.1, 0.2,0,0,1024,1024,1684,1024,214.9,0,97,4.13,4.121,4.12,4.112,0,0,16.908,82.31,6,P-GPS,
0.337731908545697,36.9091313281342,5600.5635289556,194.553812,0,1.75165031852,16600,2018-03-30 05:10:33,16,0,16.328,5600.5635289556,194.553812,0.223694,2.2917815694,0,0,-10.961006,213.1, -1.1, 0.3,0,0,1024,1024,1684,1024,214.8,0,97,4.13,4.121,4.12,4.112,0,0,16.908,82.31,6,P-GPS,
0.337731915780874,36.9091313170736,5602.2039489556,196.194232,0,1.74860241816,16700,2018-03-30 05:10:33,16,0,16.355,5602.2039489556,196.194232,0.223694,2.2917815694,0,0,-10.961006,213.1, -1, 0.3,0,0,1024,1024,1684,1024,214.8,0,97,4.13,4.121,4.12,4.112,0,0,16.908,82.31,6,P-GPS,
0.33773191367611,36.909131299014,5603.8443689556,197.834652,0,1.74869756252,16800,2018-03-30 05:10:34,16,0,16.355,5603.8443689556,197.834652,0.223694,2.2917815694,0,0,-11.1847,213.1, -1, 0.4,0,0,1024,1024,1684,1024,214.8,0,97,4.13,4.121,4.12,4.112,0,0,16.908,82.31,6,P-GPS,
0.33773192435056,36.909131275098,5605.4847889556,199.475072,0,1.74397315292,16900,2018-03-30 05:10:34,16,0,16.355,5605.4847889556,199.475072,0.223694,2.2917815694,0,0,-10.961006,213.1, -1, 0.5,0,0,1024,1024,1684,1024,214.7,0,97,4.13,4.121,4.12,4.112,0,0,16.908,82.31,6,P-GPS,
0.337731929660102,36.9091312622185,5607.1252089556,201.115492,0,1.74160438644,17000,2018-03-30 05:10:34,16,0,16.355,5607.1252089556,201.115492,0.223694,2.2917815694,0,0,-11.1847,213.1, -1, 0.4,0,0,1024,1024,1684,1024,214.7,0,97,4.13,4.121,4.12,4.112,0,0,16.908,82.31,6,P-GPS,
0.337731947962184,36.9091312283525,5609.0937129556,203.083996,0,1.73385504236,17100,2018-03-30 05:10:34,16,0,16.355,5609.0937129556,203.083996,0.223694,2.2917815694,0,0,-11.1847,213.1, -0.9, 0.3,0,0,1024,1024,1684,1024,214.6,0,97,4.13,4.121,4.12,4.112,0,0,16.908,82.31,6,P-GPS,
0.337731959592531,36.9091311927037,5610.7341329556,204.724416,0,1.7285597666,17200,2018-03-30 05:10:34,16,0,16.355,5610.7341329556,204.724416,0.223694,2.2917815694,0,0,-10.961006,213.1, -0.9, 0.3,0,0,1024,1024,1684,1024,214.6,0,97,4.13,4.121,4.12,4.112,0,0,16.908,82.31,6,P-GPS,
0.337732001836811,36.909131157799,5612.3745529556,206.364836,0,1.71223430676,17300,2018-03-30 05:10:34,16,0,16.355,5612.3745529556,206.364836,0.223694,2.2917815694,0,0,-10.961006,213.1, -1, 0.3,0,0,1024,1024,1684,1024,214.6,0,97,4.13,4.121,4.12,4.112,0,0,16.908,82.31,6,P-GPS,
0.33773205301392,36.9091311463841,5614.0149729556,208.005256,0,1.69331370248,17400,2018-03-30 05:10:34,16,0,16.355,5614.0149729556,208.005256,0.223694,2.2917815694,0,0,-10.961006,213.1, -1.3, 0.3,0,0,1024,1024,1684,1024,214.5,0,97,4.13,4.121,4.12,4.112,0,0,16.908,82.31,6,P-GPS,
0.337732115331215,36.9091311356846,5615.6553929556,209.645676,0,1.67036094584,17500,2018-03-30 05:10:34,16,0,16.355,5615.6553929556,209.645676,0.223694,2.2917815694,0,0,-11.1847,213.1, -1.6, 0.1,0,0,1024,1024,1684,1024,214.5,0,97,4.13,4.121,4.12,4.112,0,0,16.908,82.31,6,P-GPS,
0.33773214954808,36.9091311363917,5617.2958129556,211.286096,0,1.65792656224,17600,2018-03-30 05:10:34,16,0,16.355,5617.2958129556,211.286096,0.223694,2.2917815694,0,0,-11.1847,213.1, -1.7, 0.2,0,0,1024,1024,1684,1024,214.5,0,97,4.13,4.121,4.12,4.112,0,0,16.908,82.31,6,P-GPS,
0.337732189499511,36.9091311171809,5618.9362329556,212.926516,0,1.64291015756,17700,2018-03-30 05:10:35,16,0,16.381,5618.9362329556,212.926516,0.223694,2.2917815694,0,0,-10.961006,213.1, -1.5, 0.3,0,0,1024,1024,1684,1024,214.4,0,97,4.127,4.116,4.116,4.109,0,0,16.806,82.31,6,P-GPS,
0.337732220308857,36.909131088301,5620.5766529556,214.566936,0,1.63103023592,17800,2018-03-30 05:10:35,16,0,16.381,5620.5766529556,214.566936,0.223694,2.2917815694,0,0,-10.961006,213.1, -1.4, 0.2,0,0,1024,1024,1684,1024,214.4,0,97,4.127,4.116,4.116,4.109,0,0,16.806,82.31,6,P-GPS,
0.337732247527485,36.9091310568972,5622.2170729556,216.207356,0,1.62046921196,17900,2018-03-30 05:10:35,16,0,16.381,5622.2170729556,216.207356,0.223694,2.2917815694,0,0,-10.961006,213.1, -1.3, 0.3,0,0,1024,1024,1684,1024,214.4,0,97,4.127,4.116,4.116,4.109,0,0,16.806,82.31,6,P-GPS,
0.337732253482704,36.909131043495,5623.8574929556,217.847776,0,1.61804795204,18000,2018-03-30 05:10:35,16,0,16.381,5623.8574929556,217.847776,0.223694,2.2917815694,0,0,-11.1847,213.1, -1.3, 0.3,0,0,1024,1024,1684,1024,214.4,0,97,4.127,4.116,4.116,4.109,0,0,16.806,82.31,6,P-GPS,
0.337732273007748,36.9091310114517,5625.4979129556,219.488196,0,1.61038719064,18100,2018-03-30 05:10:35,16,0,16.381,5625.4979129556,219.488196,0.223694,2.2917815694,0,0,-10.961006,213.1, -0.9, 0.4,0,0,1024,1024,1684,1024,214.3,0,97,4.127,4.116,4.116,4.109,0,0,16.806,82.31,6,P-GPS,
0.337732305434139,36.90913097892,5627.1383329556,221.128616,0,1.598097164,18200,2018-03-30 05:10:35,16,0,16.381,5627.1383329556,221.128616,0.223694,2.2917815694,0,0,-11.1847,213.1, -1, 0.4,0,0,1024,1024,1684,1024,214.3,0,97,4.127,4.116,4.116,4.109,0,0,16.806,82.31,6,P-GPS,
0.33773235013167,36.9091309484428,5628.7787529556,222.769036,0,1.58143705848,18300,2018-03-30 05:10:35,16,0,16.381,5628.7787529556,222.769036,0.223694,2.2917815694,0,0,-11.1847,213.1, -1.6, 0.2,0,0,1024,1024,1684,1024,214.3,0,97,4.127,4.116,4.116,4.109,0,0,16.806,82.31,6,P-GPS,
0.337732375973447,36.9091309355959,5630.7472569556,224.73754,0,1.57187997156,18400,2018-03-30 05:10:35,16,0,16.381,5630.7472569556,224.73754,0.223694,2.2917815694,0,0,-11.1847,213.1, -1.7, 0.3,0,0,1024,1024,1684,1024,214.3,0,97,4.127,4.116,4.116,4.109,0,0,16.806,82.31,6,P-GPS,
0.337732406224237,36.9091309193081,5632.3876769556,226.37796,0,1.56070214968,18500,2018-03-30 05:10:35,16,0,16.381,5632.3876769556,226.37796,0.223694,2.2917815694,0,0,-11.1847,213.1, -1.5, 0.2,0,0,1024,1024,1684,1024,214.3,0,97,4.127,4.116,4.116,4.109,0,0,16.806,82.31,6,P-GPS,
0.337732430248672,36.9091309111562,5634.0280969556,228.01838,0,1.55187340924,18600,2018-03-30 05:10:35,16,0,16.381,5634.0280969556,228.01838,0.223694,2.2917815694,0,0,-10.961006,213.1, -1.3, 0.3,0,0,1024,1024,1684,1024,214.2,0,97,4.127,4.116,4.116,4.109,0,0,16.806,82.31,6,P-GPS,
0.337732467129671,36.9091309064979,5635.6685169556,229.6588,0,1.53838259516,18700,2018-03-30 05:10:35,16,0,16.381,5635.6685169556,229.6588,0.223694,2.2917815694,0,0,-11.1847,213.1, -1.2, 0.4,0,0,1024,1024,1684,1024,214.2,0,97,4.122,4.113,4.112,4.105,0,0,17.036,82.31,6,P-GPS,
0.337732500409367,36.9091309064755,5637.3089369556,231.29922,0,1.52624348716,18800,2018-03-30 05:10:36,16,0,16.381,5637.3089369556,231.29922,0.223694,2.2917815694,0,0,-10.961006,213.1, -1.3, 0.5,0,0,1024,1024,1684,1024,214.2,0,97,4.122,4.113,4.112,4.105,0,0,17.036,82.31,6,P-GPS,
0.33773253480129,36.9091309050374,5638.9493569556,232.93964,0,1.51368771248,18900,2018-03-30 05:10:36,16,0,16.381,5638.9493569556,232.93964,0.223694,2.2917815694,0,0,-10.961006,213.1, -1.3, 0.4,0,0,1024,1024,1684,1024,214.2,0,97,4.122,4.113,4.112,4.105,0,0,17.036,82.31,6,P-GPS,
0.337732549624202,36.9091309035034,5640.5897769556,234.58006,0,1.50827104564,19000,2018-03-30 05:10:36,16,0,16.381,5640.5897769556,234.58006,0.223694,2.2917815694,0,0,-10.961006,213.1, -1.2, 0.3,0,0,1024,1024,1684,1024,214.2,0,97,4.122,4.113,4.112,4.105,0,0,17.036,82.31,6,P-GPS,
0.337732579544417,36.90913090402,5642.2301969556,236.22048,0,1.4973589718,19100,2018-03-30 05:10:36,16,0,16.381,5642.2301969556,236.22048,0.223694,2.2917815694,0,0,-11.1847,213.1, -1.3, 0.2,0,0,1024,1024,1684,1024,214.1,0,97,4.122,4.113,4.112,4.105,0,0,17.036,82.31,6,P-GPS,
0.337732609721113,36.9091309087837,5643.8706169556,237.8609,0,1.48638784284,19200,2018-03-30 05:10:36,16,0,16.381,5643.8706169556,237.8609,0.223694,2.2917815694,0,0,-11.1847,213.1, -1.4, 0.1,0,0,1024,1024,1684,1024,214.1,0,97,4.122,4.113,4.112,4.105,0,0,17.036,82.31,6,P-GPS,
0.337732635439943,36.9091309163963,5645.5110369556,239.50132,0,1.47707025724,19300,2018-03-30 05:10:36,16,0,16.381,5645.5110369556,239.50132,0.223694,2.2917815694,0,0,-10.961006,213.1, -1.3, 0.2,0,0,1024,1024,1684,1024,214.1,0,97,4.122,4.113,4.112,4.105,0,0,17.036,82.31,6,P-GPS,
0.337732641991173,36.9091309267583,5647.1514569556,241.14174,0,1.47477366924,19400,2018-03-30 05:10:36,16,0,16.381,5647.1514569556,241.14174,0.223694,2.2917815694,0,0,-11.1847,213.1, -1.3, 0.1,0,0,1024,1024,1684,1024,214.1,0,97,4.122,4.113,4.112,4.105,0,0,17.036,82.31,6,P-GPS,
0.337732660954404,36.9091309413361,5648.7918769556,242.78216,0,1.46800529632,19500,2018-03-30 05:10:36,16,0,16.381,5648.7918769556,242.78216,0.223694,2.2917815694,0,0,-11.1847,213.1, -1.4, 0.2,0,0,1024,1024,1684,1024,214.1,0,97,4.122,4.113,4.112,4.105,0,0,17.036,82.31,6,P-GPS,
0.337732683801473,36.9091309569579,5650.4322969556,244.42258,0,1.45985568976,19600,2018-03-30 05:10:36,16,0,16.381,5650.4322969556,244.42258,0.223694,2.2917815694,0,0,-11.1847,213.1, -1.4, 0.3,0,0,1024,1024,1684,1024,214.1,0,97,4.122,4.113,4.112,4.105,0,0,17.036,82.31,6,P-GPS,
0.337732724729156,36.9091309492342,5652.0727169556,246.063,0,1.44483928508,19700,2018-03-30 05:10:37,16,0,16.381,5652.0727169556,246.063,0.223694,2.2917815694,0,0,-11.1847,213.1, -1.4, 0.3,0,0,1024,1024,1684,1024,214.1,0,97,4.12,4.11,4.109,4.102,0,0,17.024,82.31,6,P-GPS,
0.337732755366701,36.9091309300397,5653.7131369556,247.70342,0,1.43345477028,19800,2018-03-30 05:10:37,16,0,16.381,5653.7131369556,247.70342,0.223694,2.2917815694,0,0,-10.961006,213.1, -1.3, 0.3,0,0,1024,1024,1684,1024,214,0,97,4.12,4.11,4.109,4.102,0,0,17.024,82.31,6,P-GPS,
0.337732784895276,36.9091309039833,5655.3535569556,249.34384,0,1.42245411376,19900,2018-03-30 05:10:37,16,0,16.381,5655.3535569556,249.34384,0.223694,2.2917815694,0,0,-11.1847,213.1, -1.4, 0.3,0,0,1024,1024,1684,1024,214,0,97,4.12,4.11,4.109,4.102,0,0,17.024,82.31,6,P-GPS,
0.337732786519649,36.9091308948898,5657.3220609556,251.312344,0,1.42179466492,20000,2018-03-30 05:10:37,16,0,16.381,5657.3220609556,251.312344,0.223694,2.2917815694,0,0,-11.1847,213.1, -1.3, 0.5,0,0,1024,1024,1684,1024,214,0,97,4.12,4.11,4.109,4.102,0,0,17.024,82.31,6,P-GPS,
0.337732806619534,36.9091308785485,5658.9624809556,252.952764,0,1.41436028148,20100,2018-03-30 05:10:37,16,0,16.381,5658.9624809556,252.952764,0.223694,2.2917815694,0,0,-10.961006,213.1, -1.1, 0.7,0,0,1024,1024,1684,1024,214,0,97,4.12,4.11,4.109,4.102,0,0,17.024,82.31,6,P-GPS,
0.337732834116625,36.9091308694485,5660.6029009556,254.593184,0,1.40428482184,20200,2018-03-30 05:10:37,16,0,16.381,5660.6029009556,254.593184,0.223694,2.2917815694,0,0,-10.961006,213.1, -1.1, 0.5,0,0,1024,1024,1684,1024,214,0,97,4.12,4.11,4.109,4.102,0,0,17.024,82.31,6,P-GPS,
0.337732874020831,36.9091308555444,5662.2433209556,256.233604,0,1.38967196048,20300,2018-03-30 05:10:37,16,0,16.381,5662.2433209556,256.233604,0.223694,2.2917815694,0,0,-10.961006,213.1, -1.2, 0.4,0,0,1024,1024,1684,1024,214,0,97,4.12,4.11,4.109,4.102,0,0,17.024,82.31,6,P-GPS,
0.337732896594321,36.9091308509932,5663.8837409556,257.874024,0,1.38142392872,20400,2018-03-30 05:10:37,16,0,16.381,5663.8837409556,257.874024,0.223694,2.2917815694,0,0,-10.961006,213.1, -1.3, 0.3,0,0,1024,1024,1684,1024,214,0,97,4.12,4.11,4.109,4.102,0,0,17.024,82.31,6,P-GPS,
0.33773293604012,36.9091308468481,5665.1960769556,259.18636,0,1.36702104112,20500,2018-03-30 05:10:37,16,0,16.381,5665.1960769556,259.18636,0.223694,2.2917815694,0,0,-10.961006,213.1, -1.4, 0.2,0,0,1024,1024,1684,1024,214,0,97,4.12,4.11,4.109,4.102,0,0,17.024,82.31,6,P-GPS,
0.33773296857236,36.9091308514212,5666.8364969556,260.82678,0,1.35516408536,20600,2018-03-30 05:10:37,16,0,16.381,5666.8364969556,260.82678,0.223694,2.2917815694,0,0,-10.961006,213.1, -1.5, 0.4,0,0,1024,1024,1684,1024,213.9,0,97,4.12,4.11,4.109,4.102,0,0,17.024,82.31,6,P-GPS,
0.337733014972429,36.9091308516195,5668.4769169556,262.4672,0,1.33823495096,20700,2018-03-30 05:10:37,16,0,16.355,5668.4769169556,262.4672,0.223694,2.2917815694,0,0,-10.961006,213.1, -1.4, 0.4,0,0,1024,1024,1684,1024,213.9,0,97,4.12,4.11,4.109,4.102,0,0,17.024,82.31,6,P-GPS,
0.337733048541174,36.9091308535094,5670.1173369556,264.10762,0,1.32599413692,20800,2018-03-30 05:10:38,16,0,16.355,5670.1173369556,264.10762,0.223694,2.2917815694,0,0,-10.961006,213.1, -1.2, 0.4,0,0,1024,1024,1684,1024,213.9,0,97,4.12,4.11,4.109,4.102,0,0,17.024,82.31,6,P-GPS,
0.337733088184014,36.9091308578452,5671.7577569556,265.74804,0,1.3115485984,20900,2018-03-30 05:10:38,16,0,16.355,5671.7577569556,265.74804,0.223694,2.2917815694,0,0,-10.961006,213.1, -1.4, 0.4,0,0,1024,1024,1684,1024,213.9,0,97,4.12,4.11,4.109,4.102,0,0,17.024,82.31,6,P-GPS,
0.337733103861045,36.9091308671684,5673.7262609556,267.716544,0,1.30586618352,21000,2018-03-30 05:10:38,16,0,16.355,5673.7262609556,267.716544,0.223694,2.2917815694,0,0,-11.1847,213.1, -1.6, 0.5,0,0,1024,1024,1545,1024,213.9,0,97,4.12,4.11,4.109,4.102,0,0,17.024,82.31,6,P-GPS,
0.337733162091759,36.9091308297723,5677.0071009556,270.997384,0,1.28451775764,21200,2018-03-30 05:10:38,16,0,16.355,5677.0071009556,270.997384,0.223694,2.2917815694,0,0,-11.1847,213.1, -1.6, 0.5,0,0,1024,1024,1442,1024,213.9,0,97,4.12,4.11,4.109,4.102,0,0,17.024,82.31,6,P-GPS,
0.337733207874648,36.9091307901788,5678.6475209556,272.637804,0,1.26786093296,21300,2018-03-30 05:10:38,16,0,16.355,5678.6475209556,272.637804,0.223694,2.2917815694,0,0,-10.737312,213.1, -1.9, 0.5,0,0,1024,1024,1322,1024,213.9,0,97,4.12,4.11,4.109,4.102,0,0,17.024,82.31,6,P-GPS,
0.337733244802058,36.9091307726579,5679.9598569556,273.95014,0,1.25446526324,21400,2018-03-30 05:10:38,16,0,16.355,5679.9598569556,273.95014,0.223694,2.2917815694,0,0,-9.842536,213, -2.9, 0.7,0,0,1024,1024,1322,1024,213.9,0,97,4.12,4.11,4.109,4.102,0,0,17.024,82.31,6,P-GPS,
0.337733278924474,36.9091307472316,5681.6002769556,275.59056,0,1.24218507912,21500,2018-03-30 05:10:38,16,0,16.355,5681.6002769556,275.59056,0.223694,2.2917815694,0,0,-8.500372,213.1, -3, 0.8,0,0,1024,1024,1348,1024,213.9,0,97,4.12,4.11,4.109,4.102,0,0,17.024,82.31,6,P-GPS,
0.337733283695001,36.9091307251807,5682.5845289556,276.574812,0,1.24064636516,21600,2018-03-30 05:10:38,16,0,16.355,5682.5845289556,276.574812,0.223694,2.2917815694,0,0,-6.934514,213.1, -2.2, 0.6,0,0,1024,1024,1427,1024,213.8,0,97,4.12,4.11,4.109,4.102,0,0,17.024,82.31,6,P-GPS,
0.337733305977814,36.9091306825473,5683.5687809556,277.559064,0,1.23306106308,21700,2018-03-30 05:10:39,16,0,16.328,5683.5687809556,277.559064,0.223694,2.2917815694,0,0,-5.816044,213.1, -1.2, 0.3,0,0,1024,1024,1428,1024,213.8,0,97,4.118,4.108,4.107,4.1,0,0,16.964,82.31,6,P-GPS,
0.337733328148265,36.9091306426687,5684.2249489556,278.215232,0,1.22566604972,21800,2018-03-30 05:10:39,16,0,16.328,5684.2249489556,278.215232,0.223694,2.2917815694,0,0,-5.368656,213.1, -0.6, 0.3,0,0,1024,1024,1389,1024,213.8,0,97,4.118,4.108,4.107,4.1,0,0,16.964,82.31,6,P-GPS,
0.337733378118697,36.9091306156687,5684.8811169556,278.8714,0,1.20803481556,21900,2018-03-30 05:10:39,16,0,16.328,5684.8811169556,278.8714,0.223694,2.2917815694,0,0,-5.59235,213.1, -0.3, 0.4,0,0,1024,1024,1389,1024,213.8,0,97,4.118,4.108,4.107,4.1,0,0,16.964,82.31,6,P-GPS,
0.337733442577396,36.9091306230399,5685.8653689556,279.855652,0,1.18439636336,22000,2018-03-30 05:10:39,16,0,16.328,5685.8653689556,279.855652,0.223694,2.2917815694,0,0,-5.368656,213.1, -1.1, 0.3,0,0,1024,1024,1045,1024,213.8,0,97,4.118,4.108,4.107,4.1,0,0,16.964,82.31,6,P-GPS,
