latitude,longitude,altitude(feet),ascent(feet),speed(mph),distance(feet),time(millisecond),datetime(utc),satellites,gpslevel,voltage(v),max_altitude(feet),max_ascent(feet),max_speed(mph),max_distance(feet), xSpeed(mph), ySpeed(mph), zSpeed(mph), compass_heading(degrees), pitch(degrees), roll(degrees),isPhoto,isVideo,rc_elevator,rc_aileron,rc_throttle,rc_rudder,gimbal_heading(degrees),gimbal_pitch(degrees),battery_percent,voltageCell1,voltageCell2,voltageCell3,voltageCell4,voltageCell5,voltageCell6,current(A),battery_temperature(f),flycStateRaw,flycState,message
0.376626142536857,36.9241221873707,5336.7696553567,0,0,0,0,2018-04-16 07:09:10,13,0,17.133,5336.7696553567,0,0,0,0,0,0,297.4, 1.2, 1.2,0,0,364,364,364,1684,301.9,0,99,4.292,4.292,4.293,4.292,0,0,1.5,85.91,41,Motors_Started,Setting new Return-To-Home altitude to 45m (148 ft). Setting new Maximum Flight Altitude to 150m (492 ft)
0.376625964644312,36.9241223946677,5336.7696553567,0,0,0.09966207668,100,2018-04-16 07:09:10,13,0,17.133,5336.7696553567,0,0,0.09966207668,0,0,0,297.4, 1.2, 1.2,0,0,866,837,902,1306,301.9,0,99,4.292,4.292,4.293,4.292,0,0,1.5,85.91,41,Motors_Started,
0.376625812958977,36.924122565274,5336.7696553567,0,0,0.182944231576,200,2018-04-16 07:09:10,13,0,17.133,5336.7696553567,0,0,0.182944231576,0,0,0,297.4, 1.2, 1.2,0,0,1024,1024,1024,1024,301.8,0,99,4.292,4.292,4.293,4.292,0,0,1.5,85.91,41,Motors_Started,
0.376625635942433,36.9241227874809,5336.7696553567,0,0,0.286529864812,300,2018-04-16 07:09:10,13,0,17.133,5336.7696553567,0,0,0.286529864812,0,0,0,297.3, 1.2, 1.2,0,0,1024,1024,1024,1024,299.2,0,99,4.292,4.292,4.293,4.292,0,0,1.5,85.91,41,Motors_Started,
0.376625493149573,36.9241229733884,5336.7696553567,0,0,0.37198492004,400,2018-04-16 07:09:10,13,0,17.133,5336.7696553567,0,0,0.37198492004,0,0,0,297.4, 1.2, 1.2,0,0,1024,1024,1024,1024,299.2,0,99,4.292,4.292,4.293,4.292,0,0,1.5,85.91,41,Motors_Started,
0.376625310312054,36.9241231688411,5336.7696553567,0,0,0.46948492316,500,2018-04-16 07:09:10,13,0,17.133,5336.7696553567,0,0,0.46948492316,0,0,0,297.4, 1.2, 1.2,0,0,1024,1024,1024,1024,298.7,0,99,4.292,4.292,4.293,4.292,0,0,1.5,85.91,41,Motors_Started,
0.376625149063835,36.9241233274186,5336.7696553567,0,0,0.55171261608,600,2018-04-16 07:09:10,13,0,17.133,5336.7696553567,0,0,0.55171261608,0,0,0,297.3, 1.2, 1.2,0,0,1024,1024,1024,1024,298.4,0,99,4.292,4.292,4.293,4.292,0,0,1.5,85.91,41,Motors_Started,
0.376624982701996,36.9241234836702,5336.7696553567,0,0,0.63462272372,700,2018-04-16 07:09:10,13,0,17.133,5336.7696553567,0,0,0.63462272372,0,0,0,297.4, 1.2, 1.2,0,0,1024,1024,1024,1024,298.2,0,99,4.292,4.292,4.293,4.292,0,0,1.5,85.91,41,Motors_Started,
0.376624842934887,36.924123618552,5336.7696553567,0,0,0.70531826404,800,2018-04-16 07:09:10,13,0,17.133,5336.7696553567,0,0,0.70531826404,0,0,0,297.3, 1.2, 1.2,0,0,1024,1024,1024,1024,298.1,0,99,4.292,4.292,4.293,4.292,0,0,1.5,85.91,41,Motors_Started,
0.376624705820716,36.9241237451674,5336.7696553567,0,0,0.77316931608,900,2018-04-16 07:09:10,13,0,17.133,5336.7696553567,0,0,0.77316931608,0,0,0,297.3, 1.2, 1.2,0,0,1024,1024,1024,1024,298,0,99,4.292,4.292,4.293,4.292,0,0,1.5,85.91,41,Motors_Started,
0.37662458336641,36.9241238618947,5336.7696553567,0,0,0.83477364876,1000,2018-04-16 07:09:10,13,0,17.133,5336.7696553567,0,0,0.83477364876,0,0,0,297.3, 1.2, 1.3,0,0,1024,1024,1024,1024,297.9,0,99,4.291,4.292,4.292,4.292,0,0,1.512,85.91,41,Motors_Started,
0.376624472056563,36.9241239437931,5336.7696553567,0,0,0.8843668262,1100,2018-04-16 07:09:11,13,0,17.133,5336.7696553567,0,0,0.8843668262,0,0,0,297.3, 1.2, 1.2,0,0,1024,1024,1024,1024,297.9,0,99,4.291,4.292,4.292,4.292,0,0,1.512,85.91,41,Motors_Started,
0.376624369369734,36.9241240093519,5336.7696553567,0,0,0.92757876984,1200,2018-04-16 07:09:11,13,0,17.133,5336.7696553567,0,0,0.92757876984,0,0,0,297.3, 1.2, 1.2,0,0,1024,1024,1024,1024,297.8,0,99,4.291,4.292,4.292,4.292,0,0,1.512,85.91,41,Motors_Started,
0.376624267976297,36.9241240668328,5336.7696553567,0,0,0.96848100212,1300,2018-04-16 07:09:11,13,0,17.133,5336.7696553567,0,0,0.96848100212,0,0,0,297.3, 1.2, 1.2,0,0,1024,1024,1024,1024,297.8,0,99,4.291,4.292,4.292,4.292,0,0,1.512,85.91,41,Motors_Started,
0.376624163814912,36.9241241468571,5336.7696553567,0,0,1.0160105312,1400,2018-04-16 07:09:11,13,0,17.133,5336.7696553567,0,0,1.0160105312,0,0,0,297.3, 1.2, 1.2,0,0,1024,1024,1024,1024,297.8,0,99,4.291,4.292,4.292,4.292,0,0,1.512,85.91,41,Motors_Started,
0.376624037915836,36.9241242251943,5336.7696553567,0,0,1.06882549352,1500,2018-04-16 07:09:11,13,0,17.133,5336.7696553567,0,0,1.06882549352,0,0,0,297.3, 1.2, 1.3,0,0,1024,1024,1024,1024,297.7,0,99,4.291,4.292,4.292,4.292,0,0,1.512,85.91,41,Motors_Started,
0.376623908877119,36.9241243094261,5336.7696553567,0,0,1.12407811996,1600,2018-04-16 07:09:11,13,0,17.133,5336.7696553567,0,0,1.12407811996,0,0,0,297.3, 1.2, 1.2,0,1,1024,1024,1024,1024,297.7,0,99,4.291,4.292,4.292,4.292,0,0,1.512,85.91,10,Assisted_Takeoff,
0.376623784326598,36.9241243956889,5336.7696553567,0,0,1.17873035268,1700,2018-04-16 07:09:11,13,0,17.133,5336.7696553567,0,0,1.17873035268,0,0,0,297.3, 1.2, 1.2,0,1,1024,1024,1024,1024,297.7,0,99,4.291,4.292,4.292,4.292,0,0,1.512,85.91,10,Assisted_Takeoff,
0.376623668383014,36.9241244847075,5336.7696553567,0,0,1.23181762472,1800,2018-04-16 07:09:11,13,0,17.133,5336.7696553567,0,0,1.23181762472,0,0,0,297.3, 1.2, 1.2,0,1,1024,1024,1024,1024,297.7,0,99,4.291,4.292,4.292,4.292,0,0,1.512,85.91,10,Assisted_Takeoff,
0.376623560672436,36.9241246019128,5336.7696553567,0,0,1.28972116988,1900,2018-04-16 07:09:11,13,0,17.133,5336.7696553567,0,0,1.28972116988,0,0,0,297.3, 1.2, 1.2,0,1,1024,1024,1024,1024,297.7,0,99,4.291,4.292,4.292,4.292,0,0,1.512,85.91,10,Assisted_Takeoff,
0.37662345690147,36.9241247238849,5336.7696553567,0,0,1.3477854762,2000,2018-04-16 07:09:11,13,0,17.081,5336.7696553567,0,0,1.3477854762,0,0,0,297.3, 1.2, 1.2,0,1,1024,1024,1024,1024,297.7,0,99,4.293,4.287,4.283,4.28,0,0,3.256,85.91,10,Assisted_Takeoff,
0.376623385439241,36.9241248243535,5336.7696553567,0,0,1.39193574008,2100,2018-04-16 07:09:12,13,0,17.081,5336.7696553567,0,0,1.39193574008,0,0,0,297.3, 1.2, 1.2,0,1,1024,1024,1024,1024,297.7,0,99,4.293,4.287,4.283,4.28,0,0,3.256,85.91,10,Assisted_Takeoff,
0.376623318291167,36.9241249081244,5336.7696553567,0,0,1.430774324,2200,2018-04-16 07:09:12,13,0,17.081,5336.7696553567,0,0,1.430774324,0,0,0,297.3, 1.2, 1.2,0,1,1024,1024,1024,1024,297.6,0,99,4.293,4.287,4.283,4.28,0,0,3.256,85.91,10,Assisted_Takeoff,
0.376623255955349,36.924124941329,5336.7696553567,0,0,1.4555774744,2300,2018-04-16 07:09:12,13,0,17.081,5336.7696553567,0,0,1.4555774744,0,0,0,297.3, 1.2, 1.2,0,1,1024,1024,1024,1024,297.6,0,99,4.293,4.287,4.283,4.28,0,0,3.256,85.91,10,Assisted_Takeoff,
0.37662317987933,36.9241249717863,5336.7696553567,0,0,1.48336947004,2400,2018-04-16 07:09:12,13,0,17.081,5336.7696553567,0,0,1.48336947004,0,0,0,297.3, 1.2, 1.2,0,1,1024,1024,1024,1024,297.6,0,99,4.293,4.287,4.283,4.28,0,0,3.256,85.91,10,Assisted_Takeoff,
0.376623129664224,36.9241249802191,5336.7696553567,0,0,1.49886487736,2500,2018-04-16 07:09:12,13,0,17.081,5336.7696553567,0,0,1.49886487736,0,0,0,297.3, 1.2, 1.2,0,1,1024,1024,1024,1024,297.6,0,99,4.293,4.287,4.283,4.28,0,0,3.256,85.91,10,Assisted_Takeoff,
0.376623076004959,36.9241250059365,5336.7696553567,0,0,1.51961290952,2600,2018-04-16 07:09:12,13,0,17.081,5336.7696553567,0,0,1.51961290952,0,0,0,297.3, 1.2, 1.2,0,1,1024,1024,1024,1024,297.6,0,99,4.293,4.287,4.283,4.28,0,0,3.256,85.91,10,Assisted_Takeoff,
0.37662301777628,36.9241250181074,5336.7696553567,0,0,1.53830057416,2700,2018-04-16 07:09:12,13,0,17.081,5336.7696553567,0,0,1.53830057416,0,0,0,297.3, 1.2, 1.2,0,1,1024,1024,1030,1024,297.6,0,99,4.293,4.287,4.283,4.28,0,0,3.256,85.91,10,Assisted_Takeoff,
0.376622947034637,36.9241250451417,5336.7696553567,0,0,1.56408141488,2800,2018-04-16 07:09:12,13,0,17.081,5336.7696553567,0,0,1.56408141488,0,0,0,297.3, 1.2, 1.2,0,1,1024,1024,1130,1024,297.6,0,99,4.293,4.287,4.283,4.28,0,0,3.256,85.91,10,Assisted_Takeoff,
0.376622893406719,36.9241250385943,5336.7696553567,0,0,1.57714571976,2900,2018-04-16 07:09:12,13,0,17.081,5336.7696553567,0,0,1.57714571976,0,0,0,297.3, 1.2, 1.2,0,1,1024,1024,1151,1024,297.6,0,99,4.293,4.287,4.283,4.28,0,0,3.256,85.91,10,Assisted_Takeoff,
0.376622839030125,36.9241250398702,5336.7696553567,0,0,1.59241474912,3000,2018-04-16 07:09:12,13,0,17.133,5336.7696553567,0,0,1.59241474912,0,0,0,297.3, 1.2, 1.2,0,1,1024,1024,1184,1024,297.6,0,99,4.293,4.287,4.283,4.28,0,0,3.256,85.91,10,Assisted_Takeoff,
0.376622774570612,36.9241250394168,5336.7696553567,0,0,1.61018049772,3100,2018-04-16 07:09:13,13,0,17.133,5336.7696553567,0,0,1.61018049772,0,0,0,297.2, 1.2, 1.2,0,1,1024,1024,1190,1024,297.6,0,99,4.293,4.287,4.283,4.28,0,0,3.256,85.91,10,Assisted_Takeoff,
0.376622701435563,36.9241250543531,5336.7696553567,0,0,1.63411750636,3200,2018-04-16 07:09:13,13,0,17.133,5336.7696553567,0,0,1.63411750636,0,0,0,297.3, 1.2, 1.2,0,1,1024,1024,1179,1024,297.6,0,99,4.293,4.287,4.283,4.28,0,0,3.256,85.91,10,Assisted_Takeoff,
0.37662264020729,36.9241250740822,5336.7696553567,0,0,1.65591212648,3300,2018-04-16 07:09:13,13,0,17.133,5336.7696553567,0,0,1.65591212648,0,0,0,297.3, 1.2, 1.2,0,1,1024,1024,1195,1024,297.6,0,99,4.293,4.287,4.283,4.28,0,0,3.256,85.91,10,Assisted_Takeoff,
0.376622581468908,36.9241251033349,5336.7696553567,0,0,1.67924546056,3400,2018-04-16 07:09:13,13,0,17.133,5336.7696553567,0,0,1.67924546056,0,0,0,297.3, 1.2, 1.3,0,1,1024,1024,1212,1024,297.6,0,99,4.293,4.287,4.283,4.28,0,0,3.256,85.91,10,Assisted_Takeoff,
0.376622534888082,36.9241251139158,5336.7696553567,0,0,1.69485897812,3500,2018-04-16 07:09:13,13,0,17.133,5336.7696553567,0,0,1.69485897812,0,0,0,297.3, 1.2, 1.3,0,1,1024,1024,1208,1024,297.6,0,99,4.293,4.287,4.283,4.28,0,0,3.256,85.91,10,Assisted_Takeoff,
0.376622487360723,36.9241251273438,5336.7696553567,0,0,1.71142722012,3600,2018-04-16 07:09:13,13,0,17.133,5336.7696553567,0,0,1.71142722012,0,0,0,297.3, 1.1, 0,0,1,1024,1024,1204,1024,297.6,0,99,4.293,4.287,4.283,4.28,0,0,3.256,85.91,10,Assisted_Takeoff,
0.376622416484326,36.9241251554185,5336.7696553567,0,0,1.73801514748,3700,2018-04-16 07:09:13,13,0,17.133,5336.7696553567,0,0,1.73801514748,0,0,-0.223694,297.4, 0.4, -1.1,0,1,1024,1024,1205,1024,297.6,0,99,4.293,4.287,4.283,4.28,0,0,3.256,85.91,10,Assisted_Takeoff,
0.376622308825044,36.9241251730458,5336.7696553567,0,0,1.77285438744,3800,2018-04-16 07:09:13,13,0,17.133,5336.7696553567,0,0,1.77285438744,0,0,-0.447388,297.4, 0.1, -0.7,0,1,1024,1024,1221,1024,297.6,0,99,4.293,4.287,4.283,4.28,0,0,3.256,85.91,6,P-GPS,
0.376622165423858,36.9241251754017,5336.7696553567,0,0,1.81493444128,3900,2018-04-16 07:09:13,13,0,17.133,5336.7696553567,0,0,1.81493444128,0,0,-0.671082,297.4, 0.2, 0,0,1,1024,1024,1236,1024,297.6,0,99,4.293,4.287,4.283,4.28,0,0,3.256,85.91,6,P-GPS,
0.376622019172896,36.9241251598092,5336.7696553567,0,0,1.85453746092,4000,2018-04-16 07:09:13,13,0,17.055,5336.7696553567,0,0,1.85453746092,0,0,-0.894776,297.3, 0.4, 0.3,0,1,1024,1024,1256,1024,297.6,0,99,4.287,4.287,4.286,4.285,0,0,1.756,85.91,6,P-GPS,
0.37662187317597,36.9241251524002,5337.0977393567,0.328084,0,1.89646003444,4100,2018-04-16 07:09:14,13,0,17.055,5337.0977393567,0.328084,0,1.89646003444,0,0,-1.11847,297.3, 0.3, 0.7,0,1,1024,1024,1297,1024,297.6,0,99,4.287,4.287,4.286,4.285,0,0,1.756,85.91,6,P-GPS,Home Point Recorded. RTH Altitude:  45m.
0.376621741808986,36.9241251234904,5337.0977393567,0.328084,0,1.93014769956,4200,2018-04-16 07:09:14,13,0,17.055,5337.0977393567,0.328084,0,1.93014769956,0,0,-1.342164,297.2, 0.6, 1.1,0,1,1024,1024,1351,1024,297.6,0,99,4.287,4.287,4.286,4.285,0,0,1.756,85.91,6,P-GPS,
0.376621610733493,36.924125098186,5337.4258233567,0.656168,0,1.96510176892,4300,2018-04-16 07:09:14,13,0,17.055,5337.4258233567,0.656168,0,1.96510176892,0,0,-1.789552,297.2, 0.9, 1.4,0,1,1024,1024,1404,1024,297.6,0,99,4.287,4.287,4.286,4.285,0,0,1.756,85.91,6,P-GPS,
0.376621492581332,36.9241250664179,5337.7539073567,0.984252,0,1.99538392212,4400,2018-04-16 07:09:14,13,0,17.055,5337.7539073567,0.984252,0,1.99538392212,0,0,-2.23694,297.2, 1, 1.7,0,1,1024,1024,1434,1024,297.6,0,99,4.287,4.287,4.286,4.285,0,0,1.756,85.91,6,P-GPS,
0.376621425206497,36.9241250231471,5338.0819913567,1.312336,0,2.00814638972,4500,2018-04-16 07:09:14,13,0,17.055,5338.0819913567,1.312336,0,2.00814638972,0,0,-2.684328,297.3, 1.2, 1.3,0,1,1024,1024,1422,1024,297.6,0,99,4.287,4.287,4.286,4.285,0,0,1.756,85.91,6,P-GPS,
0.376621378294282,36.9241249836336,5338.4100753567,1.64042,0,2.01549875216,4600,2018-04-16 07:09:14,13,0,17.055,5338.4100753567,1.64042,0,2.01549875216,0,0,-3.579104,297.4, 1.3, 0.7,0,1,1024,1024,1406,1024,297.6,0,99,4.287,4.287,4.286,4.285,0,0,1.756,85.91,6,P-GPS,
0.376621298969926,36.9241250078942,5339.0662433567,2.296588,0,2.04495413368,4700,2018-04-16 07:09:14,13,0,17.055,5339.0662433567,2.296588,0,2.04495413368,0,0,-4.026492,297.4, 0.7, 0.7,0,1,1024,1024,1421,1024,297.5,0,99,4.287,4.287,4.286,4.285,0,0,1.756,85.91,6,P-GPS,
0.376621200460056,36.9241250443446,5339.7224113567,2.952756,0,2.08271332124,4800,2018-04-16 07:09:14,13,0,17.055,5339.7224113567,2.952756,0,2.08271332124,0,0,-4.250186,297.4, 0.7, 0.7,0,1,1024,1024,1412,1024,297.5,0,99,4.287,4.287,4.286,4.285,0,0,1.756,85.91,6,P-GPS,
0.376621140150632,36.9241250590261,5340.3785793567,3.608924,0,2.10445544792,4900,2018-04-16 07:09:14,12,0,17.055,5340.3785793567,3.608924,0,2.10445544792,0,0,-4.697574,297.4, 1, 0.8,0,1,1024,1024,1425,1024,297.5,0,99,4.287,4.287,4.286,4.285,0,0,1.756,85.91,6,P-GPS,
0.376621084565732,36.9241250501554,5341.0347473567,4.265092,0,2.12046922796,5000,2018-04-16 07:09:14,12,0,16.739,5341.0347473567,4.265092,0,2.12046922796,0,0,-4.697574,297.4, 1, 1.1,0,1,1024,1024,1457,1024,297.5,0,99,4.222,4.226,4.222,4.219,0,0,11.46,85.91,6,P-GPS,
0.37662099946162,36.9241251012929,5341.6909153567,4.92126,0,2.15668313988,5100,2018-04-16 07:09:15,13,0,16.739,5341.6909153567,4.92126,0,2.15668313988,0,0,-4.921268,297.3, 0.8, 1.1,0,1,1024,1024,1486,1024,297.6,0,99,4.222,4.226,4.222,4.219,0,0,11.46,85.91,6,P-GPS,
0.376620901565267,36.9241251607435,5342.6751673567,5.905512,0,2.19845151392,5200,2018-04-16 07:09:15,13,0,16.739,5342.6751673567,5.905512,0,2.19845151392,0,0,-5.144962,297.3, 0.9, 1.1,0,1,1024,1024,1549,1024,297.6,0,99,4.222,4.226,4.222,4.219,0,0,11.46,85.91,6,P-GPS,
0.376620798928513,36.924125226596,5343.3313353567,6.56168,0,2.24287736836,5300,2018-04-16 07:09:15,13,0,16.739,5343.3313353567,6.56168,0,2.24287736836,0,0,-5.59235,297.3, 0.9, 1.1,0,1,1024,1024,1562,1024,297.6,0,99,4.222,4.226,4.222,4.219,0,0,11.46,85.91,6,P-GPS,
0.37662070669833,36.9241252757718,5344.3155873567,7.545932,0,2.28099744832,5400,2018-04-16 07:09:15,13,0,16.739,5344.3155873567,7.545932,0,2.28099744832,0,0,-6.263432,297.3, 1, 0.9,0,1,1024,1024,1576,1024,297.6,0,99,4.222,4.226,4.222,4.219,0,0,11.46,85.91,6,P-GPS,
0.376620633273826,36.9241253686633,5345.2998393567,8.530184,0,2.32108931312,5500,2018-04-16 07:09:15,13,0,16.739,5345.2998393567,8.530184,0,2.32108931312,0,0,-6.934514,297.3, 0.9, 1,0,1,1024,1024,1619,1024,297.6,0,99,4.222,4.226,4.222,4.219,0,0,11.46,85.91,6,P-GPS,
0.376620566450219,36.9241254607225,5346.2840913567,9.514436,0,2.35905847444,5600,2018-04-16 07:09:15,13,0,16.739,5346.2840913567,9.514436,0,2.35905847444,0,0,-7.605596,297.3, 0.5, 1.4,0,1,1024,1024,1619,1024,297.6,0,99,4.222,4.226,4.222,4.219,0,0,11.46,85.91,6,P-GPS,
0.376620501261978,36.9241255415267,5347.5964273567,10.826772,0,2.39453091652,5700,2018-04-16 07:09:15,13,0,16.739,5347.5964273567,10.826772,0,2.39453091652,0,0,-8.276678,297.3, 0.7, 1,0,1,1024,1024,1658,1024,297.6,0,99,4.222,4.226,4.222,4.219,0,0,11.46,85.91,6,P-GPS,
0.376620441476913,36.9241255899866,5348.5806793567,11.811024,0,2.42231963132,5800,2018-04-16 07:09:15,13,0,16.739,5348.5806793567,11.811024,0,2.42231963132,0,0,-8.724066,297.3, 1.1, 0.6,0,1,1024,1024,1673,1024,297.6,0,99,4.222,4.226,4.222,4.219,0,0,11.46,85.91,6,P-GPS,
0.376620386911826,36.9241256178766,5350.2210993567,13.451444,0,2.44462934332,5900,2018-04-16 07:09:15,13,0,16.739,5350.2210993567,13.451444,0,2.44462934332,0,0,-9.395148,297.3, 1.1, 0.6,0,1,1024,1024,1684,1024,297.6,0,99,4.222,4.226,4.222,4.219,0,0,11.46,85.91,6,P-GPS,
0.376620324025797,36.9241256386052,5351.5334353567,14.76378,0,2.46821530208,6000,2018-04-16 07:09:16,13,0,16.634,5351.5334353567,14.76378,0,2.46821530208,0,0,-9.842536,297.3, 0.9, 1.3,0,1,1024,1024,1684,1024,297.5,0,99,4.16,4.169,4.167,4.171,0,0,17.996,85.91,6,P-GPS,
0.376620221770913,36.9241256458169,5354.4861913567,17.716536,0,2.50170283596,6200,2018-04-16 07:09:16,13,0,16.634,5354.4861913567,17.716536,0,2.50170283596,0,0,-10.513618,297.3, 0.8, 1.3,0,1,1024,1024,1684,1024,297.5,-0.1,99,4.16,4.169,4.167,4.171,0,0,17.996,85.91,6,P-GPS,
0.376620170101606,36.9241256797422,5356.1266113567,19.356956,0,2.52422252172,6300,2018-04-16 07:09:16,13,0,16.634,5356.1266113567,19.356956,0,2.52422252172,0,0,-10.737312,297.3, 1.1, 1.1,0,1,1024,1024,1684,1024,297.5,-0.2,99,4.16,4.169,4.167,4.171,0,0,17.996,85.91,6,P-GPS,
0.376620122709001,36.9241257330563,5357.7670313567,20.997376,0,2.54897974036,6400,2018-04-16 07:09:16,13,0,16.634,5357.7670313567,20.997376,0,2.54897974036,0,0,-10.737312,297.3, 1.2, 0.8,0,1,1024,1024,1684,1024,297.5,-0.2,99,4.16,4.169,4.167,4.171,0,0,17.996,85.91,6,P-GPS,
0.376620050724855,36.9241258020422,5359.4074513567,22.637796,0,2.58439640816,6500,2018-04-16 07:09:16,13,0,16.634,5359.4074513567,22.637796,0,2.58439640816,0,0,-10.961006,297.3, 1, 0.5,0,1,1024,1024,1684,1024,297.5,-0.7,99,4.16,4.169,4.167,4.171,0,0,17.996,85.91,6,P-GPS,
0.376619975497256,36.9241258655264,5361.0478713567,24.278216,0,2.61982619932,6600,2018-04-16 07:09:16,13,0,16.634,5361.0478713567,24.278216,0,2.61982619932,0,0,-10.737312,297.3, 0.8, 0.6,0,1,1024,1024,1684,1024,297.5,-1.1,99,4.16,4.169,4.167,4.171,0,0,17.996,85.91,6,P-GPS,
0.376619893526271,36.9241259554807,5362.3602073567,25.590552,0,2.66235572824,6700,2018-04-16 07:09:16,13,0,16.634,5362.3602073567,25.590552,0,2.66235572824,0,0,-10.737312,297.3, 0.7, 0.7,0,1,1024,1024,1684,1024,297.5,-1.6,99,4.16,4.169,4.167,4.171,0,0,17.996,85.91,6,P-GPS,
0.376619831285513,36.9241260368223,5364.0006273567,27.230972,0,2.6971621598,6800,2018-04-16 07:09:16,13,0,16.634,5364.0006273567,27.230972,0,2.6971621598,0,0,-10.737312,297.3, 1, 0.5,0,1,1024,1024,1684,1024,297.5,-2.4,99,4.16,4.169,4.167,4.171,0,0,17.996,85.91,6,P-GPS,
0.376619747808217,36.9241260914305,5365.6410473567,28.871392,0,2.73353683288,6900,2018-04-16 07:09:16,13,0,16.634,5365.6410473567,28.871392,0,2.73353683288,0,0,-10.737312,297.3, 1.1, 0.3,0,1,1024,1024,1684,1024,297.5,-3.7,99,4.16,4.169,4.167,4.171,0,0,17.996,85.91,6,P-GPS,
0.376619666702749,36.9241261195237,5367.2814673567,30.511812,0,2.76414378924,7000,2018-04-16 07:09:16,13,0,16.582,5367.2814673567,30.511812,0,2.76414378924,0,0,-10.737312,297.3, 1.3, 0.3,0,1,1024,1024,1684,1024,297.5,-5.3,99,4.16,4.169,4.167,4.171,0,0,17.996,85.91,6,P-GPS,
0.376619579656718,36.9241260982413,5368.9218873567,32.152232,0,2.78735573224,7100,2018-04-16 07:09:17,13,0,16.582,5368.9218873567,32.152232,0,2.78735573224,0,0,-10.513618,297.3, 1.3, 0.6,0,1,1024,1024,1684,1024,297.5,-6.8,99,4.16,4.169,4.167,4.171,0,0,17.996,85.91,6,P-GPS,
0.376619513377419,36.9241260716459,5370.2342233567,33.464568,0,2.80323827868,7200,2018-04-16 07:09:17,13,0,16.582,5370.2342233567,33.464568,0,2.80323827868,0,0,-10.513618,297.3, 1.5, 0.5,0,1,1024,1024,1684,1024,297.5,-8.4,99,4.16,4.169,4.167,4.171,0,0,17.996,85.91,6,P-GPS,
0.376619453681105,36.9241260623251,5371.8746433567,35.104988,0,2.82034457844,7300,2018-04-16 07:09:17,13,0,16.582,5371.8746433567,35.104988,0,2.82034457844,0,0,-10.513618,297.3, 1.4, 0.2,0,1,1024,1024,1684,1024,297.5,-9.9,99,4.16,4.169,4.167,4.171,0,0,17.996,85.91,6,P-GPS,
0.376619399112761,36.9241260761335,5373.5150633567,36.745408,0,2.84010507776,7400,2018-04-16 07:09:17,13,0,16.582,5373.5150633567,36.745408,0,2.84010507776,0,0,-10.513618,297.3, 1.2, 0.2,0,1,1024,1024,1684,1024,297.5,-11.5,99,4.16,4.169,4.167,4.171,0,0,17.996,85.91,6,P-GPS,
0.37661934280361,36.9241260766886,5374.8273993567,38.057744,0,2.85801846416,7500,2018-04-16 07:09:17,13,0,16.582,5374.8273993567,38.057744,0,2.85801846416,0,0,-10.513618,297.3, 1.1, 0.4,0,1,1024,1024,1683,1024,297.5,-13,99,4.16,4.169,4.167,4.171,0,0,17.996,85.91,6,P-GPS,
0.37661929530027,36.9241260732867,5376.4678193567,39.698164,0,2.87246400268,7600,2018-04-16 07:09:17,13,0,16.582,5376.4678193567,39.698164,0,2.87246400268,0,0,-10.513618,297.3, 1.5, 0.1,0,1,1024,1024,1684,1024,297.5,-14.5,99,4.16,4.169,4.167,4.171,0,0,17.996,85.91,6,P-GPS,
0.376619251123027,36.9241260865308,5378.1082393567,41.338584,0,2.88886820268,7700,2018-04-16 07:09:17,13,0,16.582,5378.1082393567,41.338584,0,2.88886820268,0,0,-10.513618,297.3, 1.8, 0,0,1,1024,1024,1684,1024,297.5,-16,99,4.16,4.169,4.167,4.171,0,0,17.996,85.91,6,P-GPS,
0.376619198701786,36.9241261148483,5379.7486593567,42.979004,0,2.91060376768,7800,2018-04-16 07:09:17,13,0,16.582,5379.7486593567,42.979004,0,2.91060376768,0,0,-10.513618,297.3, 1.7, 0,0,1,1024,1024,1684,1024,297.5,-16.7,99,4.16,4.169,4.167,4.171,0,0,17.996,85.91,6,P-GPS,
0.376619108530771,36.9241261708697,5381.0609953567,44.29134,0,2.94930127548,7900,2018-04-16 07:09:17,13,0,16.582,5381.0609953567,44.29134,0,2.94930127548,0,0,-10.737312,297.4, 1.4, 0,0,1,1024,1024,1684,1024,297.5,-16.7,99,4.16,4.169,4.167,4.171,0,0,17.996,85.91,6,P-GPS,
0.376619015333293,36.9241262247477,5382.7014153567,45.93176,0,2.98857621112,8000,2018-04-16 07:09:18,13,0,16.503,5382.7014153567,45.93176,0,2.98857621112,0,0,-10.737312,297.3, 1.2, 0.1,0,1,1024,1024,1684,1024,297.5,-16.7,99,4.152,4.162,4.158,4.156,0,0,19.102,85.91,6,P-GPS,
0.376618932706044,36.9241262609364,5384.3418353567,47.57218,0,3.02131571348,8100,2018-04-16 07:09:18,13,0,16.503,5384.3418353567,47.57218,0,3.02131571348,0,0,-10.737312,297.3, 1.5, 0.1,0,1,1024,1024,1684,1024,297.5,-16.7,99,4.152,4.162,4.158,4.156,0,0,19.102,85.91,6,P-GPS,
0.376618863857061,36.9241262861378,5385.9822553567,49.2126,0,3.04771335212,8200,2018-04-16 07:09:18,13,0,16.503,5385.9822553567,49.2126,0,3.04771335212,0,0,-10.737312,297.3, 1.9, -0.1,0,1,1024,1024,1684,1024,297.5,-16.7,99,4.152,4.162,4.158,4.156,0,0,19.102,85.91,6,P-GPS,
0.376618769774523,36.9241263562138,5387.6226753567,50.85302,0,3.09017070256,8300,2018-04-16 07:09:18,13,0,16.503,5387.6226753567,50.85302,0,3.09017070256,0,0,-10.961006,297.3, 1.9, -0.3,0,1,1024,1024,1680,1024,297.5,-16.7,99,4.152,4.162,4.158,4.156,0,0,19.102,85.91,6,P-GPS,
0.376618662806922,36.9241264391084,5389.2630953567,52.49344,0,3.13903881436,8400,2018-04-16 07:09:18,13,0,16.503,5389.2630953567,52.49344,0,3.13903881436,0,0,-10.961006,297.3, 1.4, 0,0,1,1024,1024,1684,1024,297.5,-16.7,99,4.152,4.162,4.158,4.156,0,0,19.102,85.91,6,P-GPS,
0.376618534950456,36.9241265324812,5390.9035153567,54.13386,0,3.19643382932,8500,2018-04-16 07:09:18,13,0,16.503,5390.9035153567,54.13386,0,3.19643382932,0,0,-11.1847,297.3, 1.3, 0,0,1,1024,1024,1684,1024,297.5,-16.7,99,4.152,4.162,4.158,4.156,0,0,19.102,85.91,6,P-GPS,
0.3766184126193,36.9241266127945,5392.5439353567,55.77428,0,3.24972451344,8600,2018-04-16 07:09:18,13,0,16.503,5392.5439353567,55.77428,0,3.24972451344,0,0,-11.1847,297.4, 1.4, 0,0,1,1024,1024,1672,1024,297.5,-16.7,99,4.152,4.162,4.158,4.156,0,0,19.102,85.91,6,P-GPS,
0.376618260606496,36.9241267180865,5394.1843553567,57.4147,0,3.3169620484,8700,2018-04-16 07:09:18,13,0,16.503,5394.1843553567,57.4147,0,3.3169620484,0,0,-11.408394,297.4, 1.2, 0,0,1,1024,1024,1665,1024,297.5,-16.9,99,4.152,4.162,4.158,4.156,0,0,19.102,85.91,6,P-GPS,
0.376618116014511,36.9241268173022,5396.1528593567,59.383204,0,3.380741578,8800,2018-04-16 07:09:18,13,0,16.503,5396.1528593567,59.383204,0,3.380741578,0,0,-11.1847,297.4, 1.1, 0,0,1,1024,1024,1666,1024,297.5,-17.1,99,4.152,4.162,4.158,4.156,0,0,19.102,85.91,6,P-GPS,
0.376617972053547,36.9241269065911,5397.7932793567,61.023624,0,3.4424869868,8900,2018-04-16 07:09:18,13,0,16.503,5397.7932793567,61.023624,0,3.4424869868,0,0,-11.1847,297.4, 1.1, 0,0,1,1024,1024,1667,1024,297.5,-17.4,99,4.152,4.162,4.158,4.156,0,0,19.102,85.91,6,P-GPS,
0.376617844253263,36.9241269733819,5399.4336993567,62.664044,0,3.495078852,9000,2018-04-16 07:09:19,13,0,16.476,5399.4336993567,62.664044,0,3.495078852,0,0,-11.1847,297.4, 1.2, 0.1,0,1,1024,1024,1664,1024,297.5,-17.9,99,4.141,4.151,4.146,4.143,0,0,19.512,85.91,6,P-GPS,
0.376617564037133,36.9241271312121,5402.7145393567,65.944884,0,3.6124016904,9200,2018-04-16 07:09:19,13,0,16.476,5402.7145393567,65.944884,0,3.6124016904,0,0,-10.961006,297.4, 1.1, 0.3,0,1,1024,1024,1651,1024,297.5,-18.2,99,4.141,4.151,4.146,4.143,0,0,19.512,85.91,6,P-GPS,
0.376617415621562,36.9241272330385,5404.6830433567,67.913388,0,3.6778544484,9300,2018-04-16 07:09:19,13,0,16.476,5404.6830433567,67.913388,0,3.6778544484,0,0,-11.1847,297.4, 1.1, 0.4,0,1,1024,1024,1652,1024,297.5,-18.2,99,4.141,4.151,4.146,4.143,0,0,19.512,85.91,6,P-GPS,
0.376617286173291,36.9241273290456,5406.3234633567,69.553808,0,3.7362862088,9400,2018-04-16 07:09:19,13,0,16.476,5406.3234633567,69.553808,0,3.7362862088,0,0,-10.961006,297.4, 1.2, 0.4,0,1,1024,1024,1633,1024,297.5,-18.5,99,4.141,4.151,4.146,4.143,0,0,19.512,85.91,6,P-GPS,
0.376617145241234,36.9241274202852,5407.9638833567,71.194228,0,3.7974738748,9500,2018-04-16 07:09:19,13,0,16.476,5407.9638833567,71.194228,0,3.7974738748,0,0,-10.961006,297.4, 0.8, 0.4,0,1,1024,1024,1628,1024,297.5,-18.6,99,4.141,4.151,4.146,4.143,0,0,19.512,85.91,6,P-GPS,
0.376617026336325,36.9241274940125,5409.6043033567,72.834648,0,3.8484909368,9600,2018-04-16 07:09:19,13,0,16.476,5409.6043033567,72.834648,0,3.8484909368,0,0,-10.737312,297.3, 0.8, 0.4,0,1,1024,1024,1623,1024,297.5,-18.6,99,4.141,4.151,4.146,4.143,0,0,19.512,85.91,6,P-GPS,
0.376616921093246,36.9241275488038,5411.2447233567,74.475068,0,3.891732408,9700,2018-04-16 07:09:19,13,0,16.476,5411.2447233567,74.475068,0,3.891732408,0,0,-10.513618,297.3, 1.2, 0.3,0,1,1024,1024,1633,1024,297.5,-18.6,99,4.141,4.151,4.146,4.143,0,0,19.512,85.91,6,P-GPS,
0.376616836988999,36.9241275969893,5412.8851433567,76.115488,0,3.9270998632,9800,2018-04-16 07:09:19,13,0,16.476,5412.8851433567,76.115488,0,3.9270998632,0,0,-10.289924,297.3, 1.3, 0.2,0,1,1024,1024,1630,1024,297.5,-18.6,99,4.141,4.151,4.146,4.143,0,0,19.512,85.91,6,P-GPS,
0.376616720640746,36.9241276677827,5414.8536473567,78.083992,0,3.9767717808,9900,2018-04-16 07:09:19,13,0,16.476,5414.8536473567,78.083992,0,3.9767717808,0,0,-10.289924,297.3, 0.8, 0.3,0,1,1024,1024,1632,1024,297.5,-18.6,99,4.141,4.151,4.146,4.143,0,0,19.512,85.91,6,P-GPS,
0.376616607721183,36.9241277476035,5416.4940673567,79.724412,0,4.0270342496,10000,2018-04-16 07:09:20,13,0,16.555,5416.4940673567,79.724412,0,4.0270342496,0,0,-10.289924,297.4, 0.4, 0.5,0,1,1024,1024,1635,1024,297.5,-18.6,98,4.158,4.16,4.146,4.143,0,0,16.78,85.91,6,P-GPS,
0.376616492803518,36.9241278159269,5418.1344873567,81.364832,0,4.0758203404,10100,2018-04-16 07:09:20,13,0,16.555,5418.1344873567,81.364832,0,4.0758203404,0,0,-10.289924,297.3, 0.3, 0.7,0,1,1024,1024,1626,1024,297.5,-18.6,98,4.158,4.16,4.146,4.143,0,0,16.78,85.91,6,P-GPS,
0.376616408736726,36.9241278663731,5419.7749073567,83.005252,0,4.1115814964,10200,2018-04-16 07:09:20,13,0,16.555,5419.7749073567,83.005252,0,4.1115814964,0,0,-10.289924,297.3, 0.5, 0.8,0,1,1024,1024,1630,1024,297.5,-18.6,98,4.158,4.16,4.146,4.143,0,0,16.78,85.91,6,P-GPS,
0.3766163307481,36.9241279057212,5421.4153273567,84.645672,0,4.1434056444,10300,2018-04-16 07:09:20,13,0,16.555,5421.4153273567,84.645672,0,4.1434056444,0,0,-10.289924,297.3, 0.6, 0.8,0,1,1024,1024,1624,1024,297.5,-18.6,98,4.158,4.16,4.146,4.143,0,0,16.78,85.91,6,P-GPS,
0.376616282487534,36.9241279416539,5423.0557473567,86.286092,0,4.1652232304,10400,2018-04-16 07:09:20,13,0,16.555,5423.0557473567,86.286092,0,4.1652232304,0,0,-10.289924,297.3, 0.6, 0.6,0,1,1024,1024,1620,1024,297.5,-18.6,98,4.158,4.16,4.146,4.143,0,0,16.78,85.91,6,P-GPS,
0.376616227498237,36.9241280019348,5424.6961673567,87.926512,0,4.1936353048,10500,2018-04-16 07:09:20,13,0,16.555,5424.6961673567,87.926512,0,4.1936353048,0,0,-10.289924,297.3, 0.5, 0.3,0,1,1024,1024,1619,1024,297.5,-18.7,98,4.158,4.16,4.146,4.143,0,0,16.78,85.91,6,P-GPS,
0.37661614227362,36.9241281160504,5428.3050913567,91.535436,0,4.2415683772,10700,2018-04-16 07:09:20,13,0,16.555,5428.3050913567,91.535436,0,4.2415683772,0,0,-9.842536,297.3, 0.5, 0.4,0,1,1024,1024,1610,1024,297.5,-18.8,98,4.158,4.16,4.146,4.143,0,0,16.78,85.91,6,P-GPS,
0.376616116086612,36.9241281574016,5429.6174273567,92.847772,0,4.2574804512,10800,2018-04-16 07:09:20,13,0,16.555,5429.6174273567,92.847772,0,4.2574804512,0,0,-9.842536,297.4, 0.5, 0.5,0,1,1024,1024,1600,1024,297.5,-18.8,98,4.158,4.16,4.146,4.143,0,0,16.78,85.91,6,P-GPS,
0.376616101970445,36.9241282021488,5431.5859313567,94.816276,0,4.2702757272,10900,2018-04-16 07:09:20,13,0,16.555,5431.5859313567,94.816276,0,4.2702757272,0,0,-9.842536,297.3, 0.6, 0.7,0,1,1024,1024,1600,1024,297.5,-18.8,98,4.158,4.16,4.146,4.143,0,0,16.78,85.91,6,P-GPS,
0.376616108967055,36.9241282386983,5433.2263513567,96.456696,0,4.2749673284,11000,2018-04-16 07:09:20,13,0,16.634,5433.2263513567,96.456696,0,4.2749673284,0,0,-9.842536,297.3, 0.6, 0.7,0,1,1024,1024,1605,1024,297.5,-18.8,98,4.158,4.16,4.146,4.143,0,0,16.78,85.91,6,P-GPS,
0.37661610225868,36.9241283104006,5434.8667713567,98.097116,0,4.2906169352,11100,2018-04-16 07:09:21,13,0,16.634,5434.8667713567,98.097116,0,4.2906169352,0,0,-9.618842,297.3, 0.5, 0.4,0,1,1024,1024,1605,1024,297.5,-18.8,98,4.158,4.16,4.146,4.143,0,0,16.78,85.91,6,P-GPS,
0.376616102819679,36.9241283750379,5436.1791073567,99.409452,0,4.3027560432,11200,2018-04-16 07:09:21,13,0,16.634,5436.1791073567,99.409452,0,4.3027560432,0,0,-9.395148,297.3, 0.5, 0.4,0,1,1024,1024,1614,1024,297.5,-18.8,98,4.158,4.16,4.146,4.143,0,0,16.78,85.91,6,P-GPS,
0.3766160999984,36.9241284474002,5437.8195273567,101.049872,0,4.3175526316,11300,2018-04-16 07:09:21,13,0,16.634,5437.8195273567,101.049872,0,4.3175526316,0,0,-9.618842,297.3, 0.3, 0.5,0,1,1024,1024,1612,1024,297.5,-18.8,98,4.158,4.16,4.146,4.143,0,0,16.78,85.91,6,P-GPS,
0.376616117565239,36.9241284998457,5439.4599473567,102.690292,0,4.3222770412,11400,2018-04-16 07:09:21,13,0,16.634,5439.4599473567,102.690292,0,4.3222770412,0,0,-9.395148,297.3, 0.4, 0.4,0,1,1024,1024,1622,1024,297.5,-18.8,98,4.158,4.16,4.146,4.143,0,0,16.78,85.91,6,P-GPS,
0.376616127717773,36.924128562558,5441.1003673567,104.330712,0,4.3313977764,11500,2018-04-16 07:09:21,13,0,16.634,5441.1003673567,104.330712,0,4.3313977764,0,0,-9.618842,297.3, 0.4, 0.5,0,1,1024,1024,1619,1024,297.5,-18.8,98,4.158,4.16,4.146,4.143,0,0,16.78,85.91,6,P-GPS,
0.376616154531732,36.9241286095198,5442.7407873567,105.971132,0,4.3323820284,11600,2018-04-16 07:09:21,13,0,16.634,5442.7407873567,105.971132,0,4.3323820284,0,0,-9.618842,297.3, 0.6, 0.3,0,1,1024,1024,1613,1024,297.5,-18.8,98,4.158,4.16,4.146,4.143,0,0,16.78,85.91,6,P-GPS,
0.376616166310268,36.924128695076,5444.3812073567,107.611552,0,4.3457350472,11700,2018-04-16 07:09:21,13,0,16.634,5444.3812073567,107.611552,0,4.3457350472,0,0,-9.842536,297.3, 0.4, 0.2,0,1,1024,1024,1610,1024,297.5,-18.8,98,4.158,4.16,4.146,4.143,0,0,16.78,85.91,6,P-GPS,
0.376616185122867,36.924128771057,5446.0216273567,109.251972,0,4.3552166748,11800,2018-04-16 07:09:21,13,0,16.634,5446.0216273567,109.251972,0,4.3552166748,0,0,-9.618842,297.2, 0.1, 0.3,0,1,1024,1024,1623,1024,297.5,-18.8,98,4.158,4.16,4.146,4.143,0,0,16.78,85.91,6,P-GPS,
0.376616209415994,36.9241288501718,5447.6620473567,110.892392,0,4.363845284,11900,2018-04-16 07:09:21,13,0,16.634,5447.6620473567,110.892392,0,4.363845284,0,0,-9.618842,297.3, 0.3, 0.4,0,1,1024,1024,1636,1024,297.5,-18.8,98,4.158,4.16,4.146,4.143,0,0,16.78,85.91,6,P-GPS,
0.376616253403524,36.924128900179,5448.9743833567,112.204728,0,4.3607612944,12000,2018-04-16 07:09:22,13,0,16.608,5448.9743833567,112.204728,0,4.363845284,0,0,-9.618842,297.3, 0, 0.4,0,1,1024,1024,1652,1024,297.5,-18.8,98,4.152,4.161,4.161,4.16,0,0,16.656,85.91,6,P-GPS,
0.376616285299042,36.924128950494,5450.6148033567,113.845148,0,4.3614830792,12100,2018-04-16 07:09:22,13,0,16.608,5450.6148033567,113.845148,0,4.363845284,0,0,-9.842536,297.3, 0.2, 0.2,0,1,1024,1024,1665,1024,297.5,-18.8,98,4.152,4.161,4.161,4.16,0,0,16.656,85.91,6,P-GPS,
0.376616328713359,36.9241289758902,5452.5833073567,115.813652,0,4.3537074884,12200,2018-04-16 07:09:22,13,0,16.608,5452.5833073567,115.813652,0,4.363845284,0,0,-10.06623,297.3, 0.5, 0.2,0,1,1024,1024,1684,1024,297.5,-18.8,98,4.152,4.161,4.161,4.16,0,0,16.656,85.91,6,P-GPS,
0.376616394333953,36.9241290098852,5454.2237273567,117.454072,0,4.3411418712,12300,2018-04-16 07:09:22,13,0,16.608,5454.2237273567,117.454072,0,4.363845284,0,0,-10.289924,297.3, 0.7, 0.2,0,1,1024,1024,1684,1024,297.5,-18.8,98,4.152,4.161,4.161,4.16,0,0,16.656,85.91,6,P-GPS,
0.376616480314981,36.924129031598,5455.8641473567,119.094492,0,4.32004607,12400,2018-04-16 07:09:22,13,0,16.608,5455.8641473567,119.094492,0,4.363845284,0,0,-10.513618,297.3, 0.7, 0.1,0,1,1024,1024,1684,1024,297.5,-18.8,98,4.152,4.161,4.161,4.16,0,0,16.656,85.91,6,P-GPS,
0.376616560334277,36.9241290731644,5457.5045673567,120.734912,0,4.3050854396,12500,2018-04-16 07:09:22,13,0,16.608,5457.5045673567,120.734912,0,4.363845284,0,0,-10.513618,297.3, 0.8, 0.3,0,1,1024,1024,1684,1024,297.5,-18.8,98,4.152,4.161,4.161,4.16,0,0,16.656,85.91,6,P-GPS,
0.376616641811844,36.9241291030744,5459.1449873567,122.375332,0,4.287401712,12600,2018-04-16 07:09:22,13,0,16.608,5459.1449873567,122.375332,0,4.363845284,0,0,-10.513618,297.3, 0.5, 0.2,0,1,1024,1024,1684,1024,297.5,-18.8,98,4.152,4.161,4.161,4.16,0,0,16.656,85.91,6,P-GPS,
0.37661674394378,36.9241291513943,5460.7854073567,124.015752,0,4.2677822888,12700,2018-04-16 07:09:22,13,0,16.608,5460.7854073567,124.015752,0,4.363845284,0,0,-10.737312,297.3, 0.9, 0,0,1,1024,1024,1684,1024,297.5,-18.8,98,4.152,4.161,4.161,4.16,0,0,16.656,85.91,6,P-GPS,
0.376616855441712,36.9241291824996,5462.7539113567,125.984256,0,4.2419948864,12800,2018-04-16 07:09:22,13,0,16.608,5462.7539113567,125.984256,0,4.363845284,0,0,-11.1847,297.3, 1.1, -0.2,0,1,1024,1024,1684,1024,297.5,-18.8,98,4.152,4.161,4.161,4.16,0,0,16.656,85.91,6,P-GPS,
0.376616943618698,36.9241292437098,5464.3943313567,127.624676,0,4.2298885868,12900,2018-04-16 07:09:22,13,0,16.608,5464.3943313567,127.624676,0,4.363845284,0,0,-10.961006,297.3, 0.9, -0.4,0,1,1024,1024,1684,1024,297.5,-18.8,98,4.152,4.161,4.161,4.16,0,0,16.656,85.91,6,P-GPS,
0.376617022980102,36.9241292914243,5466.0347513567,129.265096,0,4.2176182452,13000,2018-04-16 07:09:23,13,0,16.476,5466.0347513567,129.265096,0,4.363845284,0,0,-11.1847,297.4, 0.7, -0.5,0,1,1024,1024,1684,1024,297.5,-18.8,98,4.143,4.155,4.145,4.137,0,0,17.634,85.91,6,P-GPS,
0.376617246290255,36.9241293904291,5471.6121793567,134.842524,0,4.1762796612,13300,2018-04-16 07:09:23,13,0,16.476,5471.6121793567,134.842524,0,4.363845284,0,0,-11.1847,297.3, 1, -0.7,0,1,1024,1024,1684,1024,297.5,-18.8,98,4.143,4.155,4.145,4.137,0,0,17.634,85.91,6,P-GPS,
0.376617310165971,36.9241294218577,5473.2525993567,136.482944,0,4.1654528892,13400,2018-04-16 07:09:23,13,0,16.476,5473.2525993567,136.482944,0,4.363845284,0,0,-11.408394,297.4, 0.9, -0.6,0,1,1024,1024,1684,1024,297.5,-18.8,98,4.143,4.155,4.145,4.137,0,0,17.634,85.91,6,P-GPS,
0.376617351941259,36.9241294960337,5475.2211033567,138.451448,0,4.170931892,13500,2018-04-16 07:09:23,13,0,16.476,5475.2211033567,138.451448,0,4.363845284,0,0,-11.1847,297.4, 0.8, -0.7,0,1,1024,1024,1684,1024,297.5,-18.8,98,4.143,4.155,4.145,4.137,0,0,17.634,85.91,6,P-GPS,
0.37661738217495,36.924129563028,5476.8615233567,140.091868,0,4.17814974,13600,2018-04-16 07:09:23,13,0,16.476,5476.8615233567,140.091868,0,4.363845284,0,0,-10.961006,297.4, 0.9, -0.7,0,1,1024,1024,1684,1024,297.5,-18.8,98,4.143,4.155,4.145,4.137,0,0,17.634,85.91,6,P-GPS,
0.376617399295596,36.9241296537659,5478.5019433567,141.732288,0,4.1947835988,13700,2018-04-16 07:09:23,13,0,16.476,5478.5019433567,141.732288,0,4.363845284,0,0,-11.1847,297.4, 0.7, -0.6,0,1,1024,1024,1684,1024,297.5,-18.8,98,4.143,4.155,4.145,4.137,0,0,17.634,85.91,6,P-GPS,
0.376617417443791,36.9241297101514,5480.4704473567,143.700792,0,4.2031825492,13800,2018-04-16 07:09:23,13,0,16.476,5480.4704473567,143.700792,0,4.363845284,0,0,-11.1847,297.4, 0.8, -0.7,0,1,1024,1024,1684,1024,297.5,-18.8,98,4.143,4.155,4.145,4.137,0,0,17.634,85.91,6,P-GPS,
0.376617402842347,36.9241297813291,5482.1108673567,145.341212,0,4.2241799252,13900,2018-04-16 07:09:23,13,0,16.476,5482.1108673567,145.341212,0,4.363845284,0,0,-11.1847,297.3, 0.8, -0.5,0,1,1024,1024,1684,1024,297.5,-18.8,98,4.143,4.155,4.145,4.137,0,0,17.634,85.91,6,P-GPS,
0.376617381624536,36.924129829854,5483.7512873567,146.981632,0,4.2416668024,14000,2018-04-16 07:09:24,13,0,16.45,5483.7512873567,146.981632,0,4.363845284,0,0,-11.1847,297.3, 0.4, -0.3,0,1,1024,1024,1684,1024,297.5,-18.8,98,4.143,4.155,4.145,4.137,0,0,16.97,85.91,6,P-GPS,
0.376617348444176,36.924129889735,5485.3917073567,148.622052,0,4.2651576168,14100,2018-04-16 07:09:24,13,0,16.45,5485.3917073567,148.622052,0,4.363845284,0,0,-11.1847,297.3, 0.4, -0.2,0,1,1024,1024,1684,1024,297.5,-18.8,98,4.143,4.155,4.145,4.137,0,0,16.97,85.91,6,P-GPS,
0.376617328130151,36.9241299235115,5487.3602113567,150.590556,0,4.2788387196,14200,2018-04-16 07:09:24,13,0,16.45,5487.3602113567,150.590556,0,4.363845284,0,0,-10.961006,297.3, 0.2, -0.3,0,1,1024,1024,1684,1024,297.5,-18.8,98,4.143,4.155,4.145,4.137,0,0,16.97,85.91,6,P-GPS,
0.376617287527343,36.9241299349046,5489.0006313567,152.230976,0,4.2927166728,14300,2018-04-16 07:09:24,13,0,16.45,5489.0006313567,152.230976,0,4.363845284,0,0,-10.961006,297.3, 0.8, -0.2,0,1,1024,1024,1684,1024,297.5,-18.8,98,4.143,4.155,4.145,4.137,0,0,16.97,85.91,6,P-GPS,
0.376617258264204,36.9241299138733,5490.6410513567,153.871396,0,4.2957350456,14400,2018-04-16 07:09:24,13,0,16.45,5490.6410513567,153.871396,0,4.363845284,0,0,-11.1847,297.3, 1.3, -0.3,0,1,1024,1024,1684,1024,297.5,-18.8,98,4.143,4.155,4.145,4.137,0,0,16.97,85.91,6,P-GPS,
0.376617222880559,36.9241299262079,5492.2814713567,155.511816,0,4.3084318964,14500,2018-04-16 07:09:24,13,0,16.45,5492.2814713567,155.511816,0,4.363845284,0,0,-11.1847,297.3, 1.3, -0.1,0,1,1024,1024,1684,1024,297.5,-18.8,98,4.143,4.155,4.145,4.137,0,0,16.97,85.91,6,P-GPS,
0.376617198174621,36.9241299455867,5494.2499753567,157.48032,0,4.319882028,14600,2018-04-16 07:09:24,13,0,16.45,5494.2499753567,157.48032,0,4.363845284,0,0,-11.1847,297.3, 1.2, -0.2,0,1,1024,1024,1684,1024,297.5,-18.8,98,4.143,4.155,4.145,4.137,0,0,16.97,85.91,6,P-GPS,
0.376617142279095,36.9241300047675,5497.5308153567,160.76116,0,4.349409588,14800,2018-04-16 07:09:24,13,0,16.45,5497.5308153567,160.76116,0,4.363845284,0,0,-11.1847,297.3, 0.9, -0.3,0,1,1024,1024,1684,1024,297.5,-18.8,98,4.143,4.155,4.145,4.137,0,0,16.97,85.91,6,P-GPS,
0.3766170916467,36.9241300542335,5499.1712353567,162.40158,0,4.3751969904,14900,2018-04-16 07:09:24,13,0,16.45,5499.1712353567,162.40158,0,4.3751969904,0,0,-10.961006,297.3, 0.5, -0.2,0,1,1024,1024,1684,1024,297.5,-18.8,98,4.143,4.155,4.145,4.137,0,0,16.97,85.91,6,P-GPS,
0.376617043319367,36.9241300903644,5500.8116553567,164.042,0,4.39714581,15000,2018-04-16 07:09:25,13,0,16.503,5500.8116553567,164.042,0,4.39714581,0,0,-10.961006,297.3, 0.3, 0,0,1,1024,1024,1684,1024,297.5,-18.9,98,4.139,4.146,4.141,4.142,0,0,16.97,85.91,6,P-GPS,
0.376617064804243,36.9241301780709,5504.0924953567,167.32284,0,4.4123360992,15200,2018-04-16 07:09:25,14,0,16.503,5504.0924953567,167.32284,0,4.4123360992,0,0,-10.961006,297.3, 0.4, -0.3,0,1,1024,1024,1684,1024,297.5,-19.1,98,4.139,4.146,4.141,4.142,0,0,16.97,85.91,6,P-GPS,
0.376617106503808,36.9241302060099,5506.0609993567,169.291344,0,4.4076773064,15300,2018-04-16 07:09:25,14,0,16.503,5506.0609993567,169.291344,0,4.4123360992,0,0,-10.961006,297.3, 0.5, -0.5,0,1,1024,1024,1684,1024,297.5,-19.3,98,4.139,4.146,4.141,4.142,0,0,16.97,85.91,6,P-GPS,
0.376617140129548,36.9241302031572,5507.7014193567,170.931764,0,4.397801978,15400,2018-04-16 07:09:25,14,0,16.503,5507.7014193567,170.931764,0,4.4123360992,0,0,-10.961006,297.3, 0.9, -0.4,0,1,1024,1024,1684,1024,297.5,-19.8,98,4.139,4.146,4.141,4.142,0,0,16.97,85.91,6,P-GPS,
0.37661724811737,36.9241302391344,5510.9822593567,174.212604,0,4.3772639196,15600,2018-04-16 07:09:25,14,0,16.503,5510.9822593567,174.212604,0,4.4123360992,0,0,-11.1847,297.3, 0.9, -0.1,0,1,1024,1024,1684,1024,297.5,-19.8,98,4.139,4.146,4.141,4.142,0,0,16.97,85.91,6,P-GPS,
0.376617296130412,36.9241302889109,5512.6226793567,175.853024,0,4.3765421348,15700,2018-04-16 07:09:25,14,0,16.503,5512.6226793567,175.853024,0,4.4123360992,0,0,-10.961006,297.3, 0.9, -0.1,0,1,1024,1024,1684,1024,297.5,-19.8,98,4.139,4.146,4.141,4.142,0,0,16.97,85.91,6,P-GPS,
0.37661732882224,36.9241303245883,5514.2630993567,177.493444,0,4.3765749432,15800,2018-04-16 07:09:25,14,0,16.503,5514.2630993567,177.493444,0,4.4123360992,0,0,-10.961006,297.4, 0.9, -0.1,0,1,1024,1024,1684,1024,297.5,-20.5,98,4.139,4.146,4.141,4.142,0,0,16.97,85.91,6,P-GPS,
0.376617372041143,36.9241303800755,5517.5439393567,180.774284,0,4.378773106,16000,2018-04-16 07:09:25,14,0,16.503,5517.5439393567,180.774284,0,4.4123360992,0,0,-10.961006,297.3, 0.5, 0,0,1,1024,1024,1684,1024,297.5,-20.7,98,4.137,4.144,4.139,4.137,0,0,16.942,85.91,6,P-GPS,
0.376617388547052,36.9241303871716,5519.1843593567,182.414704,0,4.376148434,16100,2018-04-16 07:09:26,14,0,16.503,5519.1843593567,182.414704,0,4.4123360992,0,0,-10.961006,297.3, 0.7, 0.3,0,1,1024,1024,1684,1024,297.5,-20.7,98,4.137,4.144,4.139,4.137,0,0,16.942,85.91,6,P-GPS,
0.376617418597543,36.924130374989,5521.1528633567,184.383208,0,4.3651248116,16200,2018-04-16 07:09:26,14,0,16.503,5521.1528633567,184.383208,0,4.4123360992,0,0,-11.1847,297.3, 1, 0.2,0,1,1024,1024,1684,1024,297.5,-20.7,98,4.137,4.144,4.139,4.137,0,0,16.942,85.91,6,P-GPS,
0.376617446328316,36.924130351007,5522.7932833567,186.023628,0,4.3517389844,16300,2018-04-16 07:09:26,14,0,16.503,5522.7932833567,186.023628,0,4.4123360992,0,0,-11.1847,297.4, 1, 0,0,1,1024,1024,1684,1024,297.5,-20.7,98,4.137,4.144,4.139,4.137,0,0,16.942,85.91,6,P-GPS,
0.376617484377724,36.9241303108705,5524.4337033567,187.664048,0,4.3315946268,16400,2018-04-16 07:09:26,14,0,16.503,5524.4337033567,187.664048,0,4.4123360992,0,0,-11.1847,297.3, 1.2, -0.1,0,1,1024,1024,1684,1024,297.5,-20.7,98,4.137,4.144,4.139,4.137,0,0,16.942,85.91,6,P-GPS,
0.376617497731779,36.9241302808427,5526.0741233567,189.304468,0,4.3205710044,16500,2018-04-16 07:09:26,14,0,16.503,5526.0741233567,189.304468,0,4.4123360992,0,0,-11.1847,297.3, 1.3, 0,0,1,1024,1024,1684,1024,297.5,-20.7,98,4.137,4.144,4.139,4.137,0,0,16.942,85.91,6,P-GPS,
0.376617516142967,36.9241302601165,5527.7145433567,190.944888,0,4.3104988256,16600,2018-04-16 07:09:26,14,0,16.503,5527.7145433567,190.944888,0,4.4123360992,0,0,-10.961006,297.4, 1, 0.1,0,1,1024,1024,1684,1024,297.5,-20.8,98,4.137,4.144,4.139,4.137,0,0,16.942,85.91,6,P-GPS,
0.376617535965201,36.9241302549636,5529.3549633567,192.585308,0,4.3039371456,16700,2018-04-16 07:09:26,14,0,16.503,5529.3549633567,192.585308,0,4.4123360992,0,0,-10.961006,297.4, 1.2, 0.1,0,1,1024,1024,1684,1024,297.5,-21,98,4.137,4.144,4.139,4.137,0,0,16.942,85.91,6,P-GPS,
0.376617572879584,36.9241302501999,5530.9953833567,194.225728,0,4.2929135232,16800,2018-04-16 07:09:26,14,0,16.503,5530.9953833567,194.225728,0,4.4123360992,0,0,-10.961006,297.4, 1.2, 0,0,1,1024,1024,1684,1024,297.5,-21.3,98,4.137,4.144,4.139,4.137,0,0,16.942,85.91,6,P-GPS,
0.376617583273942,36.9241302678608,5532.6358033567,195.866148,0,4.2945867516,16900,2018-04-16 07:09:26,14,0,16.503,5532.6358033567,195.866148,0,4.4123360992,0,0,-10.961006,297.4, 1, 0.1,0,1,1024,1024,1684,1024,297.5,-21.6,98,4.137,4.144,4.139,4.137,0,0,16.942,85.91,6,P-GPS,
0.376617594589185,36.9241302807945,5534.2762233567,197.506568,0,4.2948164104,17000,2018-04-16 07:09:27,14,0,16.424,5534.2762233567,197.506568,0,4.4123360992,0,0,-10.961006,297.3, 0.7, 0.2,0,1,1024,1024,1684,1024,297.5,-22.5,98,4.135,4.141,4.136,4.136,0,0,16.988,85.91,6,P-GPS,
0.376617594528933,36.9241303072657,5537.5570633567,200.787408,0,4.3014765156,17200,2018-04-16 07:09:27,14,0,16.424,5537.5570633567,200.787408,0,4.4123360992,0,0,-10.961006,297.3, 0.7, 0.5,0,1,1024,1024,1684,1024,297.5,-22.5,98,4.135,4.141,4.136,4.136,0,0,16.988,85.91,6,P-GPS,
0.376617571209615,36.924130324492,5539.1974833567,202.427828,0,4.3119752036,17300,2018-04-16 07:09:27,14,0,16.424,5539.1974833567,202.427828,0,4.4123360992,0,0,-10.961006,297.3, 0.6, 0.4,0,1,1024,1024,1684,1024,297.5,-23,98,4.135,4.141,4.136,4.136,0,0,16.988,85.91,6,P-GPS,
0.376617566911337,36.9241303344049,5540.8379033567,204.068248,0,4.315616936,17400,2018-04-16 07:09:27,14,0,16.424,5540.8379033567,204.068248,0,4.4123360992,0,0,-11.1847,297.3, 0.5, 0.3,0,1,1024,1024,1684,1024,297.5,-23.5,98,4.135,4.141,4.136,4.136,0,0,16.988,85.91,6,P-GPS,
0.376617551456589,36.92413036991,5542.4783233567,205.708668,0,4.3286090624,17500,2018-04-16 07:09:27,14,0,16.424,5542.4783233567,205.708668,0,4.4123360992,0,0,-11.1847,297.3, 0.7, 0,0,1,1024,1024,1684,1024,297.5,-23.5,98,4.135,4.141,4.136,4.136,0,0,16.988,85.91,6,P-GPS,
0.376617562747406,36.9241304023841,5544.1187433567,207.349088,0,4.333825598,17600,2018-04-16 07:09:27,14,0,16.424,5544.1187433567,207.349088,0,4.4123360992,0,0,-11.1847,297.3, 0.6, 0,0,1,1024,1024,1684,1024,297.5,-23.5,98,4.135,4.141,4.136,4.136,0,0,16.988,85.91,6,P-GPS,
0.376617570806575,36.9241304348218,5545.7591633567,208.989508,0,4.339895152,17700,2018-04-16 07:09:27,14,0,16.424,5545.7591633567,208.989508,0,4.4123360992,0,0,-10.961006,297.3, 0.6, 0,0,1,1024,1024,1684,1024,297.5,-23.5,98,4.135,4.141,4.136,4.136,0,0,16.988,85.91,6,P-GPS,
0.37661760852948,36.9241304480515,5547.7276673567,210.958012,0,4.333333472,17800,2018-04-16 07:09:27,14,0,16.424,5547.7276673567,210.958012,0,4.4123360992,0,0,-11.1847,297.3, 0.5, 0,0,1,1024,1024,1684,1024,297.5,-23.5,98,4.135,4.141,4.136,4.136,0,0,16.988,85.91,6,P-GPS,
0.376617621588787,36.9241304811712,5549.3680873567,212.598432,0,4.3383531572,17900,2018-04-16 07:09:27,14,0,16.424,5549.3680873567,212.598432,0,4.4123360992,0,0,-11.1847,297.3, 0.5, 0.1,0,1,1024,1024,1684,1024,297.5,-23.5,98,4.135,4.141,4.136,4.136,0,0,16.988,85.91,6,P-GPS,
0.376617647717985,36.9241305045301,5551.0085073567,214.238852,0,4.3374673304,18000,2018-04-16 07:09:27,14,0,16.424,5551.0085073567,214.238852,0,4.4123360992,0,0,-10.961006,297.3, 0.8, 0,0,1,1024,1024,1684,1024,297.5,-23.5,98,4.135,4.141,4.136,4.136,0,0,16.988,85.91,6,P-GPS,
0.376617649442507,36.9241305274093,5552.6489273567,215.879272,0,4.3428807164,18100,2018-04-16 07:09:28,14,0,16.424,5552.6489273567,215.879272,0,4.4123360992,0,0,-11.1847,297.3, 0.8, 0.1,0,1,1024,1024,1684,1023,297.5,-23.5,98,4.135,4.141,4.136,4.136,0,0,16.988,85.91,6,P-GPS,
0.376617662893455,36.9241305355022,5554.2893473567,217.519692,0,4.3414371468,18200,2018-04-16 07:09:28,14,0,16.424,5554.2893473567,217.519692,0,4.4123360992,0,0,-10.961006,297.3, 0.7, 0.3,0,1,1024,1024,1684,1023,297.5,-23.5,98,4.135,4.141,4.136,4.136,0,0,16.988,85.91,6,P-GPS,
0.376617656248589,36.9241305719697,5555.9297673567,219.160112,0,4.352526386,18300,2018-04-16 07:09:28,14,0,16.424,5555.9297673567,219.160112,0,4.4123360992,0,0,-11.1847,297.3, 0.8, 0,0,1,1024,1024,1684,1024,297.5,-23.5,98,4.135,4.141,4.136,4.136,0,0,16.988,85.91,6,P-GPS,
0.376617673645256,36.9241306026891,5557.5701873567,220.800532,0,4.3559056512,18400,2018-04-16 07:09:28,14,0,16.424,5557.5701873567,220.800532,0,4.4123360992,0,0,-10.961006,297.4, 0.6, -0.1,0,1,1024,1024,1684,1024,297.5,-23.5,98,4.135,4.141,4.136,4.136,0,0,16.988,85.91,6,P-GPS,
0.376617686490422,36.9241306265908,5559.2106073567,222.440952,0,4.3587271736,18500,2018-04-16 07:09:28,14,0,16.424,5559.2106073567,222.440952,0,4.4123360992,0,0,-11.1847,297.4, 0.5, 0,0,1,1024,1024,1684,1024,297.5,-23.5,98,4.135,4.141,4.136,4.136,0,0,16.988,85.91,6,P-GPS,
0.376617726812324,36.9241306245341,5560.8510273567,224.081372,0,4.3478019764,18600,2018-04-16 07:09:28,14,0,16.424,5560.8510273567,224.081372,0,4.4123360992,0,0,-10.961006,297.3, 0.8, 0,0,1,1024,1024,1684,1024,297.5,-23.5,98,4.135,4.141,4.136,4.136,0,0,16.988,85.91,6,P-GPS,
0.376617746184294,36.924130643331,5562.4914473567,225.721792,0,4.3476707428,18700,2018-04-16 07:09:28,14,0,16.424,5562.4914473567,225.721792,0,4.4123360992,0,0,-10.961006,297.3, 1, 0,0,1,1024,1024,1684,1024,297.5,-23.5,98,4.135,4.141,4.136,4.136,0,0,16.988,85.91,6,P-GPS,
0.376617778197874,36.9241306626665,5564.1318673567,227.362212,0,4.3444555196,18800,2018-04-16 07:09:28,14,0,16.424,5564.1318673567,227.362212,0,4.4123360992,0,0,-10.961006,297.3, 0.9, 0,0,1,1024,1024,1684,1024,297.5,-23.5,98,4.135,4.141,4.136,4.136,0,0,16.988,85.91,6,P-GPS,
0.376617808608252,36.9241306887907,5565.7722873567,229.002632,0,4.3434712676,18900,2018-04-16 07:09:28,14,0,16.424,5565.7722873567,229.002632,0,4.4123360992,0,0,-11.1847,297.3, 1, -0.2,0,1,1024,1024,1684,1024,297.5,-23.5,98,4.135,4.141,4.136,4.136,0,0,16.988,85.91,6,P-GPS,
0.376617858673948,36.9241306955774,5567.4127073567,230.643052,0,4.3324804536,19000,2018-04-16 07:09:28,14,0,16.503,5567.4127073567,230.643052,0,4.4123360992,0,0,-11.408394,297.3, 1, -0.2,0,1,1024,1024,1684,1024,297.5,-23.5,98,4.132,4.138,4.135,4.135,0,0,16.982,85.91,6,P-GPS,
0.37661787022613,36.9241307044272,5569.0531273567,232.283472,0,4.331857094,19100,2018-04-16 07:09:29,14,0,16.503,5569.0531273567,232.283472,0,4.4123360992,0,0,-11.1847,297.3, 1.2, 0,0,1,1024,1024,1684,1024,297.5,-23.5,98,4.132,4.138,4.135,4.135,0,0,16.982,85.91,6,P-GPS,
0.376617880026106,36.9241307033095,5571.0216313567,234.251976,0,4.32906838,19200,2018-04-16 07:09:29,14,0,16.503,5571.0216313567,234.251976,0,4.4123360992,0,0,-11.408394,297.3, 1.2, 0,0,1,1024,1024,1684,1024,297.5,-23.5,98,4.132,4.138,4.135,4.135,0,0,16.982,85.91,6,P-GPS,
0.376617851902064,36.9241307368799,5572.6620513567,235.892396,0,4.3450132624,19300,2018-04-16 07:09:29,14,0,16.503,5572.6620513567,235.892396,0,4.4123360992,0,0,-11.1847,297.3, 1.1, 0.2,0,1,1024,1024,1684,1024,297.5,-23.5,98,4.132,4.138,4.135,4.135,0,0,16.982,85.91,6,P-GPS,
0.376617837982125,36.9241307774897,5574.3024713567,237.532816,0,4.3591864912,19400,2018-04-16 07:09:29,14,0,16.503,5574.3024713567,237.532816,0,4.4123360992,0,0,-10.961006,297.3, 0.7, 0.3,0,1,1024,1024,1684,1024,297.5,-23.5,98,4.132,4.138,4.135,4.135,0,0,16.982,85.91,6,P-GPS,
0.376617806109405,36.9241308483039,5575.9428913567,239.173236,0,4.3858597204,19500,2018-04-16 07:09:29,14,0,16.503,5575.9428913567,239.173236,0,4.4123360992,0,0,-10.961006,297.3, 0.4, 0.1,0,1,1024,1024,1684,1024,297.5,-23.5,98,4.132,4.138,4.135,4.135,0,0,16.982,85.91,6,P-GPS,
0.376617800095561,36.924130905093,5577.5833113567,240.813656,0,4.4023295372,19600,2018-04-16 07:09:29,14,0,16.503,5577.5833113567,240.813656,0,4.4123360992,0,0,-10.961006,297.3, 0.3, 0.1,0,1,1024,1024,1684,1024,297.5,-23.5,98,4.132,4.138,4.135,4.135,0,0,16.982,85.91,6,P-GPS,
0.376617776562917,36.9241309575492,5579.2237313567,242.454076,0,4.422080194,19700,2018-04-16 07:09:29,14,0,16.503,5579.2237313567,242.454076,0,4.422080194,0,0,-10.961006,297.3, 0.2, 0.2,0,1,1024,1024,1684,1024,297.5,-23.5,98,4.132,4.138,4.135,4.135,0,0,16.982,85.91,6,P-GPS,
0.376617776570245,36.9241309793718,5580.8641513567,244.094496,0,4.4278544724,19800,2018-04-16 07:09:29,14,0,16.503,5580.8641513567,244.094496,0,4.4278544724,0,0,-10.961006,297.3, 0.2, 0.2,0,1,1024,1024,1684,1024,297.5,-23.5,98,4.132,4.138,4.135,4.135,0,0,16.982,85.91,6,P-GPS,
0.376617765229761,36.9241310176819,5582.5045713567,245.734916,0,4.4408465988,19900,2018-04-16 07:09:29,14,0,16.503,5582.5045713567,245.734916,0,4.4408465988,0,0,-11.1847,297.3, 0.2, 0.2,0,1,1024,1024,1684,1024,297.5,-23.5,98,4.132,4.138,4.135,4.135,0,0,16.982,85.91,6,P-GPS,
0.376617779994048,36.9241310442847,5584.1449913567,247.375336,0,4.4441930556,20000,2018-04-16 07:09:29,14,0,16.45,5584.1449913567,247.375336,0,4.4441930556,0,0,-10.961006,297.3, 0.3, 0,0,1,1024,1024,1684,1024,297.5,-23.5,98,4.13,4.137,4.132,4.133,0,0,16.772,85.91,6,P-GPS,
0.376617779476203,36.9241310827629,5585.7854113567,249.015756,0,4.4545277016,20100,2018-04-16 07:09:30,14,0,16.45,5585.7854113567,249.015756,0,4.4545277016,0,0,-10.961006,297.3, 0.4, 0,0,1,1024,1024,1684,1024,297.5,-23.5,98,4.13,4.137,4.132,4.133,0,0,16.772,85.91,6,P-GPS,
0.376617792928779,36.9241311129395,5587.4258313567,250.656176,0,4.4592193028,20200,2018-04-16 07:09:30,14,0,16.45,5587.4258313567,250.656176,0,4.4592193028,0,0,-11.1847,297.3, 0.4, 0.3,0,1,1024,1024,1684,1024,297.5,-23.6,98,4.13,4.137,4.132,4.133,0,0,16.772,85.91,6,P-GPS,
0.376617792498055,36.9241311430058,5589.0662513567,252.296596,0,4.4673229776,20300,2018-04-16 07:09:30,14,0,16.45,5589.0662513567,252.296596,0,4.4673229776,0,0,-11.1847,297.3, 0.4, 0.3,0,1,1024,1024,1684,1024,297.5,-23.7,98,4.13,4.137,4.132,4.133,0,0,16.772,85.91,6,P-GPS,
0.376617813439845,36.9241311570267,5590.7066713567,253.937016,0,4.465879408,20400,2018-04-16 07:09:30,14,0,16.45,5590.7066713567,253.937016,0,4.4673229776,0,0,-11.1847,297.3, 0.4, 0.3,0,1,1024,1024,1684,1024,297.5,-23.7,98,4.13,4.137,4.132,4.133,0,0,16.772,85.91,6,P-GPS,
0.376617823522356,36.9241311941323,5592.3470913567,255.577436,0,4.4732941064,20500,2018-04-16 07:09:30,14,0,16.45,5592.3470913567,255.577436,0,4.4732941064,0,0,-11.1847,297.4, 0.5, 0.1,0,1,1024,1024,1684,1024,297.5,-23.7,98,4.13,4.137,4.132,4.133,0,0,16.772,85.91,6,P-GPS,
0.376617854032883,36.9241312268281,5593.9875113567,257.217856,0,4.4745408256,20600,2018-04-16 07:09:30,14,0,16.45,5593.9875113567,257.217856,0,4.4745408256,0,0,-11.1847,297.3, 0.6, 0,0,1,1024,1024,1684,1024,297.5,-23.8,98,4.13,4.137,4.132,4.133,0,0,16.772,85.91,6,P-GPS,
0.376617857039805,36.9241312552392,5595.6279313567,258.858276,0,4.4814305896,20700,2018-04-16 07:09:30,14,0,16.45,5595.6279313567,258.858276,0,4.4814305896,0,0,-10.961006,297.3, 0.7, 0,0,1,1024,1024,1684,1024,297.5,-23.9,98,4.13,4.137,4.132,4.133,0,0,16.772,85.91,6,P-GPS,
0.376617873738684,36.9241312644134,5597.2683513567,260.498696,0,4.479822978,20800,2018-04-16 07:09:30,14,0,16.45,5597.2683513567,260.498696,0,4.4814305896,0,0,-11.1847,297.3, 0.5, -0.2,0,1,1024,1024,1684,1024,297.5,-23.9,98,4.13,4.137,4.132,4.133,0,0,16.772,85.91,6,P-GPS,
0.37661785779866,36.9241312911725,5598.9087713567,262.139116,0,4.4909450256,20900,2018-04-16 07:09:30,14,0,16.45,5598.9087713567,262.139116,0,4.4909450256,0,0,-10.737312,297.3, 0.4, -0.1,0,1,1024,1024,1684,1024,297.5,-24,98,4.13,4.137,4.132,4.133,0,0,16.772,85.91,6,P-GPS,
0.37661786150337,36.9241313087061,5600.5491913567,263.779536,0,4.4947836084,21000,2018-04-16 07:09:30,14,0,16.476,5600.5491913567,263.779536,0,4.4947836084,0,0,-10.961006,297.3, 0.4, -0.1,0,1,1024,1024,1684,1024,297.5,-24.2,98,4.129,4.134,4.131,4.132,0,0,16.846,85.91,6,P-GPS,
0.376617843995968,36.9241313391503,5602.1896113567,265.419956,0,4.5072836088,21100,2018-04-16 07:09:31,14,0,16.476,5602.1896113567,265.419956,0,4.5072836088,0,0,-10.961006,297.3, 0.6, -0.1,0,1,1024,1024,1684,1024,297.5,-24.5,98,4.129,4.134,4.131,4.132,0,0,16.846,85.91,6,P-GPS,
0.376617841116065,36.9241313622737,5603.8300313567,267.060376,0,4.5142389896,21200,2018-04-16 07:09:31,14,0,16.476,5603.8300313567,267.060376,0,4.5142389896,0,0,-11.1847,297.3, 0.8, -0.1,0,1,1024,1024,1684,1024,297.5,-25.1,98,4.129,4.134,4.131,4.132,0,0,16.846,85.91,6,P-GPS,
0.376617834568092,36.924131390521,5605.4704513567,268.700796,0,4.5234909584,21300,2018-04-16 07:09:31,14,0,16.476,5605.4704513567,268.700796,0,4.5234909584,0,0,-11.1847,297.3, 0.5, 0,0,1,1024,1024,1684,1024,297.5,-25.6,98,4.129,4.134,4.131,4.132,0,0,16.846,85.91,6,P-GPS,
0.376617860575971,36.9241313975475,5607.1108713567,270.341216,0,4.5190618244,21400,2018-04-16 07:09:31,14,0,16.476,5607.1108713567,270.341216,0,4.5234909584,0,0,-11.1847,297.3, 0.6, 0,0,1,1024,1024,1684,1024,297.5,-25.9,98,4.129,4.134,4.131,4.132,0,0,16.846,85.91,6,P-GPS,
0.376617874620486,36.924131408455,5608.7512913567,271.981636,0,4.5185696984,21500,2018-04-16 07:09:31,14,0,16.476,5608.7512913567,271.981636,0,4.5234909584,0,0,-11.1847,297.3, 0.8, 0,0,1,1024,1024,1684,1024,297.5,-25.9,98,4.129,4.134,4.131,4.132,0,0,16.846,85.91,6,P-GPS,
0.376617895622528,36.9241314092119,5610.7197953567,273.95014,0,4.5136812468,21600,2018-04-16 07:09:31,14,0,16.476,5610.7197953567,273.95014,0,4.5234909584,0,0,-11.1847,297.3, 0.5, 0,0,1,1024,1024,1684,1024,297.5,-25.9,98,4.129,4.134,4.131,4.132,0,0,16.846,85.91,6,P-GPS,
0.37661789732181,36.924131433045,5612.3602153567,275.59056,0,4.5197508008,21700,2018-04-16 07:09:31,14,0,16.476,5612.3602153567,275.59056,0,4.5234909584,0,0,-11.1847,297.3, 0.5, 0,0,1,1024,1024,1684,1024,297.5,-25.9,98,4.129,4.134,4.131,4.132,0,0,16.846,85.91,6,P-GPS,
0.376617914196561,36.9241314535807,5614.0006353567,277.23098,0,4.5212599872,21800,2018-04-16 07:09:31,14,0,16.476,5614.0006353567,277.23098,0,4.5234909584,0,0,-11.1847,297.3, 0.7, 0,0,1,1024,1024,1684,1024,297.5,-25.9,98,4.129,4.134,4.131,4.132,0,0,16.846,85.91,6,P-GPS,
0.376617934443819,36.9241314786879,5615.6410553567,278.8714,0,4.5232284912,21900,2018-04-16 07:09:31,14,0,16.476,5615.6410553567,278.8714,0,4.5234909584,0,0,-10.961006,297.3, 0.8, 0,0,1,1024,1024,1684,1024,297.5,-25.9,98,4.129,4.134,4.131,4.132,0,0,16.846,85.91,6,P-GPS,
0.37661797872284,36.924131483481,5617.2814753567,280.51182,0,4.5138452888,22000,2018-04-16 07:09:31,14,0,16.476,5617.2814753567,280.51182,0,4.5234909584,0,0,-10.961006,297.3, 0.8, -0.2,0,1,1024,1024,1684,1024,297.5,-25.9,98,4.129,4.134,4.131,4.132,0,0,16.846,85.91,6,P-GPS,
0.376617995250732,36.9241315179358,5618.9218953567,282.15224,0,4.5193242916,22100,2018-04-16 07:09:32,14,0,16.476,5618.9218953567,282.15224,0,4.5234909584,0,0,-10.961006,297.3, 0.7, -0.2,0,1,1024,1024,1684,1024,297.5,-25.9,98,4.129,4.134,4.131,4.132,0,0,16.846,85.91,6,P-GPS,
0.376618008632471,36.9241315494046,5620.5623153567,283.79266,0,4.524770486,22200,2018-04-16 07:09:32,14,0,16.476,5620.5623153567,283.79266,0,4.524770486,0,0,-10.961006,297.3, 0.5, -0.1,0,1,1024,1024,1684,1024,297.5,-25.9,98,4.129,4.134,4.131,4.132,0,0,16.846,85.91,6,P-GPS,
0.376618017895874,36.9241315818199,5622.2027353567,285.43308,0,4.531496208,22300,2018-04-16 07:09:32,14,0,16.476,5622.2027353567,285.43308,0,4.531496208,0,0,-10.961006,297.3, 0.4, 0.1,0,1,1024,1024,1684,1024,297.5,-25.9,98,4.129,4.134,4.131,4.132,0,0,16.846,85.91,6,P-GPS,
0.376618051823691,36.9241315878614,5623.8431553567,287.0735,0,4.52509857,22400,2018-04-16 07:09:32,14,0,16.476,5623.8431553567,287.0735,0,4.531496208,0,0,-11.1847,297.3, 0.7, 0.2,0,1,1024,1024,1684,1024,297.5,-25.9,98,4.129,4.134,4.131,4.132,0,0,16.846,85.91,6,P-GPS,
0.376618077167165,36.924131601484,5625.4835753567,288.71392,0,4.5228347904,22500,2018-04-16 07:09:32,14,0,16.476,5625.4835753567,288.71392,0,4.531496208,0,0,-10.961006,297.3, 0.6, 0,0,1,1024,1024,1684,1024,297.5,-25.9,98,4.129,4.134,4.131,4.132,0,0,16.846,85.91,6,P-GPS,
0.376618111037171,36.9241316034636,5627.1239953567,290.35434,0,4.5153544752,22600,2018-04-16 07:09:32,14,0,16.476,5627.1239953567,290.35434,0,4.531496208,0,0,-10.961006,297.3, 0.7, 0,0,1,1024,1024,1684,1024,297.5,-25.9,98,4.129,4.134,4.131,4.132,0,0,16.846,85.91,6,P-GPS,
0.376618142501152,36.9241316345877,5628.4363313567,291.666676,0,4.516568386,22700,2018-04-16 07:09:32,14,0,16.476,5628.4363313567,291.666676,0,4.531496208,0,0,-10.961006,297.3, 0.6, -0.2,0,1,1024,1024,1684,1024,297.5,-25.9,98,4.129,4.134,4.131,4.132,0,0,16.846,85.91,6,P-GPS,
0.376618191500218,36.9241316664323,5630.0767513567,293.307096,0,4.513943714,22800,2018-04-16 07:09:32,14,0,16.476,5630.0767513567,293.307096,0,4.531496208,0,0,-10.961006,297.3, 0.4, -0.3,0,1,1024,1024,1684,1024,297.5,-25.9,98,4.129,4.134,4.131,4.132,0,0,16.846,85.91,6,P-GPS,
0.376618212202626,36.9241317025648,5631.7171713567,294.947516,0,4.519193058,22900,2018-04-16 07:09:32,14,0,16.476,5631.7171713567,294.947516,0,4.531496208,0,0,-10.961006,297.3, 0.4, -0.4,0,1,1024,1024,1684,1024,297.5,-25.9,98,4.129,4.134,4.131,4.132,0,0,16.846,85.91,6,P-GPS,
