latitude,longitude,altitude(feet),ascent(feet),speed(mph),distance(feet),time(millisecond),datetime(utc),satellites,voltage(v),max_altitude(feet),max_ascent(feet),max_speed(mph),max_distance(feet),compass_heading(degrees), pitch(degrees), roll(degrees),isPhoto,isVideo,rc_elevator,rc_aileron,rc_throttle,rc_rudder,gimbal_heading(degrees),gimbal_pitch(degrees),battery_percent,voltageCell1,voltageCell2,voltageCell3,voltageCell4,voltageCell5,voltageCell6,battery_temperature(f),flycStateRaw,flycState,message
0.339523240324939,36.9102672422793,5399.5529660928,0,0,0,0,,18,0,5399.5529660928,0,0,0,245.5, 8.3, -0.3,0,0,1024,1024,1024,1024,250.1,0,99,4.307,4.305,4.306,4.301,0,0,80.51,41,Motors_Started,
0.33952323575349,36.9102672651062,5399.5529660928,0,0,0.008493602634,100,2017-11-13 11:53:13,18,0,5399.5529660928,0,0,0.008493602634,245.5, 8.3, -0.3,0,0,1024,1024,1024,1024,250,0,99,4.307,4.305,4.306,4.301,0,0,80.51,41,Motors_Started,
0.33952323042115,36.9102672787501,5399.5529660928,0,0,0.0137880253756,200,2017-11-13 11:53:13,18,17.157,5399.5529660928,0,0,0.0137880253756,245.5, 8.3, -0.3,0,0,1024,1024,1024,1024,250.1,0,99,4.307,4.305,4.306,4.301,0,0,80.51,41,Motors_Started,Setting new Return-To-Home altitude to 30m (98 ft). Setting new Maximum Flight Altitude to 120m (394 ft)
0.33952320064098,36.9102673181889,5399.5529660928,0,0,0.0312514117612,300,2017-11-13 11:53:13,18,17.157,5399.5529660928,0,0,0.0312514117612,245.4, 8.3, -0.3,0,0,1024,1024,1024,1024,250,0,99,4.307,4.305,4.306,4.301,0,0,80.51,41,Motors_Started,
0.339523172889038,36.9102673479295,5399.5529660928,0,0,0.045729004088,400,2017-11-13 11:53:13,18,17.157,5399.5529660928,0,0,0.045729004088,245.5, 8.3, -0.3,0,0,1024,1024,1024,1024,250,0,99,4.307,4.305,4.306,4.301,0,0,80.51,41,Motors_Started,
0.33952315818826,36.9102673668596,5399.5529660928,0,0,0.05444225896,500,2017-11-13 11:53:14,18,17.157,5399.5529660928,0,0,0.05444225896,245.5, 8.3, -0.3,0,0,1024,1024,1024,1024,250,0,99,4.307,4.305,4.306,4.301,0,0,80.51,41,Motors_Started,
0.339523144594213,36.9102674157913,5399.5529660928,0,0,0.072300855332,700,2017-11-13 11:53:14,18,17.157,5399.5529660928,0,0,0.072300855332,245.5, 8.3, -0.3,0,0,1024,1024,1024,1024,250,0,99,4.307,4.305,4.306,4.301,0,0,80.51,41,Motors_Started,
0.339523142168645,36.9102674454704,5399.5529660928,0,0,0.082329727044,800,2017-11-13 11:53:14,18,17.157,5399.5529660928,0,0,0.082329727044,245.5, 8.3, -0.3,0,0,1024,1024,1024,1024,250,0,99,4.307,4.305,4.306,4.301,0,0,80.51,41,Motors_Started,
0.339523086098265,36.9102674750676,5399.5529660928,0,0,0.101880252604,1000,2017-11-13 11:53:14,18,17.157,5399.5529660928,0,0,0.101880252604,245.4, 8.2, -0.3,0,0,1024,1024,1024,1024,250,0,99,4.307,4.305,4.306,4.301,0,0,80.51,41,Motors_Started,
0.339523068063452,36.9102675103698,5399.5529660928,0,0,0.116262798996,1100,2017-11-13 11:53:14,18,17.157,5399.5529660928,0,0,0.116262798996,245.4, 8.1, -0.3,0,0,1024,1024,1024,1024,250,0,99,4.307,4.305,4.306,4.301,0,0,80.51,41,Motors_Started,
0.33952305597083,36.9102675389617,5399.5529660928,0,0,0.127438324288,1200,2017-11-13 11:53:14,18,17.157,5399.5529660928,0,0,0.127438324288,245.4, 8.3, -0.3,0,0,364,396,365,1684,250,0,99,4.304,4.296,4.301,4.296,0,0,80.51,41,Motors_Started,
0.339523053085838,36.9102675587389,5399.5529660928,0,0,0.134154203768,1300,2017-11-13 11:53:14,18,17.157,5399.5529660928,0,0,0.134154203768,245.4, 8.2, -0.4,0,0,485,522,518,1614,250,0,99,4.304,4.296,4.301,4.296,0,0,80.51,41,Motors_Started,
0.339523050532641,36.9102675690896,5399.5529660928,0,0,0.137883206512,1400,2017-11-13 11:53:14,18,17.157,5399.5529660928,0,0,0.137883206512,245.4, 8.1, -0.3,0,0,702,738,823,1344,250,0,99,4.304,4.296,4.301,4.296,0,0,80.51,41,Motors_Started,
0.339523054144937,36.9102676029955,5399.5529660928,0,0,0.148101382692,1500,2017-11-13 11:53:14,18,17.157,5399.5529660928,0,0,0.148101382692,245.4, 8.1, -0.3,0,0,949,1004,1024,1026,249.6,0,99,4.304,4.296,4.301,4.296,0,0,80.51,41,Motors_Started,
0.339523057546553,36.9102676295907,5399.5529660928,0,0,0.156252957756,1600,2017-11-13 11:53:15,18,17.157,5399.5529660928,0,0,0.156252957756,245.4, 8.1, -0.3,0,0,1024,1024,1024,1024,248.3,0,99,4.304,4.296,4.301,4.296,0,0,80.51,10,Assisted_Takeoff,
0.33952303339164,36.9102676499988,5399.5529660928,0,0,0.166816606388,1700,2017-11-13 11:53:15,18,17.157,5399.5529660928,0,0,0.166816606388,245.4, 8.2, -0.3,0,0,1024,1024,1024,1024,247.3,0,99,4.304,4.296,4.301,4.296,0,0,80.51,10,Assisted_Takeoff,
0.339523008842236,36.9102676581941,5399.5529660928,0,0,0.173663391384,1800,2017-11-13 11:53:15,18,17.157,5399.5529660928,0,0,0.173663391384,245.4, 8.2, -0.3,0,0,1024,1024,1024,1024,246.8,0,99,4.304,4.296,4.301,4.296,0,0,80.51,10,Assisted_Takeoff,
0.339522992427317,36.9102676612517,5399.5529660928,0,0,0.177612866576,1900,2017-11-13 11:53:15,18,17.157,5399.5529660928,0,0,0.177612866576,245.4, 8.2, -0.3,0,0,1024,1024,1024,1024,246.6,0,99,4.304,4.296,4.301,4.296,0,0,80.51,10,Assisted_Takeoff,
0.339522980848266,36.9102676586453,5399.5529660928,0,0,0.178993115964,2000,2017-11-13 11:53:15,18,17.157,5399.5529660928,0,0,0.178993115964,245.4, 8.2, -0.3,0,0,1024,1024,1024,1024,246.4,0,99,4.304,4.296,4.301,4.296,0,0,80.51,10,Assisted_Takeoff,
0.339522975235223,36.9102676514685,5399.5529660928,0,0,0.177881239288,2100,2017-11-13 11:53:15,18,17.157,5399.5529660928,0,0,0.178993115964,245.4, 8.2, -0.3,0,0,1024,1024,1024,1024,246.3,0,99,4.304,4.296,4.301,4.296,0,0,80.51,10,Assisted_Takeoff,
0.339522971217648,36.9102676408723,5399.5529660928,0,0,0.175465556796,2200,2017-11-13 11:53:15,18,17.05,5399.5529660928,0,0,0.178993115964,245.4, 8.2, -0.3,0,0,1024,1024,1024,1024,246.1,0,99,4.278,4.269,4.272,4.291,0,0,80.51,10,Assisted_Takeoff,
0.339522937414407,36.9102676299895,5399.5529660928,0,0,0.179507551676,2300,2017-11-13 11:53:15,18,17.05,5399.5529660928,0,0,0.179507551676,245.4, 8.2, -0.3,0,0,1024,1024,1024,1024,246.1,0,99,4.278,4.269,4.272,4.291,0,0,80.51,10,Assisted_Takeoff,
0.339522909094749,36.9102676147685,5399.5529660928,0,0,0.181860898208,2400,2017-11-13 11:53:15,18,17.05,5399.5529660928,0,0,0.181860898208,245.4, 8.2, -0.3,0,0,1024,1024,1024,1024,246,0,99,4.278,4.269,4.272,4.291,0,0,80.51,10,Assisted_Takeoff,
0.339522890119712,36.9102676377501,5399.5529660928,0,0,0.192727368372,2500,2017-11-13 11:53:15,18,17.05,5399.5529660928,0,0,0.192727368372,245.4, 8.2, -0.2,0,0,1024,1024,1024,1024,246,0,99,4.278,4.269,4.272,4.291,0,0,80.51,10,Assisted_Takeoff,
0.339522876318649,36.9102676505028,5399.5529660928,0,0,0.199549875152,2600,2017-11-13 11:53:15,18,17.05,5399.5529660928,0,0,0.199549875152,245.4, 8.2, -0.2,0,0,1024,1024,1024,1024,245.9,0,99,4.278,4.269,4.272,4.291,0,0,80.51,10,Assisted_Takeoff,
0.339522871747403,36.9102676666725,5399.5529660928,0,0,0.205080715224,2700,2017-11-13 11:53:16,18,17.05,5399.5529660928,0,0,0.205080715224,245.4, 8.2, -0.2,0,0,1024,1024,1024,1024,245.9,0,99,4.278,4.269,4.272,4.291,0,0,80.51,10,Assisted_Takeoff,
0.339522869637143,36.9102676678574,5399.5529660928,0,0,0.20591208008,2800,2017-11-13 11:53:16,18,17.05,5399.5529660928,0,0,0.20591208008,245.4, 8.2, -0.2,0,0,1024,1024,1133,1024,245.9,0,99,4.278,4.269,4.272,4.291,0,0,80.51,10,Assisted_Takeoff,
0.339522874582931,36.9102676727087,5399.5529660928,0,0,0.206077106332,2900,2017-11-13 11:53:16,18,17.05,5399.5529660928,0,0,0.206077106332,245.4, 8.2, -0.2,0,0,1024,1024,1225,1024,245.9,0,99,4.278,4.269,4.272,4.291,0,0,80.51,10,Assisted_Takeoff,
0.339522879292595,36.9102676649927,5399.5529660928,0,0,0.20281988838,3000,2017-11-13 11:53:16,18,17.05,5399.5529660928,0,0,0.206077106332,245.4, 8.1, -0.3,0,0,1024,1024,1271,1024,245.9,0,99,4.278,4.269,4.272,4.291,0,0,80.51,10,Assisted_Takeoff,
0.339522852423676,36.9102676612673,5399.5529660928,0,0,0.208319888556,3100,2017-11-13 11:53:16,18,17.05,5399.5529660928,0,0,0.208319888556,245.4, 7.9, -0.3,0,0,1024,1024,1276,1024,245.9,0,99,4.278,4.269,4.272,4.291,0,0,80.51,10,Assisted_Takeoff,
0.339522829821891,36.9102676467195,5399.5529660928,0,0,0.210249022476,3200,2017-11-13 11:53:16,18,17.13,5399.5529660928,0,0,0.210249022476,245.4, 7.9, -0.3,0,0,1024,1024,1297,1024,245.8,0,99,4.278,4.269,4.272,4.291,0,0,80.51,10,Assisted_Takeoff,
0.339522811283888,36.9102676423872,5399.5529660928,0,0,0.214038392676,3300,2017-11-13 11:53:16,18,17.13,5399.5529660928,0,0,0.214038392676,245.3, 7.7, -0.3,0,0,1024,1024,1332,1024,245.8,0,99,4.278,4.269,4.272,4.291,0,0,80.51,10,Assisted_Takeoff,
0.339522806806482,36.9102676460428,5399.5529660928,0,0,0.216143051536,3400,2017-11-13 11:53:16,18,17.13,5399.5529660928,0,0,0.216143051536,245.1, 5.5, 0,0,0,1024,1024,1336,1024,245.8,0,99,4.278,4.269,4.272,4.291,0,0,80.51,10,Assisted_Takeoff,
0.33952282906955,36.9102677276754,5399.5529660928,0,0,0.232111884068,3500,2017-11-13 11:53:16,18,17.13,5399.5529660928,0,0,0.232111884068,245.6, 1.4, 1,0,0,1024,1024,1336,1024,245.8,0,99,4.278,4.269,4.272,4.291,0,0,80.51,10,Assisted_Takeoff,
0.33952287207757,36.9102678034566,5399.5529660928,0,0,0.24488845928,3600,2017-11-13 11:53:17,18,17.13,5399.5529660928,0,0,0.24488845928,245.6, -0.5, 0.1,0,0,1024,1024,1336,1024,245.8,0,99,4.278,4.269,4.272,4.291,0,0,80.51,6,GPS_Atti,
0.339522891147057,36.9102678614845,5399.5529660928,0,0,0.259358276016,3700,2017-11-13 11:53:17,18,17.13,5399.5529660928,0,0,0.259358276016,245.6, 0, -0.3,0,0,1024,1024,1337,1024,245.8,0,99,4.278,4.269,4.272,4.291,0,0,80.51,6,GPS_Atti,
0.339522873113464,36.9102678535226,5399.8810500928,0.328084,0,0.260158144808,3800,2017-11-13 11:53:17,18,17.13,5399.8810500928,0.328084,0,0.260158144808,245.7, 0.3, 0,0,0,1024,1024,1341,1024,245.8,0,99,4.278,4.269,4.272,4.291,0,0,80.51,6,GPS_Atti,
0.339522776244659,36.9102678365919,5400.2091340928,0.656168,0.223694,0.275108604604,3900,2017-11-13 11:53:17,18,17.13,5400.2091340928,0.656168,0.223694,0.275108604604,245.8, 0, 0.7,0,0,1024,1024,1355,1024,245.8,0,99,4.278,4.269,4.272,4.291,0,0,80.51,6,GPS_Atti,
0.339522676496968,36.9102677351971,5400.5372180928,0.984252,0.447388,0.27323819772,4000,2017-11-13 11:53:17,18,17.13,5400.5372180928,0.984252,0.447388,0.275108604604,245.8, 0.6, 1,0,0,1024,1024,1357,1024,245.8,0,99,4.278,4.269,4.272,4.291,0,0,80.51,6,GPS_Atti,
0.33952259677466,36.9102675826444,5400.8653020928,1.312336,0.447388,0.265614837896,4100,2017-11-13 11:53:17,18,16.863,5400.8653020928,1.312336,0.447388,0.275108604604,245.8, 1.9, 0.3,0,0,1024,1024,1366,1024,245.8,0,99,4.286,4.281,4.283,4.273,0,0,80.51,6,GPS_Atti,Home Point Recorded. RTH Altitude:  30m.
0.339522487051732,36.91026720274,5401.8495540928,2.296588,0.447388,0.275209654476,4300,2017-11-13 11:53:17,18,16.863,5401.8495540928,2.296588,0.447388,0.275209654476,245.6, 5, -2.2,0,0,1024,1024,1366,1024,245.8,0,99,4.286,4.281,4.283,4.273,0,0,80.51,6,GPS_Atti,Obstacle Avoided. Revise Flight Route
0.339522419668348,36.9102670630903,5402.5057220928,2.952756,0.223694,0.306470154164,4400,2017-11-13 11:53:17,18,16.863,5402.5057220928,2.952756,0.447388,0.306470154164,245.5, 5.4, -3.4,0,0,1024,1024,1368,1024,245.8,0,99,4.286,4.281,4.283,4.273,0,0,80.51,6,GPS_Atti,
0.339522321513479,36.9102670708517,5403.1618900928,3.608924,0.223694,0.34101379044,4500,2017-11-13 11:53:17,18,16.863,5403.1618900928,3.608924,0.447388,0.34101379044,245.5, 5.6, -2.3,0,0,1024,1024,1406,1024,245.8,0,99,4.286,4.281,4.283,4.273,0,0,80.51,6,GPS_Atti,
0.339522163829822,36.9102671069189,5403.8180580928,4.265092,0.223694,0.3958497502,4600,2017-11-13 11:53:18,18,16.863,5403.8180580928,4.265092,0.447388,0.3958497502,245.4, 5.3, 0.7,0,0,1024,1024,1406,1024,245.8,0,99,4.286,4.281,4.283,4.273,0,0,80.51,6,GPS_Atti,
0.339521956852758,36.9102672416966,5404.4742260928,4.92126,0.223694,0.4682742932,4700,2017-11-13 11:53:18,18,16.863,5404.4742260928,4.92126,0.447388,0.4682742932,245.5, 3.9, 3.2,0,0,1024,1024,1451,1024,245.8,0,99,4.286,4.281,4.283,4.273,0,0,80.51,6,GPS_Atti,
0.339521805699975,36.9102673366169,5405.1303940928,5.577428,0,0.52455382256,4800,2017-11-13 11:53:18,18,16.863,5405.1303940928,5.577428,0.447388,0.52455382256,245.4, 2.5, 3.5,0,0,1024,1024,1454,1024,245.8,0,99,4.286,4.281,4.283,4.273,0,0,80.51,6,GPS_Atti,
0.339521706277363,36.9102674255682,5406.4427300928,6.889764,0,0.56367783956,5000,2017-11-13 11:53:18,18,16.863,5406.4427300928,6.889764,0.447388,0.56367783956,245.5, 2.7, 0.7,0,0,1024,1024,1453,1024,245.8,0,99,4.286,4.281,4.283,4.273,0,0,80.51,6,GPS_Atti,
0.339521673326206,36.9102674524897,5407.4269820928,7.874016,0.223694,0.57684056964,5100,2017-11-13 11:53:18,18,16.863,5407.4269820928,7.874016,0.447388,0.57684056964,245.5, 3.2, 0,0,0,1024,1024,1462,1024,245.8,0,99,4.286,4.281,4.283,4.273,0,0,80.51,6,GPS_Atti,
0.339521649162539,36.9102674311764,5408.4112340928,8.858268,0,0.58460959876,5200,2017-11-13 11:53:18,18,16.863,5408.4112340928,8.858268,0.447388,0.58460959876,245.5, 3.6, -0.6,0,0,1024,1024,1462,1024,245.8,0,99,4.286,4.281,4.283,4.273,0,0,80.51,6,GPS_Atti,
0.339521615982993,36.9102674276768,5409.0674020928,9.514436,0,0.59648623956,5300,2017-11-13 11:53:18,18,16.863,5409.0674020928,9.514436,0.447388,0.59648623956,245.4, 4, -1.6,0,0,1024,1024,1467,1024,245.8,0,99,4.286,4.281,4.283,4.273,0,0,80.51,6,GPS_Atti,
0.339521563668415,36.9102673961999,5410.0516540928,10.498688,0,0.61429791992,5400,2017-11-13 11:53:18,18,16.863,5410.0516540928,10.498688,0.447388,0.61429791992,245.4, 4.1, -2.1,0,0,1024,1024,1474,1024,245.8,0,99,4.286,4.281,4.283,4.273,0,0,80.51,6,GPS_Atti,
0.339521471755779,36.9102673980536,5411.0359060928,11.48294,0.223694,0.64775920708,5500,2017-11-13 11:53:18,18,16.863,5411.0359060928,11.48294,0.447388,0.64775920708,245.5, 4.3, -1.7,0,0,1024,1024,1474,1024,245.7,0,99,4.286,4.281,4.283,4.273,0,0,80.51,6,GPS_Atti,
0.33952132188275,36.9102673886916,5411.6920740928,12.139108,0.223694,0.70197836892,5600,2017-11-13 11:53:19,18,16.863,5411.6920740928,12.139108,0.447388,0.70197836892,245.5, 5.5, 0,0,0,1024,1024,1487,1024,245.7,0,99,4.286,4.281,4.283,4.273,0,0,80.51,6,GPS_Atti,
0.339521081664869,36.9102674214755,5412.6763260928,13.12336,0.223694,0.79029530088,5700,2017-11-13 11:53:19,18,16.863,5412.6763260928,13.12336,0.447388,0.79029530088,245.5, 5.1, 1.5,0,0,1024,1024,1516,1024,245.7,0,99,4.286,4.281,4.283,4.273,0,0,80.51,6,GPS_Atti,
0.33952085962938,36.9102674674515,5413.6605780928,14.107612,0,0.87247050036,5800,2017-11-13 11:53:19,18,16.863,5413.6605780928,14.107612,0.447388,0.87247050036,245.5, 4.6, 2.4,0,0,1024,1024,1530,1024,245.8,0,99,4.286,4.281,4.283,4.273,0,0,80.51,6,GPS_Atti,
0.339520633992587,36.9102675457119,5414.6448300928,15.091864,0,0.95734255032,5900,2017-11-13 11:53:19,18,16.863,5414.6448300928,15.091864,0.447388,0.95734255032,245.5, 4.4, 2.1,0,0,1024,1024,1537,1024,245.7,0,99,4.286,4.281,4.283,4.273,0,0,80.51,6,GPS_Atti,
0.339520466153343,36.9102676176897,5415.6290820928,16.076116,0,1.02138126628,6000,2017-11-13 11:53:19,18,16.863,5415.6290820928,16.076116,0.447388,1.02138126628,245.4, 4.2, 0.8,0,0,1024,1024,1547,1024,245.7,0,99,4.286,4.281,4.283,4.273,0,0,80.51,6,GPS_Atti,
0.339520327592707,36.9102677587857,5416.6133340928,17.060368,0,1.07928809228,6100,2017-11-13 11:53:19,18,16.863,5416.6133340928,17.060368,0.447388,1.07928809228,245.3, 3.8, 0.2,0,0,1024,1024,1569,1024,245.7,0,99,4.286,4.281,4.283,4.273,0,0,80.51,6,GPS_Atti,
0.339520175362098,36.9102679008106,5417.5975860928,18.04462,0.223694,1.14376972164,6200,2017-11-13 11:53:19,18,16.568,5417.5975860928,18.04462,0.447388,1.14376972164,245.4, 3.2, 1.7,0,0,1024,1024,1593,1024,245.7,0,99,4.179,4.167,4.163,4.152,0,0,80.51,6,GPS_Atti,
0.339519964873091,36.9102680882137,5418.9099220928,19.356956,0.223694,1.23425856968,6300,2017-11-13 11:53:19,18,16.568,5418.9099220928,19.356956,0.447388,1.23425856968,245.5, 4.2, 2.2,0,0,1024,1024,1648,1024,245.7,0,99,4.179,4.167,4.163,4.152,0,0,80.51,6,GPS_Atti,
0.339519779036283,36.9102682461084,5419.8941740928,20.341208,0,1.31488521268,6400,2017-11-13 11:53:19,18,16.568,5419.8941740928,20.341208,0.447388,1.31488521268,245.6, 4.5, 2.3,0,0,1024,1024,1684,1024,245.7,0,99,4.179,4.167,4.163,4.152,0,0,80.51,6,GPS_Atti,
0.339519619886416,36.9102684635907,5421.2065100928,21.653544,0,1.3940453202,6500,2017-11-13 11:53:19,18,16.568,5421.2065100928,21.653544,0.447388,1.3940453202,245.5, 2.7, 2.5,0,0,1024,1024,1684,1024,245.7,0,99,4.179,4.167,4.163,4.152,0,0,80.51,6,GPS_Atti,
0.339519488568285,36.9102686401489,5422.5188460928,22.96588,0,1.46074807824,6600,2017-11-13 11:53:20,18,16.568,5422.5188460928,22.96588,0.447388,1.46074807824,245.6, 1.6, 1.8,0,0,1024,1024,1684,1024,245.7,0,99,4.179,4.167,4.163,4.152,0,0,80.51,6,GPS_Atti,
0.339519337080654,36.9102687954294,5423.8311820928,24.278216,0,1.5326936186,6700,2017-11-13 11:53:20,18,16.568,5423.8311820928,24.278216,0.447388,1.5326936186,245.7, 2.7, 2.2,0,0,1024,1024,1684,1024,245.7,0,99,4.179,4.167,4.163,4.152,0,0,80.51,6,GPS_Atti,
0.339519160754773,36.9102688789948,5425.4716020928,25.918636,0.223694,1.60374677048,6800,2017-11-13 11:53:20,18,16.568,5425.4716020928,25.918636,0.447388,1.60374677048,245.6, 3.8, 4.1,0,0,1024,1024,1684,1024,245.7,0,99,4.179,4.167,4.163,4.152,0,0,80.51,6,GPS_Atti,
0.339518998579257,36.9102689363635,5426.7839380928,27.230972,0.223694,1.66645674624,6900,2017-11-13 11:53:20,18,16.568,5426.7839380928,27.230972,0.447388,1.66645674624,245.5, 4.6, 4.5,0,0,1024,1024,1684,1024,245.7,0,99,4.179,4.167,4.163,4.152,0,0,80.51,6,GPS_Atti,
0.33951884423045,36.9102688588227,5430.0647780928,30.511812,0.223694,1.70891081584,7100,2017-11-13 11:53:20,18,16.568,5430.0647780928,30.511812,0.447388,1.70891081584,245.5, 6.8, 1,0,0,1024,1024,1684,1024,245.7,0,99,4.179,4.167,4.163,4.152,0,0,80.51,6,GPS_Atti,
0.33951879416801,36.9102687990187,5431.7051980928,32.152232,0,1.7187336508,7200,2017-11-13 11:53:20,18,16.247,5431.7051980928,32.152232,0.447388,1.7187336508,245.5, 7.5, 0.6,0,0,1024,1024,1684,1024,245.7,0,99,4.179,4.167,4.163,4.152,0,0,80.51,6,GPS_Atti,
0.339518729200423,36.910268834683,5433.3456180928,33.792652,0,1.74541016084,7300,2017-11-13 11:53:20,18,16.247,5433.3456180928,33.792652,0.447388,1.74541016084,245.5, 7.5, 1,0,0,1024,1024,1684,1024,245.7,0,99,4.179,4.167,4.163,4.152,0,0,80.51,6,GPS_Atti,
0.339518668415901,36.9102688875589,5434.9860380928,35.433072,0,1.77277892812,7400,2017-11-13 11:53:20,18,16.247,5434.9860380928,35.433072,0.447388,1.77277892812,245.5, 6.4, 1.9,0,0,1024,1024,1684,1024,245.7,0,99,4.179,4.167,4.163,4.152,0,0,80.51,6,GPS_Atti,
0.339518628501517,36.9102690222303,5436.6264580928,37.073492,0,1.80358929656,7500,2017-11-13 11:53:20,18,16.247,5436.6264580928,37.073492,0.447388,1.80358929656,245.5, 6, 1.4,0,0,1024,1024,1684,1028,245.7,0,99,4.179,4.167,4.163,4.152,0,0,80.51,6,GPS_Atti,
0.33951860719292,36.9102691194816,5438.2668780928,38.713912,0,1.82387144944,7600,2017-11-13 11:53:21,18,16.247,5438.2668780928,38.713912,0.447388,1.82387144944,245.5, 5.8, 0.8,0,0,1024,1024,1684,1030,245.7,0,99,4.179,4.167,4.163,4.152,0,0,80.51,6,GPS_Atti,
0.339518553564188,36.9102692485428,5439.9072980928,40.354332,0,1.8600394296,7700,2017-11-13 11:53:21,18,16.247,5439.9072980928,40.354332,0.447388,1.8600394296,245.5, 5.6, 0.5,0,0,1024,1024,1684,1042,245.7,0,99,4.179,4.167,4.163,4.152,0,0,80.51,6,GPS_Atti,
0.339518493170493,36.9102693625877,5441.5477180928,41.994752,0,1.89690294784,7800,2017-11-13 11:53:21,18,16.247,5441.5477180928,41.994752,0.447388,1.89690294784,245.4, 5.7, 0.4,0,0,1024,1024,1684,1033,245.7,0,99,4.179,4.167,4.163,4.152,0,0,80.51,6,GPS_Atti,
0.339518400945196,36.9102695409237,5443.1881380928,43.635172,0,1.95469494444,7900,2017-11-13 11:53:21,18,16.247,5443.1881380928,43.635172,0.447388,1.95469494444,245.5, 5.5, 0.8,0,0,1024,1024,1684,1030,245.7,0,99,4.179,4.167,4.163,4.152,0,0,80.51,6,GPS_Atti,
0.339518311741883,36.9102696967192,5444.8285580928,45.275592,0,2.0088255236,8000,2017-11-13 11:53:21,18,16.247,5444.8285580928,45.275592,0.447388,2.0088255236,245.5, 5, 1.7,0,0,1024,1024,1684,1030,245.7,0,99,4.179,4.167,4.163,4.152,0,0,80.51,6,GPS_Atti,
0.339518220900763,36.9102699334105,5446.4689780928,46.916012,0,2.07792985652,8100,2017-11-13 11:53:21,18,16.247,5446.4689780928,46.916012,0.447388,2.07792985652,245.5, 5.1, 1.9,0,0,1024,1024,1684,1036,245.7,0,99,4.179,4.167,4.163,4.152,0,0,80.51,6,GPS_Atti,
0.339518152976736,36.9102701189525,5448.1093980928,48.556432,0,2.13229665616,8200,2017-11-13 11:53:21,18,16.434,5448.1093980928,48.556432,0.447388,2.13229665616,245.5, 5.3, 1.2,0,0,1024,1024,1684,1025,245.7,0,99,4.142,4.128,4.137,4.136,0,0,80.51,6,GPS_Atti,
0.339518062804092,36.9102703686084,5450.0779020928,50.524936,0,2.20667001812,8300,2017-11-13 11:53:21,18,16.434,5450.0779020928,50.524936,0.447388,2.20667001812,245.5, 5.3, 0.7,0,0,1024,1024,1684,1027,245.7,0,99,4.142,4.128,4.137,4.136,0,0,80.51,6,GPS_Atti,
0.339517961390299,36.9102705933023,5451.7183220928,52.165356,0,2.28128944308,8400,2017-11-13 11:53:21,18,16.434,5451.7183220928,52.165356,0.447388,2.28128944308,245.5, 4.6, 1.5,0,0,1024,1024,1684,1030,245.7,0,99,4.142,4.128,4.137,4.136,0,0,80.51,6,GPS_Atti,
0.339517857791135,36.9102708747635,5453.3587420928,53.805776,0,2.36916674248,8500,2017-11-13 11:53:21,18,16.434,5453.3587420928,53.805776,0.447388,2.36916674248,245.5, 4.1, 2,0,0,1024,1024,1684,1030,245.7,0,99,4.142,4.128,4.137,4.136,0,0,80.51,6,GPS_Atti,
0.339517751971587,36.9102710942602,5454.9991620928,55.446196,0,2.4463747502,8600,2017-11-13 11:53:22,18,16.434,5454.9991620928,55.446196,0.447388,2.4463747502,245.4, 4.8, 2.4,0,0,1024,1024,1684,1024,245.7,0,99,4.142,4.128,4.137,4.136,0,0,80.51,6,GPS_Atti,
0.339517595778567,36.9102713690273,5456.9676660928,57.4147,0,2.55108603964,8700,2017-11-13 11:53:22,18,16.434,5456.9676660928,57.4147,0.447388,2.55108603964,245.5, 5.2, 2.7,0,0,1024,1024,1684,1024,245.7,0,99,4.142,4.128,4.137,4.136,0,0,80.51,6,GPS_Atti,
0.33951746698656,36.9102716033252,5458.6080860928,59.05512,0,2.63979339156,8800,2017-11-13 11:53:22,18,16.434,5458.6080860928,59.05512,0.447388,2.63979339156,245.5, 5.2, 2.7,0,0,1024,1024,1684,1024,245.7,0,99,4.142,4.128,4.137,4.136,0,0,80.51,6,GPS_Atti,
0.339517351047047,36.9102718983923,5460.2485060928,60.69554,0,2.73909785668,8900,2017-11-13 11:53:22,18,16.434,5460.2485060928,60.69554,0.447388,2.73909785668,245.5, 4.8, 2.9,0,0,1024,1024,1684,1024,245.7,0,99,4.142,4.128,4.137,4.136,0,0,80.51,6,GPS_Atti,
0.339517259561877,36.9102721447058,5462.2170100928,62.664044,0,2.8214567832,9000,2017-11-13 11:53:22,18,16.434,5462.2170100928,62.664044,0.447388,2.8214567832,245.5, 4.4, 2.7,0,0,1024,1024,1684,1024,245.7,0,99,4.142,4.128,4.137,4.136,0,0,80.51,6,GPS_Atti,
0.33951716865562,36.9102724425174,5464.1855140928,64.632548,0,2.91666676,9100,2017-11-13 11:53:22,18,16.434,5464.1855140928,64.632548,0.447388,2.91666676,245.5, 4.2, 2.4,0,0,1024,1024,1684,1024,245.7,0,99,4.142,4.128,4.137,4.136,0,0,80.51,6,GPS_Atti,
0.339517083400063,36.9102726742565,5465.8259340928,66.272968,0,2.99561361292,9200,2017-11-13 11:53:22,18,16.434,5465.8259340928,66.272968,0.447388,2.99561361292,245.5, 3.9, 2.9,0,0,1024,1024,1684,1024,245.7,0,99,4.147,4.133,4.139,4.134,0,0,80.51,6,GPS_Atti,
0.339516985375876,36.9102729289737,5467.7944380928,68.241472,0,3.08425534804,9300,2017-11-13 11:53:22,18,16.434,5467.7944380928,68.241472,0.447388,3.08425534804,245.4, 4.2, 3,0,0,1024,1024,1684,1024,245.7,0,99,4.147,4.133,4.139,4.134,0,0,80.51,6,GPS_Atti,
0.339516892637619,36.9102731200006,5469.4348580928,69.881892,0,3.15630587528,9400,2017-11-13 11:53:22,18,16.434,5469.4348580928,69.881892,0.447388,3.15630587528,245.5, 5, 3.3,0,0,1024,1024,1684,1024,245.7,0,99,4.147,4.133,4.139,4.134,0,0,80.51,6,GPS_Atti,
0.339516797836123,36.9102733577324,5471.4033620928,71.850396,0,3.2408629646,9500,2017-11-13 11:53:22,18,16.434,5471.4033620928,71.850396,0.447388,3.2408629646,245.6, 5.7, 3.3,0,0,1024,1024,1684,1024,245.7,0,99,4.147,4.133,4.139,4.134,0,0,80.51,6,GPS_Atti,
0.339516734509193,36.9102735651547,5473.0437820928,73.490816,0,3.3099410508,9600,2017-11-13 11:53:22,18,16.434,5473.0437820928,73.490816,0.447388,3.3099410508,245.5, 4.9, 3.2,0,0,1024,1024,1684,1024,245.7,0,99,4.147,4.133,4.139,4.134,0,0,80.51,6,GPS_Atti,
0.339516706722239,36.9102738385686,5474.6842020928,75.131236,0,3.3873688748,9700,2017-11-13 11:53:23,18,16.434,5474.6842020928,75.131236,0.447388,3.3873688748,245.4, 4.1, 3.2,0,0,1024,1024,1684,1024,245.7,0,99,4.147,4.133,4.139,4.134,0,0,80.51,6,GPS_Atti,
0.339516687318514,36.9102740537073,5476.6527060928,77.09974,0,3.4484581156,9800,2017-11-13 11:53:23,18,16.434,5476.6527060928,77.09974,0.447388,3.4484581156,245.4, 3.6, 3.1,0,0,1024,1024,1684,1024,245.7,0,99,4.147,4.133,4.139,4.134,0,0,80.51,6,GPS_Atti,
0.339516663721547,36.9102743050804,5478.2931260928,78.74016,0,3.520997488,9900,2017-11-13 11:53:23,18,16.434,5478.2931260928,78.74016,0.447388,3.520997488,245.5, 4.1, 3.4,0,0,1024,1024,1684,1024,245.7,0,99,4.147,4.133,4.139,4.134,0,0,80.51,6,GPS_Atti,
0.339516644646768,36.9102744895593,5480.2616300928,80.708664,0,3.5752297732,10000,2017-11-13 11:53:23,18,16.434,5480.2616300928,80.708664,0.447388,3.5752297732,245.5, 4.3, 3.8,0,0,1024,1024,1684,1024,245.7,0,99,4.147,4.133,4.139,4.134,0,0,80.51,6,GPS_Atti,
0.339516627631157,36.9102747315239,5481.9020500928,82.349084,0,3.6451116652,10100,2017-11-13 11:53:23,18,16.434,5481.9020500928,82.349084,0.447388,3.6451116652,245.5, 4.1, 3.7,0,0,1024,1024,1684,1024,245.6,0,99,4.147,4.133,4.139,4.134,0,0,80.51,6,GPS_Atti,
0.339516632678519,36.9102748900083,5483.8705540928,84.317588,0,3.6874345012,10200,2017-11-13 11:53:23,18,16.434,5483.8705540928,84.317588,0.447388,3.6874345012,245.5, 4.4, 3.4,0,0,1024,1024,1684,1024,245.7,0,99,4.147,4.133,4.139,4.134,0,0,80.51,6,GPS_Atti,
0.339516668058907,36.9102750775545,5485.5109740928,85.958008,0,3.7311680984,10300,2017-11-13 11:53:23,18,16.434,5485.5109740928,85.958008,0.447388,3.7311680984,245.5, 4.3, 3.2,0,0,1024,1024,1684,1024,245.6,0,99,4.147,4.133,4.139,4.134,0,0,80.51,6,GPS_Atti,
0.33951672381683,36.9102752080091,5487.1513940928,87.598428,0,3.7548557632,10400,2017-11-13 11:53:23,18,16.434,5487.1513940928,87.598428,0.447388,3.7548557632,245.5, 4.1, 2.7,0,0,1024,1024,1684,1024,245.6,0,99,4.147,4.133,4.139,4.134,0,0,80.51,6,GPS_Atti,
0.339516775430362,36.9102753877548,5489.1198980928,89.566932,0,3.7940946096,10500,2017-11-13 11:53:23,18,16.434,5489.1198980928,89.566932,0.447388,3.7940946096,245.4, 3.6, 1.9,0,0,1024,1024,1684,1024,245.6,0,99,4.147,4.133,4.139,4.134,0,0,80.51,6,GPS_Atti,
0.339516806041853,36.9102755042121,5490.7603180928,91.207352,0,3.8206037968,10600,2017-11-13 11:53:24,18,16.434,5490.7603180928,91.207352,0.447388,3.8206037968,245.4, 4.2, 1.8,0,0,1024,1024,1684,1024,245.6,0,99,4.147,4.133,4.139,4.134,0,0,80.51,6,GPS_Atti,
0.339516809278385,36.9102756586688,5492.7288220928,93.175856,0,3.864501436,10700,2017-11-13 11:53:24,18,16.434,5492.7288220928,93.175856,0.447388,3.864501436,245.5, 5, 3,0,0,1024,1024,1684,1024,245.6,0,99,4.147,4.133,4.139,4.134,0,0,80.51,6,GPS_Atti,
0.339516817754436,36.9102757666865,5494.3692420928,94.816276,0,3.894028996,10800,2017-11-13 11:53:24,18,16.434,5494.3692420928,94.816276,0.447388,3.894028996,245.4, 4.9, 4,0,0,1024,1024,1684,1024,245.6,0,99,4.147,4.133,4.139,4.134,0,0,80.51,6,GPS_Atti,
0.339516875081364,36.9102759362421,5496.0096620928,96.456696,0,3.9312337216,10900,2017-11-13 11:53:24,18,16.434,5496.0096620928,96.456696,0.447388,3.9312337216,245.4, 4.3, 4,0,0,1024,1024,1684,1024,245.6,0,99,4.147,4.133,4.139,4.134,0,0,80.51,6,GPS_Atti,
0.33951698005575,36.9102760410522,5497.6500820928,98.097116,0,3.939796714,11000,2017-11-13 11:53:24,18,16.434,5497.6500820928,98.097116,0.447388,3.939796714,245.5, 4, 2.6,0,0,1024,1024,1684,1024,245.6,0,99,4.147,4.133,4.139,4.134,0,0,80.51,6,GPS_Atti,
0.339517117572146,36.9102761973032,5499.2905020928,99.737536,0.223694,3.9578741424,11100,2017-11-13 11:53:24,18,16.434,5499.2905020928,99.737536,0.447388,3.9578741424,245.5, 3.2, 1.8,0,0,1024,1024,1684,1024,245.6,0,99,4.147,4.133,4.139,4.134,0,0,80.51,6,GPS_Atti,
0.339517266999795,36.9102763004892,5500.9309220928,101.377956,0.223694,3.9587271608,11200,2017-11-13 11:53:24,18,16.434,5500.9309220928,101.377956,0.447388,3.9587271608,245.4, 2.8, 1.7,0,0,1024,1024,1684,1024,245.6,0,99,4.146,4.133,4.14,4.139,0,0,80.51,6,GPS_Atti,
0.339517429174904,36.910276412709,5502.5713420928,103.018376,0.223694,3.9609909404,11300,2017-11-13 11:53:24,18,16.434,5502.5713420928,103.018376,0.447388,3.9609909404,245.5, 3.1, 1.6,0,0,1024,1024,1684,1024,245.6,0,99,4.146,4.133,4.14,4.139,0,0,80.51,6,GPS_Atti,
0.339517583154869,36.9102764595238,5504.2117620928,104.658796,0.223694,3.9457350344,11400,2017-11-13 11:53:24,18,16.434,5504.2117620928,104.658796,0.447388,3.9609909404,245.5, 3.6, 1,0,0,1024,1024,1684,1026,245.6,0,99,4.146,4.133,4.14,4.139,0,0,80.51,6,GPS_Atti,
0.339517742042964,36.9102765585162,5505.8521820928,106.299216,0.223694,3.9467849032,11500,2017-11-13 11:53:24,18,16.434,5505.8521820928,106.299216,0.447388,3.9609909404,245.5, 3.4, 0.6,0,0,1024,1024,1684,1024,245.6,0,99,4.146,4.133,4.14,4.139,0,0,80.51,6,GPS_Atti,
0.339517863629107,36.9102766208282,5507.4926020928,107.939636,0,3.9441274228,11600,2017-11-13 11:53:25,18,16.434,5507.4926020928,107.939636,0.447388,3.9609909404,245.5, 3, 1.1,0,0,1024,1024,1684,1024,245.6,0,99,4.146,4.133,4.14,4.139,0,0,80.51,6,GPS_Atti,
0.339517980828221,36.9102767433088,5509.4611060928,109.90814,0,3.9620736176,11700,2017-11-13 11:53:25,18,16.434,5509.4611060928,109.90814,0.447388,3.9620736176,245.5, 2.9, 1.6,0,0,1024,1024,1684,1024,245.6,0,99,4.146,4.133,4.14,4.139,0,0,80.51,6,GPS_Atti,
0.339518073483428,36.9102768012345,5511.1015260928,111.54856,0,3.964403014,11800,2017-11-13 11:53:25,18,16.434,5511.1015260928,111.54856,0.447388,3.964403014,245.5, 3.5, 2,0,0,1024,1024,1684,1033,245.6,0,99,4.146,4.133,4.14,4.139,0,0,80.51,6,GPS_Atti,
0.33951816817826,36.9102768795843,5513.0700300928,113.517064,0,3.9733597072,11900,2017-11-13 11:53:25,18,16.434,5513.0700300928,113.517064,0.447388,3.9733597072,245.5, 3.5, 1.9,0,0,1024,1024,1684,1038,245.6,0,99,4.146,4.133,4.14,4.139,0,0,80.51,6,GPS_Atti,
0.33951824907773,36.9102769054718,5514.7104500928,115.157484,0,3.9680775548,12000,2017-11-13 11:53:25,18,16.434,5514.7104500928,115.157484,0.447388,3.9733597072,245.5, 3.3, 1.2,0,0,1024,1024,1684,1036,245.6,0,99,4.146,4.133,4.14,4.139,0,0,80.51,6,GPS_Atti,
0.339518321152661,36.9102769697441,5516.3508700928,116.797904,0,3.9770014396,12100,2017-11-13 11:53:25,18,16.434,5516.3508700928,116.797904,0.447388,3.9770014396,245.4, 2.5, 1.5,0,0,1024,1024,1684,1028,245.6,0,99,4.146,4.133,4.14,4.139,0,0,80.51,6,GPS_Atti,
0.339518354757231,36.9102769721723,5518.3193740928,118.766408,0.223694,3.97227703,12200,2017-11-13 11:53:25,18,16.434,5518.3193740928,118.766408,0.447388,3.9770014396,245.4, 2.2, 1.7,0,0,1024,1024,1684,1025,245.6,0,99,4.146,4.133,4.14,4.139,0,0,80.51,6,GPS_Atti,
0.339518367529525,36.910277011602,5520.2878780928,120.734912,0.223694,3.9830381852,12300,2017-11-13 11:53:25,18,16.434,5520.2878780928,120.734912,0.447388,3.9830381852,245.4, 3.5, 2.2,0,0,1024,1024,1684,1024,245.6,0,99,4.146,4.133,4.14,4.139,0,0,80.51,6,GPS_Atti,
0.339518339434388,36.9102769859704,5521.9282980928,122.375332,0.223694,3.9792980276,12400,2017-11-13 11:53:25,18,16.434,5521.9282980928,122.375332,0.447388,3.9830381852,245.4, 4.5, 3,0,0,1024,1024,1684,1024,245.6,0,99,4.146,4.133,4.14,4.139,0,0,80.51,6,GPS_Atti,
0.339518295165952,36.9102769771474,5523.8968020928,124.343836,0.223694,3.9836943532,12500,2017-11-13 11:53:25,18,16.434,5523.8968020928,124.343836,0.447388,3.9836943532,245.5, 5.2, 3.3,0,0,1024,1024,1684,1024,245.6,0,99,4.146,4.133,4.14,4.139,0,0,80.51,6,GPS_Atti,
0.339518248594082,36.9102769156095,5525.5372220928,125.984256,0.223694,3.97145682,12600,2017-11-13 11:53:25,18,16.434,5525.5372220928,125.984256,0.447388,3.9836943532,245.5, 6.1, 3,0,0,1024,1024,1684,1024,245.6,0,99,4.146,4.133,4.14,4.139,0,0,80.51,6,GPS_Atti,
0.339518235599913,36.9102768961553,5527.1776420928,127.624676,0.223694,3.9673229616,12700,2017-11-13 11:53:26,18,16.434,5527.1776420928,127.624676,0.447388,3.9836943532,245.5, 6, 3.1,0,0,1024,1024,1684,1024,245.6,0,99,4.146,4.133,4.14,4.139,0,0,80.51,6,GPS_Atti,
0.339518221443035,36.9102768585114,5528.8180620928,129.265096,0.223694,3.95751325,12800,2017-11-13 11:53:26,18,16.434,5528.8180620928,129.265096,0.447388,3.9836943532,245.5, 5.6, 3.4,0,0,1024,1024,1684,1024,245.6,0,99,4.146,4.133,4.14,4.139,0,0,80.51,6,GPS_Atti,
0.3395182666177,36.9102768220633,5532.4269860928,132.87402,0.223694,3.9381234856,13000,2017-11-13 11:53:26,18,16.434,5532.4269860928,132.87402,0.447388,3.9836943532,245.5, 5.4, 3.4,0,0,1024,1024,1684,1024,245.6,0,99,4.146,4.133,4.14,4.139,0,0,80.51,6,GPS_Atti,
0.339518324601705,36.9102768419811,5534.0674060928,134.51444,0.223694,3.934875454,13100,2017-11-13 11:53:26,18,16.434,5534.0674060928,134.51444,0.447388,3.9836943532,245.5, 4.8, 2.9,0,0,1024,1024,1684,1024,245.6,0,99,4.146,4.133,4.14,4.139,0,0,80.51,6,GPS_Atti,
0.339518372609863,36.9102768136708,5535.7078260928,136.15486,0.223694,3.9177166608,13200,2017-11-13 11:53:26,18,16.408,5535.7078260928,136.15486,0.447388,3.9836943532,245.5, 5.1, 2.6,0,0,1024,1024,1684,1024,245.6,0,99,4.131,4.119,4.125,4.122,0,0,80.51,6,GPS_Atti,
0.339518448520594,36.9102767940378,5537.6763300928,138.123364,0.223694,3.8988518308,13300,2017-11-13 11:53:26,18,16.408,5537.6763300928,138.123364,0.447388,3.9836943532,245.4, 4.9, 2.7,0,0,1024,1024,1684,1024,245.6,0,99,4.131,4.119,4.125,4.122,0,0,80.51,6,GPS_Atti,
0.339518510942109,36.9102767330427,5539.3167500928,139.763784,0.223694,3.868766528,13400,2017-11-13 11:53:26,18,16.408,5539.3167500928,139.763784,0.447388,3.9836943532,245.4, 4.6, 2.7,0,0,1024,1024,1684,1024,245.6,0,99,4.131,4.119,4.125,4.122,0,0,80.51,6,GPS_Atti,
0.339518553767744,36.9102766985774,5540.9571700928,141.404204,0.223694,3.8505250576,13500,2017-11-13 11:53:26,18,16.408,5540.9571700928,141.404204,0.447388,3.9836943532,245.4, 5.1, 2.3,0,0,1024,1024,1684,1024,245.6,0,99,4.131,4.119,4.125,4.122,0,0,80.51,6,GPS_Atti,
0.339518576496751,36.9102766170671,5542.5975900928,143.044624,0.223694,3.820210096,13600,2017-11-13 11:53:27,18,16.408,5542.5975900928,143.044624,0.447388,3.9836943532,245.5, 5.8, 2.5,0,0,1024,1024,1684,1024,245.6,0,99,4.131,4.119,4.125,4.122,0,0,80.51,6,GPS_Atti,
0.339518592540588,36.9102765460125,5544.2380100928,144.685044,0.447388,3.7943898852,13700,2017-11-13 11:53:27,18,16.408,5544.2380100928,144.685044,0.447388,3.9836943532,245.6, 6.3, 2.4,0,0,1024,1024,1684,1024,245.6,0,99,4.131,4.119,4.125,4.122,0,0,80.51,6,GPS_Atti,
0.339518623432578,36.9102764336942,5545.8784300928,146.325464,0.447388,3.7527232172,13800,2017-11-13 11:53:27,18,16.408,5545.8784300928,146.325464,0.447388,3.9836943532,245.6, 6.6, 2,0,0,1024,1024,1684,1024,245.6,0,99,4.131,4.119,4.125,4.122,0,0,80.51,6,GPS_Atti,
0.339518685472223,36.9102763731305,5547.5188500928,147.965884,0.447388,3.7228347648,13900,2017-11-13 11:53:27,18,16.408,5547.5188500928,147.965884,0.447388,3.9836943532,245.5, 6.1, 1.4,0,0,1024,1024,1684,1024,245.6,0,99,4.131,4.119,4.125,4.122,0,0,80.51,6,GPS_Atti,
0.339518749135834,36.9102762786176,5549.1592700928,149.606304,0.447388,3.681594606,14000,2017-11-13 11:53:27,18,16.408,5549.1592700928,149.606304,0.447388,3.9836943532,245.5, 5.6, 1.2,0,0,1024,1024,1684,1024,245.6,0,99,4.131,4.119,4.125,4.122,0,0,80.51,6,GPS_Atti,
0.339518850203582,36.9102761350426,5552.7681940928,153.215228,0.223694,3.6183072024,14200,2017-11-13 11:53:27,18,16.488,5552.7681940928,153.215228,0.447388,3.9836943532,245.5, 7.4, 1.4,0,0,1024,1024,1684,1024,245.6,0,99,4.144,4.134,4.135,4.129,0,0,80.51,6,GPS_Atti,
0.339518911234406,36.9102760889751,5554.4086140928,154.855648,0.223694,3.5934056268,14300,2017-11-13 11:53:27,18,16.488,5554.4086140928,154.855648,0.447388,3.9836943532,245.5, 6.7, 2,0,0,1024,1024,1684,1024,245.6,0,99,4.144,4.134,4.135,4.129,0,0,80.51,6,GPS_Atti,
0.339519003462554,36.910275999796,5556.0490340928,156.496068,0.50107456,3.5494095624,14400,2017-11-13 11:53:27,18,16.488,5556.0490340928,156.496068,0.50107456,3.9836943532,245.5, 6.2, 0.9,0,0,1024,1024,1684,1024,245.6,0,99,4.144,4.134,4.135,4.129,0,0,80.51,6,GPS_Atti,
0.339519112459196,36.9102759078611,5558.0175380928,158.464572,0.447388,3.501968616,14500,2017-11-13 11:53:27,18,16.488,5558.0175380928,158.464572,0.50107456,3.9836943532,245.5, 6, 0.1,0,0,1024,1024,1684,1024,245.6,0,99,4.144,4.134,4.135,4.129,0,0,80.51,6,GPS_Atti,
0.339519201143441,36.9102757544686,5559.6579580928,160.104992,0.447388,3.4375329184,14600,2017-11-13 11:53:28,18,16.488,5559.6579580928,160.104992,0.50107456,3.9836943532,245.5, 6.9, -0.7,0,0,1024,1024,1684,1024,245.6,0,99,4.144,4.134,4.135,4.129,0,0,80.51,6,GPS_Atti,
0.339519232774338,36.9102754940712,5563.2668820928,163.713916,0.447388,3.3468833092,14800,2017-11-13 11:53:28,18,16.488,5563.2668820928,163.713916,0.50107456,3.9836943532,245.5, 8.1, -0.4,0,0,1024,1024,1684,1024,245.6,0,99,4.144,4.134,4.135,4.129,0,0,80.51,6,GPS_Atti,
0.339519224319049,36.9102753641199,5564.9073020928,165.354336,0.447388,3.3056759588,14900,2017-11-13 11:53:28,18,16.488,5564.9073020928,165.354336,0.50107456,3.9836943532,245.5, 8.5, 0,0,0,1024,1024,1684,1024,245.6,0,99,4.144,4.134,4.135,4.129,0,0,80.51,6,GPS_Atti,
0.339519196184422,36.9102751846857,5566.8758060928,167.32284,0.447388,3.25176191508,15000,2017-11-13 11:53:28,18,16.488,5566.8758060928,167.32284,0.50107456,3.9836943532,245.5, 9.2, 0.2,0,0,1024,1024,1684,1024,245.6,0,99,4.144,4.134,4.135,4.129,0,0,80.51,6,GPS_Atti,
0.339519145633042,36.910275066146,5568.5162260928,168.96326,0.447388,3.22179144168,15100,2017-11-13 11:53:28,18,16.488,5568.5162260928,168.96326,0.50107456,3.9836943532,245.6, 9.9, 0.8,0,0,1024,1024,1684,1024,245.6,0,99,4.144,4.134,4.135,4.129,0,0,80.51,6,GPS_Atti,
0.339519095922754,36.910274925466,5570.1566460928,170.60368,0.447388,3.18497713604,15200,2017-11-13 11:53:28,18,16.381,5570.1566460928,170.60368,0.50107456,3.9836943532,245.6, 10.3, 0.5,0,0,1024,1024,1684,1024,245.6,0,99,4.144,4.134,4.135,4.129,0,0,82.31,6,GPS_Atti,
0.339519040509247,36.910274847962,5572.1251500928,172.572184,0.447388,3.16984262112,15300,2017-11-13 11:53:28,18,16.381,5572.1251500928,172.572184,0.50107456,3.9836943532,245.5, 9.9, 0.5,0,0,1024,1024,1684,1024,245.6,0,99,4.144,4.134,4.135,4.129,0,0,82.31,6,GPS_Atti,
0.339518985285454,36.910274747521,5573.7655700928,174.212604,0.223694,3.14770023196,15400,2017-11-13 11:53:28,18,16.381,5573.7655700928,174.212604,0.50107456,3.9836943532,245.5, 9.9, 1,0,0,1024,1024,1684,1024,245.6,0,99,4.144,4.134,4.135,4.129,0,0,82.31,6,GPS_Atti,
0.339518899074001,36.9102746835432,5577.0464100928,177.493444,0.223694,3.14314970688,15600,2017-11-13 11:53:29,18,16.381,5577.0464100928,177.493444,0.50107456,3.9836943532,245.5, 9.2, 1.3,0,0,1024,1024,1684,1024,245.6,0,99,4.144,4.134,4.135,4.129,0,0,82.31,6,GPS_Atti,
0.339518870140215,36.9102746843772,5578.6868300928,179.133864,0.223694,3.14874681992,15700,2017-11-13 11:53:29,18,16.381,5578.6868300928,179.133864,0.50107456,3.9836943532,245.5, 8.9, 1,0,0,1024,1024,1684,1024,245.6,0,99,4.144,4.134,4.135,4.129,0,0,82.31,6,GPS_Atti,
0.339518847133151,36.9102746516313,5580.3272500928,180.774284,0.223694,3.14272319768,15800,2017-11-13 11:53:29,18,16.381,5580.3272500928,180.774284,0.50107456,3.9836943532,245.5, 8.9, 0.6,0,0,1024,1024,1684,1024,245.6,0,99,4.144,4.134,4.135,4.129,0,0,82.31,6,GPS_Atti,
0.339518833943162,36.9102746914904,5581.9676700928,182.414704,0,3.15768710892,15900,2017-11-13 11:53:29,18,16.381,5581.9676700928,182.414704,0.50107456,3.9836943532,245.5, 8.8, 0.5,0,0,1024,1024,1684,1024,245.6,0,99,4.144,4.134,4.135,4.129,0,0,82.31,6,GPS_Atti,
0.339518797565759,36.9102747180523,5583.6080900928,184.055124,0,3.17279209628,16000,2017-11-13 11:53:29,18,16.381,5583.6080900928,184.055124,0.50107456,3.9836943532,245.4, 8.7, 0.5,0,0,1024,1024,1684,1024,245.6,0,99,4.144,4.134,4.135,4.129,0,0,82.31,6,GPS_Atti,
0.33951869590485,36.9102748522819,5585.2485100928,185.695544,0.223694,3.23384852868,16100,2017-11-13 11:53:29,18,16.381,5585.2485100928,185.695544,0.50107456,3.9836943532,245.4, 8.5, 1.7,0,0,1024,1024,1684,1024,245.6,0,99,4.144,4.134,4.135,4.129,0,0,82.31,6,GPS_Atti,
0.339518553846723,36.9102749606293,5587.2170140928,187.664048,0.223694,3.294455486,16200,2017-11-13 11:53:29,18,16.327,5587.2170140928,187.664048,0.50107456,3.9836943532,245.5, 8.6, 3,0,0,1024,1024,1684,1024,245.6,0,99,4.135,4.127,4.132,4.124,0,0,82.31,6,GPS_Atti,
0.33951837457743,36.9102751607713,5588.8574340928,189.304468,0.223694,3.3908465652,16300,2017-11-13 11:53:29,18,16.327,5588.8574340928,189.304468,0.50107456,3.9836943532,245.5, 8.2, 3.9,0,0,1024,1024,1684,1026,245.5,0,99,4.135,4.127,4.132,4.124,0,0,82.31,6,GPS_Atti,
0.339518199938618,36.9102753227759,5590.4978540928,190.944888,0.223694,3.4746392188,16400,2017-11-13 11:53:29,18,16.327,5590.4978540928,190.944888,0.50107456,3.9836943532,245.6, 7.6, 4.6,0,0,1024,1024,1684,1024,245.5,0,99,4.135,4.127,4.132,4.124,0,0,82.31,6,GPS_Atti,
0.339518021638656,36.9102755202125,5592.1382740928,192.585308,0.223694,3.5702428964,16500,2017-11-13 11:53:29,18,16.327,5592.1382740928,192.585308,0.50107456,3.9836943532,245.6, 7.4, 5.5,0,0,1024,1024,1684,1024,245.5,0,99,4.135,4.127,4.132,4.124,0,0,82.31,6,GPS_Atti,
0.339517875139763,36.9102756382457,5593.7786940928,194.225728,0.223694,3.6352363368,16600,2017-11-13 11:53:30,18,16.327,5593.7786940928,194.225728,0.50107456,3.9836943532,245.5, 7.1, 6.3,0,0,1024,1024,1684,1024,245.5,0,99,4.135,4.127,4.132,4.124,0,0,82.31,6,GPS_Atti,
0.339517781808752,36.910275782523,5595.4191140928,195.866148,0,3.6979331892,16700,2017-11-13 11:53:30,18,16.327,5595.4191140928,195.866148,0.50107456,3.9836943532,245.6, 7.8, 5.6,0,0,1024,1024,1684,1024,245.5,0,99,4.135,4.127,4.132,4.124,0,0,82.31,6,GPS_Atti,
0.339517746845246,36.9102758233402,5597.0595340928,197.506568,0,3.717355762,16800,2017-11-13 11:53:30,18,16.327,5597.0595340928,197.506568,0.50107456,3.9836943532,245.7, 9, 3.7,0,0,1024,1024,1684,1024,245.5,0,99,4.135,4.127,4.132,4.124,0,0,82.31,6,GPS_Atti,
0.339517719519141,36.9102759195105,5598.6999540928,199.146988,0,3.752296708,16900,2017-11-13 11:53:30,18,16.327,5598.6999540928,199.146988,0.50107456,3.9836943532,245.6, 9.3, 2.5,0,0,1024,1024,1684,1024,245.5,0,99,4.135,4.127,4.132,4.124,0,0,82.31,6,GPS_Atti,
0.339517690365922,36.9102759944761,5600.3403740928,200.787408,0,3.7810696748,17000,2017-11-13 11:53:30,18,16.327,5600.3403740928,200.787408,0.50107456,3.9836943532,245.5, 9, 2.8,0,0,1024,1024,1684,1024,245.5,0,99,4.135,4.127,4.132,4.124,0,0,82.31,6,GPS_Atti,
0.339517672384644,36.9102761781413,5601.9807940928,202.427828,0,3.8413058972,17100,2017-11-13 11:53:30,18,16.327,5601.9807940928,202.427828,0.50107456,3.9836943532,245.5, 8, 3.3,0,0,1024,1024,1684,1024,245.5,0,99,4.135,4.127,4.132,4.124,0,0,82.31,6,GPS_Atti,
0.339517661408931,36.9102763248767,5603.6212140928,204.068248,0,3.888943694,17200,2017-11-13 11:53:30,18,16.488,5603.6212140928,204.068248,0.50107456,3.9836943532,245.5, 6.9, 3.5,0,0,1024,1024,1684,1024,245.5,0,99,4.144,4.135,4.143,4.141,0,0,82.31,6,GPS_Atti,
0.339517580564829,36.9102765799617,5605.5897180928,206.036752,0,3.98375997,17300,2017-11-13 11:53:30,18,16.488,5605.5897180928,206.036752,0.50107456,3.98375997,245.5, 6.3, 4.2,0,0,1024,1024,1684,1024,245.5,0,99,4.144,4.135,4.143,4.141,0,0,82.31,6,GPS_Atti,
0.339517484079522,36.9102767736254,5607.2301380928,207.677172,0,4.0624345132,17400,2017-11-13 11:53:30,18,16.488,5607.2301380928,207.677172,0.50107456,4.0624345132,245.6, 7.1, 4.4,0,0,1024,1024,1684,1024,245.5,0,99,4.144,4.135,4.143,4.141,0,0,82.31,6,GPS_Atti,
0.339517284824743,36.9102772297036,5610.5109780928,210.958012,0,4.2425198208,17600,2017-11-13 11:53:31,18,16.488,5610.5109780928,210.958012,0.50107456,4.2425198208,245.7, 6.6, 6.3,0,0,1024,1024,1684,1024,245.5,0,99,4.144,4.135,4.143,4.141,0,0,82.31,6,GPS_Atti,
0.339517213431316,36.9102774849363,5612.1513980928,212.598432,0,4.3358925272,17700,2017-11-13 11:53:31,18,16.488,5612.1513980928,212.598432,0.50107456,4.3358925272,245.7, 6.6, 5.1,0,0,1024,1024,1684,1024,245.5,0,99,4.144,4.135,4.143,4.141,0,0,82.31,6,GPS_Atti,
0.339517148982388,36.9102776514749,5614.1199020928,214.566936,0,4.4001969912,17800,2017-11-13 11:53:31,18,16.488,5614.1199020928,214.566936,0.50107456,4.4001969912,245.7, 6.2, 5,0,0,1024,1024,1684,1024,245.5,0,99,4.144,4.135,4.143,4.141,0,0,82.31,6,GPS_Atti,
0.339517076102191,36.9102779134172,5615.7603220928,216.207356,0,4.4961943696,17900,2017-11-13 11:53:31,18,16.488,5615.7603220928,216.207356,0.50107456,4.4961943696,245.7, 5.9, 5.8,0,0,1024,1024,1684,1024,245.5,0,99,4.144,4.135,4.143,4.141,0,0,82.31,6,GPS_Atti,
0.339517021361232,36.9102780739421,5617.4007420928,217.847776,0,4.556922718,18000,2017-11-13 11:53:31,18,16.488,5617.4007420928,217.847776,0.50107456,4.556922718,245.7, 6, 6.3,0,0,1024,1024,1684,1024,245.5,0,99,4.144,4.135,4.143,4.141,0,0,82.31,6,GPS_Atti,
0.339516978608063,36.9102782760027,5619.0411620928,219.488196,0,4.6286746888,18100,2017-11-13 11:53:31,18,16.488,5619.0411620928,219.488196,0.50107456,4.6286746888,245.8, 7, 6.1,0,0,1024,1024,1684,1024,245.5,0,99,4.144,4.135,4.143,4.141,0,0,82.31,6,GPS_Atti,
0.339516963264864,36.9102783728003,5620.6815820928,221.128616,0,4.6621720652,18200,2017-11-13 11:53:31,18,16.408,5620.6815820928,221.128616,0.50107456,4.6621720652,245.8, 7.3, 5.8,0,0,1024,1024,1684,1024,245.5,0,99,4.138,4.121,4.131,4.128,0,0,82.31,6,GPS_Atti,
0.339516966262015,36.9102785551519,5622.3220020928,222.769036,0,4.7196851904,18300,2017-11-13 11:53:31,18,16.408,5622.3220020928,222.769036,0.50107456,4.7196851904,245.7, 7.2, 5.3,0,0,1024,1024,1684,1024,245.5,0,99,4.138,4.121,4.131,4.128,0,0,82.31,6,GPS_Atti,
0.339516991961304,36.9102786531904,5623.9624220928,224.409456,0,4.7464896532,18400,2017-11-13 11:53:31,18,16.408,5623.9624220928,224.409456,0.50107456,4.7464896532,245.7, 7.1, 4.4,0,0,1024,1024,1684,1024,245.5,0,99,4.138,4.121,4.131,4.128,0,0,82.31,6,GPS_Atti,
0.339517019495035,36.9102788469729,5625.6028420928,226.049876,0,4.8038715448,18500,2017-11-13 11:53:31,18,16.408,5625.6028420928,226.049876,0.50107456,4.8038715448,245.7, 6.7, 4.3,0,0,1024,1024,1684,1024,245.5,0,99,4.138,4.121,4.131,4.128,0,0,82.31,6,GPS_Atti,
0.339517047070291,36.9102789616016,5627.2432620928,227.690296,0,4.8360565852,18600,2017-11-13 11:53:31,18,16.408,5627.2432620928,227.690296,0.50107456,4.8360565852,245.7, 6.7, 4.5,0,0,1024,1024,1684,1024,245.5,0,99,4.138,4.121,4.131,4.128,0,0,82.31,6,GPS_Atti,
0.339517090462624,36.9102792105991,5628.5555980928,229.002632,0,4.9093177424,18700,2017-11-13 11:53:32,18,16.408,5628.5555980928,229.002632,0.50107456,4.9093177424,245.7, 6.3, 4.9,0,0,1024,1024,1684,1024,245.5,0,99,4.138,4.121,4.131,4.128,0,0,82.31,6,GPS_Atti,
0.339517155660636,36.910279379295,5630.1960180928,230.643052,0,4.953412232,18800,2017-11-13 11:53:32,18,16.408,5630.1960180928,230.643052,0.50107456,4.953412232,245.6, 5.7, 4.8,0,0,1024,1024,1684,1024,245.5,0,99,4.138,4.121,4.131,4.128,0,0,82.31,6,GPS_Atti,
0.339517241254096,36.9102796174353,5631.8364380928,232.283472,0,5.017552654,18900,2017-11-13 11:53:32,18,16.408,5631.8364380928,232.283472,0.50107456,5.017552654,245.6, 5.4, 4.6,0,0,1024,1024,1684,1024,245.5,0,99,4.138,4.121,4.131,4.128,0,0,82.31,6,GPS_Atti,
0.339517326688781,36.9102797438098,5633.4768580928,233.923892,0,5.0456694528,19000,2017-11-13 11:53:32,18,16.408,5633.4768580928,233.923892,0.50107456,5.0456694528,245.5, 5.4, 4.5,0,0,1024,1024,1684,1024,245.5,0,99,4.138,4.121,4.131,4.128,0,0,82.31,6,GPS_Atti,
0.339517403882726,36.9102799618322,5635.1172780928,235.564312,0.223694,5.1058728668,19100,2017-11-13 11:53:32,18,16.408,5635.1172780928,235.564312,0.50107456,5.1058728668,245.5, 5.4, 4.5,0,0,1024,1024,1684,1024,245.5,0,99,4.138,4.121,4.131,4.128,0,0,82.31,6,GPS_Atti,
0.339517474077619,36.9102800655213,5637.0857820928,237.532816,0.223694,5.1297245736,19200,2017-11-13 11:53:32,18,16.354,5637.0857820928,237.532816,0.50107456,5.1297245736,245.5, 5.8, 4.6,0,0,1024,1024,1684,1024,245.5,0,99,4.138,4.121,4.131,4.128,0,0,82.31,6,GPS_Atti,
0.339517525577975,36.9102802643711,5638.3981180928,238.845152,0.223694,5.1883859928,19300,2017-11-13 11:53:32,18,16.354,5638.3981180928,238.845152,0.50107456,5.1883859928,245.5, 6, 4.6,0,0,1024,1024,1684,1024,245.5,0,99,4.138,4.121,4.131,4.128,0,0,82.31,6,GPS_Atti,
0.339517580206571,36.9102803778446,5640.0385380928,240.485572,0.223694,5.2184056788,19400,2017-11-13 11:53:32,18,16.354,5640.0385380928,240.485572,0.50107456,5.2184056788,245.6, 6.1, 4.5,0,0,1024,1024,1684,1024,245.5,0,99,4.138,4.121,4.131,4.128,0,0,82.31,6,GPS_Atti,
0.339517650090431,36.9102805524418,5641.6789580928,242.125992,0.223694,5.267060536,19500,2017-11-13 11:53:32,18,16.354,5641.6789580928,242.125992,0.50107456,5.267060536,245.6, 5.8, 4.2,0,0,1024,1024,1684,1024,245.5,0,99,4.138,4.121,4.131,4.128,0,0,82.31,6,GPS_Atti,
0.339517717159526,36.9102806322262,5643.6474620928,244.094496,0.223694,5.2845146048,19600,2017-11-13 11:53:33,18,16.354,5643.6474620928,244.094496,0.50107456,5.2845146048,245.6, 5.1, 4.1,0,0,1024,1024,1684,1024,245.5,0,99,4.138,4.121,4.131,4.128,0,0,82.31,6,GPS_Atti,
0.339517757751749,36.9102808031715,5645.2878820928,245.734916,0.223694,5.3366471524,19700,2017-11-13 11:53:33,18,16.354,5645.2878820928,245.734916,0.50107456,5.3366471524,245.5, 5.2, 4.2,0,0,1024,1024,1684,1024,245.5,0,99,4.138,4.121,4.131,4.128,0,0,82.31,6,GPS_Atti,
0.339517772648755,36.910280875831,5646.9283020928,247.375336,0.223694,5.3592193316,19800,2017-11-13 11:53:33,18,16.354,5646.9283020928,247.375336,0.50107456,5.3592193316,245.6, 6.1, 5,0,0,1024,1024,1684,1024,245.5,0,99,4.138,4.121,4.131,4.128,0,0,82.31,6,GPS_Atti,
0.339517818204476,36.9102810479903,5648.5687220928,249.015756,0.223694,5.4114831128,19900,2017-11-13 11:53:33,18,16.354,5648.5687220928,249.015756,0.50107456,5.4114831128,245.6, 5.6, 5.6,0,0,1024,1024,1684,1024,245.5,0,99,4.138,4.121,4.131,4.128,0,0,82.31,6,GPS_Atti,
0.33951788958569,36.9102811199121,5650.2091420928,250.656176,0.223694,5.4264765516,20000,2017-11-13 11:53:33,18,16.354,5650.2091420928,250.656176,0.50107456,5.4264765516,245.6, 5.5, 5,0,0,1024,1024,1684,1024,245.5,0,99,4.138,4.121,4.131,4.128,0,0,82.31,6,GPS_Atti,
0.339517979733093,36.9102812557283,5651.8495620928,252.296596,0.223694,5.4610894136,20100,2017-11-13 11:53:33,18,16.354,5651.8495620928,252.296596,0.50107456,5.4610894136,245.5, 5.3, 4.7,0,0,1024,1024,1684,1024,245.4,0,99,4.138,4.121,4.131,4.128,0,0,82.31,6,GPS_Atti,
0.339518062550869,36.9102812832443,5653.4899820928,253.937016,0.447388,5.459973928,20200,2017-11-13 11:53:33,18,16.381,5653.4899820928,253.937016,0.50107456,5.4610894136,245.5, 5.9, 4.4,0,0,1024,1024,1684,1024,245.4,0,99,4.122,4.111,4.117,4.113,0,0,82.31,6,GPS_Atti,
0.339518148192367,36.9102813891699,5654.8023180928,255.249352,0.447388,5.4855972884,20300,2017-11-13 11:53:33,18,16.381,5654.8023180928,255.249352,0.50107456,5.4855972884,245.5, 6, 4.9,0,0,1024,1024,1684,1024,245.4,0,99,4.122,4.111,4.117,4.113,0,0,82.31,6,GPS_Atti,
0.339518251872954,36.9102814024402,5656.4427380928,256.889772,0.50107456,5.4774608052,20400,2017-11-13 11:53:33,18,16.381,5656.4427380928,256.889772,0.50107456,5.4855972884,245.5, 6.4, 4.1,0,0,1024,1024,1684,1024,245.4,0,99,4.122,4.111,4.117,4.113,0,0,82.31,6,GPS_Atti,
0.339518398088498,36.9102815315544,5658.0831580928,258.530192,0.31540854,5.5045605436,20500,2017-11-13 11:53:33,18,16.381,5658.0831580928,258.530192,0.50107456,5.5045605436,245.5, 6.2, 2.9,0,0,1024,1024,1684,1024,245.4,0,99,4.122,4.111,4.117,4.113,0,0,82.31,6,GPS_Atti,
0.339518531741817,36.9102815909628,5659.7235780928,260.170612,0.31540854,5.509678654,20600,2017-11-13 11:53:34,18,16.381,5659.7235780928,260.170612,0.50107456,5.509678654,245.5, 5, 3.3,0,0,1024,1024,1684,1024,245.4,0,99,4.122,4.111,4.117,4.113,0,0,82.31,6,GPS_Atti,
0.339518681851378,36.9102817560593,5661.3639980928,261.811032,0.31540854,5.5502954532,20700,2017-11-13 11:53:34,18,16.381,5661.3639980928,261.811032,0.50107456,5.5502954532,245.5, 4.5, 3.3,0,0,1024,1024,1684,1024,245.4,0,99,4.122,4.111,4.117,4.113,0,0,82.31,6,GPS_Atti,
0.339518978983376,36.9102819293171,5664.9729220928,265.419956,0.50107456,5.5794621208,20900,2017-11-13 11:53:34,18,16.381,5664.9729220928,265.419956,0.50107456,5.5794621208,245.5, 5, 3.4,0,0,1024,1024,1684,1024,245.4,0,99,4.122,4.111,4.117,4.113,0,0,82.31,6,GPS_Atti,
0.33951913936964,36.9102819264864,5666.6133420928,267.060376,0.50107456,5.5624345612,21000,2017-11-13 11:53:34,18,16.381,5666.6133420928,267.060376,0.50107456,5.5794621208,245.5, 5.3, 2.5,0,0,1024,1024,1684,1024,245.4,0,99,4.122,4.111,4.117,4.113,0,0,82.31,6,GPS_Atti,
0.339519330447594,36.9102819900607,5667.9256780928,268.372712,0.50107456,5.5665028028,21100,2017-11-13 11:53:34,18,16.381,5667.9256780928,268.372712,0.50107456,5.5794621208,245.5, 5.3, 1.7,0,0,1024,1024,1684,1024,245.4,0,99,4.122,4.111,4.117,4.113,0,0,82.31,6,GPS_Atti,
0.339519501018554,36.9102819597558,5669.5660980928,270.013132,0.50107456,5.540190466,21200,2017-11-13 11:53:34,18,16.381,5669.5660980928,270.013132,0.50107456,5.5794621208,245.5, 5.3, 0.9,0,0,1024,1024,1684,1024,245.4,0,99,4.122,4.111,4.117,4.113,0,0,82.31,6,GPS_Atti,
0.339519647797132,36.9102820223997,5671.5346020928,271.981636,0.447388,5.5494424348,21300,2017-11-13 11:53:34,18,16.381,5671.5346020928,271.981636,0.50107456,5.5794621208,245.5, 5, 1.6,0,0,1024,1024,1684,1024,245.4,0,99,4.122,4.111,4.117,4.113,0,0,82.31,6,GPS_Atti,
0.339519753587775,36.9102820110201,5673.1750220928,273.622056,0.447388,5.5364175,21400,2017-11-13 11:53:34,18,16.381,5673.1750220928,273.622056,0.50107456,5.5794621208,245.5, 5.5, 1.7,0,0,1024,1024,1684,1024,245.4,0,99,4.122,4.111,4.117,4.113,0,0,82.31,6,GPS_Atti,
0.339519850314906,36.9102821000793,5674.8154420928,275.262476,0.447388,5.5600723564,21500,2017-11-13 11:53:34,18,16.381,5674.8154420928,275.262476,0.50107456,5.5794621208,245.6, 5.8, 1.7,0,0,1024,1024,1684,1024,245.4,0,99,4.122,4.111,4.117,4.113,0,0,82.31,6,GPS_Atti,
0.339519908581853,36.9102821116173,5676.4558620928,276.902896,0.447388,5.5594818052,21600,2017-11-13 11:53:34,18,16.381,5676.4558620928,276.902896,0.50107456,5.5794621208,245.6, 5.4, 2.5,0,0,1024,1024,1684,1024,245.4,0,99,4.122,4.111,4.117,4.113,0,0,82.31,6,GPS_Atti,
0.339519993431521,36.9102822175344,5678.0962820928,278.543316,0.447388,5.5905841684,21700,2017-11-13 11:53:35,18,16.381,5678.0962820928,278.543316,0.50107456,5.5905841684,245.5, 5.3, 2.6,0,0,1024,1024,1641,1024,245.4,0,99,4.122,4.111,4.117,4.113,0,0,82.31,6,GPS_Atti,
0.33952004877704,36.9102822273177,5679.7367020928,280.183736,0.447388,5.5898295752,21800,2017-11-13 11:53:35,18,16.381,5679.7367020928,280.183736,0.50107456,5.5905841684,245.5, 5.6, 3.2,0,0,1024,1024,1024,1024,245.4,0,99,4.122,4.111,4.117,4.113,0,0,82.31,6,GPS_Atti,
0.339520146810182,36.9102822959571,5684.0017940928,284.448828,0.447388,5.6069883684,22100,2017-11-13 11:53:35,18,16.381,5684.0017940928,284.448828,0.50107456,5.6069883684,245.7, 8.7, 4.2,0,0,1024,1024,1024,1024,245.4,0,98,4.134,4.121,4.127,4.126,0,0,82.31,6,GPS_Atti,
0.339520248346108,36.9102822742343,5686.2983820928,286.745416,0.447388,5.5918965044,22400,2017-11-13 11:53:35,18,16.381,5686.2983820928,286.745416,0.50107456,5.6069883684,245.6, 4.6, 3.4,0,0,1024,1024,1024,1024,245.4,0,98,4.134,4.121,4.127,4.126,0,0,82.31,6,GPS_Atti,
0.339520284594865,36.9102822860946,5686.6264660928,287.0735,0.447388,5.5935697328,22500,2017-11-13 11:53:36,18,16.381,5686.6264660928,287.0735,0.50107456,5.6069883684,245.8, 6.4, 3.6,0,0,1024,1024,1024,1024,245.4,0,98,4.134,4.121,4.127,4.126,0,0,82.31,6,GPS_Atti,
0.339520405707537,36.9102822787394,5686.2983820928,286.745416,0.223694,5.5825789188,22700,2017-11-13 11:53:36,18,16.381,5686.6264660928,287.0735,0.50107456,5.6069883684,245.8, 3.8, 3.5,0,0,1024,1024,1024,1024,245.4,0,98,4.134,4.121,4.127,4.126,0,0,82.31,6,GPS_Atti,
0.339520501260967,36.9102822149703,5685.9702980928,286.417332,0.223694,5.5533466344,22800,2017-11-13 11:53:36,18,16.381,5686.6264660928,287.0735,0.50107456,5.6069883684,245.8, 4, 2.2,0,0,1024,1024,1024,1024,245.4,0,98,4.134,4.121,4.127,4.126,0,0,82.31,6,GPS_Atti,
0.33952062775524,36.910282211206,5685.9702980928,286.417332,0.223694,5.5438650068,22900,2017-11-13 11:53:36,18,16.381,5686.6264660928,287.0735,0.50107456,5.6069883684,245.7, 1.6, 3,0,0,1024,1024,1024,1024,245.4,0,98,4.134,4.121,4.127,4.126,0,0,82.31,6,GPS_Atti,
0.339520718795844,36.9102821019379,5685.9702980928,286.417332,0.223694,5.4989503072,23000,2017-11-13 11:53:36,18,16.381,5686.6264660928,287.0735,0.50107456,5.6069883684,245.6, 2.3, 3.5,0,0,1024,1024,1024,1024,245.4,0,98,4.134,4.121,4.127,4.126,0,0,82.31,6,GPS_Atti,
0.339520800506278,36.9102819993044,5685.9702980928,286.417332,0.223694,5.4570867888,23100,2017-11-13 11:53:36,18,16.381,5686.6264660928,287.0735,0.50107456,5.6069883684,245.3, 1.9, 2.9,0,0,1024,1024,1024,1024,245.4,0,98,4.134,4.121,4.127,4.126,0,0,82.31,6,GPS_Atti,
0.339520844799548,36.9102817962395,5685.9702980928,286.417332,0.223694,5.3813650016,23200,2017-11-13 11:53:36,18,16.434,5686.6264660928,287.0735,0.50107456,5.6069883684,245.3, 4.3, 3.2,0,0,1024,1024,1024,1024,245.4,0,98,4.134,4.121,4.127,4.126,0,0,82.31,6,GPS_Atti,
0.339520906221606,36.9102816275212,5685.9702980928,286.417332,0.447388,5.3169949208,23300,2017-11-13 11:53:36,18,16.434,5686.6264660928,287.0735,0.50107456,5.6069883684,245.5, 4.6, 3.7,0,0,1024,1024,1024,1024,245.4,0,98,4.134,4.121,4.127,4.126,0,0,82.31,6,GPS_Atti,
0.339520969794431,36.9102814069828,5685.9702980928,286.417332,0.447388,5.2338584352,23400,2017-11-13 11:53:36,18,16.434,5686.6264660928,287.0735,0.50107456,5.6069883684,245.4, 5, 3.6,0,0,1024,1024,1024,1024,245.4,0,98,4.134,4.121,4.127,4.126,0,0,82.31,6,GPS_Atti,
0.339521084074559,36.910281295946,5685.9702980928,286.417332,0.223694,5.1873689324,23500,2017-11-13 11:53:36,18,16.434,5686.6264660928,287.0735,0.50107456,5.6069883684,245.4, 4.1, 3.2,0,0,1024,1024,1024,1024,245.4,0,98,4.134,4.121,4.127,4.126,0,0,82.31,6,GPS_Atti,
0.33952117084172,36.9102811387967,5685.9702980928,286.417332,0.223694,5.1259516076,23600,2017-11-13 11:53:37,18,16.434,5686.6264660928,287.0735,0.50107456,5.6069883684,245.3, 3.6, 3.9,0,0,1024,1024,1024,1024,245.4,0,98,4.134,4.121,4.127,4.126,0,0,82.31,6,GPS_Atti,
0.339521250344798,36.910281068393,5685.9702980928,286.417332,0.447388,5.0963584308,23700,2017-11-13 11:53:37,18,16.434,5686.6264660928,287.0735,0.50107456,5.6069883684,245.3, 3.3, 4.6,0,0,1024,1024,1024,1024,245.4,0,98,4.134,4.121,4.127,4.126,0,0,82.31,6,GPS_Atti,
0.339521331583391,36.9102809106089,5685.9702980928,286.417332,0.447388,5.0351707648,23800,2017-11-13 11:53:37,18,16.434,5686.6264660928,287.0735,0.50107456,5.6069883684,245.3, 4, 4.2,0,0,1024,1024,1024,1024,245.4,0,98,4.134,4.121,4.127,4.126,0,0,82.31,6,GPS_Atti,
0.339521423520047,36.9102808109752,5685.9702980928,286.417332,0.447388,4.9946195824,23900,2017-11-13 11:53:37,18,16.434,5686.6264660928,287.0735,0.50107456,5.6069883684,245.2, 4.7, 3.5,0,0,1024,1024,1024,1024,245.4,0,98,4.134,4.121,4.127,4.126,0,0,82.31,6,GPS_Atti,
0.339521514588742,36.9102806372902,5685.9702980928,286.417332,0.447388,4.9274607876,24000,2017-11-13 11:53:37,18,16.434,5686.6264660928,287.0735,0.50107456,5.6069883684,245.3, 4.2, 3.2,0,0,1024,1024,1024,1024,245.4,0,98,4.134,4.121,4.127,4.126,0,0,82.31,6,GPS_Atti,
0.339521605502734,36.9102805402881,5685.9702980928,286.417332,0.447388,4.8882219412,24100,2017-11-13 11:53:37,18,16.434,5686.6264660928,287.0735,0.50107456,5.6069883684,245.5, 4.5, 2.3,0,0,1024,1024,1024,1024,245.4,0,98,4.134,4.121,4.127,4.126,0,0,82.31,6,GPS_Atti,
0.33952169855691,36.9102803587952,5685.9702980928,286.417332,0.447388,4.818405666,24200,2017-11-13 11:53:37,18,16.515,5686.6264660928,287.0735,0.50107456,5.6069883684,245.6, 4.7, 1.5,0,0,1024,1024,1024,1024,245.4,0,98,4.187,4.173,4.184,4.202,0,0,82.31,6,GPS_Atti,
0.339521801737157,36.9102803242935,5685.6422140928,286.089248,0.447388,4.8016405736,24300,2017-11-13 11:53:37,18,16.515,5686.6264660928,287.0735,0.50107456,5.6069883684,245.7, 4.4, 1.1,0,0,1024,1024,1024,1022,245.4,0,98,4.187,4.173,4.184,4.202,0,0,82.31,6,GPS_Atti,
0.339521901311622,36.9102802206,5685.6422140928,286.089248,0.447388,4.760170756,24400,2017-11-13 11:53:37,18,16.515,5686.6264660928,287.0735,0.50107456,5.6069883684,245.8, 4.4, 1,0,0,1024,1024,1024,970,245.4,0,98,4.187,4.173,4.184,4.202,0,0,82.31,6,GPS_Atti,
