latitude,longitude,altitude(feet),ascent(feet),speed(mph),distance(feet),time(millisecond),datetime(utc),satellites,gpslevel,voltage(v),max_altitude(feet),max_ascent(feet),max_speed(mph),max_distance(feet), xSpeed(mph), ySpeed(mph), zSpeed(mph), compass_heading(degrees), pitch(degrees), roll(degrees),isPhoto,isVideo,rc_elevator,rc_aileron,rc_throttle,rc_rudder,gimbal_heading(degrees),gimbal_pitch(degrees),battery_percent,voltageCell1,voltageCell2,voltageCell3,voltageCell4,voltageCell5,voltageCell6,current(A),battery_temperature(f),flycStateRaw,flycState,message
0.350453079881089,36.8961519396905,5792.113561988,0,0,0,100,2018-04-05 06:03:18,20,0,0,5792.113561988,0,0,0,0,0,0,221.7, -1.6, -3.7,0,0,364,364,364,1684,226.2,0,99,4.291,4.291,4.295,4.292,0,0,0,80.51,41,Motors_Started,
0.350453079403548,36.8961519368224,5792.113561988,0,0,0.00106082024392,200,2018-04-05 06:03:18,20,0,0,5792.113561988,0,0,0.00106082024392,0,0,0,221.8, -1.6, -3.6,0,0,364,364,364,1684,226.2,0,99,4.291,4.291,4.295,4.292,0,0,0,80.51,41,Motors_Started,
0.350453078810794,36.8961519296601,5792.113561988,0,0,0.0036803150784,300,2018-04-05 06:03:18,20,0,0,5792.113561988,0,0,0.0036803150784,0,0,0,221.7, -1.6, -3.6,0,0,364,364,364,1684,226.1,0,99,4.291,4.291,4.295,4.292,0,0,0,80.51,41,Motors_Started,
0.350453077341531,36.8961519262759,5792.113561988,0,0,0.00498113533,400,2018-04-05 06:03:18,20,0,0,5792.113561988,0,0,0.00498113533,0,0,0,221.7, -1.7, -3.7,0,0,364,364,364,1684,226.2,0,99,4.291,4.291,4.295,4.292,0,0,0,80.51,41,Motors_Started,
0.350453076967396,36.8961519418975,5792.113561988,0,0,0.0013335958432,500,2018-04-05 06:03:19,19,0,0,5792.113561988,0,0,0.00498113533,0,0,0,221.7, -1.6, -3.7,0,0,364,364,364,1684,226.1,0,99,4.291,4.291,4.295,4.292,0,0,0,80.51,41,Motors_Started,
0.350453074516994,36.8961519687058,5792.113561988,0,0,0.010765420292,600,2018-04-05 06:03:19,19,0,0,5792.113561988,0,0,0.010765420292,0,0,0,221.7, -1.7, -3.7,0,0,364,364,364,1684,226.2,0,99,4.291,4.291,4.295,4.292,0,0,0,80.51,41,Motors_Started,
0.35045307413431,36.89615199511,5792.113561988,0,0,0.0203277893644,700,2018-04-05 06:03:19,19,0,0,5792.113561988,0,0,0.0203277893644,0,0,0,221.7, -1.6, -3.7,0,0,364,364,364,1684,226.1,0,99,4.291,4.291,4.295,4.292,0,0,0,80.51,41,Motors_Started,
0.35045307142865,36.8961520123996,5792.113561988,0,0,0.0267060047916,800,2018-04-05 06:03:19,19,0,17.134,5792.113561988,0,0,0.0267060047916,0,0,0,221.7, -1.7, -3.7,0,0,364,364,364,1684,226.1,0,99,4.291,4.291,4.295,4.292,0,0,1.504,80.51,41,Motors_Started,Setting new Return-To-Home altitude to 45m (148 ft). Setting new Maximum Flight Altitude to 150m (492 ft)
0.350453070394181,36.8961520257852,5792.113561988,0,0,0.0316011493052,900,2018-04-05 06:03:19,20,0,17.134,5792.113561988,0,0,0.0316011493052,0,0,0,221.7, -1.7, -3.7,0,0,364,364,364,1684,226.2,0,99,4.291,4.291,4.295,4.292,0,0,1.504,80.51,41,Motors_Started,
0.350453067738596,36.8961520348511,5792.113561988,0,0,0.03500000112,1000,2018-04-05 06:03:19,20,0,17.134,5792.113561988,0,0,0.03500000112,0,0,0,221.7, -1.8, -3.7,0,0,364,364,364,1684,226.2,0,99,4.291,4.291,4.295,4.292,0,0,1.504,80.51,41,Motors_Started,
0.350453089105817,36.8961520388787,5792.113561988,0,0,0.036344161268,1100,2018-04-05 06:03:19,20,0,17.134,5792.113561988,0,0,0.036344161268,0,0,0,221.7, -1.8, -3.7,0,0,364,364,364,1684,226.1,0,99,4.291,4.291,4.295,4.292,0,0,1.504,80.51,41,Motors_Started,
0.350453120933348,36.8961520416617,5792.113561988,0,0,0.040105316244,1200,2018-04-05 06:03:19,20,0,17.134,5792.113561988,0,0,0.040105316244,0,0,0,221.7, -1.7, -3.7,0,0,364,364,364,1684,226.1,0,99,4.291,4.291,4.295,4.292,0,0,1.504,80.51,41,Motors_Started,
0.3504531294896,36.8961520395815,5792.113561988,0,0,0.040691602352,1300,2018-04-05 06:03:19,20,0,17.134,5792.113561988,0,0,0.040691602352,0,0,0,221.7, -1.8, -3.7,0,0,364,364,364,1684,226.1,0,99,4.291,4.291,4.295,4.292,0,0,1.504,80.51,41,Motors_Started,
0.350453120498553,36.8961520388337,5792.113561988,0,0,0.03908956818,1400,2018-04-05 06:03:19,20,0,17.134,5792.113561988,0,0,0.040691602352,0,0,0,221.7, -1.8, -3.7,0,0,364,364,364,1684,226.1,0,99,4.291,4.291,4.295,4.292,0,0,1.504,80.51,41,Motors_Started,
0.350453104432732,36.8961520327757,5792.113561988,0,0,0.03512303262,1500,2018-04-05 06:03:20,19,0,17.134,5792.113561988,0,0,0.040691602352,0,0,0,221.7, -1.9, -3.8,0,0,364,364,364,1684,226.1,0,99,4.291,4.291,4.295,4.292,0,0,1.504,80.51,41,Motors_Started,
0.350453100207327,36.8961520307518,5792.113561988,0,0,0.034040683504,1600,2018-04-05 06:03:20,19,0,17.134,5792.113561988,0,0,0.040691602352,0,0,0,221.8, -1.7, -3.6,0,0,364,364,364,1684,226.2,0,99,4.291,4.291,4.295,4.292,0,0,1.504,80.51,10,Assisted_Takeoff,
0.350453095726256,36.896152025152,5792.113561988,0,0,0.0317114183376,1700,2018-04-05 06:03:20,19,0,17.134,5792.113561988,0,0,0.040691602352,0,0,0,221.8, -1.7, -3.7,0,0,364,364,364,1684,226.2,0,99,4.291,4.291,4.295,4.292,0,0,1.504,80.51,10,Assisted_Takeoff,
0.350453093205018,36.8961520212315,5792.113561988,0,0,0.0301441610696,1800,2018-04-05 06:03:20,19,0,17.16,5792.113561988,0,0,0.040691602352,0,0,0,221.7, -1.6, -3.6,0,0,364,364,364,1684,226.1,0,99,4.291,4.292,4.295,4.292,0,0,1.506,80.51,10,Assisted_Takeoff,
0.350453089861822,36.8961520375875,5792.113561988,0,0,0.03590223212,1900,2018-04-05 06:03:20,19,0,17.16,5792.113561988,0,0,0.040691602352,0,0,0,221.8, -1.7, -3.7,0,0,364,364,364,1684,226.2,0,99,4.291,4.292,4.295,4.292,0,0,1.506,80.51,10,Assisted_Takeoff,
0.350453089059406,36.896152063762,5792.113561988,0,0,0.0453904214,2000,2018-04-05 06:03:20,19,0,17.16,5792.113561988,0,0,0.0453904214,0,0,0,221.7, -1.6, -3.6,0,0,364,364,364,1684,226.1,0,99,4.291,4.292,4.295,4.292,0,0,1.506,80.51,10,Assisted_Takeoff,
0.350453108364203,36.8961520895468,5792.113561988,0,0,0.05565288892,2100,2018-04-05 06:03:20,19,0,17.16,5792.113561988,0,0,0.05565288892,0,0,0,221.7, -1.7, -3.7,0,0,364,377,364,1677,226.1,0,99,4.291,4.292,4.295,4.292,0,0,1.506,80.51,10,Assisted_Takeoff,
0.350453139572111,36.8961521059575,5792.113561988,0,0,0.0644521018,2200,2018-04-05 06:03:20,19,0,17.16,5792.113561988,0,0,0.0644521018,0,0,0,221.7, -1.7, -3.6,0,0,364,377,364,1677,226.1,0,99,4.291,4.292,4.295,4.292,0,0,1.506,80.51,10,Assisted_Takeoff,
0.350453146354173,36.8961521185873,5792.113561988,0,0,0.06962926732,2300,2018-04-05 06:03:20,19,0,17.16,5792.113561988,0,0,0.06962926732,0,0,0,221.7, -1.7, -3.7,0,0,610,616,849,1261,225.2,0,99,4.291,4.292,4.295,4.292,0,0,1.506,80.51,10,Assisted_Takeoff,
0.350453137377375,36.8961521268721,5792.113561988,0,0,0.071440947168,2400,2018-04-05 06:03:20,19,0,17.16,5792.113561988,0,0,0.071440947168,0,0,0,221.7, -1.7, -3.6,0,0,1024,1024,1024,1024,223.8,0,99,4.291,4.292,4.295,4.292,0,0,1.506,80.51,10,Assisted_Takeoff,
0.350453144082086,36.8961521300689,5792.113561988,0,0,0.073301511532,2500,2018-04-05 06:03:21,19,0,17.16,5792.113561988,0,0,0.073301511532,0,0,0,221.7, -1.7, -3.6,0,0,1024,1024,1024,1024,223.1,0,99,4.291,4.292,4.295,4.292,0,0,1.506,80.51,10,Assisted_Takeoff,
0.350453167619209,36.8961521323343,5792.113561988,0,0,0.077231301684,2600,2018-04-05 06:03:21,19,0,17.16,5792.113561988,0,0,0.077231301684,0,0,0,221.7, -1.7, -3.6,0,0,1024,1024,1024,1024,223.1,0,99,4.291,4.292,4.295,4.292,0,0,1.506,80.51,10,Assisted_Takeoff,
0.350453187312796,36.896152130525,5792.113561988,0,0,0.079899608856,2700,2018-04-05 06:03:21,19,0,17.16,5792.113561988,0,0,0.079899608856,0,0,0,221.7, -1.7, -3.6,0,0,1024,1024,1024,1024,222.8,0,99,4.291,4.292,4.295,4.292,0,0,1.506,80.51,10,Assisted_Takeoff,
0.35045320215647,36.8961521295149,5792.113561988,0,0,0.082380908148,2800,2018-04-05 06:03:21,19,0,17.08,5792.113561988,0,0,0.082380908148,0,0,0,221.7, -1.7, -3.7,0,0,1024,1024,1024,1024,222.5,0,99,4.295,4.287,4.287,4.279,0,0,3.31,80.51,10,Assisted_Takeoff,
0.350453211277385,36.896152124922,5792.113561988,0,0,0.082857286116,2900,2018-04-05 06:03:21,19,0,17.08,5792.113561988,0,0,0.082857286116,0,0,0,221.7, -1.7, -3.6,0,0,1024,1024,1024,1024,222.4,0,99,4.295,4.287,4.287,4.279,0,0,3.31,80.51,10,Assisted_Takeoff,
0.350453217945863,36.8961521227209,5792.113561988,0,0,0.083646000052,3000,2018-04-05 06:03:21,19,0,17.08,5792.113561988,0,0,0.083646000052,0,0,0,221.7, -1.7, -3.6,0,0,1024,1024,1024,1024,222.3,0,99,4.295,4.287,4.287,4.279,0,0,3.31,80.51,10,Assisted_Takeoff,
0.350453219684635,36.8961521375401,5792.113561988,0,0,0.088387141936,3100,2018-04-05 06:03:21,19,0,17.08,5792.113561988,0,0,0.088387141936,0,0,0,221.7, -1.7, -3.6,0,0,1024,1024,1024,1024,222.2,0,99,4.295,4.287,4.287,4.279,0,0,3.31,80.51,10,Assisted_Takeoff,
0.350453220951971,36.8961521653162,5792.113561988,0,0,0.097084320692,3200,2018-04-05 06:03:21,19,0,17.08,5792.113561988,0,0,0.097084320692,0,0,0,221.7, -1.7, -3.6,0,0,1024,1024,1024,1024,222.2,0,99,4.295,4.287,4.287,4.279,0,0,3.31,80.51,10,Assisted_Takeoff,
0.350453218371294,36.8961521938551,5792.113561988,0,0,0.105602693668,3300,2018-04-05 06:03:21,19,0,17.08,5792.113561988,0,0,0.105602693668,0,0,0,221.7, -1.7, -3.6,0,0,1024,1024,1024,1024,222.1,0,99,4.295,4.287,4.287,4.279,0,0,3.31,80.51,10,Assisted_Takeoff,
0.350453217349446,36.8961522110933,5792.113561988,0,0,0.110997050796,3400,2018-04-05 06:03:22,19,0,17.08,5792.113561988,0,0,0.110997050796,0,0,0,221.7, -1.7, -3.6,0,0,1024,1024,1024,1024,222.1,0,99,4.295,4.287,4.287,4.279,0,0,3.31,80.51,10,Assisted_Takeoff,
0.350453213860097,36.896152225154,5792.113561988,0,0,0.115050200532,3500,2018-04-05 06:03:22,19,0,17.08,5792.113561988,0,0,0.115050200532,0,0,0,221.7, -1.7, -3.6,0,0,1024,1024,1024,1024,222.1,0,99,4.295,4.287,4.287,4.279,0,0,3.31,80.51,10,Assisted_Takeoff,
0.350453211489083,36.896152234321,5792.113561988,0,0,0.117730974896,3600,2018-04-05 06:03:22,19,0,17.08,5792.113561988,0,0,0.117730974896,0,0,0,221.7, -1.7, -3.6,0,0,1024,1024,1024,1024,222,0,99,4.295,4.287,4.287,4.279,0,0,3.31,80.51,10,Assisted_Takeoff,
0.35045320678573,36.8961522386216,5792.113561988,0,0,0.11848425576,3700,2018-04-05 06:03:22,19,0,17.08,5792.113561988,0,0,0.11848425576,0,0,0,221.7, -1.7, -3.6,0,0,1024,1024,1024,1024,222,0,99,4.295,4.287,4.287,4.279,0,0,3.31,80.51,10,Assisted_Takeoff,
0.350453204818976,36.8961522422311,5792.113561988,0,0,0.119421591748,3800,2018-04-05 06:03:22,19,0,17.134,5792.113561988,0,0,0.119421591748,0,0,0,221.7, -1.7, -3.6,0,0,1024,1024,1024,1024,222,0,99,4.284,4.284,4.287,4.284,0,0,2.33,80.51,10,Assisted_Takeoff,
0.350453201335735,36.8961522619761,5792.113561988,0,0,0.125656172,3900,2018-04-05 06:03:22,19,0,17.134,5792.113561988,0,0,0.125656172,0,0,0,221.7, -1.7, -3.6,0,0,1024,1024,1024,1024,222,0,99,4.284,4.284,4.287,4.284,0,0,2.33,80.51,10,Assisted_Takeoff,
0.350453200383095,36.8961522913924,5792.113561988,0,0,0.135638783868,4000,2018-04-05 06:03:22,19,0,17.134,5792.113561988,0,0,0.135638783868,0,0,0,221.7, -1.7, -3.6,0,0,1024,1024,1024,1024,222,0,99,4.284,4.284,4.287,4.284,0,0,2.33,80.51,10,Assisted_Takeoff,
0.35045319814887,36.8961523167982,5792.113561988,0,0,0.144192589916,4100,2018-04-05 06:03:22,20,0,17.134,5792.113561988,0,0,0.144192589916,0,0,0,221.7, -1.7, -3.6,0,0,1024,1024,1049,1024,222,0,99,4.284,4.284,4.287,4.284,0,0,2.33,80.51,10,Assisted_Takeoff,
0.350453198809611,36.8961523327662,5792.113561988,0,0,0.149831369624,4200,2018-04-05 06:03:22,20,0,17.134,5792.113561988,0,0,0.149831369624,0,0,0,221.7, -1.7, -3.6,0,0,1024,1024,1123,1024,222,0,99,4.284,4.284,4.287,4.284,0,0,2.33,80.51,10,Assisted_Takeoff,
0.350453198411049,36.8961523424695,5792.113561988,0,0,0.153182091516,4300,2018-04-05 06:03:22,19,0,17.134,5792.113561988,0,0,0.153182091516,0,0,0,221.7, -1.7, -3.6,0,0,1024,1024,1181,1024,221.9,0,99,4.284,4.284,4.287,4.284,0,0,2.33,80.51,10,Assisted_Takeoff,
0.350453199354325,36.8961523490842,5792.113561988,0,0,0.155594821252,4400,2018-04-05 06:03:22,19,0,17.134,5792.113561988,0,0,0.155594821252,0,0,0,221.7, -1.7, -3.6,0,0,1024,1024,1220,1024,221.9,0,99,4.284,4.284,4.287,4.284,0,0,2.33,80.51,10,Assisted_Takeoff,
0.35045319969752,36.8961523488706,5792.113561988,0,0,0.155555123088,4500,2018-04-05 06:03:23,19,0,17.134,5792.113561988,0,0,0.155594821252,0,0,0,221.7, -1.8, -3.7,0,0,1024,1024,1279,1024,221.9,0,99,4.284,4.284,4.287,4.284,0,0,2.33,80.51,10,Assisted_Takeoff,
0.350453199470352,36.8961523487042,5792.113561988,0,0,0.155473430172,4600,2018-04-05 06:03:23,19,0,17.134,5792.113561988,0,0,0.155594821252,0,0,0,221.7, -1.8, -3.7,0,0,1024,1024,1328,1024,221.9,0,99,4.284,4.284,4.287,4.284,0,0,2.33,80.51,10,Assisted_Takeoff,
0.350453197738095,36.8961523421382,5792.113561988,0,0,0.15299705214,4700,2018-04-05 06:03:23,19,0,17.134,5792.113561988,0,0,0.155594821252,0,0,0,221.5, -1.9, -3.7,0,0,1024,1024,1346,1024,221.9,0,99,4.284,4.284,4.287,4.284,0,0,2.33,80.51,10,Assisted_Takeoff,
0.350453181363276,36.8961523365652,5792.113561988,0,0,0.149455713444,4800,2018-04-05 06:03:23,19,0,17.134,5792.113561988,0,0,0.155594821252,0,0,0,221.5, -1, -2.7,0,0,1024,1024,1358,1024,221.9,0,99,4.284,4.284,4.287,4.284,0,0,2.33,80.51,10,Assisted_Takeoff,
0.350453109696677,36.8961523462407,5792.113561988,0,0,0.148725070376,4900,2018-04-05 06:03:23,19,0,17.134,5792.113561988,0,0,0.155594821252,0,0,-0.223694,221.4, 0, -1.2,0,0,1024,1024,1389,1024,221.9,0,99,4.284,4.284,4.287,4.284,0,0,2.33,80.51,10,Assisted_Takeoff,
0.350453012543708,36.8961523729361,5792.113561988,0,0,0.159964243964,5000,2018-04-05 06:03:23,19,0,17.134,5792.113561988,0,0,0.159964243964,0,0,-0.671082,221.5, 0.2, -0.3,0,0,1024,1024,1402,1024,221.9,0,99,4.284,4.284,4.287,4.284,0,0,2.33,80.51,6,P-GPS,Obstacle Avoided. Revise Flight Route
0.350452874665391,36.8961524215321,5792.113561988,0,0.223694,0.191076777768,5100,2018-04-05 06:03:23,19,0,17.134,5792.113561988,0,0.223694,0.191076777768,-0.223694,0,-1.11847,221.5, 0.6, 0.3,0,0,1024,1024,1429,1024,221.9,0,99,4.284,4.284,4.287,4.284,0,0,2.33,80.51,6,P-GPS,
0.350452727926709,36.8961524747311,5792.441645988,0.328084,0.223694,0.233654535036,5200,2018-04-05 06:03:23,19,0,17.134,5792.441645988,0.328084,0.223694,0.233654535036,-0.223694,0,-2.013246,221.5, 0.7, 0.8,0,0,1024,1024,1460,1024,221.9,0,99,4.284,4.284,4.287,4.284,0,0,2.33,80.51,6,P-GPS,
0.35045259099696,36.8961525216008,5792.769729988,0.656168,0.223694,0.277289050868,5300,2018-04-05 06:03:23,20,0,17.134,5792.769729988,0.656168,0.223694,0.277289050868,-0.223694,0,-2.684328,221.5, 0.7, 0.6,0,0,1024,1024,1474,1024,221.9,0,99,4.284,4.284,4.287,4.284,0,0,2.33,80.51,6,P-GPS,
0.350452477428462,36.8961525525341,5793.097813988,0.984252,0.223694,0.313539708196,5400,2018-04-05 06:03:23,20,0,17.134,5793.097813988,0.984252,0.223694,0.313539708196,0,0,-3.35541,221.5, 1.2, 0.4,0,0,1024,1024,1508,1024,221.9,0,99,4.284,4.284,4.287,4.284,0,0,2.33,80.51,6,P-GPS,
0.350452361768227,36.8961525703173,5793.753981988,1.64042,0,0.3486876752,5500,2018-04-05 06:03:24,20,0,17.134,5793.753981988,1.64042,0.223694,0.3486876752,0,0,-4.250186,221.6, 1.1, 0.6,0,0,1024,1024,1539,1024,221.9,0,99,4.284,4.284,4.287,4.284,0,0,2.33,80.51,6,P-GPS,
0.350452267745942,36.8961525716041,5794.410149988,2.296588,0,0.37543308288,5600,2018-04-05 06:03:24,20,0,17.134,5794.410149988,2.296588,0.223694,0.37543308288,0,0,-4.921268,221.6, 0.7, 0.6,0,0,1024,1024,1558,1024,221.9,0,99,4.284,4.284,4.287,4.284,0,0,2.33,80.51,6,P-GPS,
0.350452183610347,36.8961525506027,5795.066317988,2.952756,0,0.39574148248,5700,2018-04-05 06:03:24,20,0,17.134,5795.066317988,2.952756,0.223694,0.39574148248,0,0,-5.816044,221.7, 0.7, 0.3,0,0,1024,1024,1599,1024,221.8,0,99,4.284,4.284,4.287,4.284,0,0,2.33,80.51,6,P-GPS,
0.350452118467295,36.8961525263264,5796.050569988,3.937008,0,0.41091208664,5800,2018-04-05 06:03:24,20,0,17.134,5796.050569988,3.937008,0.223694,0.41091208664,0,0,-6.71082,221.7, 0.8, 0.1,0,0,1024,1024,1627,1024,221.8,0,99,4.286,4.286,4.29,4.287,0,0,1.99,82.31,6,P-GPS,Home Point Recorded. RTH Altitude:  45m.
0.350452062070208,36.8961524987248,5797.034821988,4.92126,0,0.4236712734,5900,2018-04-05 06:03:24,20,0,17.134,5797.034821988,4.92126,0.223694,0.4236712734,0,0,-7.605596,221.7, 0.8, 0,0,0,1024,1024,1668,1024,221.9,0,99,4.286,4.286,4.29,4.287,0,0,1.99,82.31,6,P-GPS,
0.350452020515981,36.8961524782116,5798.347157988,6.233596,0,0.4335794102,6000,2018-04-05 06:03:24,20,0,17.134,5798.347157988,6.233596,0.223694,0.4335794102,0,0,-8.500372,221.7, 0.6, -0.3,0,0,1024,1024,1668,1024,221.9,0,99,4.286,4.286,4.29,4.287,0,0,1.99,82.31,6,P-GPS,
0.350451973939226,36.8961524657552,5799.659493988,7.545932,0,0.44682416128,6100,2018-04-05 06:03:24,20,0,17.134,5799.659493988,7.545932,0.223694,0.44682416128,0,0,-9.395148,221.6, 0.6, -0.2,0,0,1024,1024,1684,1024,221.9,0,99,4.286,4.286,4.29,4.287,0,0,1.99,82.31,6,P-GPS,
0.350451919055371,36.896152462726,5800.971829988,8.858268,0,0.46453085476,6200,2018-04-05 06:03:24,20,0,17.134,5800.971829988,8.858268,0.223694,0.46453085476,0,0,-10.06623,221.6, 0.5, -0.2,0,0,1024,1024,1684,1024,221.9,0,99,4.286,4.286,4.29,4.287,0,0,1.99,82.31,6,P-GPS,
0.350451854597893,36.8961524674104,5802.612249988,10.498688,0,0.48674214156,6300,2018-04-05 06:03:24,20,0,17.134,5802.612249988,10.498688,0.223694,0.48674214156,0,0,-10.513618,221.5, 0.4, 0.2,0,0,1024,1024,1684,1024,221.9,0,99,4.286,4.286,4.29,4.287,0,0,1.99,82.31,6,P-GPS,
0.350451784910668,36.8961524643891,5804.252669988,12.139108,0,0.5097769192,6400,2018-04-05 06:03:24,20,0,17.134,5804.252669988,12.139108,0.223694,0.5097769192,0,0,-10.961006,221.5, 0.7, 0.4,0,0,1024,1024,1684,1024,221.9,0,99,4.286,4.286,4.29,4.287,0,0,1.99,82.31,6,P-GPS,
0.35045172409032,36.8961524521164,5805.893089988,13.779528,0,0.52880907204,6500,2018-04-05 06:03:25,20,0,17.134,5805.893089988,13.779528,0.223694,0.52880907204,0,0,-10.961006,221.5, 0.7, 0.3,0,0,1024,1024,1684,1024,221.9,0,99,4.286,4.286,4.29,4.287,0,0,1.99,82.31,6,P-GPS,
0.350451670247855,36.8961524285156,5807.533509988,15.419948,0,0.54434713028,6600,2018-04-05 06:03:25,20,0,17.134,5807.533509988,15.419948,0.223694,0.54434713028,0,0,-11.1847,221.5, 1.2, -0.2,0,0,1024,1024,1684,1024,221.9,0,99,4.286,4.286,4.29,4.287,0,0,1.99,82.31,6,P-GPS,
0.350451624258968,36.8961523979286,5809.173929988,17.060368,0,0.5567749522,6700,2018-04-05 06:03:25,20,0,17.134,5809.173929988,17.060368,0.223694,0.5567749522,0,0,-11.1847,221.5, 1.5, -0.5,0,0,1024,1024,1684,1024,221.8,0,99,4.286,4.286,4.29,4.287,0,0,1.99,82.31,6,P-GPS,
0.350451580407821,36.8961523851018,5810.814349988,18.700788,0,0.57070867968,6800,2018-04-05 06:03:25,20,0,16.464,5810.814349988,18.700788,0.223694,0.57070867968,0,0,-10.961006,221.5, 1.1, 0,0,0,1024,1024,1684,1024,221.8,0,99,4.173,4.174,4.179,4.167,0,0,14.156,80.51,6,P-GPS,
0.350451518036788,36.8961523920623,5812.454769988,20.341208,0,0.593257893,6900,2018-04-05 06:03:25,20,0,16.464,5812.454769988,20.341208,0.223694,0.593257893,0,0,-10.961006,221.4, 0.5, 0.5,0,0,1024,1024,1684,1024,221.8,0,99,4.173,4.174,4.179,4.167,0,0,14.156,80.51,6,P-GPS,
0.350451442357703,36.8961523967675,5813.767105988,21.653544,0,0.62028545292,7000,2018-04-05 06:03:25,20,0,16.464,5813.767105988,21.653544,0.223694,0.62028545292,0,0,-10.737312,221.4, 0.7, 0.5,0,0,1024,1024,1684,1024,221.8,0,99,4.173,4.174,4.179,4.167,0,0,14.156,80.51,6,P-GPS,
0.350451368038775,36.8961523841452,5815.407525988,23.293964,0,0.64527233036,7100,2018-04-05 06:03:25,20,0,16.464,5815.407525988,23.293964,0.223694,0.64527233036,0,0,-10.737312,221.5, 1, 0,0,0,1024,1024,1684,1024,221.8,0,99,4.173,4.174,4.179,4.167,0,0,14.156,80.51,6,P-GPS,
0.350451301266872,36.8961523685718,5817.047945988,24.934384,0,0.66752626808,7200,2018-04-05 06:03:25,20,0,16.464,5817.047945988,24.934384,0.223694,0.66752626808,0,0,-10.737312,221.5, 1.1, -0.2,0,0,1024,1024,1684,1024,221.8,0,99,4.173,4.174,4.179,4.167,0,0,14.156,80.51,6,P-GPS,
0.350451221067226,36.8961523468772,5818.688365988,26.574804,0,0.69426839492,7300,2018-04-05 06:03:25,20,0,16.464,5818.688365988,26.574804,0.223694,0.69426839492,0,0,-10.737312,221.5, 1.1, 0,0,0,1024,1024,1684,1024,221.8,0,99,4.173,4.174,4.179,4.167,0,0,14.156,80.51,6,P-GPS,
0.35045113638651,36.8961523170241,5820.328785988,28.215224,0,0.72232285776,7400,2018-04-05 06:03:25,20,0,16.464,5820.328785988,28.215224,0.223694,0.72232285776,0,0,-10.513618,221.5, 1.2, 0,0,0,1024,1024,1684,1024,221.8,0,99,4.173,4.174,4.179,4.167,0,0,14.156,80.51,6,P-GPS,
0.350451058605511,36.8961522883316,5821.641121988,29.52756,0,0.74834976148,7500,2018-04-05 06:03:26,20,0,16.464,5821.641121988,29.52756,0.223694,0.74834976148,0,0,-10.513618,221.5, 1, 0,0,0,1024,1024,1684,1024,221.8,0,99,4.173,4.174,4.179,4.167,0,0,14.156,80.51,6,P-GPS,
0.350450998668187,36.8961522774623,5823.281541988,31.16798,0,0.76926511648,7600,2018-04-05 06:03:26,20,0,16.464,5823.281541988,31.16798,0.223694,0.76926511648,0,0,-10.513618,221.5, 1.1, 0,0,0,1024,1024,1684,1024,221.8,0,99,4.173,4.174,4.179,4.167,0,0,14.156,80.51,6,P-GPS,
0.350450929018009,36.8961522712234,5824.921961988,32.8084,0,0.79400921176,7700,2018-04-05 06:03:26,20,0,16.464,5824.921961988,32.8084,0.223694,0.79400921176,0,0,-10.737312,221.5, 1.1, -0.1,0,0,1024,1024,1684,1024,221.8,0,99,4.173,4.174,4.179,4.167,0,0,14.156,80.51,6,P-GPS,
0.350450858158915,36.8961522706389,5826.562381988,34.44882,0,0.8195374278,7800,2018-04-05 06:03:26,20,0,16.518,5826.562381988,34.44882,0.223694,0.8195374278,0,0,-10.513618,221.5, 1, -0.1,0,0,1024,1024,1684,1024,221.8,0,99,4.152,4.155,4.165,4.151,0,0,19.102,82.31,6,P-GPS,
0.350450786869097,36.8961522738325,5827.874717988,35.761156,0,0.8454396596,7900,2018-04-05 06:03:26,20,0,16.518,5827.874717988,35.761156,0.223694,0.8454396596,0,0,-10.737312,221.5, 0.9, -0.3,0,0,1024,1024,1684,1024,221.8,0,99,4.152,4.155,4.165,4.151,0,0,19.102,82.31,6,P-GPS,
0.350450725901375,36.8961522815943,5829.515137988,37.401576,0,0.86786092016,8000,2018-04-05 06:03:26,20,0,16.518,5829.515137988,37.401576,0.223694,0.86786092016,0,0,-10.737312,221.5, 1.2, -0.1,0,0,1024,1024,1684,1024,221.8,0,99,4.152,4.155,4.165,4.151,0,0,19.102,82.31,6,P-GPS,
0.350450657286684,36.8961523015449,5831.155557988,39.041996,0,0.89368769264,8100,2018-04-05 06:03:26,20,0,16.518,5831.155557988,39.041996,0.223694,0.89368769264,0,0,-10.513618,221.5, 1.1, -0.1,0,0,1024,1024,1684,1024,221.8,0,99,4.152,4.155,4.165,4.151,0,0,19.102,82.31,6,P-GPS,
0.350450596730958,36.8961523282488,5832.795977988,40.682416,0,0.91700134168,8200,2018-04-05 06:03:26,20,0,16.518,5832.795977988,40.682416,0.223694,0.91700134168,0,0,-10.737312,221.5, 0.7, 0,0,0,1024,1024,1684,1024,221.8,0,99,4.152,4.155,4.165,4.151,0,0,19.102,82.31,6,P-GPS,
0.35045054524648,36.8961523513721,5834.108313988,41.994752,0,0.9368766704,8300,2018-04-05 06:03:26,20,0,16.518,5834.108313988,41.994752,0.223694,0.9368766704,0,0,-10.513618,221.5, 0.5, -0.1,0,0,1024,1024,1684,1024,221.8,0,99,4.152,4.155,4.165,4.151,0,0,19.102,82.31,6,P-GPS,
0.350450510868195,36.896152359879,5835.748733988,43.635172,0,0.94975724824,8400,2018-04-05 06:03:26,20,0,16.518,5835.748733988,43.635172,0.223694,0.94975724824,0,0,-10.513618,221.5, 0.6, -0.3,0,0,1024,1024,1684,1024,221.8,0,99,4.152,4.155,4.165,4.151,0,0,19.102,82.31,6,P-GPS,
0.350450469439765,36.8961523572368,5837.389153988,45.275592,0,0.96452430908,8500,2018-04-05 06:03:27,20,0,16.518,5837.389153988,45.275592,0.223694,0.96452430908,0,0,-10.737312,221.4, 0.7, -0.4,0,0,1024,1024,1684,1024,221.8,0,99,4.152,4.155,4.165,4.151,0,0,19.102,82.31,6,P-GPS,
0.350450431381808,36.8961523537477,5839.029573988,46.916012,0,0.97804136988,8600,2018-04-05 06:03:27,20,0,16.518,5839.029573988,46.916012,0.223694,0.97804136988,0,0,-10.961006,221.4, 0.7, -0.5,0,0,1024,1024,1684,1024,221.8,0,99,4.152,4.155,4.165,4.151,0,0,19.102,82.31,6,P-GPS,
0.35045040673714,36.8961523500263,5840.669993988,48.556432,0,0.98671919168,8700,2018-04-05 06:03:27,20,0,16.518,5840.669993988,48.556432,0.223694,0.98671919168,0,0,-11.1847,221.4, 0.5, -0.6,0,0,1023,1024,1684,1024,221.8,0,99,4.152,4.155,4.165,4.151,0,0,19.102,82.31,6,P-GPS,
0.350450393117852,36.8961523548028,5842.638497988,50.524936,0,0.99189307636,8800,2018-04-05 06:03:27,20,0,16.518,5842.638497988,50.524936,0.223694,0.99189307636,0,0,-11.408394,221.5, 0.2, -0.6,0,0,1024,1024,1684,1024,221.8,0,99,4.152,4.155,4.165,4.151,0,0,19.102,82.31,6,P-GPS,
0.350450364171853,36.8961523793634,5844.278917988,52.165356,0,1.00372706624,8900,2018-04-05 06:03:27,20,0,16.518,5844.278917988,52.165356,0.223694,1.00372706624,0,0,-11.408394,221.5, 0.2, -0.5,0,0,1024,1024,1684,1024,221.8,0,99,4.152,4.155,4.165,4.151,0,0,19.102,82.31,6,P-GPS,
0.35045031865033,36.8961524180938,5845.919337988,53.805776,0,1.0224409776,9000,2018-04-05 06:03:27,20,0,16.518,5845.919337988,53.805776,0.223694,1.0224409776,0,0,-11.632088,221.5, 0.3, -0.2,0,0,1024,1024,1684,1024,221.8,0,99,4.152,4.155,4.165,4.151,0,0,19.102,82.31,6,P-GPS,
0.350450261442685,36.8961524508113,5847.887841988,55.77428,0,1.0450787736,9100,2018-04-05 06:03:27,20,0,16.518,5847.887841988,55.77428,0.223694,1.0450787736,0,0,-11.632088,221.5, 0.2, -0.4,0,0,1024,1024,1684,1024,221.8,0,99,4.152,4.155,4.165,4.151,0,0,19.102,82.31,6,P-GPS,
0.35045019790365,36.8961524660379,5849.528261988,57.4147,0,1.06887798696,9200,2018-04-05 06:03:27,20,0,16.518,5849.528261988,57.4147,0.223694,1.06887798696,0,0,-11.855782,221.5, 0.4, -0.3,0,0,1024,1024,1684,1024,221.8,0,99,4.152,4.155,4.165,4.151,0,0,19.102,82.31,6,P-GPS,
0.350450059087959,36.8961525052356,5853.137185988,61.023624,0,1.12128284428,9400,2018-04-05 06:03:27,20,0,16.518,5853.137185988,61.023624,0.223694,1.12128284428,0,0,-11.855782,221.5, 1, -0.1,0,0,1024,1024,1684,1024,221.8,0,99,4.152,4.155,4.165,4.151,0,0,19.102,82.31,6,P-GPS,
0.350450004903928,36.8961525065161,5855.105689988,62.992128,0,1.14080384228,9500,2018-04-05 06:03:28,20,0,16.518,5855.105689988,62.992128,0.223694,1.14080384228,0,0,-11.855782,221.5, 1.4, -0.6,0,0,1024,1024,1684,1024,221.8,0,99,4.152,4.155,4.165,4.151,0,0,19.102,82.31,6,P-GPS,
0.35044996610055,36.8961525037202,5856.746109988,64.632548,0,1.15454728104,9600,2018-04-05 06:03:28,20,0,16.518,5856.746109988,64.632548,0.223694,1.15454728104,0,0,-11.632088,221.4, 1.3, -1.1,0,0,1024,1024,1684,1024,221.8,0,99,4.152,4.155,4.165,4.151,0,0,19.102,82.31,6,P-GPS,
0.350449953044907,36.8961525185159,5858.386529988,66.272968,0,1.16020673004,9700,2018-04-05 06:03:28,20,0,16.518,5858.386529988,66.272968,0.223694,1.16020673004,0,0,-11.632088,221.5, 0.8, -0.8,0,0,1024,1024,1684,1024,221.8,0,99,4.152,4.155,4.165,4.151,0,0,19.102,82.31,6,P-GPS,
0.350449945344606,36.8961525478454,5860.355033988,68.241472,0,1.16495738636,9800,2018-04-05 06:03:28,20,0,16.491,5860.355033988,68.241472,0.223694,1.16495738636,0,0,-11.632088,221.5, 0.5, -0.2,0,0,1024,1024,1684,1024,221.8,0,99,4.147,4.148,4.157,4.142,0,0,17.724,82.31,6,P-GPS,
0.350449933661539,36.8961525702552,5861.995453988,69.881892,0,1.17072182224,9900,2018-04-05 06:03:28,20,0,16.491,5861.995453988,69.881892,0.223694,1.17072182224,0,0,-11.408394,221.5, 0.4, -0.1,0,0,1024,1024,1684,1024,221.8,0,99,4.147,4.148,4.157,4.142,0,0,17.724,82.31,6,P-GPS,
0.350449913687655,36.8961525855893,5863.635873988,71.522312,0,1.17897313484,10000,2018-04-05 06:03:28,20,0,16.491,5863.635873988,71.522312,0.223694,1.17897313484,0,0,-11.408394,221.4, 0.2, -0.2,0,0,1024,1024,1684,1024,221.8,0,99,4.147,4.148,4.157,4.142,0,0,17.724,82.31,6,P-GPS,
0.350449878812288,36.8961526067053,5865.604377988,73.490816,0,1.19299216416,10100,2018-04-05 06:03:28,20,0,16.491,5865.604377988,73.490816,0.223694,1.19299216416,0,0,-11.408394,221.4, 0.5, 0,0,0,1024,1024,1684,1024,221.8,0,99,4.147,4.148,4.157,4.142,0,0,17.724,82.31,6,P-GPS,
0.350449779101441,36.8961526395935,5868.885217988,76.771656,0,1.23106303152,10300,2018-04-05 06:03:28,20,0,16.491,5868.885217988,76.771656,0.223694,1.23106303152,0,0,-11.1847,221.4, 0.8, -0.2,0,0,1024,1024,1684,1024,221.8,0,99,4.147,4.148,4.157,4.142,0,0,17.724,82.31,6,P-GPS,
0.350449719482681,36.896152642437,5870.525637988,78.412076,0,1.25256237604,10400,2018-04-05 06:03:28,20,0,16.491,5870.525637988,78.412076,0.223694,1.25256237604,0,0,-11.1847,221.5, 1.1, 0,0,0,1024,1024,1684,1024,221.8,0,99,4.147,4.148,4.157,4.142,0,0,17.724,82.31,6,P-GPS,
0.350449654992838,36.8961526462504,5872.166057988,80.052496,0,1.27588258676,10500,2018-04-05 06:03:29,20,0,16.491,5872.166057988,80.052496,0.223694,1.27588258676,0,0,-11.1847,221.5, 1.2, 0.1,0,0,1024,1024,1684,1024,221.8,0,99,4.147,4.148,4.157,4.142,0,0,17.724,82.31,6,P-GPS,
0.350449610953606,36.8961526564334,5873.806477988,81.692916,0,1.29236880776,10600,2018-04-05 06:03:29,20,0,16.491,5873.806477988,81.692916,0.223694,1.29236880776,0,0,-11.1847,221.4, 1, 0.2,0,0,1024,1024,1684,1024,221.8,0,99,4.147,4.148,4.157,4.142,0,0,17.724,82.31,6,P-GPS,
0.350449570838924,36.8961526805754,5875.446897988,83.333336,0,1.3084974172,10700,2018-04-05 06:03:29,20,0,16.491,5875.446897988,83.333336,0.223694,1.3084974172,0,0,-11.1847,221.4, 0.9, 0.1,0,0,1024,1024,1684,1024,221.8,0,99,4.147,4.148,4.157,4.142,0,0,17.724,82.31,6,P-GPS,
0.350449545234288,36.8961527169334,5877.087317988,84.973756,0,1.3204232706,10800,2018-04-05 06:03:29,20,0,16.491,5877.087317988,84.973756,0.223694,1.3204232706,0,0,-11.1847,221.4, 0.8, 0.3,0,0,1024,1024,1684,1024,221.8,0,99,4.147,4.148,4.157,4.142,0,0,17.724,82.31,6,P-GPS,
0.350449538554818,36.8961527643031,5879.055821988,86.94226,0,1.32661421568,10900,2018-04-05 06:03:29,20,0,16.491,5879.055821988,86.94226,0.223694,1.32661421568,0,0,-11.1847,221.4, 0.6, 0.4,0,0,1024,1024,1684,1024,221.8,0,99,4.147,4.148,4.157,4.142,0,0,17.724,82.31,6,P-GPS,
0.350449551434181,36.8961527992821,5880.696241988,88.58268,0,1.3250000424,11000,2018-04-05 06:03:29,20,0,16.491,5880.696241988,88.58268,0.223694,1.32661421568,0,0,-11.1847,221.4, 0.4, 0.2,0,0,1024,1024,1684,1024,221.8,0,99,4.147,4.148,4.157,4.142,0,0,17.724,82.31,6,P-GPS,
0.350449553763467,36.8961528185218,5882.336661988,90.2231,0,1.32585634164,11100,2018-04-05 06:03:29,20,0,16.491,5882.336661988,90.2231,0.223694,1.32661421568,0,0,-11.1847,221.4, 0.4, 0.1,0,0,1024,1024,1684,1024,221.7,0,99,4.147,4.148,4.157,4.142,0,0,17.724,82.31,6,P-GPS,
0.350449548246706,36.8961528165991,5883.977081988,91.86352,0,1.3276411186,11200,2018-04-05 06:03:29,20,0,16.491,5883.977081988,91.86352,0.223694,1.3276411186,0,0,-11.1847,221.5, 0.4, 0,0,0,1024,1024,1684,1024,221.7,0,99,4.147,4.148,4.157,4.142,0,0,17.724,82.31,6,P-GPS,
0.350449540312316,36.896152804755,5885.617501988,93.50394,0,1.32941605304,11300,2018-04-05 06:03:29,20,0,16.491,5885.617501988,93.50394,0.223694,1.32941605304,0,0,-11.1847,221.5, 0.3, -0.2,0,0,1024,1024,1684,1028,221.7,0,99,4.147,4.148,4.157,4.142,0,0,17.724,82.31,6,P-GPS,
0.350449535773843,36.8961527862963,5887.257921988,95.14436,0,1.3294455806,11400,2018-04-05 06:03:29,20,0,16.491,5887.257921988,95.14436,0.223694,1.3294455806,0,0,-11.1847,221.5, 0.2, -0.2,0,0,1024,1024,1684,1024,221.7,0,99,4.147,4.148,4.157,4.142,0,0,17.724,82.31,6,P-GPS,
0.350449513686442,36.8961527586444,5888.898341988,96.78478,0,1.3349902002,11500,2018-04-05 06:03:30,20,0,16.491,5888.898341988,96.78478,0.223694,1.3349902002,0,0,-11.1847,221.5, 1, -0.1,0,0,1024,1024,1684,1032,221.7,0,99,4.147,4.148,4.157,4.142,0,0,17.724,82.31,6,P-GPS,
0.350449495331843,36.8961527292854,5890.538761988,98.4252,0,1.3391732712,11600,2018-04-05 06:03:30,20,0,16.491,5890.538761988,98.4252,0.223694,1.3391732712,0,0,-10.961006,221.5, 1.4, -0.1,0,0,1024,1024,1684,1033,221.8,0,99,4.147,4.148,4.157,4.142,0,0,17.724,82.31,6,P-GPS,
0.350449488234677,36.8961526934905,5892.179181988,100.06562,0,1.3389600166,11700,2018-04-05 06:03:30,20,0,16.491,5892.179181988,100.06562,0.223694,1.3391732712,0,0,-11.1847,221.5, 1.5, -0.2,0,0,1024,1024,1684,1030,221.7,0,99,4.147,4.148,4.157,4.142,0,0,17.724,82.31,6,P-GPS,
0.350449498537231,36.8961526637643,5893.819601988,101.70604,0,1.333087313,11800,2018-04-05 06:03:30,20,0,16.545,5893.819601988,101.70604,0.223694,1.3391732712,0,0,-11.1847,221.4, 1.5, 0,0,0,1024,1024,1684,1025,221.7,0,99,4.149,4.15,4.157,4.143,0,0,16.604,82.31,6,P-GPS,
0.350449552525849,36.896152655729,5895.460021988,103.34646,0,1.31320214176,11900,2018-04-05 06:03:30,20,0,16.545,5895.460021988,103.34646,0.223694,1.3391732712,0,0,-11.1847,221.5, 1.1, -0.1,0,0,1024,1024,1684,1025,221.7,0,99,4.149,4.15,4.157,4.143,0,0,16.604,82.31,6,P-GPS,
0.3504496317983,36.896152662857,5897.100441988,104.98688,0,1.2854003036,12000,2018-04-05 06:03:30,20,0,16.545,5897.100441988,104.98688,0.223694,1.3391732712,0,0,-11.1847,221.5, 0.5, -0.4,0,0,1024,1024,1684,1026,221.7,0,99,4.149,4.15,4.157,4.143,0,0,16.604,82.31,6,P-GPS,
0.350449700489732,36.8961526750094,5899.068945988,106.955384,0,1.26181762568,12100,2018-04-05 06:03:30,20,0,16.545,5899.068945988,106.955384,0.223694,1.3391732712,0,0,-11.1847,221.5, 0, -0.3,0,0,1024,1024,1684,1024,221.7,0,99,4.149,4.15,4.157,4.143,0,0,16.604,82.31,6,P-GPS,
0.35044974820253,36.8961526783261,5900.709365988,108.595804,0,1.24507549916,12200,2018-04-05 06:03:30,20,0,16.545,5900.709365988,108.595804,0.223694,1.3391732712,0,0,-10.961006,221.5, 0.2, -0.3,0,0,1024,1024,1684,1024,221.7,0,99,4.149,4.15,4.157,4.143,0,0,16.604,82.31,6,P-GPS,
0.350449848479465,36.8961526791247,5903.990205988,111.876644,0,1.20944557676,12400,2018-04-05 06:03:30,20,0,16.545,5903.990205988,111.876644,0.223694,1.3391732712,0,0,-11.1847,221.5, 0.1, -0.8,0,0,1024,1024,1684,1024,221.7,0,99,4.149,4.15,4.157,4.143,0,0,16.604,82.31,6,P-GPS,
0.350449917540961,36.8961526905946,5905.630625988,113.517064,0,1.18585633716,12500,2018-04-05 06:03:31,20,0,16.545,5905.630625988,113.517064,0.223694,1.3391732712,0,0,-10.961006,221.5, -0.4, -0.4,0,0,1024,1024,1684,1024,221.7,0,99,4.149,4.15,4.157,4.143,0,0,16.604,82.31,6,P-GPS,
0.350449988443616,36.8961526939729,5907.271045988,115.157484,0,1.16099413164,12600,2018-04-05 06:03:31,20,0,16.545,5907.271045988,115.157484,0.223694,1.3391732712,0,0,-10.961006,221.5, -0.3, -0.4,0,0,1024,1024,1684,1024,221.7,0,99,4.149,4.15,4.157,4.143,0,0,16.604,82.31,6,P-GPS,
0.350450049139388,36.8961526843669,5908.911465988,116.797904,0,1.13865161124,12700,2018-04-05 06:03:31,20,0,16.545,5908.911465988,116.797904,0.223694,1.3391732712,0,0,-11.1847,221.5, -0.1, -0.7,0,0,1024,1024,1684,1024,221.7,0,99,4.149,4.15,4.157,4.143,0,0,16.604,82.31,6,P-GPS,
0.350450084536671,36.8961526698865,5910.551885988,118.438324,0,1.1248523982,12800,2018-04-05 06:03:31,20,0,16.464,5910.551885988,118.438324,0.223694,1.3391732712,0,0,-11.1847,221.5, 0.2, -0.7,0,0,1024,1024,1684,1026,221.7,0,99,4.146,4.146,4.154,4.139,0,0,16.604,82.31,6,P-GPS,
0.350450140508123,36.8961526075976,5913.832725988,121.719164,0,1.09976381472,13000,2018-04-05 06:03:31,20,0,16.464,5913.832725988,121.719164,0.223694,1.3391732712,0,0,-11.1847,221.5, 0.7, -0.4,0,0,1024,1024,1684,1033,221.7,0,99,4.146,4.146,4.154,4.139,0,0,16.604,82.31,6,P-GPS,
0.350450163747851,36.8961525871701,5915.473145988,123.359584,0,1.08985895876,13100,2018-04-05 06:03:31,20,0,16.464,5915.473145988,123.359584,0.223694,1.3391732712,0,0,-11.1847,221.5, 0.5, -0.4,0,0,1024,1024,1684,1036,221.7,0,99,4.146,4.146,4.154,4.139,0,0,16.604,82.31,6,P-GPS,
0.350450182351806,36.8961525831987,5917.113565988,125.000004,0,1.08291998216,13200,2018-04-05 06:03:31,20,0,16.464,5917.113565988,125.000004,0.223694,1.3391732712,0,0,-11.1847,221.5, 0.1, -0.3,0,0,1024,1024,1684,1034,221.7,0,99,4.146,4.146,4.154,4.139,0,0,16.604,82.31,6,P-GPS,
0.350450205178113,36.896152579806,5918.753985988,126.640424,0,1.07452103176,13300,2018-04-05 06:03:31,20,0,16.464,5918.753985988,126.640424,0.223694,1.3391732712,0,0,-10.961006,221.5, 0.1, -0.2,0,0,1024,1024,1684,1037,221.8,0,99,4.146,4.146,4.154,4.139,0,0,16.604,82.31,6,P-GPS,
0.350450231940776,36.8961525733192,5920.394405988,128.280844,0,1.06447509968,13400,2018-04-05 06:03:31,20,0,16.464,5920.394405988,128.280844,0.223694,1.3391732712,0,0,-10.961006,221.5, 0.5, -0.2,0,0,1024,1024,1684,1040,221.7,0,99,4.146,4.146,4.154,4.139,0,0,16.604,82.31,6,P-GPS,
0.350450251541338,36.8961525673116,5922.362909988,130.249348,0,1.05701775036,13500,2018-04-05 06:03:32,20,0,16.464,5922.362909988,130.249348,0.223694,1.3391732712,0,0,-11.1847,221.5, 0.7, -0.3,0,0,1024,1024,1684,1046,221.8,0,99,4.146,4.146,4.154,4.139,0,0,16.604,82.31,6,P-GPS,
0.350450271561429,36.8961525690534,5924.003329988,131.889768,0,1.05002628032,13600,2018-04-05 06:03:32,20,0,16.464,5924.003329988,131.889768,0.223694,1.3391732712,0,0,-11.1847,221.5, 0.4, -0.4,0,0,1024,1024,1684,1046,221.7,0,99,4.146,4.146,4.154,4.139,0,0,16.604,82.31,6,P-GPS,
0.350450311030229,36.8961525627246,5925.643749988,133.530188,0,1.03547247408,13700,2018-04-05 06:03:32,20,0,16.464,5925.643749988,133.530188,0.223694,1.3391732712,0,0,-10.961006,221.5, 0.1, -0.4,0,0,1024,1024,1684,1043,221.7,0,99,4.146,4.146,4.154,4.139,0,0,16.604,82.31,6,P-GPS,
0.350450359313187,36.8961525468631,5927.284169988,135.170608,0,1.01701774908,13800,2018-04-05 06:03:32,20,0,16.491,5927.284169988,135.170608,0.223694,1.3391732712,0,0,-11.1847,221.5, 0, -0.5,0,0,1024,1024,1684,1042,221.7,0,99,4.144,4.143,4.15,4.136,0,0,16.494,82.31,6,P-GPS,
0.350450391501418,36.8961525280426,5928.924589988,136.811028,0,1.0040682736,13900,2018-04-05 06:03:32,20,0,16.491,5928.924589988,136.811028,0.223694,1.3391732712,0,0,-11.1847,221.5, -0.1, -0.7,0,0,1024,1024,1684,1042,221.7,0,99,4.144,4.143,4.15,4.136,0,0,16.494,82.31,6,P-GPS,
0.350450404525917,36.8961525172172,5930.565009988,138.451448,0,0.99858598996,14000,2018-04-05 06:03:32,20,0,16.491,5930.565009988,138.451448,0.223694,1.3391732712,0,0,-10.961006,221.5, 0, -0.8,0,0,1024,1024,1684,1041,221.7,0,99,4.144,4.143,4.15,4.136,0,0,16.494,82.31,6,P-GPS,
0.350450411786741,36.8961525083457,5932.205429988,140.091868,0,0.99531499248,14100,2018-04-05 06:03:32,20,0,16.491,5932.205429988,140.091868,0.223694,1.3391732712,0,0,-11.1847,221.5, 0, -0.5,0,0,1024,1024,1684,1042,221.7,0,99,4.144,4.143,4.15,4.136,0,0,16.494,82.31,6,P-GPS,
0.350450424418581,36.8961525069497,5935.486269988,143.372708,0,0.99070213144,14300,2018-04-05 06:03:32,20,0,16.491,5935.486269988,143.372708,0.223694,1.3391732712,0,0,-10.961006,221.5, 0.1, -0.4,0,0,1024,1024,1684,1038,221.8,0,99,4.144,4.143,4.15,4.136,0,0,16.494,82.31,6,P-GPS,
0.350450423413017,36.8961525154192,5937.454773988,145.341212,0,0.99171263016,14400,2018-04-05 06:03:33,20,0,16.491,5937.454773988,145.341212,0.223694,1.3391732712,0,0,-11.1847,221.5, -0.1, -0.4,0,0,1024,1024,1684,1040,221.7,0,99,4.144,4.143,4.15,4.136,0,0,16.494,82.31,6,P-GPS,
0.350450418122203,36.8961525262648,5939.095193988,146.981632,0,0.99444228904,14500,2018-04-05 06:03:33,20,0,16.491,5939.095193988,146.981632,0.223694,1.3391732712,0,0,-11.1847,221.5, 0, -0.4,0,0,1024,1024,1684,1038,221.7,0,99,4.144,4.143,4.15,4.136,0,0,16.494,82.31,6,P-GPS,
0.350450416873593,36.8961525414577,5940.735613988,148.622052,0,0.99609255156,14600,2018-04-05 06:03:33,20,0,16.491,5940.735613988,148.622052,0.223694,1.3391732712,0,0,-11.1847,221.5, -0.2, -0.4,0,0,1024,1024,1684,1038,221.7,0,99,4.144,4.143,4.15,4.136,0,0,16.494,82.31,6,P-GPS,
0.350450431932629,36.8961525546014,5942.376033988,150.262472,0,0.99180777452,14700,2018-04-05 06:03:33,20,0,16.491,5942.376033988,150.262472,0.223694,1.3391732712,0,0,-11.1847,221.5, -0.5, -0.2,0,0,1024,1024,1684,1041,221.7,0,99,4.144,4.143,4.15,4.136,0,0,16.494,82.31,6,P-GPS,
0.350450454478436,36.8961525612664,5944.016453988,151.902892,0,0.98435698688,14800,2018-04-05 06:03:33,20,0,16.464,5944.016453988,151.902892,0.223694,1.3391732712,0,0,-10.961006,221.5, -0.3, -0.4,0,0,1024,1024,1684,1040,221.8,0,98,4.139,4.139,4.146,4.131,0,0,16.558,82.31,6,P-GPS,
0.350450473370219,36.8961525574856,5945.656873988,153.543312,0,0.9773294276,14900,2018-04-05 06:03:33,20,0,16.464,5945.656873988,153.543312,0.223694,1.3391732712,0,0,-11.1847,221.5, -0.3, -0.4,0,0,1024,1024,1684,1044,221.7,0,98,4.139,4.139,4.146,4.131,0,0,16.558,82.31,6,P-GPS,
0.350450478310511,36.8961525581237,5947.297293988,155.183732,0,0.97562995248,15000,2018-04-05 06:03:33,20,0,16.464,5947.297293988,155.183732,0.223694,1.3391732712,0,0,-11.1847,221.5, -0.4, -0.3,0,0,1024,1024,1684,1044,221.7,0,98,4.139,4.139,4.146,4.131,0,0,16.558,82.31,6,P-GPS,
0.350450475704186,36.8961525557111,5948.937713988,156.824152,0,0.97635173728,15100,2018-04-05 06:03:33,20,0,16.464,5948.937713988,156.824152,0.223694,1.3391732712,0,0,-11.1847,221.5, -0.8, 0,0,0,1024,1024,1684,1049,221.7,0,98,4.139,4.139,4.146,4.131,0,0,16.558,82.31,6,P-GPS,
0.350450458982712,36.89615254194,5950.906217988,158.792656,0,0.9811516062,15200,2018-04-05 06:03:33,20,0,16.464,5950.906217988,158.792656,0.223694,1.3391732712,0,0,-11.1847,221.5, -0.4, 0,0,0,1024,1024,1684,1049,221.7,0,98,4.139,4.139,4.146,4.131,0,0,16.558,82.31,6,P-GPS,
0.350450416104764,36.8961525289713,5952.546637988,160.433076,0,0.9953740476,15300,2018-04-05 06:03:33,20,0,16.464,5952.546637988,160.433076,0.223694,1.3391732712,0,0,-10.961006,221.5, 0.1, -0.3,0,0,1024,1024,1684,1050,221.7,0,98,4.139,4.139,4.146,4.131,0,0,16.558,82.31,6,P-GPS,
0.350450362957645,36.8961525294097,5954.187057988,162.073496,0,1.01435042616,15400,2018-04-05 06:03:33,20,0,16.464,5954.187057988,162.073496,0.223694,1.3391732712,0,0,-10.961006,221.6, 0.4, -0.3,0,0,1024,1024,1684,1050,221.7,0,98,4.139,4.139,4.146,4.131,0,0,16.558,82.31,6,P-GPS,
0.350450315529824,36.8961525245069,5955.827477988,163.713916,0,1.03089242144,15500,2018-04-05 06:03:34,20,0,16.464,5955.827477988,163.713916,0.223694,1.3391732712,0,0,-10.961006,221.6, 0.3, 0,0,0,1024,1024,1684,1050,221.7,0,98,4.139,4.139,4.146,4.131,0,0,16.558,82.31,6,P-GPS,
0.350450289603367,36.8961525088725,5957.467897988,165.354336,0,1.03899609624,15600,2018-04-05 06:03:34,20,0,16.464,5957.467897988,165.354336,0.223694,1.3391732712,0,0,-10.961006,221.7, 0.5, -0.1,0,0,1024,1024,1684,1050,221.7,0,98,4.139,4.139,4.146,4.131,0,0,16.558,82.31,6,P-GPS,
0.350450266533608,36.8961525007531,5959.108317988,166.994756,0,1.04666013848,15700,2018-04-05 06:03:34,20,0,16.464,5959.108317988,166.994756,0.223694,1.3391732712,0,0,-10.961006,221.8, 0.1, -0.2,0,0,1024,1024,1684,1047,221.8,0,98,4.139,4.139,4.146,4.131,0,0,16.558,82.31,6,P-GPS,
0.350450241667675,36.8961525047897,5960.748737988,168.635176,0,1.05584649048,15800,2018-04-05 06:03:34,20,0,16.464,5960.748737988,168.635176,0.223694,1.3391732712,0,0,-11.1847,221.9, 0.1, -0.1,0,0,1024,1024,1684,1051,221.7,0,98,4.139,4.139,4.146,4.131,0,0,16.558,82.31,6,P-GPS,
0.350450202144525,36.8961525104414,5962.389157988,170.275596,0,1.0703904542,15900,2018-04-05 06:03:34,20,0,16.464,5962.389157988,170.275596,0.223694,1.3391732712,0,0,-11.1847,222, 0.3, 0,0,0,1024,1024,1684,1044,221.7,0,98,4.139,4.139,4.146,4.131,0,0,16.558,82.31,6,P-GPS,
0.35045016833131,36.8961525163062,5964.029577988,171.916016,0,1.0829068588,16000,2018-04-05 06:03:34,20,0,16.464,5964.029577988,171.916016,0.223694,1.3391732712,0,0,-11.1847,222, 0.2, 0,0,0,1024,1024,1684,1044,221.7,0,98,4.139,4.139,4.146,4.131,0,0,16.558,82.31,6,P-GPS,
0.350450125086148,36.8961525227897,5965.669997988,173.556436,0,1.09884517952,16100,2018-04-05 06:03:34,20,0,16.464,5965.669997988,173.556436,0.223694,1.3391732712,0,0,-10.961006,222, 0.1, -0.2,0,0,1024,1024,1684,1042,221.7,0,98,4.139,4.139,4.146,4.131,0,0,16.558,82.31,6,P-GPS,
0.350450080132544,36.8961525362889,5967.310417988,175.196856,0,1.11589242416,16200,2018-04-05 06:03:34,20,0,16.464,5967.310417988,175.196856,0.223694,1.3391732712,0,0,-10.961006,222, 0.2, 0,0,0,1024,1024,1684,1044,221.8,0,98,4.139,4.139,4.146,4.131,0,0,16.558,82.31,6,P-GPS,
0.35045004943149,36.8961525565708,5968.950837988,176.837276,0,1.12833336944,16300,2018-04-05 06:03:34,20,0,16.464,5968.950837988,176.837276,0.223694,1.3391732712,0,0,-10.961006,222.1, 0.2, 0.1,0,0,1024,1024,1684,1045,221.8,0,98,4.139,4.139,4.146,4.131,0,0,16.558,82.31,6,P-GPS,
0.350450046929589,36.8961525889071,5970.919341988,178.80578,0,1.13163717532,16400,2018-04-05 06:03:34,20,0,16.464,5970.919341988,178.80578,0.223694,1.3391732712,0,0,-11.1847,222, -0.1, 0.3,0,0,1024,1024,1684,1044,221.7,0,98,4.139,4.139,4.146,4.131,0,0,16.558,82.31,6,P-GPS,
0.350450042472945,36.8961526358512,5972.559761988,180.4462,0,1.13692917024,16500,2018-04-05 06:03:35,20,0,16.464,5972.559761988,180.4462,0.223694,1.3391732712,0,0,-11.1847,222, -0.4, 0.3,0,0,1024,1024,1684,1044,221.8,0,98,4.139,4.139,4.146,4.131,0,0,16.558,82.31,6,P-GPS,
0.350450028661704,36.8961527401461,5975.840601988,183.72704,0,1.15090554864,16700,2018-04-05 06:03:35,20,0,16.464,5975.840601988,183.72704,0.223694,1.3391732712,0,0,-11.1847,222, -0.9, -0.1,0,0,1024,1024,1684,1045,221.8,0,98,4.139,4.139,4.146,4.131,0,0,16.558,82.31,6,P-GPS,
0.350450017148809,36.8961527922954,5977.481021988,185.36746,0,1.1599245778,16800,2018-04-05 06:03:35,20,0,16.464,5977.481021988,185.36746,0.223694,1.3391732712,0,0,-10.961006,222, -0.8, 0.1,0,0,1024,1024,1684,1045,221.8,0,98,4.135,4.133,4.141,4.128,0,0,16.43,82.31,6,P-GPS,
0.350449967380711,36.8961528882568,5980.761861988,188.6483,0,1.18715883064,17000,2018-04-05 06:03:35,20,0,16.464,5980.761861988,188.6483,0.223694,1.3391732712,0,0,-10.961006,221.8, -0.7, 0.7,0,0,1024,1024,1684,1046,221.8,0,98,4.135,4.133,4.141,4.128,0,0,16.43,82.31,6,P-GPS,
0.350449923840189,36.8961529225272,5982.402281988,190.28872,0,1.2060203798,17100,2018-04-05 06:03:35,20,0,16.464,5982.402281988,190.28872,0.223694,1.3391732712,0,0,-11.1847,221.8, -0.7, 0.9,0,0,1024,1024,1684,1049,221.8,0,98,4.135,4.133,4.141,4.128,0,0,16.43,82.31,6,P-GPS,
0.350449880555537,36.8961529304116,5984.370785988,192.257224,0,1.22195541968,17200,2018-04-05 06:03:35,20,0,16.464,5984.370785988,192.257224,0.223694,1.3391732712,0,0,-10.961006,221.8, -0.3, 0.4,0,0,1024,1024,1684,1052,221.8,0,98,4.135,4.133,4.141,4.128,0,0,16.43,82.31,6,P-GPS,
0.350449834832901,36.8961528882814,5987.651625988,195.538064,0,1.23350069564,17400,2018-04-05 06:03:35,20,0,16.464,5987.651625988,195.538064,0.223694,1.3391732712,0,0,-11.1847,221.9, 0.3, 0,0,0,1024,1024,1684,1050,221.8,0,98,4.135,4.133,4.141,4.128,0,0,16.43,82.31,6,P-GPS,
0.350449818812269,36.8961528767265,5989.292045988,197.178484,0,1.23793967216,17500,2018-04-05 06:03:36,20,0,16.464,5989.292045988,197.178484,0.223694,1.3391732712,0,0,-11.1847,222, 0, -0.1,0,0,1024,1024,1684,1050,221.8,0,98,4.135,4.133,4.141,4.128,0,0,16.43,82.31,6,P-GPS,
0.350449800373601,36.8961528745473,5990.932465988,198.818904,0,1.24418967236,17600,2018-04-05 06:03:36,20,0,16.464,5990.932465988,198.818904,0.223694,1.3391732712,0,0,-11.1847,222.1, -0.4, -0.4,0,0,1024,1024,1684,1049,221.8,0,98,4.135,4.133,4.141,4.128,0,0,16.43,82.31,6,P-GPS,
0.350449769227167,36.8961528960454,5992.572885988,200.459324,0,1.25727694312,17700,2018-04-05 06:03:36,20,0,16.464,5992.572885988,200.459324,0.223694,1.3391732712,0,0,-10.961006,222.2, -0.2, 0,0,0,1024,1024,1684,1050,221.8,0,98,4.135,4.133,4.141,4.128,0,0,16.43,82.31,6,P-GPS,
0.350449735330087,36.8961529230919,5994.213305988,202.099744,0,1.27190948952,17800,2018-04-05 06:03:36,20,0,16.464,5994.213305988,202.099744,0.223694,1.3391732712,0,0,-10.961006,222.3, 0.1, 0.2,0,0,1024,1024,1684,1049,221.8,0,98,4.132,4.132,4.138,4.125,0,0,16.49,82.31,6,P-GPS,
0.350449687293228,36.8961529513931,5995.853725988,203.740164,0,1.29164702296,17900,2018-04-05 06:03:36,20,0,16.464,5995.853725988,203.740164,0.223694,1.3391732712,0,0,-11.1847,222.4, 0, 0.2,0,0,1024,1024,1684,1046,221.8,0,98,4.132,4.132,4.138,4.125,0,0,16.49,82.31,6,P-GPS,
0.350449633010269,36.8961529589259,5997.494145988,205.380584,0,1.31141408396,18000,2018-04-05 06:03:36,20,0,16.464,5997.494145988,205.380584,0.223694,1.3391732712,0,0,-10.961006,222.5, 0.3, 0.3,0,0,1024,1024,1684,1050,221.8,0,98,4.132,4.132,4.138,4.125,0,0,16.49,82.31,6,P-GPS,
0.350449571862197,36.8961529651798,5999.462649988,207.349088,0,1.33346132876,18100,2018-04-05 06:03:36,20,0,16.464,5999.462649988,207.349088,0.223694,1.3391732712,0,0,-11.1847,222.5, 0.3, 0.4,0,0,1024,1024,1684,1048,221.8,0,98,4.132,4.132,4.138,4.125,0,0,16.49,82.31,6,P-GPS,
0.35044952353344,36.8961529576599,6001.103069988,208.989508,0,1.3496391508,18200,2018-04-05 06:03:36,20,0,16.464,6001.103069988,208.989508,0.223694,1.3496391508,0,0,-11.1847,222.5, 0.3, 0.4,0,0,1024,1024,1684,1048,221.8,0,98,4.132,4.132,4.138,4.125,0,0,16.49,82.31,6,P-GPS,
0.350449479456957,36.8961529457024,6002.743489988,210.629928,0,1.363927209,18300,2018-04-05 06:03:36,20,0,16.464,6002.743489988,210.629928,0.223694,1.363927209,0,0,-10.961006,222.6, 0.4, 0.2,0,0,1024,1024,1684,1046,221.8,0,98,4.132,4.132,4.138,4.125,0,0,16.49,82.31,6,P-GPS,
0.350449451425125,36.8961529249505,6004.383909988,212.270348,0,1.37177497828,18400,2018-04-05 06:03:36,20,0,16.464,6004.383909988,212.270348,0.223694,1.37177497828,0,0,-10.961006,222.6, 0.5, -0.1,0,0,1024,1024,1684,1045,221.8,0,98,4.132,4.132,4.138,4.125,0,0,16.49,82.31,6,P-GPS,
0.350449436502675,36.8961528928363,6006.024329988,213.910768,0,1.37401907284,18500,2018-04-05 06:03:37,20,0,16.464,6006.024329988,213.910768,0.223694,1.37401907284,0,0,-10.961006,222.7, 0.5, -0.3,0,0,1024,1024,1684,1047,221.8,0,98,4.132,4.132,4.138,4.125,0,0,16.49,82.31,6,P-GPS,
0.350449430652083,36.8961528596333,6007.664749988,215.551188,0,1.37307091008,18600,2018-04-05 06:03:37,20,0,16.464,6007.664749988,215.551188,0.223694,1.37401907284,0,0,-10.961006,222.6, 0.1, -0.1,0,0,1024,1024,1684,1046,221.9,0,98,4.132,4.132,4.138,4.125,0,0,16.49,82.31,6,P-GPS,
0.350449401722368,36.8961528312512,6009.305169988,217.191608,0,1.38083337752,18700,2018-04-05 06:03:37,20,0,16.464,6009.305169988,217.191608,0.223694,1.38083337752,0,0,-10.961006,222.7, 0.3, -0.1,0,0,1024,1024,1684,1048,221.9,0,98,4.132,4.132,4.138,4.125,0,0,16.49,82.31,6,P-GPS,
0.350449352148869,36.8961528120795,6010.945589988,218.832028,0,1.39680778748,18800,2018-04-05 06:03:37,20,0,16.491,6010.945589988,218.832028,0.223694,1.39680778748,0,0,-10.961006,222.7, 0.7, 0,0,0,1024,1024,1684,1050,221.9,0,98,4.129,4.127,4.133,4.12,0,0,16.5,82.31,6,P-GPS,
0.350449306609433,36.8961528066206,6012.586009988,220.472448,0,1.41254269612,18900,2018-04-05 06:03:37,20,0,16.491,6012.586009988,220.472448,0.223694,1.41254269612,0,0,-10.961006,222.7, 0.9, 0,0,0,1024,1024,1684,1051,221.9,0,98,4.129,4.127,4.133,4.12,0,0,16.5,82.31,6,P-GPS,
0.350449275329161,36.896152809539,6014.226429988,222.112868,0,1.42390424504,19000,2018-04-05 06:03:37,20,0,16.491,6014.226429988,222.112868,0.223694,1.42390424504,0,0,-10.961006,222.8, 0.9, 0.4,0,0,1024,1024,1684,1050,221.9,0,98,4.129,4.127,4.133,4.12,0,0,16.5,82.31,6,P-GPS,
0.350449248100865,36.8961528071484,6016.194933988,224.081372,0,1.433398996,19100,2018-04-05 06:03:37,20,0,16.491,6016.194933988,224.081372,0.223694,1.433398996,0,0,-10.961006,222.9, 0.9, 0.5,0,0,1024,1024,1684,1050,222,0,98,4.129,4.127,4.133,4.12,0,0,16.5,82.31,6,P-GPS,
0.350449209857163,36.8961527639471,6019.475773988,227.362212,0,1.44364505932,19300,2018-04-05 06:03:37,20,0,16.491,6019.475773988,227.362212,0.223694,1.44364505932,0,0,-11.1847,223, 0.8, 0.2,0,0,1024,1024,1684,1053,222,0,98,4.129,4.127,4.133,4.12,0,0,16.5,82.31,6,P-GPS,
0.35044919090238,36.8961527328671,6021.116193988,229.002632,0,1.44810044004,19400,2018-04-05 06:03:38,20,0,16.491,6021.116193988,229.002632,0.223694,1.44810044004,0,0,-11.1847,223.2, 0.8, 0.3,0,0,1024,1024,1684,1051,222,0,98,4.129,4.127,4.133,4.12,0,0,16.5,82.31,6,P-GPS,
0.350449179374116,36.896152701922,6022.756613988,230.643052,0,1.4500164506,19500,2018-04-05 06:03:38,20,0,16.491,6022.756613988,230.643052,0.223694,1.4500164506,0,0,-11.1847,223.2, 0.9, 0.4,0,0,1024,1024,1684,1052,222,0,98,4.129,4.127,4.133,4.12,0,0,16.5,82.31,6,P-GPS,
0.350449189111499,36.8961526808104,6024.397033988,232.283472,0,1.44506894388,19600,2018-04-05 06:03:38,20,0,16.491,6024.397033988,232.283472,0.223694,1.4500164506,0,0,-10.961006,223.3, 0.9, 0.2,0,0,1024,1024,1684,1053,222.1,0,98,4.129,4.127,4.133,4.12,0,0,16.5,82.31,6,P-GPS,
0.350449194286795,36.8961526647723,6026.037453988,233.923892,0,1.44212931124,19700,2018-04-05 06:03:38,20,0,16.491,6026.037453988,233.923892,0.223694,1.4500164506,0,0,-10.961006,223.4, 0.6, 0,0,0,1024,1024,1684,1052,222.1,0,98,4.129,4.127,4.133,4.12,0,0,16.5,82.31,6,P-GPS,
0.350449197834462,36.896152654539,6027.677873988,235.564312,0,1.4401739306,19800,2018-04-05 06:03:38,20,0,16.357,6027.677873988,235.564312,0.223694,1.4500164506,0,0,-10.961006,223.6, 0.4, -0.2,0,0,1024,1024,1684,1050,222.1,0,98,4.129,4.127,4.133,4.12,0,0,16.5,82.31,6,P-GPS,
0.350449192673516,36.8961526351628,6029.318293988,237.204732,0,1.4407644818,19900,2018-04-05 06:03:38,20,0,16.357,6029.318293988,237.204732,0.223694,1.4500164506,0,0,-10.961006,223.7, 0.4, -0.3,0,0,1024,1024,1684,1052,222.2,0,98,4.129,4.127,4.133,4.12,0,0,16.5,82.31,6,P-GPS,
0.350449190602848,36.8961526124752,6030.958713988,238.845152,0,1.4400755054,20000,2018-04-05 06:03:38,20,0,16.357,6030.958713988,238.845152,0.223694,1.4500164506,0,0,-10.961006,223.8, 0.4, -0.2,0,0,1024,1024,1684,1052,222.3,0,98,4.129,4.127,4.133,4.12,0,0,16.5,82.31,6,P-GPS,
0.350449177592802,36.8961525968697,6032.599133988,240.485572,0,1.44379597796,20100,2018-04-05 06:03:38,20,0,16.357,6032.599133988,240.485572,0.223694,1.4500164506,0,0,-10.961006,223.9, 0.5, -0.2,0,0,1024,1024,1684,1051,222.3,0,98,4.129,4.127,4.133,4.12,0,0,16.5,82.31,6,P-GPS,
0.350449170522403,36.8961525988155,6034.567637988,242.454076,0,1.4464567392,20200,2018-04-05 06:03:38,20,0,16.357,6034.567637988,242.454076,0.223694,1.4500164506,0,0,-10.961006,224, 0.5, -0.1,0,0,1024,1024,1684,1052,222.4,0,98,4.129,4.127,4.133,4.12,0,0,16.5,82.31,6,P-GPS,
0.350449157681919,36.8961526077068,6036.208057988,244.094496,0,1.45161750052,20300,2018-04-05 06:03:38,20,0,16.357,6036.208057988,244.094496,0.223694,1.45161750052,0,0,-10.961006,224.2, 0.3, 0,0,0,1024,1024,1684,1052,222.4,0,98,4.129,4.127,4.133,4.12,0,0,16.5,82.31,6,P-GPS,
0.350449147377329,36.8961526223959,6037.848477988,245.734916,0,1.45623036156,20400,2018-04-05 06:03:38,20,0,16.357,6037.848477988,245.734916,0.223694,1.45623036156,0,0,-10.961006,224.2, 0.4, 0.3,0,0,1024,1024,1684,1052,222.5,0,98,4.129,4.127,4.133,4.12,0,0,16.5,82.31,6,P-GPS,
0.35044913266505,36.8961526309661,6039.488897988,247.375336,0,1.4620571334,20500,2018-04-05 06:03:39,20,0,16.357,6039.488897988,247.375336,0.223694,1.4620571334,0,0,-11.1847,224.3, 0, 0.3,0,0,1024,1024,1684,1054,222.6,0,98,4.129,4.127,4.133,4.12,0,0,16.5,82.31,6,P-GPS,
0.350449118135055,36.8961526259187,6041.129317988,249.015756,0,1.4669619892,20600,2018-04-05 06:03:39,20,0,16.357,6041.129317988,249.015756,0.223694,1.4669619892,0,0,-11.1847,224.4, 0, 0,0,0,1024,1024,1684,1055,222.7,0,98,4.129,4.127,4.133,4.12,0,0,16.5,82.31,6,P-GPS,
0.350449085383585,36.8961526023736,6042.769737988,250.656176,0,1.47730975856,20700,2018-04-05 06:03:39,20,0,16.357,6042.769737988,250.656176,0.223694,1.47730975856,0,0,-11.1847,224.5, 0.3, 0,0,0,1024,1024,1684,1056,222.7,0,98,4.129,4.127,4.133,4.12,0,0,16.5,82.31,6,P-GPS,
0.350449041018359,36.8961525700453,6044.410157988,252.296596,0,1.49141408972,20800,2018-04-05 06:03:39,20,0,16.438,6044.410157988,252.296596,0.223694,1.49141408972,0,0,-11.1847,224.6, 0.8, 0,0,0,1024,1024,1684,1057,222.7,0,98,4.124,4.123,4.131,4.117,0,0,16.826,82.31,6,P-GPS,
0.350448954173644,36.8961525045767,6048.019081988,255.90552,0,1.51930451056,21000,2018-04-05 06:03:39,20,0,16.438,6048.019081988,255.90552,0.223694,1.51930451056,0,0,-11.1847,224.8, 1.7, 0.2,0,0,1024,1024,1684,1057,222.9,0,98,4.124,4.123,4.131,4.117,0,0,16.826,82.31,6,P-GPS,
0.35044890253884,36.8961524486417,6049.659501988,257.54594,0,1.53537078404,21100,2018-04-05 06:03:39,20,0,16.438,6049.659501988,257.54594,0.223694,1.53537078404,0,0,-11.1847,225, 1.7, 0.2,0,0,1024,1024,1684,1057,223,0,98,4.124,4.123,4.131,4.117,0,0,16.826,82.31,6,P-GPS,
0.350448844401354,36.8961523783661,6051.299921988,259.18636,0,1.55357944604,21200,2018-04-05 06:03:39,20,0,16.438,6051.299921988,259.18636,0.223694,1.55357944604,0,0,-10.961006,225.1, 1.8, 0.2,0,0,1024,1024,1684,1057,223.1,0,98,4.124,4.123,4.131,4.117,0,0,16.826,82.31,6,P-GPS,
0.350448786662938,36.8961523007505,6052.940341988,260.82678,0,1.57190621828,21300,2018-04-05 06:03:39,20,0,16.438,6052.940341988,260.82678,0.223694,1.57190621828,0,0,-10.961006,225.3, 1.8, 0.3,0,0,1024,1024,1684,1057,223.2,0,98,4.124,4.123,4.131,4.117,0,0,16.826,82.31,6,P-GPS,
0.350448753679823,36.8961522468866,6054.580761988,262.4672,0,1.58238522124,21400,2018-04-05 06:03:39,20,0,16.438,6054.580761988,262.4672,0.223694,1.58238522124,0,0,-10.961006,225.5, 1.6, 0.2,0,0,1024,1024,1684,1055,223.3,0,98,4.124,4.123,4.131,4.117,0,0,16.826,82.31,6,P-GPS,
0.350448737377979,36.896152209542,6056.221181988,264.10762,0,1.58741474896,21500,2018-04-05 06:03:40,20,0,16.438,6056.221181988,264.10762,0.223694,1.58741474896,0,0,-10.961006,225.6, 1.4, 0,0,0,1024,1024,1684,1055,223.4,0,98,4.124,4.123,4.131,4.117,0,0,16.826,82.31,6,P-GPS,
0.350448734201495,36.8961521906524,6057.861601988,265.74804,0,1.58815949964,21600,2018-04-05 06:03:40,20,0,16.438,6057.861601988,265.74804,0.223694,1.58815949964,0,0,-10.961006,225.8, 1.6, 0,0,0,1024,1024,1684,1056,223.5,0,98,4.124,4.123,4.131,4.117,0,0,16.826,82.31,6,P-GPS,
0.350448738783122,36.8961521664869,6059.502021988,267.38846,0,1.5860072686,21700,2018-04-05 06:03:40,20,0,16.438,6059.502021988,267.38846,0.223694,1.58815949964,0,0,-10.961006,225.9, 1.6, 0.1,0,0,1024,1024,1684,1056,223.5,0,98,4.124,4.123,4.131,4.117,0,0,16.826,82.31,6,P-GPS,
0.350448745166623,36.8961521346982,6061.142441988,269.02888,0,1.58311684856,21800,2018-04-05 06:03:40,20,0,16.357,6061.142441988,269.02888,0.223694,1.58815949964,0,0,-10.961006,226.1, 1.4, 0,0,0,1024,1024,1684,1057,223.9,0,98,4.121,4.12,4.128,4.115,0,0,16.79,82.31,6,P-GPS,
0.350448706184625,36.8961520447916,6064.423281988,272.30972,0,1.59620083848,22000,2018-04-05 06:03:40,20,0,16.357,6064.423281988,272.30972,0.223694,1.59620083848,0,0,-11.1847,226.4, 1.9, 0,0,0,1024,1024,1684,1058,224.1,0,98,4.121,4.12,4.128,4.115,0,0,16.79,82.31,6,P-GPS,
0.350448663458122,36.8961519927691,6066.391785988,274.278224,0,1.61144690196,22100,2018-04-05 06:03:40,20,0,16.357,6066.391785988,274.278224,0.223694,1.61144690196,0,0,-11.1847,226.5, 1.8, 0.1,0,0,1024,1024,1684,1060,224.2,0,98,4.121,4.12,4.128,4.115,0,0,16.79,82.31,6,P-GPS,
0.350448625562704,36.8961519476424,6068.032205988,275.918644,0,1.62515753232,22200,2018-04-05 06:03:40,20,0,16.357,6068.032205988,275.918644,0.223694,1.62515753232,0,0,-11.1847,226.7, 1.9, 0.1,0,0,1024,1024,1684,1057,224.2,0,98,4.121,4.12,4.128,4.115,0,0,16.79,82.31,6,P-GPS,
0.350448593659857,36.8961519174087,6069.672625988,277.559064,0,1.63681435684,22300,2018-04-05 06:03:40,20,0,16.357,6069.672625988,277.559064,0.223694,1.63681435684,0,0,-11.1847,226.9, 1.8, 0.2,0,0,1024,1024,1684,1024,224.4,0,98,4.121,4.12,4.128,4.115,0,0,16.79,82.31,6,P-GPS,
0.350448583875657,36.896151900793,6071.313045988,279.199484,0,1.64042656168,22400,2018-04-05 06:03:40,20,0,16.357,6071.313045988,279.199484,0.223694,1.64042656168,0,0,-11.1847,227, 1.8, 0.2,0,0,1024,1024,1481,1024,224.7,0,98,4.121,4.12,4.128,4.115,0,0,16.79,82.31,6,P-GPS,
0.350448584933535,36.8961518716899,6072.953465988,280.839904,0,1.64016737532,22500,2018-04-05 06:03:41,20,0,16.357,6072.953465988,280.839904,0.223694,1.64042656168,0,0,-10.961006,227, 1.7, -0.1,0,0,1024,1024,1530,1024,224.7,0,98,4.121,4.12,4.128,4.115,0,0,16.79,82.31,6,P-GPS,
0.350448589199448,36.8961518348126,6074.593885988,282.480324,0,1.63886816268,22600,2018-04-05 06:03:41,20,0,16.357,6074.593885988,282.480324,0.223694,1.64042656168,0,0,-10.06623,227, 2, 0,0,0,1024,1024,1627,1024,224.8,0,98,4.121,4.12,4.128,4.115,0,0,16.79,82.31,6,P-GPS,
0.35044858938682,36.8961518038408,6075.906221988,283.79266,0,1.63910438316,22700,2018-04-05 06:03:41,20,0,16.357,6075.906221988,283.79266,0.223694,1.64042656168,0,0,-9.171454,227, 2.5, -0.2,0,0,1024,1024,1642,1024,224.9,0,98,4.121,4.12,4.128,4.115,0,0,16.79,82.31,6,P-GPS,
0.350448595369418,36.8961517926761,6077.218557988,285.104996,0,1.63705057732,22800,2018-04-05 06:03:41,20,0,16.33,6077.218557988,285.104996,0.223694,1.64042656168,0,0,-9.395148,227, 2.6, -0.3,0,0,1024,1024,1635,1024,225,0,98,4.116,4.117,4.123,4.11,0,0,17.122,82.31,6,P-GPS,
0.350448589756783,36.8961518033965,6078.858977988,286.745416,0,1.63897314956,22900,2018-04-05 06:03:41,20,0,16.33,6078.858977988,286.745416,0.223694,1.64042656168,0,0,-9.618842,227.1, 1.9, 0,0,0,1024,1024,1573,1024,225,0,98,4.116,4.117,4.123,4.11,0,0,17.122,82.31,6,P-GPS,
