latitude,longitude,altitude(feet),ascent(feet),speed(mph),distance(feet),time(millisecond),datetime(utc),satellites,voltage(v),max_altitude(feet),max_ascent(feet),max_speed(mph),max_distance(feet),compass_heading(degrees), pitch(degrees), roll(degrees),isPhoto,isVideo,rc_elevator,rc_aileron,rc_throttle,rc_rudder,gimbal_heading(degrees),gimbal_pitch(degrees),battery_percent,voltageCell1,voltageCell2,voltageCell3,voltageCell4,voltageCell5,voltageCell6,battery_temperature(f),flycStateRaw,flycState,message
0.308055157789741,36.87938533959,5800.8238880542,0,0,0,0,2017-11-15 13:23:15,15,0,5800.8238880542,0,0,0,7.1, -0.5, -0.1,0,0,1024,1024,1024,1024,11.7,0,100,4.298,4.3,4.301,4.299,0,0,87.71,41,Motors_Started,
0.308055174986924,36.8793853431538,5800.8238880542,0,0,0.0064076773704,100,2017-11-15 13:23:15,15,0,5800.8238880542,0,0,0.0064076773704,7.1, -0.5, -0.1,0,0,1024,1024,1024,1024,11.7,0,100,4.298,4.3,4.301,4.299,0,0,87.71,41,Motors_Started,
0.308055198134441,36.8793853482676,5800.8238880542,0,0,0.0150563653112,200,2017-11-15 13:23:15,15,0,5800.8238880542,0,0,0.0150563653112,7.2, -0.5, -0.1,0,0,1024,1024,1024,1024,11.7,0,100,4.298,4.3,4.301,4.299,0,0,87.71,41,Motors_Started,
0.308055232672517,36.8793853460008,5800.8238880542,0,0,0.0274208670192,300,2017-11-15 13:23:15,15,0,5800.8238880542,0,0,0.0274208670192,7.1, -0.5, -0.1,0,0,1024,1024,1024,1024,11.7,0,100,4.298,4.3,4.301,4.299,0,0,87.71,41,Motors_Started,
0.30805526590051,36.8793853466044,5800.8238880542,0,0,0.039527232236,400,2017-11-15 13:23:15,15,0,5800.8238880542,0,0,0.039527232236,7.1, -0.5, -0.1,0,0,1024,1024,1024,1024,11.6,0,100,4.298,4.3,4.301,4.299,0,0,87.71,41,Motors_Started,
0.308055274304502,36.879385341434,5800.8238880542,0,0,0.042515749392,500,2017-11-15 13:23:15,15,0,5800.8238880542,0,0,0.042515749392,7.1, -0.5, -0.1,0,0,1024,1024,1024,1024,11.7,0,100,4.298,4.3,4.301,4.299,0,0,87.71,41,Motors_Started,
0.308055284881246,36.8793853392633,5800.8238880542,0,0,0.046369424056,600,2017-11-15 13:23:15,15,0,5800.8238880542,0,0,0.046369424056,7.1, -0.5, -0.1,0,0,1024,1024,1024,1024,11.7,0,100,4.298,4.3,4.301,4.299,0,0,87.71,41,Motors_Started,
0.308055311102451,36.8793853332762,5800.8238880542,0,0,0.055983597592,700,2017-11-15 13:23:15,15,0,5800.8238880542,0,0,0.055983597592,7.1, -0.5, -0.1,0,0,1024,1024,1024,1024,11.6,0,100,4.298,4.3,4.301,4.299,0,0,87.71,41,Motors_Started,
0.30805533706392,36.8793853307398,5800.8238880542,0,0,0.065487862988,800,2017-11-15 13:23:16,15,0,5800.8238880542,0,0,0.065487862988,7.1, -0.5, -0.1,0,0,1024,1024,1024,1024,11.7,0,100,4.298,4.3,4.301,4.299,0,0,87.71,41,Motors_Started,
0.308055343004483,36.8793853255875,5800.8238880542,0,0,0.067768374872,900,2017-11-15 13:23:16,15,17.182,5800.8238880542,0,0,0.067768374872,7.1, -0.5, -0.1,0,0,414,394,474,1616,11.6,0,100,4.298,4.3,4.301,4.299,0,0,87.71,41,Motors_Started,
0.308055350011271,36.8793853225581,5800.8238880542,0,0,0.0704068264,1000,2017-11-15 13:23:16,15,17.182,5800.8238880542,0,0,0.0704068264,7.1, -0.4, -0.1,0,0,698,676,998,1024,11.3,0,100,4.298,4.3,4.301,4.299,0,0,87.71,41,Motors_Started,
0.308055378761042,36.8793853184709,5800.8238880542,0,0,0.080988519652,1100,2017-11-15 13:23:16,15,17.182,5800.8238880542,0,0,0.080988519652,7.1, -0.5, -0.1,0,0,1024,1024,1024,1024,9.5,0,100,4.298,4.3,4.301,4.299,0,0,87.71,41,Motors_Started,
0.308055407469289,36.8793853177913,5800.8238880542,0,0,0.09144193206,1200,2017-11-15 13:23:16,15,17.182,5800.8238880542,0,0,0.09144193206,7.1, -0.5, -0.1,0,0,1024,1024,1024,1024,8.7,0,100,4.298,4.3,4.301,4.299,0,0,87.71,41,Motors_Started,
0.30805545590532,36.879385314265,5800.8238880542,0,0,0.109159124228,1300,2017-11-15 13:23:16,15,17.182,5800.8238880542,0,0,0.109159124228,7.1, -0.5, -0.1,0,0,1024,1024,1024,1024,8.3,0,100,4.298,4.3,4.301,4.299,0,0,87.71,41,Motors_Started,
0.308055496570009,36.8793853137651,5800.8238880542,0,0,0.123962274308,1400,2017-11-15 13:23:16,15,17.182,5800.8238880542,0,0,0.123962274308,7.1, -0.4, -0.1,0,0,1024,1024,1024,1024,8.1,0,100,4.298,4.3,4.301,4.299,0,0,87.71,41,Motors_Started,
0.308055515766921,36.879385309295,5800.8238880542,0,0,0.13107447926,1500,2017-11-15 13:23:16,15,17.182,5800.8238880542,0,0,0.13107447926,7.1, -0.3, -0.2,0,0,1024,1024,1024,1024,7.9,0,100,4.298,4.3,4.301,4.299,0,0,87.71,41,Motors_Started,
0.308055535756886,36.8793853088599,5800.8238880542,0,0,0.138355975556,1600,2017-11-15 13:23:16,15,17.182,5800.8238880542,0,0,0.138355975556,7.1, -0.6, -0.1,0,0,1024,1024,1024,1024,7.8,0,100,4.298,4.3,4.301,4.299,0,0,87.71,10,Assisted_Takeoff,
0.30805557611217,36.8793852724667,5800.8238880542,0,0,0.154577104684,1700,2017-11-15 13:23:16,15,17.182,5800.8238880542,0,0,0.154577104684,7.1, -0.4, -0.2,0,0,1024,1024,1024,1024,7.8,0,100,4.298,4.3,4.301,4.299,0,0,87.71,10,Assisted_Takeoff,
0.308055611083005,36.8793852437352,5800.8238880542,0,0,0.169041015908,1800,2017-11-15 13:23:16,15,17.182,5800.8238880542,0,0,0.169041015908,7.1, -0.6, -0.1,0,0,1024,1024,1024,1024,7.7,0,100,4.298,4.3,4.301,4.299,0,0,87.71,10,Assisted_Takeoff,
0.308055625800068,36.8793852172282,5800.8238880542,0,0,0.1764927878,1900,2017-11-15 13:23:17,15,17.156,5800.8238880542,0,0,0.1764927878,7.1, -0.5, -0.1,0,0,1024,1024,1024,1024,7.7,0,100,4.291,4.292,4.291,4.288,0,0,87.71,10,Assisted_Takeoff,
0.308055641529616,36.8793852005489,5800.8238880542,0,0,0.183637801152,2000,2017-11-15 13:23:17,15,17.156,5800.8238880542,0,0,0.183637801152,7.1, -0.5, -0.1,0,0,1024,1024,1025,1024,7.6,0,100,4.291,4.292,4.291,4.288,0,0,87.71,10,Assisted_Takeoff,
0.308055676969035,36.8793851881025,5800.8238880542,0,0,0.197320872456,2100,2017-11-15 13:23:17,15,17.156,5800.8238880542,0,0,0.197320872456,7.1, -0.5, -0.1,0,0,1024,1024,1025,1024,7.6,0,100,4.291,4.292,4.291,4.288,0,0,87.71,10,Assisted_Takeoff,
0.30805570819282,36.8793851783285,5800.8238880542,0,0,0.209255584124,2200,2017-11-15 13:23:17,15,17.156,5800.8238880542,0,0,0.209255584124,7.1, -0.5, -0.1,0,0,1024,1024,1039,1024,7.6,0,100,4.291,4.292,4.291,4.288,0,0,87.71,10,Assisted_Takeoff,
0.308055723495716,36.8793851767085,5800.8238880542,0,0,0.214782159104,2300,2017-11-15 13:23:17,15,17.156,5800.8238880542,0,0,0.214782159104,7.1, -0.5, -0.1,0,0,1024,1024,1059,1024,7.6,0,100,4.291,4.292,4.291,4.288,0,0,87.71,10,Assisted_Takeoff,
0.308055736640109,36.879385174007,5800.8238880542,0,0,0.21966372094,2400,2017-11-15 13:23:17,15,17.156,5800.8238880542,0,0,0.21966372094,7.1, -0.5, -0.1,0,0,1024,1024,1088,1024,7.5,0,100,4.291,4.292,4.291,4.288,0,0,87.71,10,Assisted_Takeoff,
0.30805573376102,36.8793851379787,5800.8238880542,0,0,0.22264436408,2500,2017-11-15 13:23:17,15,17.156,5800.8238880542,0,0,0.22264436408,7.1, -0.5, -0.1,0,0,1024,1024,1141,1024,7.5,0,100,4.291,4.292,4.291,4.288,0,0,87.71,10,Assisted_Takeoff,
0.308055734645672,36.8793851085199,5800.8238880542,0,0,0.2267224482,2600,2017-11-15 13:23:17,15,17.156,5800.8238880542,0,0,0.2267224482,7.1, -0.5, -0.1,0,0,1024,1024,1140,1024,7.5,0,100,4.291,4.292,4.291,4.288,0,0,87.71,10,Assisted_Takeoff,
0.308055723663853,36.8793850865976,5800.8238880542,0,0,0.226152566292,2700,2017-11-15 13:23:17,15,17.156,5800.8238880542,0,0,0.2267224482,7.1, -0.6, -0.1,0,0,1024,1024,1161,1024,7.5,0,100,4.291,4.292,4.291,4.288,0,0,87.71,10,Assisted_Takeoff,
0.308055718349018,36.8793850692139,5800.8238880542,0,0,0.227066608316,2800,2017-11-15 13:23:17,15,17.156,5800.8238880542,0,0,0.227066608316,7.1, -0.4, -0.1,0,0,1024,1024,1161,1024,7.5,0,100,4.291,4.292,4.291,4.288,0,0,87.71,10,Assisted_Takeoff,
0.308055739215493,36.8793850579103,5800.8238880542,0,0,0.235715558724,2900,2017-11-15 13:23:18,15,17.156,5800.8238880542,0,0,0.235715558724,7, -0.3, -0.2,0,0,1024,1024,1203,1024,7.4,0,100,4.287,4.293,4.295,4.294,0,0,87.71,10,Assisted_Takeoff,
0.308055760852628,36.8793850511031,5800.8238880542,0,0,0.2439058477,3000,2017-11-15 13:23:18,15,17.156,5800.8238880542,0,0,0.2439058477,7.1, -0.4, 0,0,0,1024,1024,1225,1024,7.4,0,100,4.287,4.293,4.295,4.294,0,0,87.71,10,Assisted_Takeoff,
0.308055737743786,36.8793850533955,5800.8238880542,0,0,0.235956700464,3100,2017-11-15 13:23:18,15,17.156,5800.8238880542,0,0,0.2439058477,7, -0.4, 0,0,0,1024,1024,1252,1024,7.4,0,100,4.287,4.293,4.295,4.294,0,0,87.71,10,Assisted_Takeoff,
0.308055714105701,36.8793850504693,5800.8238880542,0,0,0.22874508606,3200,2017-11-15 13:23:18,15,17.156,5800.8238880542,0,0,0.2439058477,7.1, -0.1, -0.1,0,0,1024,1024,1280,1024,7.4,0,100,4.287,4.293,4.295,4.294,0,0,87.71,10,Assisted_Takeoff,
0.308055687770097,36.8793850507377,5800.8238880542,0,0,0.220216870564,3300,2017-11-15 13:23:18,15,17.156,5800.8238880542,0,0,0.2439058477,7.2, 1, 0.3,0,0,1024,1024,1278,1024,7.4,0,100,4.287,4.293,4.295,4.294,0,0,87.71,10,Assisted_Takeoff,
0.308055657587295,36.8793850536792,5800.8238880542,0,0,0.210078418796,3400,2017-11-15 13:23:18,15,17.156,5800.8238880542,0,0,0.2439058477,7.4, 2.2, -0.6,0,0,1024,1024,1337,1024,7.4,0,100,4.287,4.293,4.295,4.294,0,0,87.71,6,GPS_Atti,Obstacle Avoided. Revise Flight Route
0.308055551444908,36.8793850468585,5800.8238880542,0,0,0.178982289192,3500,2017-11-15 13:23:18,15,17.156,5800.8238880542,0,0,0.2439058477,7.5, 0.7, -1,0,0,1024,1024,1442,1024,7.4,0,100,4.287,4.293,4.295,4.294,0,0,87.71,6,GPS_Atti,
0.30805543158858,36.8793850047236,5800.8238880542,0,0,0.15781496568,3600,2017-11-15 13:23:18,15,17.156,5800.8238880542,0,0,0.2439058477,7.4, 0.4, -1,0,0,1024,1024,1494,1024,7.4,0,100,4.287,4.293,4.295,4.294,0,0,87.71,6,GPS_Atti,
0.30805528940832,36.8793848954902,5801.1519720542,0.328084,0.31540854,0.168993443728,3700,2017-11-15 13:23:18,15,17.156,5801.1519720542,0.328084,0.31540854,0.2439058477,7.3, 0, -0.2,0,0,1024,1024,1592,1024,7.4,0,100,4.287,4.293,4.295,4.294,0,0,87.71,6,GPS_Atti,
0.308055137917432,36.8793847548358,5801.4800560542,0.656168,0.31540854,0.213467198432,3800,2017-11-15 13:23:18,15,17.156,5801.4800560542,0.656168,0.31540854,0.2439058477,7.2, -0.1, 1.3,0,0,1024,1024,1684,1024,7.4,0,100,4.287,4.293,4.295,4.294,0,0,87.71,6,GPS_Atti,
0.308054964392475,36.8793845907248,5801.8081400542,0.984252,0.223694,0.28218340798,3900,2017-11-15 13:23:19,15,17.05,5801.8081400542,0.984252,0.31540854,0.28218340798,7.3, 0.6, 2.9,0,0,1024,1024,1684,1024,7.4,0,100,4.287,4.293,4.295,4.294,0,0,87.71,6,GPS_Atti,Setting new Return-To-Home altitude to 30m (98 ft). Setting new Maximum Flight Altitude to 120m (394 ft)
0.308054735265927,36.8793844987336,5802.4643080542,1.64042,0.223694,0.34333662516,4000,2017-11-15 13:23:19,15,17.05,5802.4643080542,1.64042,0.31540854,0.34333662516,7.2, -0.1, 2,0,0,1024,1024,1684,1040,7.4,0,100,4.287,4.293,4.295,4.294,0,0,87.71,6,GPS_Atti,Home Point Recorded. RTH Altitude:  30m.
0.308054421842568,36.8793844589337,5803.1204760542,2.296588,0.671082,0.41872704752,4100,2017-11-15 13:23:19,15,17.05,5803.1204760542,2.296588,0.671082,0.41872704752,7.4, -1.1, -0.1,0,0,1024,1024,1684,1072,7.4,0,100,4.287,4.293,4.295,4.294,0,0,87.71,6,GPS_Atti,
0.308054057641882,36.8793844242049,5804.1047280542,3.28084,0.671082,0.52215880936,4200,2017-11-15 13:23:19,15,17.05,5804.1047280542,3.28084,0.671082,0.52215880936,7.5, -3.4, -0.3,0,0,1024,1024,1684,1024,7.4,0,100,4.287,4.293,4.295,4.294,0,0,87.71,6,GPS_Atti,
0.308053666633955,36.8793844180107,5805.0889800542,4.265092,0.671082,0.63956366876,4300,2017-11-15 13:23:19,15,17.05,5805.0889800542,4.265092,0.671082,0.63956366876,8.1, -5.6, 1.4,0,0,1024,1024,1684,1077,7.5,0,100,4.287,4.293,4.295,4.294,0,0,87.71,6,GPS_Atti,Obstacle Avoided. Revise Flight Route
0.308053338944408,36.8793844710016,5806.4013160542,5.577428,0.50107456,0.73538716264,4400,2017-11-15 13:23:19,15,17.05,5806.4013160542,5.577428,0.671082,0.73538716264,8.7, -5.8, -0.5,0,0,1024,1024,1684,1029,7.5,0,100,4.287,4.293,4.295,4.294,0,0,87.71,6,GPS_Atti,
0.308053112431716,36.879384560454,5807.7136520542,6.889764,0.223694,0.798556456,4500,2017-11-15 13:23:19,15,17.05,5807.7136520542,6.889764,0.671082,0.798556456,9.1, -5, -2.8,0,0,1024,1024,1684,1050,7.6,0,100,4.287,4.293,4.295,4.294,0,0,87.71,6,GPS_Atti,
0.308052932040425,36.8793845827919,5809.3540720542,8.530184,0.223694,0.85771984372,4600,2017-11-15 13:23:19,15,17.05,5809.3540720542,8.530184,0.671082,0.85771984372,9.3, -4.6, -2.7,0,0,1024,1024,1684,1028,7.7,0,100,4.287,4.293,4.295,4.294,0,0,87.71,6,GPS_Atti,
0.308052778978496,36.8793845630569,5810.6664080542,9.84252,0.223694,0.91297903184,4700,2017-11-15 13:23:19,15,17.05,5810.6664080542,9.84252,0.671082,0.91297903184,9.3, -4.6, -2.8,0,0,1024,1024,1684,1028,7.8,0,100,4.287,4.293,4.295,4.294,0,0,87.71,6,GPS_Atti,
0.308052627800472,36.8793844719057,5812.3068280542,11.48294,0.223694,0.97583992624,4800,2017-11-15 13:23:20,15,17.05,5812.3068280542,11.48294,0.671082,0.97583992624,9.3, -6.1, -1.6,0,0,1024,1024,1684,1036,7.8,0,100,4.287,4.293,4.295,4.294,0,0,87.71,6,GPS_Atti,
0.308052540666302,36.8793842820881,5814.2753320542,13.451444,0.223694,1.02985895684,4900,2017-11-15 13:23:20,15,16.419,5814.2753320542,13.451444,0.671082,1.02985895684,9.3, -7, 0,0,0,1024,1024,1684,1032,8,0,100,4.221,4.224,4.22,4.208,0,0,87.71,6,GPS_Atti,
0.30805250482771,36.8793840922299,5815.9157520542,15.091864,0,1.06958008672,5000,2017-11-15 13:23:20,15,16.419,5815.9157520542,15.091864,0.671082,1.06958008672,9.5, -6.3, 1.1,0,0,1024,1024,1684,1032,8,0,100,4.221,4.224,4.22,4.208,0,0,87.71,6,GPS_Atti,
0.308052545124981,36.8793838920015,5817.5561720542,16.732284,0,1.0897638144,5100,2017-11-15 13:23:20,15,16.419,5817.5561720542,16.732284,0.671082,1.0897638144,9.6, -5, 0.6,0,0,1024,1024,1684,1070,8,0,100,4.221,4.224,4.22,4.208,0,0,87.71,6,GPS_Atti,
0.30805258340115,36.8793837037905,5819.1965920542,18.372704,0,1.11283468128,5200,2017-11-15 13:23:20,15,16.419,5819.1965920542,18.372704,0.671082,1.11283468128,9.7, -4.4, 0.2,0,0,1024,1024,1684,1050,8.2,0,100,4.221,4.224,4.22,4.208,0,0,87.71,6,GPS_Atti,
0.308052660733513,36.8793834912495,5820.8370120542,20.013124,0.223694,1.13347444572,5300,2017-11-15 13:23:20,15,16.419,5820.8370120542,20.013124,0.671082,1.13347444572,10, -4.3, 1,0,0,1024,1024,1684,1069,8.3,0,100,4.221,4.224,4.22,4.208,0,0,87.71,6,GPS_Atti,
0.308052722085548,36.879383262484,5822.1493480542,21.32546,0.223694,1.16791014236,5400,2017-11-15 13:23:20,15,16.419,5822.1493480542,21.32546,0.671082,1.16791014236,10.1, -4.6, 2.4,0,0,1024,1024,1684,1050,8.4,0,100,4.221,4.224,4.22,4.208,0,0,87.71,6,GPS_Atti,
0.308052776082512,36.8793830169124,5823.7897680542,22.96588,0.223694,1.21375988136,5500,2017-11-15 13:23:20,15,16.419,5823.7897680542,22.96588,0.671082,1.21375988136,10.3, -4.7, 3,0,0,1024,1024,1684,1073,8.5,0,100,4.221,4.224,4.22,4.208,0,0,87.71,6,GPS_Atti,
0.308052820247948,36.8793828080843,5825.4301880542,24.6063,0.223694,1.25713914784,5600,2017-11-15 13:23:20,15,16.419,5825.4301880542,24.6063,0.671082,1.25713914784,10.5, -4.6, 3.1,0,0,1024,1024,1684,1052,8.7,0,100,4.221,4.224,4.22,4.208,0,0,87.71,6,GPS_Atti,
0.308052849808685,36.8793826094738,5826.7425240542,25.918636,0,1.30431106536,5700,2017-11-15 13:23:20,15,16.419,5826.7425240542,25.918636,0.671082,1.30431106536,10.9, -4.5, 2.4,0,0,1024,1024,1684,1064,8.9,0,100,4.221,4.224,4.22,4.208,0,0,87.71,6,GPS_Atti,
0.308052880318398,36.8793824515439,5828.3829440542,27.559056,0,1.34190293008,5800,2017-11-15 13:23:20,15,16.419,5828.3829440542,27.559056,0.671082,1.34190293008,11.1, -4.2, 1.7,0,0,1024,1024,1684,1062,9,0,100,4.221,4.224,4.22,4.208,0,0,87.71,6,GPS_Atti,
0.308052925238415,36.8793823347478,5830.0233640542,29.199476,0,1.3657808836,5900,2017-11-15 13:23:21,15,16.524,5830.0233640542,29.199476,0.671082,1.3657808836,11.3, -4, 1.4,0,0,1024,1024,1684,1056,9.2,0,100,4.154,4.163,4.162,4.156,0,0,87.71,6,GPS_Atti,
0.308052957584198,36.8793822187745,5831.6637840542,30.839896,0,1.39313652752,6000,2017-11-15 13:23:21,15,16.524,5831.6637840542,30.839896,0.671082,1.39313652752,11.6, -4.1, 2,0,0,1024,1024,1684,1056,9.4,0,100,4.154,4.163,4.162,4.156,0,0,87.71,6,GPS_Atti,
0.308052950463623,36.8793821036766,5832.9761200542,32.152232,0,1.42912734232,6100,2017-11-15 13:23:21,15,16.524,5832.9761200542,32.152232,0.671082,1.42912734232,11.9, -4.6, 2.1,0,0,1024,1024,1684,1064,9.6,0,100,4.154,4.163,4.162,4.156,0,0,87.71,6,GPS_Atti,
0.308052932096606,36.8793820067983,5834.6165400542,33.792652,0,1.4621719628,6200,2017-11-15 13:23:21,15,16.524,5834.6165400542,33.792652,0.671082,1.4621719628,12, -4.8, 1.7,0,0,1024,1024,1684,1059,9.8,0,100,4.154,4.163,4.162,4.156,0,0,87.71,6,GPS_Atti,
0.308052927248525,36.8793819045386,5836.2569600542,35.433072,0,1.49430450976,6300,2017-11-15 13:23:21,15,16.524,5836.2569600542,35.433072,0.671082,1.49430450976,12.2, -5.3, 1.1,0,0,1024,1024,1684,1058,9.9,0,100,4.154,4.163,4.162,4.156,0,0,87.71,6,GPS_Atti,
0.308052930347861,36.8793818129584,5837.5692960542,36.745408,0,1.52183075736,6400,2017-11-15 13:23:21,15,16.524,5837.5692960542,36.745408,0.671082,1.52183075736,12.4, -5.5, 0.9,0,0,1024,1024,1684,1057,10.1,0,100,4.154,4.163,4.162,4.156,0,0,87.71,6,GPS_Atti,
0.308052952949442,36.8793817193047,5839.2097160542,38.385828,0,1.5465223592,6500,2017-11-15 13:23:21,15,16.524,5839.2097160542,38.385828,0.671082,1.5465223592,12.6, -5, 0.7,0,0,1024,1024,1684,1029,10.3,0,100,4.154,4.163,4.162,4.156,0,0,87.71,6,GPS_Atti,
0.308052981808727,36.8793816209608,5840.8501360542,40.026248,0,1.571932465,6600,2017-11-15 13:23:21,15,16.524,5840.8501360542,40.026248,0.671082,1.571932465,12.8, -4.8, 1,0,0,1024,1024,1684,1024,10.4,0,100,4.154,4.163,4.162,4.156,0,0,87.71,6,GPS_Atti,
0.308053003783561,36.8793814977984,5842.1624720542,41.338584,0,1.6069390278,6700,2017-11-15 13:23:21,15,16.524,5842.1624720542,41.338584,0.671082,1.6069390278,12.7, -5.1, 1.1,0,0,1024,1024,1684,1024,10.6,0,100,4.154,4.163,4.162,4.156,0,0,87.71,6,GPS_Atti,
0.308053024190407,36.8793813715816,5843.8028920542,42.979004,0,1.64372052504,6800,2017-11-15 13:23:21,15,16.524,5843.8028920542,42.979004,0.671082,1.64372052504,12.7, -5.4, 1.7,0,0,1024,1024,1684,994,10.6,0,100,4.154,4.163,4.162,4.156,0,0,87.71,6,GPS_Atti,
0.30805303772013,36.879381206155,5845.4433120542,44.619424,0,1.69486225896,6900,2017-11-15 13:23:22,15,16.577,5845.4433120542,44.619424,0.671082,1.69486225896,12.7, -5.1, 1.7,0,0,1024,1024,1684,1008,10.7,0,100,4.154,4.163,4.162,4.156,0,0,87.71,6,GPS_Atti,
0.308053056774757,36.879381058084,5847.0837320542,46.259844,0,1.74002958324,7000,2017-11-15 13:23:22,15,16.577,5847.0837320542,46.259844,0.671082,1.74002958324,12.7, -4.9, 1.8,0,0,1024,1024,1684,1024,10.8,0,100,4.154,4.163,4.162,4.156,0,0,87.71,6,GPS_Atti,
0.308053091596793,36.8793809315086,5848.7241520542,47.900264,0,1.77617459752,7100,2017-11-15 13:23:22,15,16.577,5848.7241520542,47.900264,0.671082,1.77617459752,12.7, -5, 2,0,0,1024,1024,1684,1011,10.9,0,100,4.154,4.163,4.162,4.156,0,0,87.71,6,GPS_Atti,
0.308053111778303,36.8793808171965,5850.3645720542,49.540684,0,1.81097774824,7200,2017-11-15 13:23:22,15,16.577,5850.3645720542,49.540684,0.671082,1.81097774824,12.7, -5.6, 1.9,0,0,1024,1024,1684,970,11,0,100,4.154,4.163,4.162,4.156,0,0,87.71,6,GPS_Atti,
0.308053105861148,36.8793806821928,5852.0049920542,51.181104,0,1.85683404892,7300,2017-11-15 13:23:22,15,16.577,5852.0049920542,51.181104,0.671082,1.85683404892,12.7, -5.6, 1.8,0,0,1024,1024,1684,965,11,0,100,4.154,4.163,4.162,4.156,0,0,87.71,6,GPS_Atti,
0.308053093494134,36.879380555494,5853.6454120542,52.821524,0,1.90101055952,7400,2017-11-15 13:23:22,15,16.577,5853.6454120542,52.821524,0.671082,1.90101055952,12.3, -6, 1.8,0,0,1024,1024,1684,904,10.9,0,100,4.154,4.163,4.162,4.156,0,0,87.71,6,GPS_Atti,
0.308053102815551,36.8793803960638,5855.2858320542,54.461944,0,1.95324481316,7500,2017-11-15 13:23:22,15,16.577,5855.2858320542,54.461944,0.671082,1.95324481316,11.8, -6.6, 2.1,0,0,1024,1024,1684,964,10.5,0,100,4.154,4.163,4.162,4.156,0,0,87.71,6,GPS_Atti,
0.308053118348871,36.8793802470204,5856.9262520542,56.102364,0,2.00145347612,7600,2017-11-15 13:23:22,15,16.577,5856.9262520542,56.102364,0.671082,2.00145347612,10.7, -6.4, 2.3,0,0,1024,1024,1684,938,10.2,0,100,4.154,4.163,4.162,4.156,0,0,87.71,6,GPS_Atti,
0.308053139864687,36.8793800961014,5858.8947560542,58.070868,0,2.0498360236,7700,2017-11-15 13:23:22,15,16.577,5858.8947560542,58.070868,0.671082,2.0498360236,10, -6.3, 2.5,0,0,1024,1024,1684,925,9.9,0,100,4.154,4.163,4.162,4.156,0,0,87.71,6,GPS_Atti,
0.308053157721186,36.8793799424287,5860.5351760542,59.711288,0.223694,2.09998694384,7800,2017-11-15 13:23:23,15,16.577,5860.5351760542,59.711288,0.671082,2.09998694384,9.3, -6.7, 3.1,0,0,1024,1024,1684,958,9.4,0,100,4.154,4.163,4.162,4.156,0,0,87.71,6,GPS_Atti,
0.308053180573955,36.8793797332727,5862.5036800542,61.679792,0.223694,2.1689141114,7900,2017-11-15 13:23:23,15,16.524,5862.5036800542,61.679792,0.671082,2.1689141114,8.4, -7, 3.7,0,0,1024,1024,1684,1024,9.2,0,100,4.161,4.169,4.166,4.156,0,0,87.71,6,GPS_Atti,
0.308053221400878,36.8793795430282,5864.1441000542,63.320212,0.223694,2.22972776164,8000,2017-11-15 13:23:23,15,16.524,5864.1441000542,63.320212,0.671082,2.22972776164,7.7, -6.9, 3.9,0,0,1024,1024,1684,1024,9.1,0,100,4.161,4.169,4.166,4.156,0,0,87.71,6,GPS_Atti,
0.308053310058865,36.8793793710496,5866.1126040542,65.288716,0,2.27955059788,8100,2017-11-15 13:23:23,15,16.524,5866.1126040542,65.288716,0.671082,2.27955059788,7.7, -6.1, 4,0,0,1024,1024,1684,1016,9.1,0,100,4.161,4.169,4.166,4.156,0,0,87.71,6,GPS_Atti,
0.308053401885397,36.8793792183212,5867.7530240542,66.929136,0,2.32337933944,8200,2017-11-15 13:23:23,15,16.524,5867.7530240542,66.929136,0.671082,2.32337933944,7.8, -5.4, 3.7,0,0,1024,1024,1684,1024,9.1,0,100,4.161,4.169,4.166,4.156,0,0,87.71,6,GPS_Atti,
0.308053457569226,36.8793790980366,5869.7215280542,68.89764,0.223694,2.36017396004,8300,2017-11-15 13:23:23,15,16.524,5869.7215280542,68.89764,0.671082,2.36017396004,7.9, -4.9, 3.5,0,0,1024,1024,1684,1024,9.1,0,100,4.161,4.169,4.166,4.156,0,0,87.71,6,GPS_Atti,
0.308053489609879,36.8793789589128,5871.6900320542,70.866144,0.223694,2.4062008644,8400,2017-11-15 13:23:23,15,16.524,5871.6900320542,70.866144,0.671082,2.4062008644,7.9, -5.3, 4.5,0,0,1024,1024,1684,1023,9.1,0,100,4.161,4.169,4.166,4.156,0,0,87.71,6,GPS_Atti,
0.308053515247491,36.8793788341156,5873.6585360542,72.834648,0.223694,2.44797251928,8500,2017-11-15 13:23:23,15,16.524,5873.6585360542,72.834648,0.671082,2.44797251928,7.8, -6.3, 5.7,0,0,1024,1024,1684,1023,9.1,0,100,4.161,4.169,4.166,4.156,0,0,87.71,6,GPS_Atti,
0.30805353026724,36.8793787271609,5875.6270400542,74.803152,0,2.48450795352,8600,2017-11-15 13:23:23,15,16.524,5875.6270400542,74.803152,0.671082,2.48450795352,7.6, -7, 5.4,0,0,1024,1024,1684,1023,9.1,0,100,4.161,4.169,4.166,4.156,0,0,87.71,6,GPS_Atti,
0.308053559040217,36.8793786127608,5877.2674600542,76.443572,0,2.52260834844,8700,2017-11-15 13:23:23,15,16.524,5877.2674600542,76.443572,0.671082,2.52260834844,7.7, -6.8, 5,0,0,1024,1024,1684,1023,9.1,0,100,4.161,4.169,4.166,4.156,0,0,87.71,6,GPS_Atti,
0.308053592157883,36.8793785181794,5879.2359640542,78.412076,0,2.55346464864,8800,2017-11-15 13:23:23,15,16.524,5879.2359640542,78.412076,0.671082,2.55346464864,7.7, -6.4, 4.6,0,0,1024,1024,1684,1023,9.1,0,100,4.161,4.169,4.166,4.156,0,0,87.71,6,GPS_Atti,
0.30805361426055,36.879378462658,5881.2044680542,80.38058,0,2.57143380932,8900,2017-11-15 13:23:24,15,16.524,5881.2044680542,80.38058,0.671082,2.57143380932,7.7, -6.4, 4.6,0,0,1024,1024,1684,1023,9,0,100,4.156,4.164,4.161,4.156,0,0,87.71,6,GPS_Atti,
0.308053628616505,36.8793784215698,5883.1729720542,82.349084,0,2.5849246234,9000,2017-11-15 13:23:24,15,16.524,5883.1729720542,82.349084,0.671082,2.5849246234,7.7, -6.4, 4.9,0,0,1024,1024,1684,1020,9,0,100,4.156,4.164,4.161,4.156,0,0,87.71,6,GPS_Atti,
0.3080536232919,36.879378398619,5885.1414760542,84.317588,0,2.5935204242,9100,2017-11-15 13:23:24,15,16.524,5885.1414760542,84.317588,0.671082,2.5935204242,7.7, -6, 4.7,0,0,1024,1024,1684,1022,9,0,100,4.156,4.164,4.161,4.156,0,0,87.71,6,GPS_Atti,
0.308053614733409,36.87937841066,5886.7818960542,85.958008,0,2.58990821936,9200,2017-11-15 13:23:24,15,16.524,5886.7818960542,85.958008,0.671082,2.5935204242,7.7, -5.8, 4.1,0,0,1024,1024,1684,1023,9,0,100,4.156,4.164,4.161,4.156,0,0,87.71,6,GPS_Atti,
0.308053584403436,36.8793784493784,5888.7504000542,87.926512,0.223694,2.57856307464,9300,2017-11-15 13:23:24,15,16.524,5888.7504000542,87.926512,0.671082,2.5935204242,7.8, -6.1, 3.4,0,0,1024,1024,1684,1023,9,0,100,4.156,4.164,4.161,4.156,0,0,87.71,6,GPS_Atti,
0.308053547687316,36.8793785100108,5890.7189040542,89.895016,0.223694,2.56004273284,9400,2017-11-15 13:23:24,15,16.524,5890.7189040542,89.895016,0.671082,2.5935204242,7.8, -6.4, 2.7,0,0,1024,1024,1684,1024,9,0,100,4.156,4.164,4.161,4.156,0,0,87.71,6,GPS_Atti,
0.308053544127334,36.8793786059732,5892.6874080542,91.86352,0.223694,2.5262796084,9500,2017-11-15 13:23:24,15,16.524,5892.6874080542,91.86352,0.671082,2.5935204242,7.8, -6.7, 2.3,0,0,1024,1024,1684,1024,9,0,100,4.156,4.164,4.161,4.156,0,0,87.71,6,GPS_Atti,
0.308053539648299,36.8793787035993,5894.6559120542,93.832024,0.223694,2.492044043,9600,2017-11-15 13:23:24,15,16.524,5894.6559120542,93.832024,0.671082,2.5935204242,7.9, -6.8, 2.2,0,0,1024,1024,1684,1024,9,0,100,4.156,4.164,4.161,4.156,0,0,87.71,6,GPS_Atti,
0.308053515428655,36.8793787944058,5896.6244160542,95.800528,0.223694,2.46200467196,9700,2017-11-15 13:23:24,15,16.524,5896.6244160542,95.800528,0.671082,2.5935204242,7.9, -6.8, 2,0,0,1024,1024,1684,1024,9,0,100,4.156,4.164,4.161,4.156,0,0,87.71,6,GPS_Atti,
0.308053490870295,36.8793788872394,5898.9210040542,98.097116,0.223694,2.43139443476,9800,2017-11-15 13:23:24,15,16.524,5898.9210040542,98.097116,0.671082,2.5935204242,7.9, -6.9, 1.6,0,0,1024,1024,1684,1024,9,0,100,4.156,4.164,4.161,4.156,0,0,87.71,6,GPS_Atti,
0.308053487287514,36.8793789942091,5900.8895080542,100.06562,0.223694,2.39396005036,9900,2017-11-15 13:23:25,15,16.55,5900.8895080542,100.06562,0.671082,2.5935204242,7.9, -7, 1.5,0,0,1024,1024,1684,1024,8.9,0,99,4.155,4.164,4.164,4.158,0,0,87.71,6,GPS_Atti,
0.308053496549697,36.8793790965565,5902.5299280542,101.70604,0.223694,2.35699810692,10000,2017-11-15 13:23:25,15,16.55,5902.5299280542,101.70604,0.671082,2.5935204242,7.9, -7.1, 1.1,0,0,1024,1024,1684,1024,8.9,0,99,4.155,4.164,4.164,4.158,0,0,87.71,6,GPS_Atti,
0.308053540645314,36.879379196722,5904.4984320542,103.674544,0.223694,2.3175525676,10100,2017-11-15 13:23:25,15,16.55,5904.4984320542,103.674544,0.671082,2.5935204242,7.9, -6.3, 1.1,0,0,1024,1024,1684,1024,8.9,0,99,4.155,4.164,4.164,4.158,0,0,87.71,6,GPS_Atti,
0.308053585759726,36.8793792772985,5906.4669360542,105.643048,0.223694,2.28494757968,10200,2017-11-15 13:23:25,15,16.55,5906.4669360542,105.643048,0.671082,2.5935204242,7.9, -6.2, 1.4,0,0,1024,1024,1684,1024,8.9,0,99,4.155,4.164,4.164,4.158,0,0,87.71,6,GPS_Atti,
0.308053626160201,36.8793793555319,5908.1073560542,107.283468,0.223694,2.25362868104,10300,2017-11-15 13:23:25,15,16.55,5908.1073560542,107.283468,0.671082,2.5935204242,7.9, -6.8, 1.6,0,0,1024,1024,1684,1024,8.9,0,99,4.155,4.164,4.164,4.158,0,0,87.71,6,GPS_Atti,
0.308053678729223,36.8793794405384,5910.0758600542,109.251972,0.223694,2.21885505788,10400,2017-11-15 13:23:25,15,16.55,5910.0758600542,109.251972,0.671082,2.5935204242,7.9, -6.3, 1.6,0,0,1024,1024,1684,1024,8.9,0,99,4.155,4.164,4.164,4.158,0,0,87.71,6,GPS_Atti,
0.308053731638793,36.8793795238545,5911.7162800542,110.892392,0.223694,2.18470479432,10500,2017-11-15 13:23:25,15,16.55,5911.7162800542,110.892392,0.671082,2.5935204242,7.9, -5.4, 1.4,0,0,1024,1024,1684,1024,8.9,0,99,4.155,4.164,4.164,4.158,0,0,87.71,6,GPS_Atti,
0.308053790000597,36.8793796202312,5913.6847840542,112.860896,0.223694,2.14551844136,10600,2017-11-15 13:23:25,15,16.55,5913.6847840542,112.860896,0.671082,2.5935204242,7.9, -4.8, 0.7,0,0,1024,1024,1684,1024,8.9,0,99,4.155,4.164,4.164,4.158,0,0,87.71,6,GPS_Atti,
0.308053873715239,36.8793797649269,5915.3252040542,114.501316,0.223694,2.08714245524,10700,2017-11-15 13:23:25,15,16.55,5915.3252040542,114.501316,0.671082,2.5935204242,7.9, -4.9, 0.7,0,0,1024,1024,1684,1024,8.8,0,99,4.155,4.164,4.164,4.158,0,0,87.71,6,GPS_Atti,
0.308053950371798,36.8793799048039,5916.9656240542,116.141736,0.223694,2.03119429072,10800,2017-11-15 13:23:26,15,16.55,5916.9656240542,116.141736,0.671082,2.5935204242,7.9, -5.4, 0.3,0,0,1024,1024,1684,1024,8.8,0,99,4.155,4.164,4.164,4.158,0,0,87.71,6,GPS_Atti,
0.308054015128909,36.8793800353255,5918.9341280542,118.11024,0.223694,1.9796260476,10900,2017-11-15 13:23:26,15,16.577,5918.9341280542,118.11024,0.671082,2.5935204242,7.8, -5.1, -0.7,0,0,1024,1024,1684,1023,8.8,0,99,4.155,4.164,4.164,4.158,0,0,87.71,6,GPS_Atti,
0.308054078424084,36.8793801192839,5920.9026320542,120.078744,0,1.94488523284,11000,2017-11-15 13:23:26,15,16.577,5920.9026320542,120.078744,0.671082,2.5935204242,7.8, -4.9, -1.3,0,0,1024,1024,1684,1023,8.8,0,99,4.155,4.164,4.164,4.158,0,0,87.71,6,GPS_Atti,
0.308054096233155,36.879380190225,5922.5430520542,121.719164,0,1.91822184616,11100,2017-11-15 13:23:26,15,16.577,5922.5430520542,121.719164,0.671082,2.5935204242,7.8, -5.3, 0,0,0,1024,1024,1684,1022,8.8,0,99,4.155,4.164,4.164,4.158,0,0,87.71,6,GPS_Atti,
0.308054124618969,36.8793802013067,5924.5115560542,123.687668,0,1.91219494308,11200,2017-11-15 13:23:26,15,16.577,5924.5115560542,123.687668,0.671082,2.5935204242,7.8, -5.6, 1.2,0,0,1024,1024,1684,1022,8.8,0,99,4.155,4.164,4.164,4.158,0,0,87.71,6,GPS_Atti,
0.308054191672594,36.8793801866626,5926.4800600542,125.656172,0,1.91277565176,11300,2017-11-15 13:23:26,15,16.577,5926.4800600542,125.656172,0.671082,2.5935204242,7.8, -5.3, 2.1,0,0,1024,1024,1684,1023,8.8,0,99,4.155,4.164,4.164,4.158,0,0,87.71,6,GPS_Atti,
0.3080542662537,36.8793801596024,5928.1204800542,127.296592,0,1.91767722672,11400,2017-11-15 13:23:26,15,16.577,5928.1204800542,127.296592,0.671082,2.5935204242,7.8, -5.1, 2.3,0,0,1024,1024,1684,1020,8.8,0,99,4.155,4.164,4.164,4.158,0,0,87.71,6,GPS_Atti,
0.308054325167954,36.8793801892026,5930.0889840542,129.265096,0,1.90348431288,11500,2017-11-15 13:23:26,15,16.577,5930.0889840542,129.265096,0.671082,2.5935204242,7.9, -5.1, 2.4,0,0,1024,1024,1684,1007,8.7,0,99,4.155,4.164,4.164,4.158,0,0,87.71,6,GPS_Atti,
0.308054374699521,36.8793802089989,5931.7294040542,130.905516,0,1.89354336768,11600,2017-11-15 13:23:26,15,16.577,5931.7294040542,130.905516,0.671082,2.5935204242,7.8, -5.2, 2,0,0,1024,1024,1684,995,8.7,0,99,4.155,4.164,4.164,4.158,0,0,87.71,6,GPS_Atti,
0.308054404675918,36.8793802775702,5933.6979080542,132.87402,0,1.8671752566,11700,2017-11-15 13:23:26,15,16.577,5933.6979080542,132.87402,0.671082,2.5935204242,7.8, -5, 1.4,0,0,1024,1024,1684,983,8.7,0,99,4.155,4.164,4.164,4.158,0,0,87.71,6,GPS_Atti,
0.308054423504802,36.8793803018368,5935.6664120542,134.842524,0,1.85741803844,11800,2017-11-15 13:23:26,15,16.577,5935.6664120542,134.842524,0.671082,2.5935204242,7.7, -5.2, 1.1,0,0,1024,1024,1684,965,8.7,0,99,4.155,4.164,4.164,4.158,0,0,87.71,6,GPS_Atti,
0.308054428002564,36.8793803299361,5937.3068320542,136.482944,0,1.84703417984,11900,2017-11-15 13:23:27,15,16.498,5937.3068320542,136.482944,0.671082,2.5935204242,7.4, -5.6, 1.6,0,0,1024,1024,1684,967,8.5,0,99,4.152,4.156,4.152,4.144,0,0,87.71,6,GPS_Atti,
0.308054430279536,36.8793803022008,5939.2753360542,138.451448,0,1.85692919328,12000,2017-11-15 13:23:27,15,16.498,5939.2753360542,138.451448,0.671082,2.5935204242,6.9, -6.1, 2.6,0,0,1024,1024,1684,967,8.3,0,99,4.152,4.156,4.152,4.144,0,0,87.71,6,GPS_Atti,
0.308054450308176,36.8793802414994,5941.2438400542,140.419952,0,1.87783470576,12100,2017-11-15 13:23:27,15,16.498,5941.2438400542,140.419952,0.671082,2.5935204242,6.4, -6.4, 3.4,0,0,1024,1024,1684,969,8.1,0,99,4.152,4.156,4.152,4.144,0,0,87.71,6,GPS_Atti,
0.308054476206542,36.8793801669059,5943.2123440542,142.388456,0,1.90353680632,12200,2017-11-15 13:23:27,15,16.498,5943.2123440542,142.388456,0.671082,2.5935204242,6, -6.4, 3.6,0,0,1024,1024,1684,970,7.9,0,99,4.152,4.156,4.152,4.144,0,0,87.71,6,GPS_Atti,
0.308054535866216,36.8793801090898,5944.8527640542,144.028876,0,1.92175859168,12300,2017-11-15 13:23:27,15,16.498,5944.8527640542,144.028876,0.671082,2.5935204242,5.7, -5.8, 4.1,0,0,1024,1024,1684,969,7.7,0,99,4.152,4.156,4.152,4.144,0,0,87.71,6,GPS_Atti,
0.308054581693073,36.8793800669915,5946.8212680542,145.99738,0,1.93512473384,12400,2017-11-15 13:23:27,15,16.498,5946.8212680542,145.99738,0.671082,2.5935204242,5.2, -5.6, 4.1,0,0,1024,1024,1684,979,7.5,0,99,4.152,4.156,4.152,4.144,0,0,87.71,6,GPS_Atti,
0.308054601976564,36.8793800836386,5948.4616880542,147.6378,0,1.9282973058,12500,2017-11-15 13:23:27,15,16.498,5948.4616880542,147.6378,0.671082,2.5935204242,4.8, -5.5, 3.2,0,0,1024,1024,1684,978,7.3,0,99,4.152,4.156,4.152,4.144,0,0,87.71,6,GPS_Atti,
0.308054603602566,36.8793801074432,5950.4301920542,149.606304,0,1.91959651812,12600,2017-11-15 13:23:27,15,16.498,5950.4301920542,149.606304,0.671082,2.5935204242,4.4, -5.7, 2.2,0,0,1024,1024,1684,981,7.1,0,99,4.152,4.156,4.152,4.144,0,0,87.71,6,GPS_Atti,
0.308054607150538,36.8793801239003,5952.3986960542,151.574808,0,1.91349087488,12700,2017-11-15 13:23:27,15,16.498,5952.3986960542,151.574808,0.671082,2.5935204242,4, -6.3, 2.2,0,0,1024,1024,1684,1001,6.9,0,99,4.152,4.156,4.152,4.144,0,0,87.71,6,GPS_Atti,
0.308054604023926,36.8793801095185,5954.0391160542,153.215228,0,1.91882880156,12800,2017-11-15 13:23:27,15,16.498,5954.0391160542,153.215228,0.671082,2.5935204242,3.8, -6.6, 2.5,0,0,1024,1024,1684,1001,6.8,0,99,4.152,4.156,4.152,4.144,0,0,87.71,6,GPS_Atti,
0.308054565663077,36.8793800508576,5956.0076200542,155.183732,0,1.94162079704,12900,2017-11-15 13:23:28,15,16.471,5956.0076200542,155.183732,0.671082,2.5935204242,3.7, -6.8, 2.6,0,0,1024,1024,1684,994,6.7,0,99,4.142,4.15,4.146,4.138,0,0,87.71,6,GPS_Atti,
0.308054531616385,36.8793799736713,5957.6480400542,156.824152,0,1.97101056176,13000,2017-11-15 13:23:28,15,16.471,5957.6480400542,156.824152,0.671082,2.5935204242,3.6, -6.6, 2.8,0,0,1024,1024,1684,991,6.7,0,99,4.142,4.15,4.146,4.138,0,0,87.71,6,GPS_Atti,
0.308054508216866,36.8793798595441,5959.6165440542,158.792656,0,2.01335964448,13100,2017-11-15 13:23:28,15,16.471,5959.6165440542,158.792656,0.671082,2.5935204242,3.5, -6.6, 3.2,0,0,1024,1024,1684,1000,6.5,0,99,4.142,4.15,4.146,4.138,0,0,87.71,6,GPS_Atti,
0.308054488374276,36.8793797351361,5961.2569640542,160.433076,0.223694,2.05928812364,13200,2017-11-15 13:23:28,15,16.471,5961.2569640542,160.433076,0.671082,2.5935204242,3.3, -7.4, 4.7,0,0,1024,1024,1684,1000,6.4,0,99,4.142,4.15,4.146,4.138,0,0,87.71,6,GPS_Atti,
0.308054466136651,36.8793796006544,5962.8973840542,162.073496,0,2.10896988376,13300,2017-11-15 13:23:28,15,16.471,5962.8973840542,162.073496,0.671082,2.5935204242,3.4, -7, 5.6,0,0,1024,1024,1684,998,6.3,0,99,4.142,4.15,4.146,4.138,0,0,87.71,6,GPS_Atti,
0.30805446957389,36.8793795320932,5964.5378040542,163.713916,0,2.13365820476,13400,2017-11-15 13:23:28,15,16.471,5964.5378040542,163.713916,0.671082,2.5935204242,3.4, -5.8, 4.6,0,0,1024,1024,1684,997,6.2,0,99,4.142,4.15,4.146,4.138,0,0,87.71,6,GPS_Atti,
0.308054473259058,36.8793795104951,5966.1782240542,165.354336,0,2.14132552784,13500,2017-11-15 13:23:28,15,16.471,5966.1782240542,165.354336,0.671082,2.5935204242,3.3, -5.9, 3.6,0,0,1024,1024,1684,1001,6.1,0,99,4.142,4.15,4.146,4.138,0,0,87.71,6,GPS_Atti,
0.308054470662912,36.8793795159503,5968.1467280542,167.32284,0,2.13945872988,13600,2017-11-15 13:23:28,15,16.471,5968.1467280542,167.32284,0.671082,2.5935204242,3.3, -6.2, 2.8,0,0,1024,1024,1684,1002,6.1,0,99,4.142,4.15,4.146,4.138,0,0,87.71,6,GPS_Atti,
0.308054419123473,36.8793795187933,5969.7871480542,168.96326,0,2.1407152916,13700,2017-11-15 13:23:28,15,16.471,5969.7871480542,168.96326,0.671082,2.5935204242,3.2, -6.6, 2.2,0,0,1024,1024,1684,1008,6,0,99,4.142,4.15,4.146,4.138,0,0,87.71,6,GPS_Atti,
0.308054377490267,36.8793795060543,5971.4275680542,170.60368,0,2.14728681412,13800,2017-11-15 13:23:29,15,16.471,5971.4275680542,170.60368,0.671082,2.5935204242,3.2, -6.8, 2.4,0,0,1024,1024,1684,1011,5.9,0,99,4.142,4.15,4.146,4.138,0,0,87.71,6,GPS_Atti,
0.30805434725169,36.8793794442105,5973.3960720542,172.572184,0,2.1711286784,13900,2017-11-15 13:23:29,15,16.471,5973.3960720542,172.572184,0.671082,2.5935204242,3.2, -7, 2.8,0,0,1024,1024,1684,1011,5.7,0,99,4.137,4.144,4.141,4.137,0,0,87.71,6,GPS_Atti,
0.308054312485225,36.8793793196462,5977.0049960542,176.181108,0,2.21788721008,14100,2017-11-15 13:23:29,15,16.471,5977.0049960542,176.181108,0.671082,2.5935204242,3.3, -6.4, 3.7,0,0,1024,1024,1684,1014,5.6,0,99,4.137,4.144,4.141,4.137,0,0,87.71,6,GPS_Atti,
0.3080542876197,36.8793792783514,5978.6454160542,177.821528,0,2.23408143632,14200,2017-11-15 13:23:29,15,16.471,5978.6454160542,177.821528,0.671082,2.5935204242,3.2, -7, 2.8,0,0,1024,1024,1684,1010,5.6,0,99,4.137,4.144,4.141,4.137,0,0,87.71,6,GPS_Atti,
0.30805426283641,36.8793792499508,5980.2858360542,179.461948,0,2.24563327396,14300,2017-11-15 13:23:29,15,16.471,5980.2858360542,179.461948,0.671082,2.5935204242,3.1, -6.9, 1.9,0,0,1024,1024,1684,1013,5.5,0,99,4.137,4.144,4.141,4.137,0,0,87.71,6,GPS_Atti,
0.308054237589829,36.8793791834226,5982.2543400542,181.430452,0,2.27099416716,14400,2017-11-15 13:23:29,15,16.471,5982.2543400542,181.430452,0.671082,2.5935204242,3, -7.2, 3.1,0,0,1024,1024,1684,1014,5.4,0,99,4.137,4.144,4.141,4.137,0,0,87.71,6,GPS_Atti,
0.308054188374587,36.8793790313505,5983.8947600542,183.070872,0,2.3285433816,14500,2017-11-15 13:23:29,15,16.471,5983.8947600542,183.070872,0.671082,2.5935204242,3.1, -7.1, 4.5,0,0,1024,1024,1684,1013,5.4,0,99,4.137,4.144,4.141,4.137,0,0,87.71,6,GPS_Atti,
0.308054147427363,36.879378897675,5985.5351800542,184.711292,0,2.37902894752,14600,2017-11-15 13:23:29,15,16.471,5985.5351800542,184.711292,0.671082,2.5935204242,3, -7.4, 5.1,0,0,1024,1024,1684,1016,5.3,0,99,4.137,4.144,4.141,4.137,0,0,87.71,6,GPS_Atti,
0.308054092328553,36.8793787678466,5987.5036840542,186.679796,0,2.428969894,14700,2017-11-15 13:23:29,15,16.471,5987.5036840542,186.679796,0.671082,2.5935204242,3.1, -7.2, 4.9,0,0,1024,1024,1684,1014,5.3,0,99,4.137,4.144,4.141,4.137,0,0,87.71,6,GPS_Atti,
0.30805405975031,36.8793786812871,5988.8160200542,187.992132,0,2.46205388456,14800,2017-11-15 13:23:29,15,16.471,5988.8160200542,187.992132,0.671082,2.5935204242,3.1, -7, 4.6,0,0,1024,1024,1684,1011,5.3,0,99,4.137,4.144,4.141,4.137,0,0,87.71,6,GPS_Atti,
0.308054006928065,36.8793786117528,5990.4564400542,189.632552,0,2.49026582772,14900,2017-11-15 13:23:30,15,16.445,5990.4564400542,189.632552,0.671082,2.5935204242,3.1, -7.4, 4,0,0,1024,1024,1684,1023,5.2,0,99,4.137,4.144,4.141,4.137,0,0,87.71,6,GPS_Atti,
0.308053972851246,36.8793785650071,5992.0968600542,191.272972,0,2.50919299368,15000,2017-11-15 13:23:30,15,16.445,5992.0968600542,191.272972,0.671082,2.5935204242,3.1, -7.3, 4.1,0,0,1024,1024,1684,1022,5.2,0,99,4.137,4.144,4.141,4.137,0,0,87.71,6,GPS_Atti,
0.308053929242737,36.8793785385351,5993.7372800542,192.913392,0,2.52148630116,15100,2017-11-15 13:23:30,15,16.445,5993.7372800542,192.913392,0.671082,2.5935204242,3.1, -7.3, 4.3,0,0,1024,1024,1684,1021,5.2,0,99,4.137,4.144,4.141,4.137,0,0,87.71,6,GPS_Atti,
0.308053912280457,36.8793785436038,5995.3777000542,194.553812,0,2.52077435888,15200,2017-11-15 13:23:30,15,16.445,5995.3777000542,194.553812,0.671082,2.5935204242,3.1, -6.9, 4.1,0,0,1024,1024,1684,1020,5.1,0,99,4.137,4.144,4.141,4.137,0,0,87.71,6,GPS_Atti,
0.308053876148542,36.8793785595995,5997.0181200542,196.194232,0,2.51744758712,15300,2017-11-15 13:23:30,15,16.445,5997.0181200542,196.194232,0.671082,2.5935204242,3.1, -6.5, 3.7,0,0,1024,1024,1684,1020,5.1,0,99,4.137,4.144,4.141,4.137,0,0,87.71,6,GPS_Atti,
0.308053856568538,36.8793786033401,5998.6585400542,197.834652,0,2.50311359716,15400,2017-11-15 13:23:30,15,16.445,5998.6585400542,197.834652,0.671082,2.5935204242,3.2, -6.5, 3.6,0,0,1024,1024,1684,1021,5.1,0,99,4.137,4.144,4.141,4.137,0,0,87.71,6,GPS_Atti,
0.308053802023399,36.8793786728172,6000.2989600542,199.475072,0.223694,2.482119502,15500,2017-11-15 13:23:30,15,16.445,6000.2989600542,199.475072,0.671082,2.5935204242,3.2, -6.7, 2.8,0,0,1024,1024,1684,1020,5,0,99,4.137,4.144,4.141,4.137,0,0,87.71,6,GPS_Atti,
0.308053766250556,36.8793787662444,6001.9393800542,201.115492,0.223694,2.45139771624,15600,2017-11-15 13:23:30,15,16.445,6001.9393800542,201.115492,0.671082,2.5935204242,3.2, -6.8, 2,0,0,1024,1024,1684,1020,5,0,99,4.137,4.144,4.141,4.137,0,0,87.71,6,GPS_Atti,
0.308053731434016,36.879378824317,6003.5798000542,202.755912,0.223694,2.43335965792,15700,2017-11-15 13:23:30,15,16.445,6003.5798000542,202.755912,0.671082,2.5935204242,3.2, -7.1, 1.5,0,0,1024,1024,1684,1020,4.9,0,99,4.137,4.144,4.141,4.137,0,0,87.71,6,GPS_Atti,
0.308053724916169,36.8793788813645,6005.2202200542,204.396332,0.223694,2.41354338432,15800,2017-11-15 13:23:30,15,16.445,6005.2202200542,204.396332,0.671082,2.5935204242,3.2, -7.5, 1.3,0,0,1024,1024,1684,1022,4.9,0,99,4.137,4.144,4.141,4.137,0,0,87.71,6,GPS_Atti,
0.308053707807736,36.8793788911047,6007.1887240542,206.364836,0,2.41143708504,15900,2017-11-15 13:23:31,15,16.445,6007.1887240542,206.364836,0.671082,2.5935204242,3.2, -7, 1.3,0,0,1024,1024,1684,1023,4.9,0,99,4.138,4.148,4.144,4.133,0,0,87.71,6,GPS_Atti,
0.308053720967192,36.8793788856581,6008.8291440542,208.005256,0,2.41232619268,16000,2017-11-15 13:23:31,15,16.445,6008.8291440542,208.005256,0.671082,2.5935204242,3.2, -6.2, 1.7,0,0,1024,1024,1684,1024,4.8,0,99,4.138,4.148,4.144,4.133,0,0,87.71,6,GPS_Atti,
0.308053728336716,36.8793788385334,6010.1414800542,209.317592,0,2.42853354228,16100,2017-11-15 13:23:31,15,16.445,6010.1414800542,209.317592,0.671082,2.5935204242,3.2, -6, 2.5,0,0,1024,1024,1684,1023,4.8,0,99,4.138,4.148,4.144,4.133,0,0,87.71,6,GPS_Atti,
0.308053743818333,36.8793787969399,6011.7819000542,210.958012,0,2.4421588708,16200,2017-11-15 13:23:31,15,16.445,6011.7819000542,210.958012,0.671082,2.5935204242,3.2, -6.3, 3.1,0,0,1024,1024,1684,1023,4.8,0,99,4.138,4.148,4.144,4.133,0,0,87.71,6,GPS_Atti,
0.308053724588852,36.8793787390766,6013.7504040542,212.926516,0,2.46427501324,16300,2017-11-15 13:23:31,15,16.445,6013.7504040542,212.926516,0.671082,2.5935204242,3.2, -6.8, 3.5,0,0,1024,1024,1684,1023,4.8,0,99,4.138,4.148,4.144,4.133,0,0,87.71,6,GPS_Atti,
0.308053715623453,36.8793787006006,6015.3908240542,214.566936,0,2.47868774336,16400,2017-11-15 13:23:31,15,16.445,6015.3908240542,214.566936,0.671082,2.5935204242,3.1, -7.1, 3.6,0,0,1024,1024,1684,1023,4.7,0,99,4.138,4.148,4.144,4.133,0,0,87.71,6,GPS_Atti,
0.308053694702223,36.8793786467247,6017.0312440542,216.207356,0,2.49951779652,16500,2017-11-15 13:23:31,15,16.445,6017.0312440542,216.207356,0.671082,2.5935204242,3.2, -6.8, 3.4,0,0,1024,1024,1684,1024,4.7,0,99,4.138,4.148,4.144,4.133,0,0,87.71,6,GPS_Atti,
0.308053698716134,36.8793786126698,6018.6716640542,217.847776,0,2.51134850556,16600,2017-11-15 13:23:31,15,16.445,6018.6716640542,217.847776,0.671082,2.5935204242,3.2, -6.6, 3.4,0,0,1024,1024,1684,1024,4.7,0,99,4.138,4.148,4.144,4.133,0,0,87.71,6,GPS_Atti,
0.308053695710433,36.879378589166,6020.3120840542,219.488196,0,2.51996071056,16700,2017-11-15 13:23:31,15,16.445,6020.3120840542,219.488196,0.671082,2.5935204242,3.2, -6.6, 3.6,0,0,1024,1024,1684,1024,4.7,0,99,4.138,4.148,4.144,4.133,0,0,87.71,6,GPS_Atti,
0.308053713452737,36.8793785816794,6022.2805880542,221.4567,0,2.52126976572,16800,2017-11-15 13:23:31,15,16.445,6022.2805880542,221.4567,0.671082,2.5935204242,3.2, -6, 3.3,0,0,1024,1024,1684,1024,4.7,0,99,4.138,4.148,4.144,4.133,0,0,87.71,6,GPS_Atti,
0.308053700317098,36.8793785442633,6023.9210080542,223.09712,0,2.53562015988,16900,2017-11-15 13:23:32,15,16.419,6023.9210080542,223.09712,0.671082,2.5935204242,3.2, -6.2, 3.3,0,0,1024,1024,1684,1024,4.7,0,99,4.135,4.142,4.141,4.132,0,0,87.71,6,GPS_Atti,
0.308053681501445,36.8793785050727,6025.5614280542,224.73754,0,2.55104338872,17000,2017-11-15 13:23:32,15,16.419,6025.5614280542,224.73754,0.671082,2.5935204242,3.2, -6.7, 3.6,0,0,1024,1024,1684,1024,4.6,0,99,4.135,4.142,4.141,4.132,0,0,87.71,6,GPS_Atti,
0.308053636351003,36.8793784691635,6027.2018480542,226.37796,0,2.56736228688,17100,2017-11-15 13:23:32,15,16.419,6027.2018480542,226.37796,0.671082,2.5935204242,3.2, -6.8, 3.7,0,0,1024,1024,1684,1024,4.6,0,99,4.135,4.142,4.141,4.132,0,0,87.71,6,GPS_Atti,
0.308053594551696,36.8793784399294,6028.8422680542,228.01838,0,2.58110572564,17200,2017-11-15 13:23:32,15,16.419,6028.8422680542,228.01838,0.671082,2.5935204242,3.2, -7, 3.9,0,0,1024,1024,1684,1024,4.6,0,99,4.135,4.142,4.141,4.132,0,0,87.71,6,GPS_Atti,
0.308053509437202,36.8793783869544,6030.4826880542,229.6588,0,2.60694562148,17300,2017-11-15 13:23:32,15,16.419,6030.4826880542,229.6588,0.671082,2.60694562148,3.2, -7.6, 3.9,0,0,1024,1024,1684,1024,4.6,0,99,4.135,4.142,4.141,4.132,0,0,87.71,6,GPS_Atti,
0.308053434806428,36.8793783363647,6032.1231080542,231.29922,0,2.63127961176,17400,2017-11-15 13:23:32,15,16.419,6032.1231080542,231.29922,0.671082,2.63127961176,3.2, -8.1, 4,0,0,1024,1024,1684,1024,4.6,0,99,4.135,4.142,4.141,4.132,0,0,87.71,6,GPS_Atti,
0.308053346702316,36.8793782636646,6033.7635280542,232.93964,0,2.66483276244,17500,2017-11-15 13:23:32,15,16.419,6033.7635280542,232.93964,0.671082,2.66483276244,3.2, -8.3, 4.3,0,0,1024,1024,1684,1023,4.6,0,99,4.135,4.142,4.141,4.132,0,0,87.71,6,GPS_Atti,
0.308053284726383,36.8793782009296,6035.7320320542,234.908144,0,2.69266084732,17600,2017-11-15 13:23:32,15,16.419,6035.7320320542,234.908144,0.671082,2.69266084732,3.1, -8.3, 4.7,0,0,1024,1024,1684,1024,4.6,0,99,4.135,4.142,4.141,4.132,0,0,87.71,6,GPS_Atti,
0.308053225044318,36.8793781417324,6037.3724520542,236.548564,0,2.71912410276,17700,2017-11-15 13:23:32,15,16.419,6037.3724520542,236.548564,0.671082,2.71912410276,3.1, -8.4, 4.9,0,0,1024,1024,1684,1023,4.6,0,99,4.135,4.142,4.141,4.132,0,0,87.71,6,GPS_Atti,
0.30805318600217,36.8793781118746,6039.0128720542,238.188984,0,2.73335966752,17800,2017-11-15 13:23:32,15,16.419,6039.0128720542,238.188984,0.671082,2.73335966752,3.1, -8.1, 4.5,0,0,1024,1024,1684,1024,4.6,0,99,4.135,4.142,4.141,4.132,0,0,87.71,6,GPS_Atti,
0.308053145342366,36.8793780550637,6040.6532920542,239.829404,0,2.75727371028,17900,2017-11-15 13:23:33,15,16.445,6040.6532920542,239.829404,0.671082,2.75727371028,3.1, -8.2, 4.2,0,0,1024,1024,1684,1023,4.5,0,99,4.142,4.149,4.147,4.141,0,0,87.71,6,GPS_Atti,
0.308053121896436,36.8793780186583,6042.2937120542,241.469824,0,2.7723590126,18000,2017-11-15 13:23:33,15,16.445,6042.2937120542,241.469824,0.671082,2.7723590126,3.1, -8.3, 4.3,0,0,1024,1024,1684,1024,4.5,0,99,4.142,4.149,4.147,4.141,0,0,87.71,6,GPS_Atti,
0.308053061711589,36.8793779738054,6043.9341320542,243.110244,0,2.79405848836,18100,2017-11-15 13:23:33,15,16.445,6043.9341320542,243.110244,0.671082,2.79405848836,3.1, -8.1, 4.4,0,0,1024,1024,1684,1024,4.5,0,99,4.142,4.149,4.147,4.141,0,0,87.71,6,GPS_Atti,
0.308053025351284,36.8793779584172,6045.5745520542,244.750664,0,2.80311360676,18200,2017-11-15 13:23:33,15,16.445,6045.5745520542,244.750664,0.671082,2.80311360676,3.2, -8.1, 4,0,0,1024,1024,1684,1024,4.5,0,99,4.142,4.149,4.147,4.141,0,0,87.71,6,GPS_Atti,
0.308053009175339,36.8793779602549,6047.2149720542,246.391084,0,2.80411426296,18300,2017-11-15 13:23:33,15,16.445,6047.2149720542,246.391084,0.671082,2.80411426296,3.1, -8.3, 3.8,0,0,1024,1024,1684,1024,4.5,0,99,4.142,4.149,4.147,4.141,0,0,87.71,6,GPS_Atti,
0.308053025638297,36.8793779753673,6048.8553920542,248.031504,0,2.79714247796,18400,2017-11-15 13:23:33,15,16.445,6048.8553920542,248.031504,0.671082,2.80411426296,3.1, -8, 4.1,0,0,1024,1024,1684,1024,4.5,0,99,4.142,4.149,4.147,4.141,0,0,87.71,6,GPS_Atti,
0.308052990273786,36.8793779972443,6050.4958120542,249.671924,0,2.79310376392,18500,2017-11-15 13:23:33,15,16.445,6050.4958120542,249.671924,0.671082,2.80411426296,3.1, -7.6, 3.8,0,0,1024,1024,1684,1024,4.5,0,99,4.142,4.149,4.147,4.141,0,0,87.71,6,GPS_Atti,
0.30805297831714,36.8793780387014,6052.1362320542,251.312344,0,2.77984588948,18600,2017-11-15 13:23:33,15,16.445,6052.1362320542,251.312344,0.671082,2.80411426296,3.2, -7.5, 3.6,0,0,1024,1024,1684,1024,4.5,0,99,4.142,4.149,4.147,4.141,0,0,87.71,6,GPS_Atti,
0.308052957158563,36.8793780740507,6053.7766520542,252.952764,0,2.7697179364,18700,2017-11-15 13:23:33,15,16.445,6053.7766520542,252.952764,0.671082,2.80411426296,3.2, -7.6, 3.4,0,0,1024,1024,1684,1024,4.5,0,99,4.142,4.149,4.147,4.141,0,0,87.71,6,GPS_Atti,
0.308052955225193,36.8793781199373,6055.4170720542,254.593184,0,2.7539042876,18800,2017-11-15 13:23:33,15,16.445,6055.4170720542,254.593184,0.671082,2.80411426296,3.1, -7.3, 3,0,0,1024,1024,1684,1024,4.4,0,99,4.142,4.149,4.147,4.141,0,0,87.71,6,GPS_Atti,
0.30805292498051,36.8793781584395,6057.0574920542,256.233604,0,2.74372712192,18900,2017-11-15 13:23:34,15,16.445,6057.0574920542,256.233604,0.671082,2.80411426296,3.2, -7.7, 3.3,0,0,1024,1024,1684,1024,4.4,0,99,4.142,4.149,4.147,4.141,0,0,87.71,6,GPS_Atti,
0.308052910106913,36.8793781976493,6058.6979120542,257.874024,0,2.73169628164,19000,2017-11-15 13:23:34,15,16.445,6058.6979120542,257.874024,0.671082,2.80411426296,3.1, -8.3, 3.5,0,0,1024,1024,1684,1024,4.4,0,99,4.142,4.149,4.147,4.141,0,0,87.71,6,GPS_Atti,
0.308052855855098,36.8793782014729,6060.3383320542,259.514444,0,2.73637475948,19100,2017-11-15 13:23:34,15,16.445,6060.3383320542,259.514444,0.671082,2.80411426296,3.1, -8, 3.4,0,0,1024,1024,1684,1024,4.4,0,99,4.142,4.149,4.147,4.141,0,0,87.71,6,GPS_Atti,
0.308052829229224,36.8793782187748,6061.9787520542,261.154864,0,2.73336951004,19200,2017-11-15 13:23:34,15,16.445,6061.9787520542,261.154864,0.671082,2.80411426296,3.1, -7.6, 3.2,0,0,1024,1024,1684,1024,4.4,0,99,4.142,4.149,4.147,4.141,0,0,87.71,6,GPS_Atti,
0.308052757046815,36.8793782362045,6063.9472560542,263.123368,0,2.735646413,19300,2017-11-15 13:23:34,15,16.445,6063.9472560542,263.123368,0.671082,2.80411426296,3.1, -7.9, 3.2,0,0,1024,1024,1684,1024,4.4,0,99,4.142,4.149,4.147,4.141,0,0,87.71,6,GPS_Atti,
0.308052712675177,36.8793782630951,6065.5876760542,264.763788,0,2.73159785644,19400,2017-11-15 13:23:34,15,16.445,6065.5876760542,264.763788,0.671082,2.80411426296,3.1, -8.2, 3.3,0,0,1024,1024,1684,1024,4.4,0,99,4.142,4.149,4.147,4.141,0,0,87.71,6,GPS_Atti,
0.308052631364729,36.8793782579214,6067.2280960542,266.404208,0,2.74320546836,19500,2017-11-15 13:23:34,15,16.445,6067.2280960542,266.404208,0.671082,2.80411426296,3, -8.8, 3.6,0,0,1024,1024,1684,1024,4.4,0,99,4.142,4.149,4.147,4.141,0,0,87.71,6,GPS_Atti,
0.308052595493568,36.8793782687542,6068.8685160542,268.044628,0,2.74391741064,19600,2017-11-15 13:23:34,15,16.445,6068.8685160542,268.044628,0.671082,2.80411426296,3, -8.5, 3.8,0,0,1024,1024,1684,1024,4.4,0,99,4.142,4.149,4.147,4.141,0,0,87.71,6,GPS_Atti,
0.308052542737886,36.8793782721999,6070.5089360542,269.685048,0,2.74935376252,19700,2017-11-15 13:23:34,15,16.445,6070.5089360542,269.685048,0.671082,2.80411426296,3, -7.9, 3.7,0,0,1024,1024,1684,1024,4.4,0,99,4.142,4.149,4.147,4.141,0,0,87.71,6,GPS_Atti,
0.308052514196555,36.8793783019586,6072.1493560542,271.325468,0,2.74281832924,19800,2017-11-15 13:23:35,15,16.445,6072.1493560542,271.325468,0.671082,2.80411426296,3.1, -7.9, 3.1,0,0,1024,1024,1684,1024,4.4,0,99,4.142,4.149,4.147,4.141,0,0,87.71,6,GPS_Atti,
0.308052445638452,36.8793783437818,6074.1178600542,273.293972,0,2.73748040256,19900,2017-11-15 13:23:35,15,16.471,6074.1178600542,273.293972,0.671082,2.80411426296,3.1, -8.3, 2.9,0,0,1024,1024,1684,1024,4.3,0,99,4.136,4.145,4.144,4.136,0,0,87.71,6,GPS_Atti,
0.308052405127447,36.8793783811936,6075.7582800542,274.934392,0,2.73016084852,20000,2017-11-15 13:23:35,15,16.471,6075.7582800542,274.934392,0.671082,2.80411426296,3.1, -8.6, 2.9,0,0,1024,1024,1608,1024,4.3,0,99,4.136,4.145,4.144,4.136,0,0,87.71,6,GPS_Atti,
0.308052379896539,36.8793783663685,6077.3987000542,276.574812,0,2.73858604564,20100,2017-11-15 13:23:35,15,16.471,6077.3987000542,276.574812,0.671082,2.80411426296,3.1, -8.6, 3.4,0,0,1024,1024,1096,1024,4.3,0,99,4.136,4.145,4.144,4.136,0,0,87.71,6,GPS_Atti,
0.308052397524853,36.8793783551188,6079.0391200542,278.215232,0,2.74002961524,20200,2017-11-15 13:23:35,15,16.471,6079.0391200542,278.215232,0.671082,2.80411426296,2.9, -9.1, 4,0,0,1024,1024,1024,1024,4.3,0,99,4.136,4.145,4.144,4.136,0,0,87.71,6,GPS_Atti,
0.308052371886223,36.8793783437438,6080.3514560542,279.527568,0,2.74733604592,20300,2017-11-15 13:23:35,15,16.471,6080.3514560542,279.527568,0.671082,2.80411426296,2.7, -11.7, 5.6,0,0,1024,1024,1024,1024,4.3,0,99,4.136,4.145,4.144,4.136,0,0,87.71,6,GPS_Atti,
0.308052362667195,36.8793783433632,6081.6637920542,280.839904,0,2.74871071788,20400,2017-11-15 13:23:35,15,16.471,6081.6637920542,280.839904,0.671082,2.80411426296,2.6, -12, 5.8,0,0,1024,1024,1024,1024,4.3,0,99,4.136,4.145,4.144,4.136,0,0,87.71,6,GPS_Atti,
0.308052337283824,36.8793782988865,6082.6480440542,281.824156,0,2.76721793632,20500,2017-11-15 13:23:35,15,16.471,6082.6480440542,281.824156,0.671082,2.80411426296,2.7, -10.9, 5.1,0,0,1024,1024,1024,1024,4.3,0,99,4.136,4.145,4.144,4.136,0,0,87.71,6,GPS_Atti,
0.308052323236866,36.8793782515364,6083.3042120542,282.480324,0,2.78516085028,20600,2017-11-15 13:23:35,15,16.471,6083.3042120542,282.480324,0.671082,2.80411426296,2.7, -10.5, 5.1,0,0,1024,1024,1024,1024,4.3,0,99,4.136,4.145,4.144,4.136,0,0,87.71,6,GPS_Atti,
0.308052207246464,36.8793781845335,6083.6322960542,282.808408,0,2.82373368616,20700,2017-11-15 13:23:35,15,16.471,6083.6322960542,282.808408,0.671082,2.82373368616,2.7, -10.3, 5.5,0,0,1024,1024,1024,1024,4.3,0,99,4.136,4.145,4.144,4.136,0,0,87.71,6,GPS_Atti,
0.308052115232254,36.8793781257377,6083.9603800542,283.136492,0,2.85645350348,20800,2017-11-15 13:23:35,15,16.471,6083.9603800542,283.136492,0.671082,2.85645350348,2.9, -9, 5,0,0,1024,1024,1024,1024,4.3,0,99,4.136,4.145,4.144,4.136,0,0,87.71,6,GPS_Atti,
0.30805203866526,36.8793780878217,6083.9603800542,283.136492,0,2.88012804492,20900,2017-11-15 13:23:36,15,16.814,6083.9603800542,283.136492,0.671082,2.88012804492,3, -7.9, 4.3,0,0,1024,1024,1024,1024,4.3,0,99,4.132,4.171,4.169,4.165,0,0,87.71,6,GPS_Atti,
0.308052002617617,36.8793780549331,6083.6322960542,282.808408,0,2.8963583604,21000,2017-11-15 13:23:36,15,16.814,6083.9603800542,283.136492,0.671082,2.8963583604,3.1, -7.1, 3.9,0,0,1024,1024,1024,1024,4.3,0,99,4.132,4.171,4.169,4.165,0,0,87.71,6,GPS_Atti,
0.308051922828644,36.8793780058722,6083.6322960542,282.808408,0,2.92441938492,21100,2017-11-15 13:23:36,15,16.814,6083.9603800542,283.136492,0.671082,2.92441938492,3.2, -6.7, 4.1,0,0,1024,1024,1024,1024,4.2,0,99,4.132,4.171,4.169,4.165,0,0,87.71,6,GPS_Atti,
0.308051870009453,36.8793779554035,6083.6322960542,282.808408,0,2.94906177416,21200,2017-11-15 13:23:36,15,16.814,6083.9603800542,283.136492,0.671082,2.94906177416,3.3, -6, 4.5,0,0,1024,1024,1024,1024,4.2,0,99,4.132,4.171,4.169,4.165,0,0,87.71,6,GPS_Atti,
0.308051823051947,36.8793779036228,6083.3042120542,282.480324,0,2.97329733924,21300,2017-11-15 13:23:36,15,16.814,6083.9603800542,283.136492,0.671082,2.97329733924,3.4, -6.6, 4.7,0,0,1024,1024,1024,1024,4.2,0,99,4.132,4.171,4.169,4.165,0,0,87.71,6,GPS_Atti,
0.308051794862563,36.8793778691797,6083.3042120542,282.480324,0,2.9889764736,21400,2017-11-15 13:23:36,15,16.814,6083.9603800542,283.136492,0.671082,2.9889764736,3.3, -7.1, 4.5,0,0,1024,1024,1024,1024,4.2,0,99,4.132,4.171,4.169,4.165,0,0,87.71,6,GPS_Atti,
0.30805171626551,36.8793778717914,6083.3042120542,282.480324,0,2.99999681516,21500,2017-11-15 13:23:36,15,16.814,6083.9603800542,283.136492,0.671082,2.99999681516,3.3, -7.2, 4.3,0,0,1024,1024,1024,1024,4.2,0,99,4.132,4.171,4.169,4.165,0,0,87.71,6,GPS_Atti,
0.308051665568181,36.8793778736709,6082.9761280542,282.15224,0,3.00716216972,21600,2017-11-15 13:23:36,15,16.814,6083.9603800542,283.136492,0.671082,3.00716216972,3.3, -7.7, 4.5,0,0,1024,1024,1024,1024,4.2,0,99,4.132,4.171,4.169,4.165,0,0,87.71,6,GPS_Atti,
0.308051608345168,36.8793778658223,6082.9761280542,282.15224,0,3.01865495224,21700,2017-11-15 13:23:36,15,16.814,6083.9603800542,283.136492,0.671082,3.01865495224,3.3, -8, 4.3,0,0,1024,1024,1024,1024,4.2,0,99,4.132,4.171,4.169,4.165,0,0,87.71,6,GPS_Atti,
0.308051603194909,36.879377867364,6082.9761280542,282.15224,0.223694,3.01895350868,21800,2017-11-15 13:23:36,15,16.814,6083.9603800542,283.136492,0.671082,3.01895350868,3.3, -7.7, 4,0,0,1024,1024,1024,1024,4.2,0,99,4.132,4.171,4.169,4.165,0,0,87.71,6,GPS_Atti,
0.308051631093208,36.8793778475292,6082.9761280542,282.15224,0.223694,3.02114182896,21900,2017-11-15 13:23:37,15,16.656,6083.9603800542,283.136492,0.671082,3.02114182896,3.4, -7.2, 4.2,0,0,1024,1024,1024,1024,4.2,0,98,4.171,4.176,4.173,4.168,0,0,87.71,6,GPS_Atti,
0.308051689486258,36.8793778383296,6082.9761280542,282.15224,0.223694,3.015173981,22000,2017-11-15 13:23:37,15,16.656,6083.9603800542,283.136492,0.671082,3.02114182896,3.4, -7, 4.1,0,0,1024,1024,1024,1024,4.2,0,98,4.171,4.176,4.173,4.168,0,0,87.71,6,GPS_Atti,
0.308051702117487,36.8793778354968,6082.9761280542,282.15224,0.223694,3.01418316732,22100,2017-11-15 13:23:37,15,16.656,6083.9603800542,283.136492,0.671082,3.02114182896,3.3, -6.9, 3.9,0,0,1024,1024,1024,1024,4.2,0,98,4.171,4.176,4.173,4.168,0,0,87.71,6,GPS_Atti,
0.308051738919813,36.8793778383842,6082.9761280542,282.15224,0.223694,3.00763132984,22200,2017-11-15 13:23:37,15,16.656,6083.9603800542,283.136492,0.671082,3.02114182896,3.3, -6.6, 3.7,0,0,1024,1024,1024,1024,4.2,0,98,4.171,4.176,4.173,4.168,0,0,87.71,6,GPS_Atti,
0.308051736814031,36.879377787355,6082.9761280542,282.15224,0.223694,3.0249016716,22300,2017-11-15 13:23:37,15,16.656,6083.9603800542,283.136492,0.671082,3.0249016716,3.3, -6.5, 3.7,0,0,1024,1024,1024,1024,4.2,0,98,4.171,4.176,4.173,4.168,0,0,87.71,6,GPS_Atti,
0.308051765327271,36.879377728207,6082.9761280542,282.15224,0.223694,3.0403216196,22400,2017-11-15 13:23:37,15,16.656,6083.9603800542,283.136492,0.671082,3.0403216196,3.3, -6.6, 4.4,0,0,1024,1024,1024,1024,4.2,0,98,4.171,4.176,4.173,4.168,0,0,87.71,6,GPS_Atti,
0.308051753125442,36.879377630302,6083.3042120542,282.480324,0.223694,3.07477700128,22500,2017-11-15 13:23:37,15,16.656,6083.9603800542,283.136492,0.671082,3.07477700128,3.3, -6.7, 4.9,0,0,1024,1024,1024,1024,4.2,0,98,4.171,4.176,4.173,4.168,0,0,87.71,6,GPS_Atti,
0.308051778202055,36.8793775588176,6083.3042120542,282.480324,0.223694,3.0949968182,22600,2017-11-15 13:23:37,15,16.656,6083.9603800542,283.136492,0.671082,3.0949968182,3.3, -6.6, 5.1,0,0,1024,1024,1024,1024,4.2,0,98,4.171,4.176,4.173,4.168,0,0,87.71,6,GPS_Atti,
0.308051766255484,36.8793774561886,6083.3042120542,282.480324,0.223694,3.13109590072,22700,2017-11-15 13:23:37,15,16.656,6083.9603800542,283.136492,0.671082,3.13109590072,3.3, -6.4, 5.2,0,0,1024,1024,1024,1024,4.2,0,98,4.171,4.176,4.173,4.168,0,0,87.71,6,GPS_Atti,
0.308051788012514,36.8793773873833,6083.3042120542,282.480324,0.223694,3.1510663738,22800,2017-11-15 13:23:38,15,16.656,6083.9603800542,283.136492,0.671082,3.1510663738,3.3, -6.3, 5,0,0,1024,1024,1024,1024,4.2,0,98,4.171,4.176,4.173,4.168,0,0,87.71,6,GPS_Atti,
0.308051762811223,36.8793773262033,6083.3042120542,282.480324,0.223694,3.17520351368,22900,2017-11-15 13:23:38,15,16.603,6083.9603800542,283.136492,0.671082,3.17520351368,3.3, -6.3, 4.8,0,0,1024,1024,1024,1024,4.2,0,98,4.171,4.176,4.173,4.168,0,0,87.71,6,GPS_Atti,
0.308051769493136,36.8793772910334,6083.3042120542,282.480324,0.223694,3.18607621744,23000,2017-11-15 13:23:38,15,16.603,6083.9603800542,283.136492,0.671082,3.18607621744,3.3, -6.2, 4.7,0,0,1024,1024,1024,1024,4.2,0,98,4.171,4.176,4.173,4.168,0,0,87.71,6,GPS_Atti,
0.308051729608064,36.8793772055054,6082.9761280542,282.15224,0.223694,3.22048238652,23100,2017-11-15 13:23:38,15,16.603,6083.9603800542,283.136492,0.671082,3.22048238652,3.3, -6.2, 4.7,0,0,1024,1024,1024,1024,4.2,0,98,4.171,4.176,4.173,4.168,0,0,87.71,6,GPS_Atti,
0.30805172453251,36.8793771489413,6082.9761280542,282.15224,0,3.24022648164,23200,2017-11-15 13:23:38,15,16.603,6083.9603800542,283.136492,0.671082,3.24022648164,3.3, -6.4, 4.8,0,0,1024,1024,1024,1024,4.2,0,98,4.171,4.176,4.173,4.168,0,0,87.71,6,GPS_Atti,
0.308051685114293,36.8793770808619,6082.9761280542,282.15224,0,3.26869433032,23300,2017-11-15 13:23:38,15,16.603,6083.9603800542,283.136492,0.671082,3.26869433032,3.3, -6.7, 4.9,0,0,1024,1024,1024,1024,4.2,0,98,4.171,4.176,4.173,4.168,0,0,87.71,6,GPS_Atti,
