latitude,longitude,altitude(feet),ascent(feet),speed(mph),distance(feet),time(millisecond),datetime(utc),satellites,gpslevel,voltage(v),max_altitude(feet),max_ascent(feet),max_speed(mph),max_distance(feet), xSpeed(mph), ySpeed(mph), zSpeed(mph), compass_heading(degrees), pitch(degrees), roll(degrees),isPhoto,isVideo,rc_elevator,rc_aileron,rc_throttle,rc_rudder,gimbal_heading(degrees),gimbal_pitch(degrees),battery_percent,voltageCell1,voltageCell2,voltageCell3,voltageCell4,voltageCell5,voltageCell6,current(A),battery_temperature(f),flycStateRaw,flycState,message
0.376748526489685,36.9245188346447,5337.7348437078,0,0,0,0,2018-04-02 06:10:45,11,0,0,5337.7348437078,0,0,0,0,0,0,182.9, 0, 0.3,0,0,364,364,364,1684,187.4,0,98,4.292,4.287,4.249,4.275,0,0,0,76.91,41,Motors_Started,
0.376748459936401,36.9245188030776,5337.7348437078,0,0,0.0268747712012,100,2018-04-02 06:10:45,11,0,0,5337.7348437078,0,0,0.0268747712012,0,0,0,182.9, 0, 0.3,0,0,364,364,364,1684,187.4,0,98,4.292,4.287,4.249,4.275,0,0,0,76.91,41,Motors_Started,
0.376748397106146,36.9245187671917,5337.7348437078,0,0,0.053235237924,200,2018-04-02 06:10:45,11,0,0,5337.7348437078,0,0,0.053235237924,0,0,0,182.9, 0, 0.3,0,0,364,364,364,1684,187.4,0,98,4.292,4.287,4.249,4.275,0,0,0,76.91,41,Motors_Started,
0.376748312857781,36.9245187566645,5337.7348437078,0,0,0.082973427852,300,2018-04-02 06:10:45,11,0,0,5337.7348437078,0,0,0.082973427852,0,0,0,182.8, 0, 0.3,0,0,383,364,364,1684,187.4,0,98,4.292,4.287,4.249,4.275,0,0,0,76.91,41,Motors_Started,
0.376748230376279,36.9245187427253,5337.7348437078,0,0,0.113122050864,400,2018-04-02 06:10:45,11,0,0,5337.7348437078,0,0,0.113122050864,0,0,0,182.9, 0, 0.3,0,0,389,364,364,1684,187.4,0,98,4.292,4.287,4.249,4.275,0,0,0,76.91,41,Motors_Started,
0.376748159628122,36.9245187185878,5337.7348437078,0,0,0.140386815516,500,2018-04-02 06:10:46,11,0,0,5337.7348437078,0,0,0.140386815516,0,0,0,182.8, 0, 0.3,0,0,392,364,364,1684,187.4,0,98,4.292,4.287,4.249,4.275,0,0,0,76.91,41,Motors_Started,
0.37674809344653,36.92451868884,5337.7348437078,0,0,0.166710307172,600,2018-04-02 06:10:46,11,0,0,5337.7348437078,0,0,0.166710307172,0,0,0,182.8, 0, 0.3,0,0,393,364,364,1684,187.4,0,98,4.292,4.287,4.249,4.275,0,0,0,76.91,41,Motors_Started,
0.376748071854177,36.9245186800467,5337.7348437078,0,0,0.175201121092,700,2018-04-02 06:10:46,11,0,0,5337.7348437078,0,0,0.175201121092,0,0,0,182.8, 0, 0.3,0,0,465,364,364,1682,187.4,0,98,4.292,4.287,4.249,4.275,0,0,0,76.91,41,Motors_Started,
0.376748046324653,36.9245186693212,5337.7348437078,0,0,0.185280845824,800,2018-04-02 06:10:46,11,0,0,5337.7348437078,0,0,0.185280845824,0,0,0,182.8, 0, 0.3,0,0,586,461,489,1617,187.4,0,98,4.292,4.287,4.249,4.275,0,0,0,76.91,41,Motors_Started,
0.376748028625095,36.9245186764411,5337.7348437078,0,0,0.19059547854,900,2018-04-02 06:10:46,11,0,17.104,5337.7348437078,0,0,0.19059547854,0,0,0,182.8, 0, 0.3,0,0,773,609,961,1257,187.4,0,98,4.292,4.287,4.249,4.275,0,0,1.488,76.91,41,Motors_Started,Setting new Return-To-Home altitude to 30m (98 ft). Setting new Maximum Flight Altitude to 150m (492 ft)
0.376748000770153,36.9245186776169,5337.7348437078,0,0,0.200181436852,1000,2018-04-02 06:10:46,11,0,17.104,5337.7348437078,0,0,0.200181436852,0,0,0,182.8, 0, 0.3,0,0,1024,924,1024,1120,186.9,0,98,4.292,4.287,4.249,4.275,0,0,1.488,76.91,41,Motors_Started,
0.376747942560201,36.924518661931,5337.7348437078,0,0,0.222169626532,1100,2018-04-02 06:10:46,11,0,17.104,5337.7348437078,0,0,0.222169626532,0,0,0,182.8, 0, 0.3,0,0,1024,1024,1024,1024,185.4,0,98,4.292,4.287,4.249,4.275,0,0,1.488,76.91,41,Motors_Started,
0.376747877373995,36.9245186391743,5337.7348437078,0,0,0.247333997416,1200,2018-04-02 06:10:46,11,0,17.104,5337.7348437078,0,0,0.247333997416,0,0,0,182.8, 0, 0.2,0,0,1024,1024,1024,1024,184.7,0,98,4.292,4.287,4.249,4.275,0,0,1.488,76.91,41,Motors_Started,
0.376747848568857,36.9245185970485,5337.7348437078,0,0,0.262089575316,1300,2018-04-02 06:10:46,11,0,17.104,5337.7348437078,0,0,0.262089575316,0,0,0,182.8, 0, 0.3,0,0,1024,1024,1024,1024,184.2,0,98,4.292,4.287,4.249,4.275,0,0,1.488,76.91,41,Motors_Started,
0.376747819990886,36.9245185586348,5337.7348437078,0,0,0.276737541664,1400,2018-04-02 06:10:47,11,0,17.104,5337.7348437078,0,0,0.276737541664,0,0,0,182.8, 0, 0.3,0,0,1024,1024,1024,1024,183.9,0,98,4.292,4.287,4.249,4.275,0,0,1.488,76.91,41,Motors_Started,
0.376747792311409,36.9245185348319,5337.7348437078,0,0,0.289337607684,1500,2018-04-02 06:10:47,11,0,17.104,5337.7348437078,0,0,0.289337607684,0,0,0,182.8, 0, 0.3,0,0,1024,1024,1024,1024,183.7,0,98,4.292,4.287,4.249,4.275,0,0,1.488,76.91,41,Motors_Started,
0.376747759131863,36.9245185158083,5337.7348437078,0,0,0.3031742223,1600,2018-04-02 06:10:47,11,0,17.104,5337.7348437078,0,0,0.3031742223,0,0,0,182.8, 0, 0.3,0,0,1024,1024,1024,1024,183.6,0,98,4.292,4.287,4.249,4.275,0,0,1.488,76.91,10,Assisted_Takeoff,
0.376747721345448,36.9245184816083,5337.7348437078,0,0,0.320753619188,1700,2018-04-02 06:10:47,11,0,17.104,5337.7348437078,0,0,0.320753619188,0,0,0,182.8, 0, 0.3,0,0,1024,1024,1024,1024,183.5,0,98,4.292,4.287,4.249,4.275,0,0,1.488,76.91,10,Assisted_Takeoff,
0.376747682598659,36.9245184449882,5337.7348437078,0,0,0.33913058828,1800,2018-04-02 06:10:47,11,0,17.104,5337.7348437078,0,0,0.33913058828,0,0,0,182.8, 0, 0.3,0,0,1024,1024,1024,1024,183.4,0,98,4.292,4.287,4.249,4.275,0,0,1.488,76.91,10,Assisted_Takeoff,
0.376747672953792,36.9245184229285,5337.7348437078,0,0,0.34574804256,1900,2018-04-02 06:10:47,11,0,17.077,5337.7348437078,0,0,0.34574804256,0,0,0,182.8, 0, 0.3,0,0,1024,1024,1024,1024,183.4,0,98,4.292,4.287,4.249,4.275,0,0,1.488,76.91,10,Assisted_Takeoff,
0.376747658982964,36.9245184045203,5337.7348437078,0,0,0.35327757036,2000,2018-04-02 06:10:47,11,0,17.077,5337.7348437078,0,0,0.35327757036,0,0,0,182.8, 0, 0.3,0,0,1024,1024,1024,1024,183.4,0,98,4.292,4.287,4.249,4.275,0,0,1.488,76.91,10,Assisted_Takeoff,
0.376747636991642,36.924518402223,5337.7348437078,0,0,0.36084974908,2100,2018-04-02 06:10:47,11,0,17.077,5337.7348437078,0,0,0.36084974908,0,0,0,182.8, 0, 0.3,0,0,1024,1024,1024,1024,183.3,0,98,4.292,4.287,4.249,4.275,0,0,1.488,76.91,10,Assisted_Takeoff,
0.376747608851315,36.9245183965382,5337.7348437078,0,0,0.3709973872,2200,2018-04-02 06:10:47,11,0,17.077,5337.7348437078,0,0,0.3709973872,0,0,0,182.8, 0, 0.3,0,0,1024,1024,1024,1024,183.3,0,98,4.292,4.287,4.249,4.275,0,0,1.488,76.91,10,Assisted_Takeoff,
0.376747537129756,36.9245183726676,5337.7348437078,0,0,0.39837927784,2300,2018-04-02 06:10:47,11,0,17.077,5337.7348437078,0,0,0.39837927784,0,0,0,182.8, 0, 0.3,0,0,1024,1024,1024,1024,183.3,0,98,4.292,4.287,4.249,4.275,0,0,1.488,76.91,10,Assisted_Takeoff,
0.376747467940428,36.9245183455509,5337.7348437078,0,0,0.425442927,2400,2018-04-02 06:10:47,11,0,17.077,5337.7348437078,0,0,0.425442927,0,0,0,182.8, 0, 0.3,0,0,1024,1024,1024,1024,183.3,0,98,4.292,4.287,4.249,4.275,0,0,1.488,76.91,10,Assisted_Takeoff,
0.376747391468698,36.9245182672233,5337.7348437078,0,0,0.4629757366,2500,2018-04-02 06:10:48,11,0,17.077,5337.7348437078,0,0,0.4629757366,0,0,0,182.8, 0, 0.3,0,0,1024,1024,1024,1024,183.2,0,98,4.292,4.287,4.249,4.275,0,0,1.488,76.91,10,Assisted_Takeoff,
0.37674732621939,36.9245181954086,5337.7348437078,0,0,0.49614830984,2600,2018-04-02 06:10:48,11,0,17.077,5337.7348437078,0,0,0.49614830984,0,0,0,182.8, 0, 0.3,0,0,1024,1024,1024,1024,183.2,0,98,4.292,4.287,4.249,4.275,0,0,1.488,76.91,10,Assisted_Takeoff,
0.37674725786586,36.9245181427422,5337.7348437078,0,0,0.52721786464,2700,2018-04-02 06:10:48,11,0,17.077,5337.7348437078,0,0,0.52721786464,0,0,0,182.8, 0, 0.3,0,0,1024,1024,1024,1024,183.2,0,98,4.292,4.287,4.249,4.275,0,0,1.488,76.91,10,Assisted_Takeoff,
0.3767471968387,36.9245181032956,5337.7348437078,0,0,0.55366143504,2800,2018-04-02 06:10:48,11,0,17.077,5337.7348437078,0,0,0.55366143504,0,0,0,182.8, 0, 0.3,0,0,1024,1024,1024,1024,183.2,0,98,4.292,4.287,4.249,4.275,0,0,1.488,76.91,10,Assisted_Takeoff,
0.376747167124482,36.9245180860134,5337.7348437078,0,0,0.56619752468,2900,2018-04-02 06:10:48,11,0,17.077,5337.7348437078,0,0,0.56619752468,0,0,0,182.7, 0, 0.3,0,0,1024,1024,1024,1024,183.2,0,98,4.267,4.264,4.223,4.247,0,0,4.01,76.91,10,Assisted_Takeoff,
0.376747139405516,36.9245180689931,5337.7348437078,0,0,0.57805448044,3000,2018-04-02 06:10:48,11,0,17.077,5337.7348437078,0,0,0.57805448044,0,0,0,182.7, 0, 0.3,0,0,1024,1024,1024,1024,183.2,0,98,4.267,4.264,4.223,4.247,0,0,4.01,76.91,10,Assisted_Takeoff,
0.376747108704054,36.9245180394897,5337.7348437078,0,0,0.59307416596,3100,2018-04-02 06:10:48,11,0,17.077,5337.7348437078,0,0,0.59307416596,0,0,0,182.8, 0, 0.3,0,0,1024,1024,1024,1024,183.2,0,98,4.267,4.264,4.223,4.247,0,0,4.01,76.91,10,Assisted_Takeoff,
0.376747072268026,36.924518006651,5337.7348437078,0,0,0.61054463896,3200,2018-04-02 06:10:48,11,0,17.077,5337.7348437078,0,0,0.61054463896,0,0,0,182.8, 0, 0.3,0,0,1024,1024,1024,1024,183.1,0,98,4.267,4.264,4.223,4.247,0,0,4.01,76.91,10,Assisted_Takeoff,
0.376747032983036,36.9245179928175,5337.7348437078,0,0,0.62550198852,3300,2018-04-02 06:10:48,11,0,17.077,5337.7348437078,0,0,0.62550198852,0,0,0,182.7, 0, 0.2,0,0,1024,1024,1024,1024,183.1,0,98,4.267,4.264,4.223,4.247,0,0,4.01,76.91,10,Assisted_Takeoff,
0.376746992083851,36.924517979495,5337.7348437078,0,0,0.6408956898,3400,2018-04-02 06:10:48,11,0,17.077,5337.7348437078,0,0,0.6408956898,0,0,0,182.7, 0, 0.3,0,0,1024,1024,1024,1024,183.1,0,98,4.267,4.264,4.223,4.247,0,0,4.01,76.91,10,Assisted_Takeoff,
0.376746917391196,36.9245179537007,5337.7348437078,0,0,0.66930120252,3500,2018-04-02 06:10:49,11,0,17.077,5337.7348437078,0,0,0.66930120252,0,0,0,182.7, 0, 0.3,0,0,1024,1024,1024,1024,183.1,0,98,4.267,4.264,4.223,4.247,0,0,4.01,76.91,10,Assisted_Takeoff,
0.37674684273111,36.924517923519,5337.7348437078,0,0,0.698490836,3600,2018-04-02 06:10:49,11,0,17.077,5337.7348437078,0,0,0.698490836,0,0,0,182.7, 0, 0.3,0,0,1024,1024,1024,1024,183.1,0,98,4.267,4.264,4.223,4.247,0,0,4.01,76.91,10,Assisted_Takeoff,
0.376746795632438,36.9245179098854,5337.7348437078,0,0,0.71598099404,3700,2018-04-02 06:10:49,11,0,17.077,5337.7348437078,0,0,0.71598099404,0,0,0,182.7, 0, 0.3,0,0,1024,1024,1024,1024,183.1,0,98,4.267,4.264,4.223,4.247,0,0,4.01,76.91,10,Assisted_Takeoff,
0.376746759192747,36.9245178975679,5337.7348437078,0,0,0.72982613884,3800,2018-04-02 06:10:49,11,0,17.077,5337.7348437078,0,0,0.72982613884,0,0,0,182.7, 0, 0.3,0,0,1024,1024,1024,1024,183.1,0,98,4.267,4.264,4.223,4.247,0,0,4.01,76.91,10,Assisted_Takeoff,
0.37674672288211,36.9245178694231,5337.7348437078,0,0,0.74634844908,3900,2018-04-02 06:10:49,11,0,17.077,5337.7348437078,0,0,0.74634844908,0,0,0,182.7, 0, 0.3,0,0,1024,1024,1024,1024,183.1,0,98,4.287,4.288,4.248,4.274,0,0,1.9,76.91,10,Assisted_Takeoff,
0.376746684519226,36.9245178382594,5337.7348437078,0,0,0.76406170424,4000,2018-04-02 06:10:49,11,0,17.077,5337.7348437078,0,0,0.76406170424,0,0,0,182.7, 0, 0.3,0,0,1024,1024,1024,1024,183.1,0,98,4.287,4.288,4.248,4.274,0,0,1.9,76.91,10,Assisted_Takeoff,
0.376746611729408,36.9245178224316,5337.7348437078,0,0,0.79020343736,4100,2018-04-02 06:10:49,11,0,17.077,5337.7348437078,0,0,0.79020343736,0,0,0,182.7, 0, 0.3,0,0,1024,1024,1024,1024,183.1,0,98,4.287,4.288,4.248,4.274,0,0,1.9,76.91,10,Assisted_Takeoff,
0.376746540049374,36.9245178091503,5337.7348437078,0,0,0.81562666652,4200,2018-04-02 06:10:49,11,0,17.077,5337.7348437078,0,0,0.81562666652,0,0,0,182.7, 0, 0.3,0,0,1024,1024,1024,1024,183.1,0,98,4.287,4.288,4.248,4.274,0,0,1.9,76.91,10,Assisted_Takeoff,
0.376746465648618,36.9245177796709,5337.7348437078,0,0,0.8446850664,4300,2018-04-02 06:10:49,11,0,17.077,5337.7348437078,0,0,0.8446850664,0,0,0,182.7, 0, 0.3,0,0,1024,1024,1024,1024,183.1,0,98,4.287,4.288,4.248,4.274,0,0,1.9,76.91,10,Assisted_Takeoff,
0.376746400899649,36.9245177486539,5337.7348437078,0,0,0.87087273128,4400,2018-04-02 06:10:49,11,0,17.077,5337.7348437078,0,0,0.87087273128,0,0,0,182.7, 0, 0.3,0,0,1024,1024,1024,1024,183.1,0,98,4.287,4.288,4.248,4.274,0,0,1.9,76.91,10,Assisted_Takeoff,
0.376746335136567,36.9245177316147,5337.7348437078,0,0,0.89508204964,4500,2018-04-02 06:10:50,11,0,17.077,5337.7348437078,0,0,0.89508204964,0,0,0,182.7, 0, 0.2,0,0,1024,1024,1024,1024,183.1,0,98,4.287,4.288,4.248,4.274,0,0,1.9,76.91,10,Assisted_Takeoff,
0.376746274970854,36.9245177171923,5337.7348437078,0,0,0.91707023932,4600,2018-04-02 06:10:50,11,0,17.077,5337.7348437078,0,0,0.91707023932,0,0,0,182.7, 0, 0.2,0,0,1024,1024,1038,1024,183.1,0,98,4.287,4.288,4.248,4.274,0,0,1.9,76.91,10,Assisted_Takeoff,
0.37674618609608,36.9245177167022,5337.7348437078,0,0,0.94630252372,4700,2018-04-02 06:10:50,11,0,17.077,5337.7348437078,0,0,0.94630252372,0,0,0,182.7, 0, 0.3,0,0,1024,1024,1101,1024,183.1,0,98,4.287,4.288,4.248,4.274,0,0,1.9,76.91,10,Assisted_Takeoff,
0.376746100767243,36.9245177142154,5337.7348437078,0,0,0.9748687976,4800,2018-04-02 06:10:50,11,0,17.077,5337.7348437078,0,0,0.9748687976,0,0,0,182.7, 0, 0.3,0,0,1024,1024,1114,1024,183.1,0,98,4.287,4.288,4.248,4.274,0,0,1.9,76.91,10,Assisted_Takeoff,
0.376746021010941,36.9245177232119,5337.7348437078,0,0,1.00002299788,4900,2018-04-02 06:10:50,11,0,17.077,5337.7348437078,0,0,1.00002299788,0,0,0,182.7, 0, 0.2,0,0,1024,1024,1110,1024,183.1,0,98,4.287,4.288,4.248,4.274,0,0,1.91,76.91,10,Assisted_Takeoff,
0.376745949463626,36.9245177275672,5337.7348437078,0,0,1.0233104002,5000,2018-04-02 06:10:50,11,0,17.077,5337.7348437078,0,0,1.0233104002,0,0,0,182.7, 0, 0.3,0,0,1024,1024,1113,1024,183.1,0,98,4.287,4.288,4.248,4.274,0,0,1.91,76.91,10,Assisted_Takeoff,
0.376745885579768,36.9245177407302,5337.7348437078,0,0,1.04291998088,5100,2018-04-02 06:10:50,11,0,17.077,5337.7348437078,0,0,1.04291998088,0,0,0,182.7, 0, 0.3,0,0,1024,1024,1134,1024,183.1,0,98,4.287,4.288,4.248,4.274,0,0,1.91,76.91,10,Assisted_Takeoff,
0.376745824163817,36.9245177483217,5337.7348437078,0,0,1.06262142508,5200,2018-04-02 06:10:50,11,0,17.077,5337.7348437078,0,0,1.06262142508,0,0,0,182.7, 0, 0.3,0,0,1024,1024,1132,1024,183.1,0,98,4.287,4.288,4.248,4.274,0,0,1.91,76.91,10,Assisted_Takeoff,
0.376745803345381,36.9245177611802,5337.7348437078,0,0,1.06794294756,5300,2018-04-02 06:10:50,11,0,17.077,5337.7348437078,0,0,1.06794294756,0,0,0,182.8, 0, 0.3,0,0,1024,1024,1133,1024,183.1,0,98,4.287,4.288,4.248,4.274,0,0,1.91,76.91,10,Assisted_Takeoff,
0.376745781556801,36.9245177703279,5337.7348437078,0,0,1.0741306118,5400,2018-04-02 06:10:51,11,0,17.077,5337.7348437078,0,0,1.0741306118,0,0,0,182.7, 0, 0.3,0,0,1024,1024,1136,1024,183.1,0,98,4.287,4.288,4.248,4.274,0,0,1.91,76.91,10,Assisted_Takeoff,
0.376745763765236,36.9245177820421,5337.7348437078,0,0,1.078658171,5500,2018-04-02 06:10:51,11,0,17.077,5337.7348437078,0,0,1.078658171,0,0,0,182.7, 0.1, 0.3,0,0,1024,1024,1165,1024,183.1,0,98,4.287,4.288,4.248,4.274,0,0,1.91,76.91,10,Assisted_Takeoff,
0.376745706203405,36.9245177992906,5337.7348437078,0,0,1.09612208232,5700,2018-04-02 06:10:51,11,0,17.077,5337.7348437078,0,0,1.09612208232,0,0,0,182.7, 0.5, 0.2,0,0,1024,1024,1155,1024,183.1,0,98,4.287,4.288,4.248,4.274,0,0,1.91,76.91,10,Assisted_Takeoff,
0.376745677119802,36.9245178087354,5337.7348437078,0,0,1.10491801436,5800,2018-04-02 06:10:51,11,0,17.077,5337.7348437078,0,0,1.10491801436,0,0,0,182.7, 2.4, 0.4,0,0,1024,1024,1149,1024,183.1,0,98,4.287,4.288,4.248,4.274,0,0,1.91,76.91,10,Assisted_Takeoff,
0.376745701182912,36.9245178208468,5337.7348437078,0,0,1.0951607962,5900,2018-04-02 06:10:51,11,0,16.997,5337.7348437078,0,0,1.10491801436,0,0,-0.223694,182.6, 4.1, 0.6,0,0,1024,1024,1140,1024,183.1,0,98,4.287,4.288,4.249,4.274,0,0,1.91,76.91,10,Assisted_Takeoff,
0.376745789878557,36.9245178314267,5337.7348437078,0,0.223694,1.06342523088,6000,2018-04-02 06:10:51,11,0,16.997,5337.7348437078,0,0.223694,1.10491801436,0.223694,0,-0.447388,182.6, 3.4, 0.2,0,0,1024,1024,1166,1024,183.1,0,98,4.287,4.288,4.249,4.274,0,0,1.91,76.91,6,P-GPS,Home Point Recorded. RTH Altitude:  30m.
0.376745997355349,36.9245178415109,5337.7348437078,0,0.447388,0.99134189524,6100,2018-04-02 06:10:51,11,0,16.997,5337.7348437078,0,0.447388,1.10491801436,0.447388,0,-0.447388,182.7, 0.8, 0.5,0,0,1024,1024,1195,1024,183.1,0,98,4.287,4.288,4.249,4.274,0,0,1.91,76.91,6,P-GPS,
0.376746210089574,36.9245178461502,5337.7348437078,0,0.447388,0.91886813964,6200,2018-04-02 06:10:51,11,0,16.997,5337.7348437078,0,0.447388,1.10491801436,0.447388,0,-0.447388,182.6, -0.3, 0.7,0,0,1024,1024,1222,1024,183.1,0,98,4.287,4.288,4.249,4.274,0,0,1.91,76.91,6,P-GPS,
0.376746451253987,36.9245178541113,5337.7348437078,0,0.223694,0.83740816328,6300,2018-04-02 06:10:51,11,0,16.997,5337.7348437078,0,0.447388,1.10491801436,0.223694,0,-0.671082,182.5, -1, 0.2,0,0,1024,1024,1215,1024,183,0,98,4.287,4.288,4.249,4.274,0,0,1.91,76.91,6,P-GPS,
0.376746647898778,36.9245178491089,5338.0629277078,0.328084,0.223694,0.77399280692,6400,2018-04-02 06:10:51,11,0,16.997,5338.0629277078,0.328084,0.447388,1.10491801436,0.223694,0,-0.894776,182.5, -1.6, -0.2,0,0,1024,1024,1225,1024,183,0,98,4.287,4.288,4.249,4.274,0,0,1.91,76.91,6,P-GPS,
0.37674676780518,36.9245178043948,5338.0629277078,0.328084,0,0.74364175608,6500,2018-04-02 06:10:52,11,0,16.997,5338.0629277078,0.328084,0.447388,1.10491801436,0,0,-0.894776,182.6, -1.8, -0.6,0,0,1024,1024,1246,1024,183,0,98,4.287,4.288,4.249,4.274,0,0,1.91,76.91,6,P-GPS,
0.376746829710479,36.9245177567826,5338.0629277078,0.328084,0,0.73341209696,6600,2018-04-02 06:10:52,11,0,16.997,5338.0629277078,0.328084,0.447388,1.10491801436,0,0,-1.11847,182.6, -1.4, -0.7,0,0,1024,1024,1257,1024,183,0,98,4.287,4.288,4.249,4.274,0,0,1.91,76.91,6,P-GPS,
0.376746830653348,36.9245176637524,5338.3910117078,0.656168,0,0.75187338364,6700,2018-04-02 06:10:52,11,0,16.997,5338.3910117078,0.656168,0.447388,1.10491801436,0,0,-1.342164,182.6, -0.7, -0.4,0,0,1024,1024,1289,1024,183,0,98,4.287,4.288,4.249,4.274,0,0,1.91,76.91,6,P-GPS,
0.376746814327383,36.9245175771917,5338.7190957078,0.984252,0,0.77504595656,6800,2018-04-02 06:10:52,11,0,16.997,5338.7190957078,0.984252,0.447388,1.10491801436,0,0,-1.565858,182.5, -0.3, -0.4,0,0,1024,1024,1305,1024,183,0,98,4.287,4.288,4.249,4.274,0,0,1.91,76.91,6,P-GPS,
0.376746818232798,36.9245175370359,5338.7190957078,0.984252,0,0.78267390956,6900,2018-04-02 06:10:52,11,0,16.756,5338.7190957078,0.984252,0.447388,1.10491801436,0,0,-1.789552,182.6, -0.6, -0.6,0,0,1024,1024,1297,1024,183,0,98,4.239,4.236,4.198,4.217,0,0,7.936,76.91,6,P-GPS,
0.376746806346786,36.9245175082166,5339.0471797078,1.312336,0,0.79250658704,7000,2018-04-02 06:10:52,11,0,16.756,5339.0471797078,1.312336,0.447388,1.10491801436,0,0,-2.23694,182.7, -0.3, -0.6,0,0,1024,1024,1298,1024,183,0,98,4.239,4.236,4.198,4.217,0,0,7.936,76.91,6,P-GPS,
0.376746698876403,36.9245174387479,5339.3752637078,1.64042,0,0.83904530244,7100,2018-04-02 06:10:52,11,0,16.756,5339.3752637078,1.64042,0.447388,1.10491801436,0,0,-2.460634,182.7, 0.3, -0.3,0,0,1024,1024,1305,1024,183,0,98,4.239,4.236,4.198,4.217,0,0,7.936,76.91,6,P-GPS,
0.376746577921689,36.92451735077,5340.0314317078,2.296588,0.223694,0.89359910996,7200,2018-04-02 06:10:52,11,0,16.756,5340.0314317078,2.296588,0.447388,1.10491801436,0,-0.223694,-2.908022,182.6, 0.2, -1.1,0,0,1024,1024,1316,1024,183,0,98,4.239,4.236,4.198,4.217,0,0,7.936,76.91,6,P-GPS,
0.376746440982984,36.9245172181412,5340.3595157078,2.624672,0.223694,0.9626968812,7300,2018-04-02 06:10:52,11,0,16.756,5340.3595157078,2.624672,0.447388,1.10491801436,0,-0.223694,-3.131716,182.3, 0.7, -2.3,0,0,1024,1024,1297,1024,183,0,98,4.239,4.236,4.198,4.217,0,0,7.936,76.91,6,P-GPS,
0.376746328838153,36.9245171121404,5341.0156837078,3.28084,0,1.01874347092,7400,2018-04-02 06:10:53,11,0,16.756,5341.0156837078,3.28084,0.447388,1.10491801436,0,0,-3.35541,181.9, 2.1, -3.2,0,0,1024,1024,1279,1024,183,0,98,4.239,4.236,4.198,4.217,0,0,7.936,76.91,6,P-GPS,
0.37674628611226,36.9245171197482,5341.3437677078,3.608924,0,1.02937011168,7500,2018-04-02 06:10:53,11,0,16.756,5341.3437677078,3.608924,0.447388,1.10491801436,0,0,-3.35541,182, 1.4, -2.1,0,0,1024,1024,1299,1024,183,0,98,4.239,4.236,4.198,4.217,0,0,7.936,76.91,6,P-GPS,
0.376746310678559,36.92451718752,5341.9999357078,4.265092,0,1.00732286688,7600,2018-04-02 06:10:53,11,0,16.756,5341.9999357078,4.265092,0.447388,1.10491801436,0,0,-3.131716,182.2, -0.3, -1.2,0,0,1024,1024,1311,1024,183,0,98,4.239,4.236,4.198,4.217,0,0,7.936,76.91,6,P-GPS,
0.376746368627146,36.924517282745,5342.3280197078,4.593176,0,0.96974740636,7700,2018-04-02 06:10:53,11,0,16.756,5342.3280197078,4.593176,0.447388,1.10491801436,0,0,-3.131716,182.4, -1, -0.4,0,0,1024,1024,1310,1024,183,0,98,4.239,4.236,4.198,4.217,0,0,7.936,76.91,6,P-GPS,
0.37674643244668,36.9245173863899,5342.9841877078,5.249344,0,0.92892391424,7800,2018-04-02 06:10:53,11,0,16.756,5342.9841877078,5.249344,0.447388,1.10491801436,0,0,-3.131716,182.5, -1.2, 0.3,0,0,1024,1024,1307,1024,183,0,98,4.239,4.236,4.198,4.217,0,0,7.936,76.91,6,P-GPS,
0.376746522173945,36.9245174925879,5343.3122717078,5.577428,0.223694,0.88005908328,7900,2018-04-02 06:10:53,11,0,16.569,5343.3122717078,5.577428,0.447388,1.10491801436,0.223694,0,-3.131716,182.5, -1.5, 0.6,0,0,1024,1024,1324,1024,183,0,98,4.18,4.181,4.151,4.173,0,0,14.476,76.91,6,P-GPS,
0.376746608553942,36.9245175856285,5343.6403557078,5.905512,0.223694,0.835055801,8000,2018-04-02 06:10:53,11,0,16.569,5343.6403557078,5.905512,0.447388,1.10491801436,0.223694,0,-3.131716,182.6, -1.8, 0.4,0,0,1024,1024,1333,1024,183,0,98,4.18,4.181,4.151,4.173,0,0,14.476,76.91,6,P-GPS,
0.376746684165447,36.9245176821093,5344.2965237078,6.56168,0.223694,0.79286091776,8100,2018-04-02 06:10:53,11,0,16.569,5344.2965237078,6.56168,0.447388,1.10491801436,0.223694,0,-3.131716,182.7, -2.2, 0.4,0,0,1024,1024,1335,1024,183,0,98,4.18,4.181,4.151,4.173,0,0,14.476,76.91,6,P-GPS,
0.376746736667703,36.9245177734166,5344.6246077078,6.889764,0,0.7591699718,8200,2018-04-02 06:10:53,11,0,16.569,5344.6246077078,6.889764,0.447388,1.10491801436,0,0,-3.35541,182.6, -2, 0.2,0,0,1024,1024,1331,1024,183,0,98,4.18,4.181,4.151,4.173,0,0,14.476,76.91,6,P-GPS,
0.376746762588053,36.9245178421715,5345.2807757078,7.545932,0,0.73843178216,8300,2018-04-02 06:10:53,11,0,16.569,5345.2807757078,7.545932,0.447388,1.10491801436,0,0,-3.35541,182.6, -1.8, 0,0,0,1024,1024,1344,1024,183,0,98,4.18,4.181,4.151,4.173,0,0,14.476,76.91,6,P-GPS,
0.376746781787408,36.9245179221802,5345.9369437078,8.2021,0,0.71834976052,8400,2018-04-02 06:10:53,11,0,16.569,5345.9369437078,8.2021,0.447388,1.10491801436,0,0,-3.579104,182.7, -2, 0.7,0,0,1024,1024,1347,1024,183,0,98,4.18,4.181,4.151,4.173,0,0,14.476,76.91,6,P-GPS,
0.37674679586327,36.9245180161924,5346.2650277078,8.530184,0,0.69846458928,8500,2018-04-02 06:10:54,11,0,16.569,5346.2650277078,8.530184,0.447388,1.10491801436,0,0,-3.579104,182.7, -2.2, 0.8,0,0,1024,1024,1337,1024,183,0,98,4.18,4.181,4.151,4.173,0,0,14.476,76.91,6,P-GPS,
0.376746796417756,36.9245181036072,5346.9211957078,9.186352,0,0.6852526466,8600,2018-04-02 06:10:54,11,0,16.569,5346.9211957078,9.186352,0.447388,1.10491801436,0,0,-3.579104,182.7, -2, 0.3,0,0,1024,1024,1332,1024,183,0,98,4.18,4.181,4.151,4.173,0,0,14.476,76.91,6,P-GPS,
0.376746770899224,36.9245181668799,5347.5773637078,9.84252,0,0.68529529752,8700,2018-04-02 06:10:54,11,0,16.569,5347.5773637078,9.84252,0.447388,1.10491801436,0,0,-3.802798,182.6, -2.1, 0.6,0,1,1024,1024,1335,1024,183,0,98,4.18,4.181,4.151,4.173,0,0,14.476,76.91,6,P-GPS,
0.376746735814805,36.9245182342874,5347.9054477078,10.170604,0,0.68906498268,8800,2018-04-02 06:10:54,11,0,16.569,5347.9054477078,10.170604,0.447388,1.10491801436,0,0,-3.802798,182.6, -2, 0.9,0,1,1024,1024,1351,1024,183,0,98,4.18,4.181,4.151,4.173,0,0,14.476,76.91,6,P-GPS,
0.376746692782358,36.9245182739267,5348.5616157078,10.826772,0,0.6996063216,8900,2018-04-02 06:10:54,11,0,16.676,5348.5616157078,10.826772,0.447388,1.10491801436,0,0,-3.802798,182.6, -1.7, 1.2,0,1,1024,1024,1349,1024,182.9,0,98,4.18,4.181,4.151,4.173,0,0,14.476,76.91,6,P-GPS,
0.376746653684639,36.9245183122845,5349.2177837078,11.48294,0,0.70937010144,9000,2018-04-02 06:10:54,11,0,16.676,5349.2177837078,11.48294,0.447388,1.10491801436,0,0,-3.802798,182.5, -1.3, 1.2,0,1,1024,1024,1350,1024,182.9,0,98,4.18,4.181,4.151,4.173,0,0,14.476,76.91,6,P-GPS,
0.376746611197314,36.9245183188862,5349.5458677078,11.811024,0,0.72368440636,9100,2018-04-02 06:10:54,11,0,16.676,5349.5458677078,11.811024,0.447388,1.10491801436,0,0,-3.802798,182.5, -1.4, 0.9,0,1,1024,1024,1349,1024,183,0,98,4.18,4.181,4.151,4.173,0,0,14.476,76.91,6,P-GPS,
0.376746591768349,36.9245183227726,5350.2020357078,12.467192,0,0.7301673462,9200,2018-04-02 06:10:54,11,0,16.676,5350.2020357078,12.467192,0.447388,1.10491801436,0,0,-3.802798,182.5, -2, 0,0,1,1024,1024,1349,1024,182.9,0,98,4.18,4.181,4.151,4.173,0,0,14.476,76.91,6,P-GPS,
0.37674660062057,36.9245183597725,5350.8582037078,13.12336,0,0.72369752972,9300,2018-04-02 06:10:54,11,0,16.676,5350.8582037078,13.12336,0.447388,1.10491801436,0,0,-3.802798,182.6, -2.3, -0.2,0,1,1024,1024,1347,1024,182.9,0,98,4.18,4.181,4.151,4.173,0,0,14.476,76.91,6,P-GPS,
0.37674661524359,36.9245184217779,5351.5143717078,13.779528,0,0.7134022538,9400,2018-04-02 06:10:55,11,0,16.676,5351.5143717078,13.779528,0.447388,1.10491801436,0,0,-3.802798,182.6, -2.5, 0.7,0,1,1024,1024,1345,1024,182.9,0,98,4.18,4.181,4.151,4.173,0,0,14.476,76.91,6,P-GPS,
0.376746602668746,36.9245184631382,5352.1705397078,14.435696,0,0.71487207012,9500,2018-04-02 06:10:55,11,0,16.676,5352.1705397078,14.435696,0.447388,1.10491801436,0,0,-3.802798,182.6, -2.3, 1.5,0,1,1024,1024,1334,1024,182.9,0,98,4.18,4.181,4.151,4.173,0,0,14.476,76.91,6,P-GPS,
0.376746599872707,36.9245184769795,5352.4986237078,14.76378,0,0.71493440608,9600,2018-04-02 06:10:55,11,0,16.676,5352.4986237078,14.76378,0.447388,1.10491801436,0,0,-3.802798,182.5, -2.6, 0.9,0,1,1024,1024,1331,1024,182.9,0,98,4.18,4.181,4.151,4.173,0,0,14.476,76.91,6,P-GPS,
0.376746605459899,36.9245184406214,5353.1547917078,15.419948,0,0.71547574468,9700,2018-04-02 06:10:55,11,0,16.676,5353.1547917078,15.419948,0.447388,1.10491801436,0,0,-3.802798,182.5, -3.1, 0,0,1,1024,1024,1329,1024,182.9,0,98,4.18,4.181,4.151,4.173,0,0,14.476,76.91,6,P-GPS,
0.376746609671462,36.9245184122673,5353.8109597078,16.076116,0,0.716125351,9800,2018-04-02 06:10:55,11,0,16.676,5353.8109597078,16.076116,0.447388,1.10491801436,0,0,-3.579104,182.5, -2.8, -0.3,0,1,1024,1024,1335,1024,182.9,0,98,4.18,4.181,4.151,4.173,0,0,14.476,76.91,6,P-GPS,
0.376746636513511,36.9245183830133,5354.1390437078,16.4042,0,0.70896983896,9900,2018-04-02 06:10:55,11,0,16.596,5354.1390437078,16.4042,0.447388,1.10491801436,0,0,-3.579104,182.6, -2.7, -0.1,0,1,1024,1024,1336,1024,182.9,0,98,4.187,4.187,4.151,4.168,0,0,13.194,76.91,6,P-GPS,
0.376746665079269,36.9245183776712,5354.7952117078,17.060368,0,0.69930120348,10000,2018-04-02 06:10:55,11,0,16.596,5354.7952117078,17.060368,0.447388,1.10491801436,0,0,-3.579104,182.6, -2.8, 0.2,0,1,1024,1024,1390,1024,182.9,0,98,4.187,4.187,4.151,4.168,0,0,13.194,76.91,6,P-GPS,
0.376746715968144,36.9245183823723,5355.4513797078,17.716536,0,0.68086616352,10100,2018-04-02 06:10:55,11,0,16.596,5355.4513797078,17.716536,0.447388,1.10491801436,0,0,-3.579104,182.6, -2.9, 0.6,0,1,1024,1024,1392,1024,182.9,0,98,4.187,4.187,4.151,4.168,0,0,13.194,76.91,6,P-GPS,
0.376746754611527,36.9245183903233,5356.1075477078,18.372704,0,0.66648296096,10200,2018-04-02 06:10:55,11,0,16.596,5356.1075477078,18.372704,0.447388,1.10491801436,0,0,-4.026492,182.6, -2.8, 0.1,0,1,1024,1024,1356,1024,182.9,0,98,4.187,4.187,4.151,4.168,0,0,13.194,76.91,6,P-GPS,
0.376746777451675,36.9245184239376,5356.4356317078,18.700788,0,0.65549214696,10300,2018-04-02 06:10:55,11,0,16.596,5356.4356317078,18.700788,0.447388,1.10491801436,0,0,-4.250186,182.6, -3.1, -0.2,0,1,1024,1024,1333,1024,182.9,0,98,4.187,4.187,4.151,4.168,0,0,13.194,76.91,6,P-GPS,
0.376746790178372,36.9245184758711,5357.0917997078,19.356956,0,0.64687338028,10400,2018-04-02 06:10:55,11,0,16.596,5357.0917997078,19.356956,0.447388,1.10491801436,0,0,-4.250186,182.6, -3.9, 0.1,0,1,1024,1024,1335,1024,182.9,0,98,4.187,4.187,4.151,4.168,0,0,13.194,76.91,6,P-GPS,
0.376746810701652,36.9245185224141,5357.7479677078,20.013124,0,0.63628282876,10500,2018-04-02 06:10:56,11,0,16.596,5357.7479677078,20.013124,0.447388,1.10491801436,0,0,-4.026492,182.5, -4, 0.1,0,1,1024,1024,1321,1024,182.9,0,98,4.187,4.187,4.151,4.168,0,0,13.194,76.91,6,P-GPS,
0.376746819177703,36.9245185766711,5358.4041357078,20.669292,0,0.62998361596,10600,2018-04-02 06:10:56,11,0,16.596,5358.4041357078,20.669292,0.447388,1.10491801436,0,0,-4.026492,182.5, -3.6, 0.4,0,1,1024,1024,1314,1024,182.9,0,98,4.187,4.187,4.151,4.168,0,0,13.194,76.91,6,P-GPS,
0.376746816709389,36.9245186675175,5359.0603037078,21.32546,0,0.62678479696,10700,2018-04-02 06:10:56,11,0,16.596,5359.0603037078,21.32546,0.447388,1.10491801436,0,0,-3.802798,182.4, -3.7, 0.3,0,1,1024,1024,1306,1024,182.9,0,98,4.187,4.187,4.151,4.168,0,0,13.194,76.91,6,P-GPS,
0.376746803969257,36.9245187614946,5359.7164717078,21.981628,0,0.62902561068,10800,2018-04-02 06:10:56,11,0,16.596,5359.7164717078,21.981628,0.447388,1.10491801436,0,0,-3.802798,182.5, -3.7, 0.2,0,1,1024,1024,1340,1024,182.9,0,98,4.187,4.187,4.151,4.168,0,0,13.194,76.91,6,P-GPS,
0.376746794885797,36.9245188323102,5360.3726397078,22.637796,0,0.6317749546,10900,2018-04-02 06:10:56,11,0,16.596,5360.3726397078,22.637796,0.447388,1.10491801436,0,0,-3.579104,182.6, -3.5, 0.8,0,1,1024,1024,1329,1024,182.9,0,98,4.175,4.177,4.148,4.17,0,0,12.92,76.91,6,P-GPS,
0.376746780603529,36.9245188899193,5360.7007237078,22.96588,0,0.63730317,11000,2018-04-02 06:10:56,11,0,16.596,5360.7007237078,22.96588,0.447388,1.10491801436,0,0,-3.579104,182.6, -3.2, 0.7,0,1,1024,1024,1331,1024,182.9,0,98,4.175,4.177,4.148,4.17,0,0,12.92,76.91,6,P-GPS,
0.376746787321674,36.9245189279564,5361.3568917078,23.622048,0,0.63544621456,11100,2018-04-02 06:10:56,11,0,16.596,5361.3568917078,23.622048,0.447388,1.10491801436,0,0,-3.579104,182.6, -4.5, 0.5,0,1,1024,1024,1315,1024,182.9,0,98,4.175,4.177,4.148,4.17,0,0,12.92,76.91,6,P-GPS,
0.376746782234415,36.9245189814903,5361.6849757078,23.950132,0,0.63864175272,11200,2018-04-02 06:10:56,11,0,16.596,5361.6849757078,23.950132,0.447388,1.10491801436,0,0,-3.579104,182.6, -4.6, 1.1,0,1,1024,1024,1294,1024,182.9,0,98,4.175,4.177,4.148,4.17,0,0,12.92,76.91,6,P-GPS,
0.376746760779666,36.9245190421057,5362.3411437078,24.6063,0,0.64864831472,11300,2018-04-02 06:10:56,11,0,16.596,5362.3411437078,24.6063,0.447388,1.10491801436,0,0,-3.35541,182.7, -4.3, 1.3,0,1,1024,1024,1262,1024,182.9,0,98,4.175,4.177,4.148,4.17,0,0,12.92,76.91,6,P-GPS,
0.376746719527922,36.9245190852655,5362.9973117078,25.262468,0,0.66558072996,11400,2018-04-02 06:10:56,11,0,16.596,5362.9973117078,25.262468,0.447388,1.10491801436,0,0,-3.131716,182.6, -4.1, 1,0,1,1024,1024,1246,1024,182.9,0,98,4.175,4.177,4.148,4.17,0,0,12.92,76.91,6,P-GPS,
0.376746680016986,36.9245190620514,5363.3253957078,25.590552,0,0.6787729876,11500,2018-04-02 06:10:57,11,0,16.596,5363.3253957078,25.590552,0.447388,1.10491801436,0,0,-2.908022,182.6, -4, 0.1,0,1,1024,1024,1229,1024,182.9,0,98,4.175,4.177,4.148,4.17,0,0,12.92,76.91,6,P-GPS,
0.376746629855618,36.9245190375625,5363.6534797078,25.918636,0,0.69593506164,11600,2018-04-02 06:10:57,11,0,16.596,5363.6534797078,25.918636,0.447388,1.10491801436,0,0,-2.684328,182.5, -3.3, 0,0,1,1024,1024,1248,1024,182.9,0,98,4.175,4.177,4.148,4.17,0,0,12.92,76.91,6,P-GPS,
0.376746579397467,36.9245190307464,5363.9815637078,26.24672,0,0.71398952416,11700,2018-04-02 06:10:57,11,0,16.596,5363.9815637078,26.24672,0.447388,1.10491801436,0,0,-2.460634,182.5, -3.3, -0.1,0,1,1024,1024,1264,1024,182.9,0,98,4.175,4.177,4.148,4.17,0,0,12.92,76.91,6,P-GPS,
0.376746531734947,36.9245190470788,5364.6377317078,26.902888,0,0.73189962972,11800,2018-04-02 06:10:57,11,0,16.596,5364.6377317078,26.902888,0.447388,1.10491801436,0,0,-2.23694,182.5, -3.3, 0.6,0,1,1024,1024,1276,1024,182.9,0,98,4.175,4.177,4.148,4.17,0,0,12.92,76.91,6,P-GPS,
0.376746492132003,36.9245190536818,5364.9658157078,27.230972,0,0.7465223336,11900,2018-04-02 06:10:57,11,0,16.622,5364.9658157078,27.230972,0.447388,1.10491801436,0,0,-2.23694,182.4, -3.1, 0.4,0,1,1024,1024,1275,1029,182.9,0,98,4.164,4.168,4.144,4.174,0,0,12.484,76.91,6,P-GPS,
0.376746461369881,36.9245190534072,5365.2938997078,27.559056,0,0.75767390876,12000,2018-04-02 06:10:57,11,0,16.622,5365.2938997078,27.559056,0.447388,1.10491801436,0,0,-2.23694,182.5, -3.7, 0.3,0,1,1024,1024,1245,1048,182.9,0,98,4.164,4.168,4.144,4.174,0,0,12.484,76.91,6,P-GPS,
0.376746468552134,36.9245190136657,5365.6219837078,27.88714,0,0.75367128396,12100,2018-04-02 06:10:57,11,0,16.622,5365.6219837078,27.88714,0.447388,1.10491801436,0,0,-2.460634,182.4, -4, 0.1,0,1,1024,1024,1230,1054,182.9,0,98,4.164,4.168,4.144,4.174,0,0,12.484,76.91,6,P-GPS,
0.376746462550096,36.9245189805687,5365.9500677078,28.215224,0,0.75490816064,12200,2018-04-02 06:10:57,11,0,16.622,5365.9500677078,28.215224,0.447388,1.10491801436,0,0,-2.23694,182.4, -4.2, -0.3,0,1,1024,1024,1241,1059,182.9,0,98,4.164,4.168,4.144,4.174,0,0,12.484,76.91,6,P-GPS,
0.376746441166998,36.9245189940629,5366.2781517078,28.543308,0,0.76304792468,12300,2018-04-02 06:10:57,11,0,16.622,5366.2781517078,28.543308,0.447388,1.10491801436,0,0,-2.23694,182.5, -4, 0.1,0,1,1024,1024,1249,1051,182.9,0,98,4.164,4.168,4.144,4.174,0,0,12.484,76.91,6,P-GPS,
0.376746404932084,36.9245190285356,5366.6062357078,28.871392,0,0.77727364692,12400,2018-04-02 06:10:58,11,0,16.622,5366.6062357078,28.871392,0.447388,1.10491801436,0,0,-2.013246,182.7, -3.2, 0.7,0,1,1024,1024,1254,1034,182.9,0,98,4.164,4.168,4.144,4.174,0,0,12.484,76.91,6,P-GPS,
0.376746399693786,36.9245190867033,5366.9343197078,29.199476,0,0.78139110112,12500,2018-04-02 06:10:58,11,0,16.622,5366.9343197078,29.199476,0.447388,1.10491801436,0,0,-2.23694,182.8, -3, 0.6,0,1,1024,1024,1252,1024,182.9,0,98,4.164,4.168,4.144,4.174,0,0,12.484,76.91,6,P-GPS,
0.376746408208106,36.9245191357965,5367.2624037078,29.52756,0,0.78062338456,12600,2018-04-02 06:10:58,11,0,16.622,5367.2624037078,29.52756,0.447388,1.10491801436,0,0,-2.23694,182.8, -3.5, 0.7,0,1,1024,1024,1243,1024,182.9,0,98,4.164,4.168,4.144,4.174,0,0,12.484,76.91,6,P-GPS,
0.376746447555791,36.9245191294338,5367.5904877078,29.855644,0,0.76608598252,12700,2018-04-02 06:10:58,11,0,16.622,5367.5904877078,29.855644,0.447388,1.10491801436,0,0,-2.23694,182.8, -4.1, 0.6,0,1,1024,1024,1234,1024,182.9,0,98,4.164,4.168,4.144,4.174,0,0,12.484,76.91,6,P-GPS,
0.376746474398655,36.9245191038242,5367.9185717078,30.183728,0,0.7551181344,12800,2018-04-02 06:10:58,11,0,16.622,5367.9185717078,30.183728,0.447388,1.10491801436,0,0,-2.23694,182.9, -4.3, 0.1,0,1,1024,1024,1247,1024,182.9,0,98,4.164,4.168,4.144,4.174,0,0,12.484,76.91,6,P-GPS,
0.376746493155073,36.9245190626697,5368.2466557078,30.511812,0,0.74651249108,12900,2018-04-02 06:10:58,11,0,16.703,5368.2466557078,30.511812,0.447388,1.10491801436,0,0,-2.013246,182.8, -3.9, 0.5,0,1,1024,1024,1252,1024,182.9,0,98,4.164,4.168,4.144,4.174,0,0,12.484,76.91,6,P-GPS,
0.376746495340037,36.9245190098586,5368.5747397078,30.839896,0.223694,0.7438156406,13000,2018-04-02 06:10:58,11,0,16.703,5368.5747397078,30.839896,0.447388,1.10491801436,0,-0.223694,-2.23694,182.7, -3.4, -0.4,0,1,1024,1024,1254,1024,182.9,0,98,4.164,4.168,4.144,4.174,0,0,12.484,76.91,6,P-GPS,
0.376746533560432,36.9245189475226,5368.9028237078,31.16798,0,0.72828414404,13100,2018-04-02 06:10:58,11,0,16.703,5368.9028237078,31.16798,0.447388,1.10491801436,0,0,-2.23694,182.7, -3.5, -1.3,0,1,1024,1024,1252,1024,182.9,0,98,4.164,4.168,4.144,4.174,0,0,12.484,76.91,6,P-GPS,
0.376746579682852,36.9245189000723,5369.2309077078,31.496064,0,0.71069227996,13200,2018-04-02 06:10:58,11,0,16.703,5369.2309077078,31.496064,0.447388,1.10491801436,0,0,-2.23694,182.8, -3.8, -1.1,0,1,1024,1024,1251,1024,182.9,0,98,4.164,4.168,4.144,4.174,0,0,12.484,76.91,6,P-GPS,
0.376746633625059,36.9245188410184,5369.5589917078,31.824148,0,0.69061353916,13300,2018-04-02 06:10:58,11,0,16.703,5369.5589917078,31.824148,0.447388,1.10491801436,0,0,-2.23694,182.8, -3.9, -1.5,0,1,1024,1024,1249,1024,182.9,0,98,4.164,4.168,4.144,4.174,0,0,12.484,76.91,6,P-GPS,
0.376746677892273,36.9245187779255,5369.8870757078,32.152232,0,0.67477692448,13400,2018-04-02 06:10:58,11,0,16.703,5369.8870757078,32.152232,0.447388,1.10491801436,0,0,-2.23694,182.9, -3.8, -1.4,0,1,1024,1024,1241,1024,182.9,0,98,4.164,4.168,4.144,4.174,0,0,12.484,76.91,6,P-GPS,
0.376746756227758,36.9245186764952,5370.2151597078,32.480316,0.3131716,0.64845146432,13500,2018-04-02 06:10:59,11,0,16.703,5370.2151597078,32.480316,0.447388,1.10491801436,0.223694,-0.223694,-2.460634,182.8, -4.7, -1.6,0,1,1024,1024,1235,1024,182.9,0,98,4.164,4.168,4.144,4.174,0,0,12.484,76.91,6,P-GPS,
0.376746832517509,36.9245185719775,5370.8713277078,33.136484,0.223694,0.62542981004,13600,2018-04-02 06:10:59,11,0,16.703,5370.8713277078,33.136484,0.447388,1.10491801436,0,-0.223694,-2.460634,182.9, -5.3, -2.2,0,1,1024,1024,1233,1024,182.9,0,98,4.164,4.168,4.144,4.174,0,0,12.484,76.91,6,P-GPS,
0.376746877320075,36.9245184503472,5371.1994117078,33.464568,0.223694,0.61781826124,13700,2018-04-02 06:10:59,11,0,16.703,5371.1994117078,33.464568,0.447388,1.10491801436,0,-0.223694,-2.23694,182.9, -5.4, -2.3,0,1,1024,1024,1231,1024,182.9,0,98,4.164,4.168,4.144,4.174,0,0,12.484,76.91,6,P-GPS,
0.376746901188993,36.9245183449141,5371.5274957078,33.792652,0.223694,0.6193241668,13800,2018-04-02 06:10:59,11,0,16.703,5371.5274957078,33.792652,0.447388,1.10491801436,0,-0.223694,-2.460634,182.8, -5.2, -2.9,0,1,1024,1024,1231,1024,182.9,0,98,4.164,4.168,4.144,4.174,0,0,12.484,76.91,6,P-GPS,
0.376746919678346,36.9245182345273,5371.8555797078,34.120736,0.223694,0.62579726412,13900,2018-04-02 06:10:59,11,0,16.542,5371.8555797078,34.120736,0.447388,1.10491801436,0,-0.223694,-2.23694,182.9, -5.1, -3.1,0,1,1024,1024,1224,1024,182.9,0,98,4.179,4.178,4.143,4.167,0,0,12.406,76.91,6,P-GPS,
0.376746935553232,36.9245181684985,5372.1836637078,34.44882,0,0.62927823536,14000,2018-04-02 06:10:59,11,0,16.542,5372.1836637078,34.44882,0.447388,1.10491801436,0,0,-2.23694,182.9, -5.3, -2.6,0,1,1024,1024,1221,1024,182.9,0,98,4.179,4.178,4.143,4.167,0,0,12.406,76.91,6,P-GPS,
0.37674696071717,36.9245181312448,5372.5117477078,34.776904,0,0.62626642424,14100,2018-04-02 06:10:59,11,0,16.542,5372.5117477078,34.776904,0.447388,1.10491801436,0,0,-2.013246,182.9, -5.8, -2.6,0,1,1024,1024,1221,1024,182.9,0,98,4.179,4.178,4.143,4.167,0,0,12.406,76.91,6,P-GPS,
0.376746974505205,36.9245181197517,5372.8398317078,35.104988,0,0.62342193596,14200,2018-04-02 06:10:59,11,0,16.542,5372.8398317078,35.104988,0.447388,1.10491801436,0,0,-2.013246,182.9, -6, -2.6,0,1,1024,1024,1221,1024,182.9,0,98,4.179,4.178,4.143,4.167,0,0,12.406,76.91,6,P-GPS,
0.376746987937018,36.924518141659,5373.4959997078,35.761156,0,0.615649626,14300,2018-04-02 06:10:59,11,0,16.542,5373.4959997078,35.761156,0.447388,1.10491801436,0,0,-2.013246,182.9, -5.8, -2.6,0,1,1024,1024,1210,1024,182.9,0,98,4.179,4.178,4.143,4.167,0,0,12.406,76.91,6,P-GPS,
0.37674698450833,36.9245181787229,5373.8240837078,36.08924,0,0.61137141064,14400,2018-04-02 06:11:00,11,0,16.542,5373.8240837078,36.08924,0.447388,1.10491801436,0,0,-2.013246,182.9, -5.6, -2.7,0,1,1024,1024,1210,1024,182.9,0,98,4.179,4.178,4.143,4.167,0,0,12.406,76.91,6,P-GPS,
0.376746974844736,36.9245182601438,5374.1521677078,36.417324,0,0.60367456,14500,2018-04-02 06:11:00,11,0,16.542,5374.1521677078,36.417324,0.447388,1.10491801436,0,0,-2.013246,182.9, -5.7, -2.6,0,1,1024,1024,1211,1024,182.9,0,98,4.179,4.178,4.143,4.167,0,0,12.406,76.91,6,P-GPS,
0.376746944883809,36.9245183481225,5374.4802517078,36.745408,0,0.60373033428,14600,2018-04-02 06:11:00,11,0,16.542,5374.4802517078,36.745408,0.447388,1.10491801436,0,0,-1.789552,182.9, -5.7, -2.6,0,1,1024,1024,1213,1024,182.9,0,98,4.179,4.178,4.143,4.167,0,0,12.406,76.91,6,P-GPS,
0.376746916358355,36.9245183783293,5374.8083357078,37.073492,0,0.61059057072,14700,2018-04-02 06:11:00,11,0,16.542,5374.8083357078,37.073492,0.447388,1.10491801436,0,0,-1.789552,182.9, -5.4, -2.4,0,1,1024,1024,1202,1024,182.9,0,98,4.179,4.178,4.143,4.167,0,0,12.406,76.91,6,P-GPS,
0.37674687650056,36.9245183991326,5375.1364197078,37.401576,0,0.62261484932,14800,2018-04-02 06:11:00,11,0,16.542,5375.1364197078,37.401576,0.447388,1.10491801436,0,0,-1.565858,182.9, -5.2, -2.1,0,1,1024,1024,1197,1024,182.9,0,98,4.179,4.178,4.143,4.167,0,0,12.406,76.91,6,P-GPS,
0.376746828064936,36.9245184199544,5375.4645037078,37.72966,0,0.63787075532,14900,2018-04-02 06:11:00,11,0,16.622,5375.4645037078,37.72966,0.447388,1.10491801436,0,0,-1.565858,182.8, -5.2, -2.3,0,1,1024,1024,1193,1024,182.9,0,98,4.175,4.178,4.143,4.164,0,0,12.042,76.91,6,P-GPS,
0.376746766960832,36.92451847142,5375.7925877078,38.057744,0,0.65549870864,15000,2018-04-02 06:11:00,11,0,16.622,5375.7925877078,38.057744,0.447388,1.10491801436,0,0,-1.565858,182.8, -5, -2.3,0,1,1024,1024,1216,1024,182.9,0,98,4.175,4.178,4.143,4.164,0,0,12.042,76.91,6,P-GPS,
0.376746736504044,36.9245185260772,5376.1206717078,38.385828,0,0.66270671412,15100,2018-04-02 06:11:00,11,0,16.622,5376.1206717078,38.385828,0.447388,1.10491801436,0,0,-1.342164,182.8, -5.1, -1.9,0,1,1024,1024,1243,1024,182.9,0,98,4.175,4.178,4.143,4.164,0,0,12.042,76.91,6,P-GPS,
0.376746702327483,36.9245185965164,5376.4487557078,38.713912,0,0.67119096636,15200,2018-04-02 06:11:00,11,0,16.622,5376.4487557078,38.713912,0.447388,1.10491801436,0,0,-1.342164,182.8, -4.6, -1.6,0,1,1024,1024,1266,1024,182.9,0,98,4.175,4.178,4.143,4.164,0,0,12.042,76.91,6,P-GPS,
0.376746670309424,36.9245186523695,5376.7768397078,39.041996,0,0.68048230524,15300,2018-04-02 06:11:00,11,0,16.622,5376.7768397078,39.041996,0.447388,1.10491801436,0,0,-1.789552,182.8, -4.2, -1.3,0,1,1024,1024,1283,1024,182.9,0,98,4.175,4.178,4.143,4.164,0,0,12.042,76.91,6,P-GPS,
0.376746638944778,36.9245187077095,5377.1049237078,39.37008,0,0.69022640004,15400,2018-04-02 06:11:00,11,0,16.622,5377.1049237078,39.37008,0.447388,1.10491801436,0,0,-2.013246,182.8, -4.4, -1.2,0,1,1024,1024,1277,1024,182.9,0,98,4.175,4.178,4.143,4.164,0,0,12.042,76.91,6,P-GPS,
0.376746617131364,36.9245187351873,5377.4330077078,39.698164,0,0.6975722008,15500,2018-04-02 06:11:01,11,0,16.622,5377.4330077078,39.698164,0.447388,1.10491801436,0,0,-2.460634,182.8, -4.7, -1.6,0,1,1024,1024,1265,1024,182.9,0,98,4.175,4.178,4.143,4.164,0,0,12.042,76.91,6,P-GPS,
0.376746593454195,36.9245187649715,5377.7610917078,40.026248,0,0.7057250882,15600,2018-04-02 06:11:01,11,0,16.622,5377.7610917078,40.026248,0.447388,1.10491801436,0,0,-2.460634,182.9, -5.3, -1.7,0,1,1024,1024,1261,1024,182.9,0,98,4.175,4.178,4.143,4.164,0,0,12.042,76.91,6,P-GPS,
0.376746566955747,36.9245187581131,5378.4172597078,40.682416,0,0.71547902552,15700,2018-04-02 06:11:01,11,0,16.622,5378.4172597078,40.682416,0.447388,1.10491801436,0,0,-2.460634,182.9, -5.5, -1.6,0,1,1024,1024,1269,1024,182.9,0,98,4.175,4.178,4.143,4.164,0,0,12.042,76.91,6,P-GPS,
0.376746530447254,36.9245187514789,5378.7453437078,41.0105,0.223694,0.7288878186,15800,2018-04-02 06:11:01,11,0,16.622,5378.7453437078,41.0105,0.447388,1.10491801436,-0.223694,0,-2.23694,182.9, -5.2, -1.8,0,1,1024,1024,1272,1024,182.9,0,98,4.175,4.178,4.143,4.164,0,0,12.042,76.91,6,P-GPS,
0.376746507853815,36.9245187132727,5379.0734277078,41.338584,0.223694,0.7378281076,15900,2018-04-02 06:11:01,11,0,16.596,5379.0734277078,41.338584,0.447388,1.10491801436,-0.223694,0,-2.460634,182.9, -4.6, -1.7,0,1,1024,1024,1270,1024,182.9,0,98,4.156,4.161,4.133,4.159,0,0,13.004,76.91,6,P-GPS,
0.376746491065779,36.9245186937823,5379.4015117078,41.666668,0,0.74439963012,16000,2018-04-02 06:11:01,11,0,16.596,5379.4015117078,41.666668,0.447388,1.10491801436,0,0,-2.460634,182.9, -4.5, -1.6,0,1,1024,1024,1261,1024,182.9,0,98,4.156,4.161,4.133,4.159,0,0,13.004,76.91,6,P-GPS,
0.376746506257126,36.9245186789892,5380.0576797078,42.322836,0,0.73926511552,16100,2018-04-02 06:11:01,11,0,16.596,5380.0576797078,42.322836,0.447388,1.10491801436,0,0,-2.460634,182.9, -4.7, -1.7,0,1,1024,1024,1256,1024,182.9,-0.1,98,4.156,4.161,4.133,4.159,0,0,13.004,76.91,6,P-GPS,
0.376746522541973,36.9245186770316,5380.3857637078,42.65092,0,0.73339569276,16200,2018-04-02 06:11:01,11,0,16.596,5380.3857637078,42.65092,0.447388,1.10491801436,0,0,-2.23694,182.9, -5, -1.8,0,1,1024,1024,1258,1024,182.9,-0.2,98,4.156,4.161,4.133,4.159,0,0,13.004,76.91,6,P-GPS,
0.376746555924668,36.9245186601545,5380.7138477078,42.979004,0,0.72177167664,16300,2018-04-02 06:11:01,11,0,16.596,5380.7138477078,42.979004,0.447388,1.10491801436,0,0,-2.460634,182.9, -4.9, -1.9,0,1,1024,1024,1268,1024,182.9,-0.3,98,4.156,4.161,4.133,4.159,0,0,13.004,76.91,6,P-GPS,
0.376746575779064,36.9245186484427,5381.0419317078,43.307088,0,0.71495081028,16400,2018-04-02 06:11:01,11,0,16.596,5381.0419317078,43.307088,0.447388,1.10491801436,0,0,-2.23694,182.9, -4.7, -2,0,1,1024,1024,1271,1024,182.9,-0.3,98,4.156,4.161,4.133,4.159,0,0,13.004,76.91,6,P-GPS,
0.376746630430866,36.9245186362515,5381.6980997078,43.963256,0,0.69555120336,16500,2018-04-02 06:11:02,11,0,16.596,5381.6980997078,43.963256,0.447388,1.10491801436,0,0,-2.23694,182.9, -4.5, -1.9,0,1,1024,1024,1262,1024,182.9,-0.8,98,4.156,4.161,4.133,4.159,0,0,13.004,76.91,6,P-GPS,
0.376746679592776,36.9245186312025,5382.0261837078,44.29134,0,0.67791340752,16600,2018-04-02 06:11:02,11,0,16.596,5382.0261837078,44.29134,0.447388,1.10491801436,0,0,-2.23694,182.9, -4.7, -2,0,1,1024,1024,1257,1024,182.9,-1.4,98,4.156,4.161,4.133,4.159,0,0,13.004,76.91,6,P-GPS,
0.376746731006417,36.9245186291252,5382.3542677078,44.619424,0,0.65935697648,16700,2018-04-02 06:11:02,11,0,16.596,5382.3542677078,44.619424,0.447388,1.10491801436,0,0,-2.460634,182.9, -5.1, -2.2,0,1,1024,1024,1257,1024,182.9,-2,98,4.156,4.161,4.133,4.159,0,0,13.004,76.91,6,P-GPS,
0.376746765373099,36.9245186384771,5382.6823517078,44.947508,0,0.64651576872,16800,2018-04-02 06:11:02,11,0,16.596,5382.6823517078,44.947508,0.447388,1.10491801436,0,0,-2.460634,182.9, -5.2, -2.1,0,1,1024,1024,1257,1024,182.9,-2.7,98,4.156,4.161,4.133,4.159,0,0,13.004,76.91,6,P-GPS,
0.376746844471917,36.9245186781908,5383.0104357078,45.275592,0,0.61633204072,16900,2018-04-02 06:11:02,11,0,16.489,5383.0104357078,45.275592,0.447388,1.10491801436,0,0,-2.460634,182.9, -5, -1.8,0,1,1024,1024,1257,1024,182.9,-3.3,98,4.156,4.161,4.133,4.159,0,0,13.004,76.91,6,P-GPS,
0.376746916879458,36.9245187211313,5383.6666037078,45.93176,0,0.58872377212,17000,2018-04-02 06:11:02,11,0,16.489,5383.6666037078,45.93176,0.447388,1.10491801436,0,0,-2.23694,182.9, -5.1, -1.8,0,1,1024,1024,1255,1024,182.9,-3.7,98,4.156,4.161,4.133,4.159,0,0,13.004,76.91,6,P-GPS,
0.37674700465381,36.9245187212729,5383.9946877078,46.259844,0,0.55677823304,17100,2018-04-02 06:11:02,11,0,16.489,5383.9946877078,46.259844,0.447388,1.10491801436,0,0,-2.23694,182.9, -5.2, -2,0,1,1024,1024,1257,1024,182.9,-4.2,98,4.156,4.161,4.133,4.159,0,0,13.004,76.91,6,P-GPS,
0.376747070533326,36.9245187110581,5384.3227717078,46.587928,0,0.53311353412,17200,2018-04-02 06:11:02,11,0,16.489,5384.3227717078,46.587928,0.447388,1.10491801436,0,0,-2.23694,182.9, -5.2, -2.1,0,1,1024,1024,1266,1024,182.9,-4.5,98,4.156,4.161,4.133,4.159,0,0,13.004,76.91,6,P-GPS,
0.376747174640973,36.9245186905575,5384.6508557078,46.916012,0,0.4960137954,17300,2018-04-02 06:11:02,11,0,16.489,5384.6508557078,46.916012,0.447388,1.10491801436,0,0,-2.013246,182.9, -5.3, -2.5,0,1,1024,1024,1267,1024,182.9,-4.8,98,4.156,4.161,4.133,4.159,0,0,13.004,76.91,6,P-GPS,
0.376747261921093,36.9245186877581,5384.9789397078,47.244096,0,0.46447836132,17400,2018-04-02 06:11:03,11,0,16.489,5384.9789397078,47.244096,0.447388,1.10491801436,0,0,-2.23694,182.9, -5.2, -2.5,0,1,1024,1024,1267,1024,182.9,-5.1,98,4.156,4.161,4.133,4.159,0,0,13.004,76.91,6,P-GPS,
0.376747355266759,36.9245186913755,5385.3070237078,47.57218,0,0.43050526312,17500,2018-04-02 06:11:03,11,0,16.489,5385.3070237078,47.57218,0.447388,1.10491801436,0,0,-2.460634,183, -5.6, -2.2,0,1,1024,1024,1266,1024,182.9,-5.4,98,4.156,4.161,4.133,4.159,0,0,13.004,76.91,6,P-GPS,
0.376747416065937,36.9245187101395,5385.9631917078,48.228348,0,0.4076771784,17600,2018-04-02 06:11:03,11,0,16.489,5385.9631917078,48.228348,0.447388,1.10491801436,0,0,-2.460634,182.9, -5.7, -2.1,0,1,1024,1024,1271,1024,182.9,-5.6,98,4.156,4.161,4.133,4.159,0,0,13.004,76.91,6,P-GPS,
0.376747491180359,36.9245187200061,5386.2912757078,48.556432,0,0.38003938224,17700,2018-04-02 06:11:03,11,0,16.489,5386.2912757078,48.556432,0.447388,1.10491801436,0,0,-2.23694,182.9, -5.5, -2,0,1,1024,1024,1273,1024,182.9,-5.6,98,4.156,4.161,4.133,4.159,0,0,13.004,76.91,6,P-GPS,
0.376747543203038,36.9245187365132,5386.6193597078,48.884516,0,0.36053478844,17800,2018-04-02 06:11:03,11,0,16.489,5386.6193597078,48.884516,0.447388,1.10491801436,0,0,-2.23694,182.9, -5.3, -2.1,0,1,1024,1024,1273,1024,182.9,-6,98,4.156,4.161,4.133,4.159,0,0,13.004,76.91,6,P-GPS,
0.376747597208348,36.9245187065952,5386.9474437078,49.2126,0,0.34225066712,17900,2018-04-02 06:11:03,11,0,16.515,5386.9474437078,49.2126,0.447388,1.10491801436,0,0,-2.460634,182.9, -5.4, -2.2,0,1,1024,1024,1273,1024,182.9,-6.4,98,4.165,4.165,4.13,4.151,0,0,12.968,76.91,6,P-GPS,
0.376747627614654,36.9245186832061,5387.2755277078,49.540684,0,0.33257546996,18000,2018-04-02 06:11:03,11,0,16.515,5387.2755277078,49.540684,0.447388,1.10491801436,0,0,-2.460634,182.9, -5.4, -2.4,0,1,1024,1024,1282,1024,182.9,-6.8,98,4.165,4.165,4.13,4.151,0,0,12.968,76.91,6,P-GPS,
0.376747698780914,36.9245186465876,5387.9316957078,50.196852,0,0.30968504928,18100,2018-04-02 06:11:03,11,0,16.515,5387.9316957078,50.196852,0.447388,1.10491801436,0,0,-2.460634,182.9, -5.2, -2.4,0,1,1024,1024,1282,1024,182.9,-7.2,98,4.165,4.165,4.13,4.151,0,0,12.968,76.91,6,P-GPS,
0.376747758921386,36.9245186342045,5388.2597797078,50.524936,0,0.289437673304,18200,2018-04-02 06:11:03,11,0,16.515,5388.2597797078,50.524936,0.447388,1.10491801436,0,0,-2.460634,182.9, -5.2, -2.5,0,1,1024,1024,1291,1024,182.9,-7.7,98,4.165,4.165,4.13,4.151,0,0,12.968,76.91,6,P-GPS,
0.376747846321197,36.924518585967,5388.5878637078,50.85302,0,0.264224417904,18300,2018-04-02 06:11:03,11,0,16.515,5388.5878637078,50.85302,0.447388,1.10491801436,0,0,-2.684328,183, -5.4, -2.5,0,1,1024,1024,1290,1024,182.9,-8,98,4.165,4.165,4.13,4.151,0,0,12.968,76.91,6,P-GPS,
0.376747915522739,36.9245185524715,5389.2440317078,51.509188,0,0.245535440928,18400,2018-04-02 06:11:03,11,0,16.515,5389.2440317078,51.509188,0.447388,1.10491801436,0,0,-2.908022,182.9, -5.9, -2.6,0,1,1024,1024,1286,1024,182.9,-8.1,98,4.165,4.165,4.13,4.151,0,0,12.968,76.91,6,P-GPS,
0.376747969253248,36.9245184865752,5389.5721157078,51.837272,0,0.239708997172,18500,2018-04-02 06:11:04,11,0,16.515,5389.5721157078,51.837272,0.447388,1.10491801436,0,0,-2.908022,183, -6.2, -2.6,0,1,1024,1024,1298,1024,182.9,-8.1,98,4.165,4.165,4.13,4.151,0,0,12.968,76.91,6,P-GPS,
0.376747992573381,36.9245184451651,5390.2282837078,52.49344,0,0.241119430288,18600,2018-04-02 06:11:04,11,0,16.515,5390.2282837078,52.49344,0.447388,1.10491801436,0,0,-2.684328,183, -6.4, -2.7,0,1,1024,1024,1306,1024,182.9,-8.1,98,4.165,4.165,4.13,4.151,0,0,12.968,76.91,6,P-GPS,
0.376748009984297,36.9245184040155,5390.5563677078,52.821524,0,0.245349089216,18700,2018-04-02 06:11:04,11,0,16.515,5390.5563677078,52.821524,0.447388,1.10491801436,0,0,-2.684328,183, -6.2, -2.6,0,1,1024,1024,1322,1024,182.9,-8.1,98,4.165,4.165,4.13,4.151,0,0,12.968,76.91,6,P-GPS,
0.376748002349744,36.9245183927587,5390.8844517078,53.149608,0,0.250122055248,18800,2018-04-02 06:11:04,11,0,16.515,5390.8844517078,53.149608,0.447388,1.10491801436,0,0,-2.908022,183, -5.6, -2.7,0,1,1024,1024,1323,1024,182.9,-8.1,98,4.165,4.165,4.13,4.151,0,0,12.968,76.91,6,P-GPS,
0.376748009882519,36.9245183847796,5391.5406197078,53.805776,0,0.249929141856,18900,2018-04-02 06:11:04,11,0,16.489,5391.5406197078,53.805776,0.447388,1.10491801436,0,0,-2.908022,183, -5.3, -3,0,1,1024,1024,1315,1024,182.9,-8.1,98,4.159,4.159,4.125,4.149,0,0,13.308,76.91,6,P-GPS,
0.376748008577321,36.9245184080911,5391.8687037078,54.13386,0,0.244795611508,19000,2018-04-02 06:11:04,11,0,16.489,5391.8687037078,54.13386,0.447388,1.10491801436,0,0,-3.131716,183, -5.4, -2.7,0,1,1024,1024,1315,1024,182.9,-8.1,98,4.159,4.159,4.125,4.149,0,0,13.308,76.91,6,P-GPS,
0.376748039812098,36.9245184466691,5392.5248717078,54.790028,0,0.227079731676,19100,2018-04-02 06:11:04,11,0,16.489,5392.5248717078,54.790028,0.447388,1.10491801436,0,0,-3.35541,183, -5.8, -2.4,0,1,1024,1024,1324,1024,182.9,-8.1,98,4.159,4.159,4.125,4.149,0,0,13.308,76.91,6,P-GPS,
0.376748045918356,36.9245185053936,5392.8529557078,55.118112,0,0.212538720712,19200,2018-04-02 06:11:04,11,0,16.489,5392.8529557078,55.118112,0.447388,1.10491801436,0,0,-3.35541,183, -5.8, -2,0,1,1024,1024,1324,1024,182.9,-8.1,98,4.159,4.159,4.125,4.149,0,0,13.308,76.91,6,P-GPS,
0.376748048934642,36.9245185439759,5393.5091237078,55.77428,0,0.203971135136,19300,2018-04-02 06:11:04,11,0,16.489,5393.5091237078,55.77428,0.447388,1.10491801436,0,0,-3.35541,183, -5.7, -1.5,0,1,1024,1024,1309,1024,182.9,-8.1,98,4.159,4.159,4.125,4.149,0,0,13.308,76.91,6,P-GPS,
0.37674802095146,36.9245185779893,5394.1652917078,56.430448,0,0.206853353076,19400,2018-04-02 06:11:05,11,0,16.489,5394.1652917078,56.430448,0.447388,1.10491801436,0,0,-3.35541,182.9, -5.2, -1.6,0,1,1024,1024,1309,1024,182.9,-8.1,98,4.159,4.159,4.125,4.149,0,0,13.308,76.91,6,P-GPS,
0.376748016817655,36.9245185860075,5394.4933757078,56.758532,0,0.206899941004,19500,2018-04-02 06:11:05,11,0,16.489,5394.4933757078,56.758532,0.447388,1.10491801436,0,0,-3.579104,182.9, -5.3, -2.1,0,1,1024,1024,1304,1024,182.9,-8.1,98,4.159,4.159,4.125,4.149,0,0,13.308,76.91,6,P-GPS,
0.37674800361016,36.9245186040046,5395.1495437078,57.4147,0,0.208506240268,19600,2018-04-02 06:11:05,11,0,16.489,5395.1495437078,57.4147,0.447388,1.10491801436,0,0,-3.35541,183, -5.9, -2.5,0,1,1024,1024,1301,1024,182.9,-8.1,98,4.159,4.159,4.125,4.149,0,0,13.308,76.91,6,P-GPS,
0.3767480106772,36.9245185974248,5395.4776277078,57.742784,0,0.207141082744,19700,2018-04-02 06:11:05,11,0,16.489,5395.4776277078,57.742784,0.447388,1.10491801436,0,0,-3.131716,183, -5.7, -2.5,0,1,1024,1024,1310,1024,182.9,-8.1,98,4.159,4.159,4.125,4.149,0,0,13.308,76.91,6,P-GPS,
0.376747991047529,36.9245186092884,5396.1337957078,58.398952,0,0.211952434604,19800,2018-04-02 06:11:05,11,0,16.489,5396.1337957078,58.398952,0.447388,1.10491801436,0,0,-3.131716,183, -5.5, -2.6,0,1,1024,1024,1316,1024,182.9,-8.1,98,4.159,4.159,4.125,4.149,0,0,13.308,76.91,6,P-GPS,
0.376747984247554,36.9245186446704,5396.4618797078,58.727036,0,0.209626647128,19900,2018-04-02 06:11:05,11,0,16.408,5396.4618797078,58.727036,0.447388,1.10491801436,0,0,-3.131716,183, -5, -2.2,0,1,1024,1024,1315,1024,182.9,-8.1,98,4.159,4.159,4.125,4.149,0,0,13.872,76.91,6,P-GPS,
0.376747955489233,36.9245187836453,5397.4461317078,59.711288,0,0.20915847126,20100,2018-04-02 06:11:05,11,0,16.408,5397.4461317078,59.711288,0.447388,1.10491801436,0,0,-3.35541,182.9, -4.9, -1.8,0,1,1024,1024,1322,1024,182.9,-8.1,98,4.159,4.159,4.125,4.149,0,0,13.872,76.91,6,P-GPS,
0.376747931357321,36.9245188676132,5398.1022997078,60.367456,0,0.217466542392,20200,2018-04-02 06:11:05,11,0,16.408,5398.1022997078,60.367456,0.447388,1.10491801436,0,0,-3.131716,182.9, -4.8, -1.4,0,1,1024,1024,1325,1024,182.9,-8.1,98,4.159,4.159,4.125,4.149,0,0,13.872,76.91,6,P-GPS,
0.37674791060728,36.9245189308594,5398.4303837078,60.69554,0,0.227429797304,20300,2018-04-02 06:11:05,11,0,16.408,5398.4303837078,60.69554,0.447388,1.10491801436,0,0,-3.131716,182.9, -4.6, -1.6,0,1,1024,1024,1325,1024,182.9,-8.1,98,4.159,4.159,4.125,4.149,0,0,13.872,76.91,6,P-GPS,
0.376747869291621,36.9245189929813,5398.7584677078,61.023624,0,0.24663878742,20400,2018-04-02 06:11:05,11,0,16.408,5398.7584677078,61.023624,0.447388,1.10491801436,0,0,-3.131716,182.9, -4.5, -1.8,0,1,1024,1024,1325,1024,182.9,-8.1,98,4.159,4.159,4.125,4.149,0,0,13.872,76.91,6,P-GPS,
0.376747867667248,36.9245190418806,5399.4146357078,61.679792,0,0.25198163536,20500,2018-04-02 06:11:06,11,0,16.408,5399.4146357078,61.679792,0.447388,1.10491801436,0,0,-3.131716,182.9, -5.1, -1.8,0,1,1024,1024,1327,1024,182.9,-8.1,98,4.159,4.159,4.125,4.149,0,0,13.872,76.91,6,P-GPS,
0.37674784566412,36.9245191029819,5399.7427197078,62.007876,0.223694,0.266995415368,20600,2018-04-02 06:11:06,11,0,16.408,5399.7427197078,62.007876,0.447388,1.10491801436,-0.223694,0,-3.131716,182.9, -4.8, -1.7,0,1,1024,1024,1330,1024,182.9,-8.1,98,4.159,4.159,4.125,4.149,0,0,13.872,76.91,6,P-GPS,
0.37674781765529,36.9245191843227,5400.3988877078,62.664044,0.223694,0.288373040724,20700,2018-04-02 06:11:06,11,0,16.408,5400.3988877078,62.664044,0.447388,1.10491801436,-0.223694,0,-3.35541,182.9, -4.5, -1.3,0,1,1024,1024,1335,1024,182.9,-8.1,98,4.159,4.159,4.125,4.149,0,0,13.872,76.91,6,P-GPS,
0.376747771225502,36.9245192753932,5400.7269717078,62.992128,0,0.319044957716,20800,2018-04-02 06:11:06,11,0,16.408,5400.7269717078,62.992128,0.447388,1.10491801436,0,0,-3.35541,182.9, -4.5, -1.2,0,1,1024,1024,1334,1024,182.9,-8.1,98,4.159,4.159,4.125,4.149,0,0,13.872,76.91,6,P-GPS,
0.376747733318583,36.9245193394908,5401.3831397078,63.648296,0,0.34303150704,20900,2018-04-02 06:11:06,11,0,16.462,5401.3831397078,63.648296,0.447388,1.10491801436,0,0,-3.579104,182.9, -4.1, -1.2,0,1,1024,1024,1332,1024,182.9,-8.1,98,4.153,4.158,4.122,4.142,0,0,13.872,76.91,6,P-GPS,
0.376747694540039,36.924519394104,5402.0393077078,64.304464,0,0.3657808516,21000,2018-04-02 06:11:06,11,0,16.462,5402.0393077078,64.304464,0.447388,1.10491801436,0,0,-3.802798,183, -4.6, -1.4,0,1,1024,1024,1331,1024,182.9,-8.1,98,4.153,4.158,4.122,4.142,0,0,13.872,76.91,6,P-GPS,
0.376747699251941,36.9245194548127,5402.6954757078,64.960632,0,0.37721129816,21100,2018-04-02 06:11:06,11,0,16.462,5402.6954757078,64.960632,0.447388,1.10491801436,0,0,-3.802798,183, -4.8, -1.5,0,1,1024,1024,1334,1024,182.9,-8.1,98,4.153,4.158,4.122,4.142,0,0,13.872,76.91,6,P-GPS,
0.376747693201458,36.9245195235062,5403.3516437078,65.6168,0,0.3944553932,21200,2018-04-02 06:11:06,11,0,16.462,5403.3516437078,65.6168,0.447388,1.10491801436,0,0,-3.802798,182.9, -4.7, -1.6,0,1,1024,1024,1338,1024,182.9,-8.1,98,4.153,4.158,4.122,4.142,0,0,13.872,76.91,6,P-GPS,
0.376747715873876,36.9245196085577,5403.6797277078,65.944884,0,0.40889437004,21300,2018-04-02 06:11:06,11,0,16.462,5403.6797277078,65.944884,0.447388,1.10491801436,0,0,-3.802798,182.9, -4.7, -1.6,0,1,1024,1024,1345,1024,182.9,-8.1,98,4.153,4.158,4.122,4.142,0,0,13.872,76.91,6,P-GPS,
0.376747726760839,36.924519697728,5404.3358957078,66.601052,0,0.42929135232,21400,2018-04-02 06:11:07,11,0,16.462,5404.3358957078,66.601052,0.447388,1.10491801436,0,0,-3.802798,182.9, -4.7, -1.9,0,1,1024,1024,1343,1024,182.9,-8.1,98,4.153,4.158,4.122,4.142,0,0,13.872,76.91,6,P-GPS,
0.376747760368666,36.9245197861661,5404.9920637078,67.25722,0,0.44569883316,21500,2018-04-02 06:11:07,11,0,16.462,5404.9920637078,67.25722,0.447388,1.10491801436,0,0,-3.802798,183, -4.5, -1.5,0,1,1024,1024,1346,1024,182.9,-8.1,98,4.153,4.158,4.122,4.142,0,0,13.872,76.91,6,P-GPS,
0.376747776834677,36.9245198806477,5405.6482317078,67.913388,0,0.46951773156,21600,2018-04-02 06:11:07,11,0,16.462,5405.6482317078,67.913388,0.447388,1.10491801436,0,0,-3.579104,182.9, -4.4, -0.9,0,1,1024,1024,1349,1024,182.9,-8.1,98,4.153,4.158,4.122,4.142,0,0,13.872,76.91,6,P-GPS,
0.376747793819755,36.9245199777081,5405.9763157078,68.241472,0,0.49535434656,21700,2018-04-02 06:11:07,11,0,16.462,5405.9763157078,68.241472,0.447388,1.10491801436,0,0,-3.802798,182.8, -5, -1.4,0,1,1024,1024,1351,1024,182.9,-8.1,98,4.153,4.158,4.122,4.142,0,0,13.872,76.91,6,P-GPS,
0.376747798967674,36.9245200806805,5406.6324837078,68.89764,0,0.52642390136,21800,2018-04-02 06:11:07,11,0,16.462,5406.6324837078,68.89764,0.447388,1.10491801436,0,0,-4.026492,182.9, -5.2, -1.5,0,1,1024,1024,1353,1024,182.9,-8.1,98,4.153,4.158,4.122,4.142,0,0,13.872,76.91,6,P-GPS,
