latitude,longitude,altitude(feet),ascent(feet),speed(mph),distance(feet),time(millisecond),datetime(utc),satellites,gpslevel,voltage(v),max_altitude(feet),max_ascent(feet),max_speed(mph),max_distance(feet), xSpeed(mph), ySpeed(mph), zSpeed(mph), compass_heading(degrees), pitch(degrees), roll(degrees),isPhoto,isVideo,rc_elevator,rc_aileron,rc_throttle,rc_rudder,gimbal_heading(degrees),gimbal_pitch(degrees),battery_percent,voltageCell1,voltageCell2,voltageCell3,voltageCell4,voltageCell5,voltageCell6,current(A),battery_temperature(f),flycStateRaw,flycState,message
0.373306088813285,36.9148113909823,5390.521845397,0,0,0,0,2018-03-30 06:05:37,16,0,0,5390.521845397,0,0,0,0,0,0,67.7, 3.2, -2.3,0,0,364,364,364,1684,72.4,0,98,4.275,4.277,4.271,4.274,0,0,0,75.11,41,Motors_Started,
0.373306094356712,36.9148114072295,5390.521845397,0,0,0.0062631891768,100,2018-03-30 06:05:37,16,0,0,5390.521845397,0,0,0.0062631891768,0,0,0,67.7, 3.2, -2.3,0,0,364,364,364,1684,72.4,0,98,4.275,4.277,4.271,4.274,0,0,0,75.11,41,Motors_Started,
0.373306098077402,36.9148114194945,5390.521845397,0,0,0.0109377956256,200,2018-03-30 06:05:37,16,0,17.067,5390.521845397,0,0,0.0109377956256,0,0,0,67.7, 3.2, -2.3,0,0,364,364,364,1684,72.4,0,98,4.275,4.277,4.271,4.274,0,0,1.52,75.11,41,Motors_Started,Setting new Return-To-Home altitude to 30m (98 ft). Setting new Maximum Flight Altitude to 120m (394 ft)
0.373306101228237,36.9148114283946,5390.521845397,0,0,0.0143814965232,300,2018-03-30 06:05:37,16,0,17.067,5390.521845397,0,0,0.0143814965232,0,0,0,67.7, 3.2, -2.3,0,0,364,364,364,1684,72.4,0,98,4.275,4.277,4.271,4.274,0,0,1.52,75.11,41,Motors_Started,
0.373306103388673,36.9148114346866,5390.521845397,0,0,0.01680856353,400,2018-03-30 06:05:37,16,0,17.067,5390.521845397,0,0,0.01680856353,0,0,0,67.7, 3.3, -2.3,0,0,364,364,364,1684,72.4,0,98,4.275,4.277,4.271,4.274,0,0,1.52,75.11,41,Motors_Started,
0.373306104761553,36.9148113972561,5390.521845397,0,0,0.0062527561056,500,2018-03-30 06:05:37,16,0,17.067,5390.521845397,0,0,0.01680856353,0,0,0,67.7, 3.2, -2.3,0,0,364,364,364,1684,72.4,0,98,4.275,4.277,4.271,4.274,0,0,1.52,75.11,41,Motors_Started,
0.373306105795106,36.9148113710002,5390.521845397,0,0,0.0095674543744,600,2018-03-30 06:05:38,16,0,17.067,5390.521845397,0,0,0.01680856353,0,0,0,67.7, 3.3, -2.3,0,0,364,364,434,1588,72.4,0,98,4.275,4.277,4.271,4.274,0,0,1.52,75.11,41,Motors_Started,
0.37330606467659,36.9148113467025,5390.521845397,0,0,0.0183994100376,700,2018-03-30 06:05:38,16,0,17.067,5390.521845397,0,0,0.0183994100376,0,0,0,67.7, 3.2, -2.3,0,0,364,366,595,1454,72.4,0,98,4.275,4.277,4.271,4.274,0,0,1.52,75.11,41,Motors_Started,
0.373306035851707,36.914811331974,5390.521845397,0,0,0.0289285770412,800,2018-03-30 06:05:38,16,0,17.067,5390.521845397,0,0,0.0289285770412,0,0,0,67.7, 3.2, -2.3,0,0,840,841,1024,1024,72,0,98,4.275,4.277,4.271,4.274,0,0,1.52,75.11,41,Motors_Started,
0.373306012605669,36.9148113194975,5390.521845397,0,0,0.038122048464,900,2018-03-30 06:05:38,16,0,17.067,5390.521845397,0,0,0.038122048464,0,0,0,67.7, 3.4, -2.4,0,0,1024,1024,1024,1024,71.1,0,98,4.275,4.277,4.271,4.274,0,0,1.52,75.11,41,Motors_Started,
0.373305994297582,36.9148113080617,5390.521845397,0,0,0.045873689132,1000,2018-03-30 06:05:38,16,0,17.067,5390.521845397,0,0,0.045873689132,0,0,0,67.6, 3.6, -2.4,0,0,1024,1024,1024,1024,69.8,0,98,4.275,4.277,4.271,4.274,0,0,1.52,75.11,41,Motors_Started,
0.373305984738514,36.914811301525,5390.521845397,0,0,0.05007053966,1100,2018-03-30 06:05:38,16,0,17.067,5390.521845397,0,0,0.05007053966,0,0,0,67.6, 3.8, -2.5,0,0,1024,1024,1024,1024,69.3,0,98,4.275,4.277,4.271,4.274,0,0,1.52,75.11,41,Motors_Started,
0.37330597836916,36.9148112992205,5390.521845397,0,0,0.05238845312,1200,2018-03-30 06:05:38,16,0,17.067,5390.521845397,0,0,0.05238845312,0,0,0,67.7, 3.7, -2.5,0,0,1024,1024,1024,1024,69,0,98,4.275,4.277,4.271,4.274,0,0,1.52,75.11,41,Motors_Started,
0.37330597962123,36.9148112696355,5390.521845397,0,0,0.059558072772,1300,2018-03-30 06:05:38,16,0,17.067,5390.521845397,0,0,0.059558072772,0,0,0,67.6, 3.5, -2.4,0,0,1024,1024,1024,1024,68.8,0,98,4.275,4.277,4.271,4.274,0,0,1.52,75.11,41,Motors_Started,
0.373305979509376,36.9148112467302,5390.521845397,0,0,0.06603182626,1400,2018-03-30 06:05:38,16,0,17.067,5390.521845397,0,0,0.06603182626,0,0,0,67.6, 3.7, -2.4,0,0,1024,1024,1024,1024,68.6,0,98,4.275,4.277,4.271,4.274,0,0,1.52,75.11,41,Motors_Started,
0.37330594350906,36.9148112260035,5390.521845397,0,0,0.080208992068,1500,2018-03-30 06:05:38,16,0,17.067,5390.521845397,0,0,0.080208992068,0,0,0,67.6, 4.1, -2.6,0,0,1024,1024,1024,1024,68.5,0,98,4.275,4.277,4.271,4.274,0,0,1.52,75.11,41,Motors_Started,
0.373305916425288,36.9148112091059,5390.521845397,0,0,0.091427496364,1600,2018-03-30 06:05:39,16,0,17.067,5390.521845397,0,0,0.091427496364,0,0,0,67.6, 4.1, -2.7,0,0,1024,1024,1024,1024,68.5,0,98,4.275,4.277,4.271,4.274,0,0,1.52,75.11,10,Assisted_Takeoff,
0.373305902482245,36.9148112110084,5390.521845397,0,0,0.094515422972,1700,2018-03-30 06:05:39,18,0,17.067,5390.521845397,0,0,0.094515422972,0,0,0,67.6, 3.6, -2.5,0,0,1024,1024,1024,1024,68.4,0,98,4.275,4.277,4.271,4.274,0,0,1.52,75.11,10,Assisted_Takeoff,
0.373305890966093,36.9148112174631,5390.521845397,0,0,0.096012470264,1800,2018-03-30 06:05:39,18,0,17.067,5390.521845397,0,0,0.096012470264,0,0,0,67.6, 3.4, -2.4,0,0,1024,1024,1024,1024,68.4,0,98,4.275,4.277,4.271,4.274,0,0,1.52,75.11,10,Assisted_Takeoff,
0.373305884655974,36.9148112248959,5390.521845397,0,0,0.096021000448,1900,2018-03-30 06:05:39,18,0,17.067,5390.521845397,0,0,0.096021000448,0,0,0,67.6, 3.5, -2.5,0,0,1024,1024,1024,1024,68.4,0,98,4.275,4.277,4.271,4.274,0,0,1.52,75.11,10,Assisted_Takeoff,
0.373305879874659,36.9148112279392,5390.521845397,0,0,0.096693572648,2000,2018-03-30 06:05:39,18,0,17.067,5390.521845397,0,0,0.096693572648,0,0,0,67.6, 3.7, -2.5,0,0,1024,1024,1024,1024,68.3,0,98,4.275,4.277,4.271,4.274,0,0,1.52,75.11,10,Assisted_Takeoff,
0.373305842748273,36.9148112299252,5390.521845397,0,0,0.107296919444,2100,2018-03-30 06:05:39,18,0,17.067,5390.521845397,0,0,0.107296919444,0,0,0,67.6, 3.5, -2.5,0,0,1024,1024,1024,1024,68.3,0,98,4.275,4.277,4.271,4.274,0,0,1.52,75.11,10,Assisted_Takeoff,
0.373305815120703,36.9148112374361,5390.521845397,0,0.223694,0.114497050908,2200,2018-03-30 06:05:39,18,0,17.095,5390.521845397,0,0.223694,0.114497050908,0.223694,0,0,67.6, 3.3, -2.5,0,0,1024,1024,1024,1024,68.3,0,98,4.261,4.271,4.267,4.266,0,0,3.134,75.11,10,Assisted_Takeoff,
0.37330579773228,36.9148112061494,5390.521845397,0,0,0.125801513212,2300,2018-03-30 06:05:39,18,0,17.095,5390.521845397,0,0.223694,0.125801513212,0,0,0,67.6, 3.3, -2.5,0,0,1024,1024,1024,1024,68.3,0,98,4.261,4.271,4.267,4.266,0,0,3.134,75.11,10,Assisted_Takeoff,
0.373305787222302,36.9148111862621,5390.521845397,0,0,0.13299048982,2400,2018-03-30 06:05:39,18,0,17.095,5390.521845397,0,0.223694,0.13299048982,0,0,0,67.6, 3.4, -2.6,0,0,1024,1024,1024,1024,68.2,0,98,4.261,4.271,4.267,4.266,0,0,3.134,75.11,10,Assisted_Takeoff,
0.373305747536817,36.9148111292296,5390.521845397,0,0,0.156919624444,2500,2018-03-30 06:05:39,18,0,17.095,5390.521845397,0,0.223694,0.156919624444,0,0,0,67.6, 3.3, -2.5,0,0,1024,1024,1024,1024,68.2,0,98,4.261,4.271,4.267,4.266,0,0,3.134,75.11,10,Assisted_Takeoff,
0.373305721210678,36.9148110941834,5390.521845397,0,0,0.172376317852,2600,2018-03-30 06:05:40,18,0,17.095,5390.521845397,0,0.223694,0.172376317852,0,0,0,67.6, 3.3, -2.5,0,0,1024,1024,1024,1024,68.2,0,98,4.261,4.271,4.267,4.266,0,0,3.134,75.11,10,Assisted_Takeoff,
0.373305706969325,36.9148110668879,5390.521845397,0,0,0.182729992724,2700,2018-03-30 06:05:40,18,0,17.095,5390.521845397,0,0.223694,0.182729992724,0,0,0,67.6, 3.4, -2.5,0,0,1024,1024,1024,1024,68.2,0,98,4.261,4.271,4.267,4.266,0,0,3.134,75.11,10,Assisted_Takeoff,
0.373305698677186,36.9148110510979,5390.521845397,0,0,0.188780189768,2800,2018-03-30 06:05:40,18,0,17.095,5390.521845397,0,0.223694,0.188780189768,0,0,0,67.6, 3.4, -2.5,0,0,1024,1024,1024,1024,68.2,0,98,4.261,4.271,4.267,4.266,0,0,3.134,75.11,10,Assisted_Takeoff,
0.373305699310956,36.9148110409457,5390.521845397,0,0,0.19106135782,2900,2018-03-30 06:05:40,18,0,17.095,5390.521845397,0,0.223694,0.19106135782,0,0,0,67.6, 3.4, -2.5,0,0,1024,1024,1024,1024,68.2,0,98,4.261,4.271,4.267,4.266,0,0,3.134,75.11,10,Assisted_Takeoff,
0.373305702431055,36.9148110376466,5390.521845397,0,0,0.191026580916,3000,2018-03-30 06:05:40,18,0,17.095,5390.521845397,0,0.223694,0.19106135782,0,0,0,67.6, 3.4, -2.5,0,0,1024,1024,1024,1024,68.2,0,98,4.261,4.271,4.267,4.266,0,0,3.134,75.11,10,Assisted_Takeoff,
0.373305669436642,36.91481103951,5390.521845397,0,0,0.199637801664,3100,2018-03-30 06:05:40,18,0,17.095,5390.521845397,0,0.223694,0.199637801664,0,0,0,67.6, 3.4, -2.5,0,0,1024,1024,1024,1024,68.1,0,98,4.261,4.271,4.267,4.266,0,0,3.134,75.11,10,Assisted_Takeoff,
0.37330564845465,36.9148110459846,5390.521845397,0,0,0.204098759812,3200,2018-03-30 06:05:40,18,0,17.04,5390.521845397,0,0.223694,0.204098759812,0,0,0,67.6, 3.3, -2.5,0,0,1024,1024,1024,1024,68.1,0,98,4.261,4.271,4.267,4.266,0,0,3.134,75.11,10,Assisted_Takeoff,
0.373305633760895,36.9148110539537,5390.521845397,0,0,0.206601384564,3300,2018-03-30 06:05:40,18,0,17.04,5390.521845397,0,0.223694,0.206601384564,0,0,0,67.6, 3.4, -2.5,0,0,1024,1024,1024,1024,68.1,0,98,4.261,4.271,4.267,4.266,0,0,3.134,75.11,10,Assisted_Takeoff,
0.373305625887368,36.9148110666684,5390.521845397,0,0,0.206220807124,3400,2018-03-30 06:05:40,18,0,17.04,5390.521845397,0,0.223694,0.206601384564,0,0,0,67.6, 3.4, -2.5,0,0,1024,1024,1024,1024,68.1,0,98,4.261,4.271,4.267,4.266,0,0,3.134,75.11,10,Assisted_Takeoff,
0.373305582963518,36.9148110364373,5390.521845397,0,0,0.22537566338,3500,2018-03-30 06:05:40,18,0,17.04,5390.521845397,0,0.223694,0.22537566338,0,0,0,67.6, 3.4, -2.5,0,0,1024,1024,1024,1024,68.1,0,98,4.261,4.271,4.267,4.266,0,0,3.134,75.11,10,Assisted_Takeoff,
0.373305553066101,36.9148110201248,5390.521845397,0,0,0.23772802598,3600,2018-03-30 06:05:41,18,0,17.04,5390.521845397,0,0.223694,0.23772802598,0,0,0,67.6, 3.4, -2.5,0,0,1024,1024,1024,1024,68.1,0,98,4.261,4.271,4.267,4.266,0,0,3.134,75.11,10,Assisted_Takeoff,
0.373305529695385,36.9148110010046,5390.521845397,0,0,0.248710965964,3700,2018-03-30 06:05:41,18,0,17.04,5390.521845397,0,0.223694,0.248710965964,0,0,0,67.6, 3.4, -2.5,0,0,1024,1024,1024,1024,68.1,0,98,4.261,4.271,4.267,4.266,0,0,3.134,75.11,10,Assisted_Takeoff,
0.373305516436696,36.914810995644,5390.521845397,0,0,0.253800204972,3800,2018-03-30 06:05:41,18,0,17.04,5390.521845397,0,0.223694,0.253800204972,0,0,0,67.6, 3.4, -2.5,0,0,1024,1024,1024,1024,68.1,0,98,4.261,4.271,4.267,4.266,0,0,3.134,75.11,10,Assisted_Takeoff,
0.373305510574704,36.9148109876411,5390.521845397,0,0,0.257221793008,3900,2018-03-30 06:05:41,18,0,17.04,5390.521845397,0,0.223694,0.257221793008,0,0,0,67.6, 3.4, -2.5,0,0,1024,1024,1024,1024,68.1,0,98,4.261,4.271,4.267,4.266,0,0,3.134,75.11,10,Assisted_Takeoff,
0.37330550861762,36.9148109890142,5390.521845397,0,0,0.257522317952,4000,2018-03-30 06:05:41,18,0,17.04,5390.521845397,0,0.223694,0.257522317952,0,0,0,67.6, 3.4, -2.5,0,0,1024,1024,1024,1024,68.1,0,98,4.261,4.271,4.267,4.266,0,0,3.134,75.11,10,Assisted_Takeoff,
0.373305471016237,36.9148109858784,5390.521845397,0,0.3131716,0.269538394452,4100,2018-03-30 06:05:41,18,0,17.04,5390.521845397,0,0.3131716,0.269538394452,0.223694,0.223694,0,67.6, 3.4, -2.5,0,0,1024,1024,1024,1024,68.1,0,98,4.261,4.271,4.267,4.266,0,0,3.134,75.11,10,Assisted_Takeoff,
0.373305446279562,36.9148109909413,5390.521845397,0,0.447388,0.276149287052,4200,2018-03-30 06:05:41,18,0,17.04,5390.521845397,0,0.447388,0.276149287052,0,0.447388,0.223694,67.6, 3.4, -2.5,0,0,1024,1024,1024,1024,68.1,0,98,4.269,4.272,4.265,4.268,0,0,2.076,75.11,10,Assisted_Takeoff,
0.373305428755266,36.9148109905591,5390.521845397,0,0.447388,0.281669628436,4300,2018-03-30 06:05:41,18,0,17.04,5390.521845397,0,0.447388,0.281669628436,0,0.447388,0.447388,67.6, 3.4, -2.5,0,0,1024,1024,1024,1024,68.1,0,98,4.269,4.272,4.265,4.268,0,0,2.076,75.11,10,Assisted_Takeoff,
0.373305418972185,36.9148109980294,5390.193761397,-0.328084,0.447388,0.283338591744,4400,2018-03-30 06:05:41,18,0,17.04,5390.521845397,0,0.447388,0.283338591744,0,0.447388,0.447388,67.6, 3.4, -2.5,0,0,1024,1024,1024,1024,68.1,0,98,4.269,4.272,4.265,4.268,0,0,2.076,75.11,10,Assisted_Takeoff,
0.373305373472442,36.914810956234,5390.193761397,-0.328084,0.223694,0.305409786676,4500,2018-03-30 06:05:41,18,0,17.04,5390.521845397,0,0.447388,0.305409786676,0,0.223694,0.447388,67.6, 3.4, -2.5,0,0,1024,1024,1024,1024,68.1,0,98,4.269,4.272,4.265,4.268,0,0,2.076,75.11,10,Assisted_Takeoff,
0.37330534307611,36.9148109355533,5390.193761397,-0.328084,0.223694,0.318806440648,4600,2018-03-30 06:05:42,18,0,17.04,5390.521845397,0,0.447388,0.318806440648,0,0.223694,0.223694,67.6, 3.4, -2.4,0,0,1024,1024,1024,1024,68.1,0,98,4.269,4.272,4.265,4.268,0,0,2.076,75.11,10,Assisted_Takeoff,
0.373305321694437,36.914810913028,5390.193761397,-0.328084,0,0.32976050924,4700,2018-03-30 06:05:42,18,0,17.04,5390.521845397,0,0.447388,0.32976050924,0,0,0,67.6, 3.5, -2.4,0,0,1024,1024,1024,1024,68.1,0,98,4.269,4.272,4.265,4.268,0,0,2.076,75.11,10,Assisted_Takeoff,
0.373305304595978,36.9148109026119,5390.193761397,-0.328084,0,0.33706365908,4800,2018-03-30 06:05:42,18,0,17.04,5390.521845397,0,0.447388,0.33706365908,0,0,0,67.6, 3.6, -2.3,0,0,1024,1024,1024,1024,68.1,0,98,4.269,4.272,4.265,4.268,0,0,2.076,75.11,10,Assisted_Takeoff,
0.373305252623577,36.914810888446,5390.193761397,-0.328084,0,0.3559383316,4900,2018-03-30 06:05:42,18,0,17.04,5390.521845397,0,0.447388,0.3559383316,0,0,0,67.6, 3.6, -2.3,0,0,1024,1024,1024,1024,68.1,0,98,4.269,4.272,4.265,4.268,0,0,2.076,75.11,10,Assisted_Takeoff,
0.373305210083735,36.914810881184,5390.193761397,-0.328084,0,0.37064961816,5000,2018-03-30 06:05:42,18,0,17.04,5390.521845397,0,0.447388,0.37064961816,0,0,0,67.6, 3.7, -2.4,0,0,1024,1024,1024,1024,68.1,0,98,4.269,4.272,4.265,4.268,0,0,2.076,75.11,10,Assisted_Takeoff,
0.373305177573275,36.9148108671659,5390.193761397,-0.328084,0,0.38347770256,5100,2018-03-30 06:05:42,18,0,17.04,5390.521845397,0,0.447388,0.38347770256,0,0,0,67.6, 3.8, -2.4,0,0,1024,1024,1024,1024,68.1,0,98,4.269,4.272,4.265,4.268,0,0,2.076,75.11,10,Assisted_Takeoff,
0.373305147635757,36.9148108588332,5390.193761397,-0.328084,0,0.39447507824,5200,2018-03-30 06:05:42,18,0,17.04,5390.521845397,0,0.447388,0.39447507824,0,0,0,67.6, 3.8, -2.4,0,0,1024,1024,1024,1024,68.1,0,98,4.269,4.272,4.265,4.268,0,0,2.076,75.11,10,Assisted_Takeoff,
0.373305131852878,36.9148108459322,5390.193761397,-0.328084,0,0.4018044748,5300,2018-03-30 06:05:42,18,0,17.04,5390.521845397,0,0.447388,0.4018044748,0,0,0,67.6, 3.7, -2.4,0,0,1024,1024,1024,1024,68.1,0,98,4.269,4.272,4.265,4.268,0,0,2.076,75.11,10,Assisted_Takeoff,
0.373305112431037,36.9148108341115,5390.521845397,0,0,0.41009843832,5400,2018-03-30 06:05:42,18,0,17.04,5390.521845397,0,0.447388,0.41009843832,0,0,0,67.6, 3.7, -2.4,0,0,1024,1024,1024,1024,68.1,0,98,4.269,4.272,4.265,4.268,0,0,2.076,75.11,10,Assisted_Takeoff,
0.373305072639398,36.914810822226,5390.521845397,0,0,0.42486878,5500,2018-03-30 06:05:42,18,0,17.04,5390.521845397,0,0.447388,0.42486878,0,0,0,67.6, 3.7, -2.4,0,0,1024,1024,1035,1024,68.1,0,98,4.269,4.272,4.265,4.268,0,0,2.076,75.11,10,Assisted_Takeoff,
0.373305032431487,36.9148108100734,5390.521845397,0,0,0.43984909544,5600,2018-03-30 06:05:43,18,0,17.04,5390.521845397,0,0.447388,0.43984909544,0,0,0,67.6, 3.8, -2.4,0,0,1024,1024,1130,1024,68.1,0,98,4.269,4.272,4.265,4.268,0,0,2.076,75.11,10,Assisted_Takeoff,
0.373305009126825,36.914810799228,5390.521845397,0,0,0.44920605112,5700,2018-03-30 06:05:43,18,0,17.04,5390.521845397,0,0.447388,0.44920605112,0,0,0,67.5, 3.7, -2.4,0,0,1024,1024,1244,1024,68.1,0,98,4.269,4.272,4.265,4.268,0,0,2.076,75.11,10,Assisted_Takeoff,
0.37330498361501,36.9148107892081,5390.521845397,0,0,0.45912731128,5800,2018-03-30 06:05:43,18,0,17.04,5390.521845397,0,0.447388,0.45912731128,0,0,0,67.5, 3.7, -2.4,0,0,1024,1024,1342,1024,68.1,0,98,4.269,4.272,4.265,4.268,0,0,2.076,75.11,10,Assisted_Takeoff,
0.373304979874067,36.9148107841473,5390.193761397,-0.328084,0,0.46121064468,5900,2018-03-30 06:05:43,18,0,17.04,5390.521845397,0,0.447388,0.46121064468,0,0,0,67.5, 3.6, -2.3,0,0,1024,1024,1338,1024,68.1,0,98,4.269,4.272,4.265,4.268,0,0,2.076,75.11,10,Assisted_Takeoff,
0.373304966412942,36.9148107789837,5390.193761397,-0.328084,0,0.46642389944,6000,2018-03-30 06:05:43,18,0,17.04,5390.521845397,0,0.447388,0.46642389944,0,0,0,67.5, 3.5, -2.2,0,0,1024,1024,1318,1024,68.1,0,98,4.269,4.272,4.265,4.268,0,0,2.076,75.11,10,Assisted_Takeoff,
0.373304973394489,36.9148107772204,5390.193761397,-0.328084,0,0.46449804636,6100,2018-03-30 06:05:43,18,0,17.04,5390.521845397,0,0.447388,0.46642389944,0,0,0,67.4, 3.6, -2.1,0,0,1024,1024,1299,1024,68.1,0,98,4.269,4.272,4.265,4.268,0,0,2.076,75.11,10,Assisted_Takeoff,
0.37330496993262,36.9148107537251,5390.193761397,-0.328084,0,0.46979004128,6200,2018-03-30 06:05:43,18,0,17.04,5390.521845397,0,0.447388,0.46979004128,0,0,0,67.3, 3.6, -1.2,0,0,1024,1024,1289,1024,68,0,98,4.269,4.271,4.265,4.267,0,0,2.066,75.11,10,Assisted_Takeoff,
0.373304988522734,36.9148106932656,5390.193761397,-0.328084,0,0.4753445034,6300,2018-03-30 06:05:43,18,0,17.04,5390.521845397,0,0.447388,0.4753445034,0,0,-0.223694,67.3, 3.1, 0.1,0,0,1024,1024,1292,1024,68,0,98,4.269,4.271,4.265,4.267,0,0,2.066,75.11,10,Assisted_Takeoff,Home Point Recorded. RTH Altitude:  30m.
0.373304986919734,36.9148105910957,5390.193761397,-0.328084,0.223694,0.49677823112,6400,2018-03-30 06:05:43,18,0,17.04,5390.521845397,0,0.447388,0.49677823112,0,-0.223694,-0.671082,67.3, 1.2, 0,0,0,1024,1024,1296,1024,68,0,98,4.269,4.271,4.265,4.267,0,0,2.066,75.11,6,P-GPS,Obstacle Avoided. Revise Flight Route
0.373304965084132,36.9148104980048,5390.521845397,0,0.223694,0.52367455744,6500,2018-03-30 06:05:43,18,0,17.04,5390.521845397,0,0.447388,0.52367455744,0,-0.223694,-0.894776,67.3, -0.1, -0.3,0,0,1024,1024,1294,1024,68,0,98,4.269,4.271,4.265,4.267,0,0,2.066,75.11,6,P-GPS,
0.373304974639434,36.9148104159369,5390.521845397,0,0.223694,0.54018046348,6600,2018-03-30 06:05:44,18,0,17.04,5390.521845397,0,0.447388,0.54018046348,0,-0.223694,-1.342164,67.3, 0, 0.5,0,0,1024,1024,1306,1024,68,0,98,4.269,4.271,4.265,4.267,0,0,2.066,75.11,6,P-GPS,
0.373305012358268,36.9148103045935,5390.521845397,0,0.223694,0.55798558216,6700,2018-03-30 06:05:44,18,0,17.04,5390.521845397,0,0.447388,0.55798558216,0,-0.223694,-1.789552,67.4, 0, 1.1,0,0,1024,1024,1322,1024,68,0,98,4.269,4.271,4.265,4.267,0,0,2.066,75.11,6,P-GPS,
0.373305035574587,36.9148102209411,5390.849929397,0.328084,0.223694,0.57436353544,6800,2018-03-30 06:05:44,18,0,17.04,5390.849929397,0.328084,0.447388,0.57436353544,0,-0.223694,-2.23694,67.4, -0.3, 1,0,0,1024,1024,1323,1024,68,0,98,4.269,4.271,4.265,4.267,0,0,2.066,75.11,6,P-GPS,
0.373305086334815,36.9148101638428,5391.178013397,0.656168,0,0.57812009724,6900,2018-03-30 06:05:44,18,0,17.04,5391.178013397,0.656168,0.447388,0.57812009724,0,0,-2.460634,67.5, -0.2, 1.1,0,0,1024,1024,1324,1024,68,0,98,4.269,4.271,4.265,4.267,0,0,2.066,75.11,6,P-GPS,
0.373305122595174,36.9148101162628,5391.506097397,0.984252,0,0.583579415,7000,2018-03-30 06:05:44,16,0,17.04,5391.506097397,0.984252,0.447388,0.583579415,0,0,-2.908022,67.4, 0, 1.2,0,0,1024,1024,1333,1024,68,0,98,4.269,4.271,4.265,4.267,0,0,2.066,75.11,6,P-GPS,
0.373305120402067,36.9148100723979,5392.162265397,1.64042,0,0.5968832212,7100,2018-03-30 06:05:44,16,0,17.04,5392.162265397,1.64042,0.447388,0.5968832212,0,0,-3.131716,67.4, 0.1, 0.9,0,0,1024,1024,1342,1024,68,0,98,4.269,4.271,4.265,4.267,0,0,2.066,75.11,6,P-GPS,
0.373305107741933,36.9148100302851,5392.490349397,1.968504,0,0.6120242978,7200,2018-03-30 06:05:44,16,0,17.04,5392.490349397,1.968504,0.447388,0.6120242978,0,0,-3.35541,67.3, 0, 0.4,0,0,1024,1024,1333,1024,68,0,98,4.269,4.271,4.265,4.267,0,0,4.022,75.11,6,P-GPS,
0.373305093510757,36.914810017185,5393.146517397,2.624672,0,0.61894030852,7300,2018-03-30 06:05:44,16,0,17.04,5393.146517397,2.624672,0.447388,0.61894030852,0,0,-3.35541,67.3, -0.2, 0.8,0,0,1024,1024,1317,1024,68,0,98,4.269,4.271,4.265,4.267,0,0,4.022,75.11,6,P-GPS,
0.373305084394321,36.9148100076249,5393.474601397,2.952756,0,0.62371721156,7400,2018-03-30 06:05:44,16,0,17.04,5393.474601397,2.952756,0.447388,0.62371721156,0,0,-3.579104,67.3, -0.3, 1,0,0,1024,1024,1330,1024,68,0,98,4.269,4.271,4.265,4.267,0,0,4.022,75.11,6,P-GPS,
0.373305082320904,36.9148099516999,5394.130769397,3.608924,0,0.64077429872,7500,2018-03-30 06:05:44,17,0,17.04,5394.130769397,3.608924,0.447388,0.64077429872,0,0,-3.579104,67.3, 0, 1,0,0,1024,1024,1349,1024,68,0,98,4.269,4.271,4.265,4.267,0,0,4.022,75.11,6,P-GPS,
0.373305074241379,36.9148099158251,5394.786937397,4.265092,0,0.65320868232,7600,2018-03-30 06:05:45,17,0,17.04,5394.786937397,4.265092,0.447388,0.65320868232,0,0,-3.579104,67.2, 0.1, 0.7,0,0,1024,1024,1373,1024,68,0,98,4.269,4.271,4.265,4.267,0,0,4.022,75.11,6,P-GPS,
0.37330507120942,36.9148098998541,5395.115021397,4.593176,0,0.65864175336,7700,2018-03-30 06:05:45,17,0,17.04,5395.115021397,4.593176,0.447388,0.65864175336,0,0,-3.579104,67.2, 0.3, 0.4,0,0,1024,1024,1384,1024,67.9,0,98,4.269,4.271,4.265,4.267,0,0,4.022,75.11,6,P-GPS,
0.373305067716204,36.9148098831171,5395.771189397,5.249344,0,0.66440618924,7800,2018-03-30 06:05:45,17,0,17.04,5395.771189397,5.249344,0.447388,0.66440618924,0,0,-3.802798,67.2, 0.4, 0.3,0,0,1024,1024,1384,1024,67.9,0,98,4.269,4.271,4.265,4.267,0,0,4.022,75.11,6,P-GPS,
0.373305037732479,36.9148098605907,5396.427357397,5.905512,0,0.67735894556,7900,2018-03-30 06:05:45,18,0,17.04,5396.427357397,5.905512,0.447388,0.67735894556,0,0,-4.026492,67.3, 0.5, 0.4,0,0,1024,1024,1379,1024,67.9,0,98,4.269,4.271,4.265,4.267,0,0,4.022,75.11,6,P-GPS,
0.37330501483676,36.9148098241891,5397.083525397,6.56168,0,0.69303807992,8000,2018-03-30 06:05:45,18,0,17.04,5397.083525397,6.56168,0.447388,0.69303807992,0,0,-4.026492,67.3, 0, 0.7,0,0,1024,1024,1385,1024,67.9,0,98,4.269,4.271,4.265,4.267,0,0,4.022,75.11,6,P-GPS,
0.373305002396466,36.9148097913665,5397.739693397,7.217848,0,0.70548886772,8100,2018-03-30 06:05:45,18,0,17.04,5397.739693397,7.217848,0.447388,0.70548886772,0,0,-4.250186,67.3, -0.1, 0.8,0,0,1024,1024,1392,1024,67.9,0,98,4.269,4.271,4.265,4.267,0,0,4.022,75.11,6,P-GPS,
0.373304990062834,36.9148097607511,5398.395861397,7.874016,0,0.71726052164,8200,2018-03-30 06:05:45,18,0,16.607,5398.395861397,7.874016,0.447388,0.71726052164,0,0,-4.47388,67.3, -0.1, 0.9,0,0,1024,1024,1392,1024,67.9,0,98,4.23,4.23,4.22,4.217,0,0,4.022,75.11,6,P-GPS,
0.37330498117723,36.9148097574241,5399.052029397,8.530184,0,0.72008204404,8300,2018-03-30 06:05:45,18,0,16.607,5399.052029397,8.530184,0.447388,0.72008204404,0,0,-4.47388,67.3, 0, 0.8,0,0,1024,1024,1393,1024,67.9,0,98,4.23,4.23,4.22,4.217,0,0,4.022,75.11,6,P-GPS,
0.373304962562486,36.9148097463314,5399.708197397,9.186352,0,0.72725067944,8400,2018-03-30 06:05:45,18,0,16.607,5399.708197397,9.186352,0.447388,0.72725067944,0,0,-4.697574,67.3, 0, 0.2,0,0,1024,1024,1388,1024,67.9,0,98,4.23,4.23,4.22,4.217,0,0,4.022,75.11,6,P-GPS,
0.373304958288432,36.914809751798,5400.364365397,9.84252,0,0.72648952456,8500,2018-03-30 06:05:45,18,0,16.607,5400.364365397,9.84252,0.447388,0.72725067944,0,0,-4.697574,67.3, 0, 0.3,0,0,1024,1024,1386,1024,67.9,0,98,4.23,4.23,4.22,4.217,0,0,4.022,75.11,6,P-GPS,
0.373304961645673,36.9148097318406,5401.020533397,10.498688,0,0.7318077662,8600,2018-03-30 06:05:46,18,0,16.607,5401.020533397,10.498688,0.447388,0.7318077662,0,0,-4.697574,67.3, -0.3, 0.7,0,0,1024,1024,1382,1024,67.9,0,98,4.23,4.23,4.22,4.217,0,0,4.022,75.11,6,P-GPS,
0.373304975389943,36.9148096829791,5401.676701397,11.154856,0,0.74386813404,8700,2018-03-30 06:05:46,18,0,16.607,5401.676701397,11.154856,0.447388,0.74386813404,0,0,-4.697574,67.3, -0.5, 0.8,0,0,1024,1024,1372,1024,67.9,0,98,4.23,4.23,4.22,4.217,0,0,4.022,75.11,6,P-GPS,
0.373304975869113,36.9148096290118,5402.332869397,11.811024,0,0.76034451252,8800,2018-03-30 06:05:46,18,0,16.607,5402.332869397,11.811024,0.447388,0.76034451252,0,0,-4.47388,67.3, -0.9, 0.4,0,0,1024,1024,1379,1024,67.9,0,98,4.23,4.23,4.22,4.217,0,0,4.022,75.11,6,P-GPS,
0.373304981734972,36.9148095622817,5402.989037397,12.467192,0,0.77992784648,8900,2018-03-30 06:05:46,18,0,16.607,5402.989037397,12.467192,0.447388,0.77992784648,0,0,-4.47388,67.2, -1.2, 0.5,0,0,1024,1024,1388,1024,67.9,0,98,4.23,4.23,4.22,4.217,0,0,4.022,75.11,6,P-GPS,
0.373304991413018,36.9148095019013,5403.645205397,13.12336,0,0.79707351632,9000,2018-03-30 06:05:46,18,0,16.607,5403.645205397,13.12336,0.447388,0.79707351632,0,0,-4.47388,67.2, -0.8, 0.6,0,0,1024,1024,1389,1024,67.9,0,98,4.23,4.23,4.22,4.217,0,0,4.022,75.11,6,P-GPS,
0.373305044742116,36.9148094406597,5404.301373397,13.779528,0,0.80710632504,9100,2018-03-30 06:05:46,18,0,16.607,5404.301373397,13.779528,0.447388,0.80710632504,0,0,-4.47388,67.3, -0.8, 0.7,0,0,1024,1024,1390,1024,67.9,0,98,4.23,4.23,4.22,4.217,0,0,4.022,75.11,6,P-GPS,
0.37330508190443,36.9148093731539,5405.285625397,14.76378,0.223694,0.82275921268,9200,2018-03-30 06:05:46,18,0,16.553,5405.285625397,14.76378,0.447388,0.82275921268,0,-0.223694,-4.47388,67.2, -1.2, 0.7,0,0,1024,1024,1389,1024,67.9,0,98,4.169,4.179,4.172,4.173,0,0,14.93,75.11,6,P-GPS,
0.373305109180052,36.914809309846,5405.941793397,15.419948,0.223694,0.83920278276,9300,2018-03-30 06:05:46,18,0,16.553,5405.941793397,15.419948,0.447388,0.83920278276,0,-0.223694,-4.47388,67.2, -1.8, 0.7,0,0,1024,1024,1388,1024,67.9,0,98,4.169,4.179,4.172,4.173,0,0,14.93,75.11,6,P-GPS,
0.373305131095448,36.9148092478057,5406.597961397,16.076116,0,0.85644359696,9400,2018-03-30 06:05:46,18,0,16.553,5406.597961397,16.076116,0.447388,0.85644359696,0,0,-4.697574,67.3, -2.3, 0.8,0,0,1024,1024,1413,1024,67.9,0,98,4.169,4.179,4.172,4.173,0,0,14.93,75.11,6,P-GPS,
0.373305108977311,36.9148091752551,5407.254129397,16.732284,0,0.8839075086,9500,2018-03-30 06:05:46,18,0,16.553,5407.254129397,16.732284,0.447388,0.8839075086,0,0,-4.697574,67.2, -2, 0.8,0,0,1024,1024,1422,1024,67.8,0,98,4.169,4.179,4.172,4.173,0,0,14.93,75.11,6,P-GPS,
0.373305097958241,36.9148091207156,5407.910297397,17.388452,0,0.90374346724,9600,2018-03-30 06:05:47,18,0,16.553,5407.910297397,17.388452,0.447388,0.90374346724,0,0,-4.697574,67.2, -1.6, 0.9,0,0,1024,1024,1384,1024,67.8,0,98,4.169,4.179,4.172,4.173,0,0,14.93,75.11,6,P-GPS,
0.373305119324241,36.9148090749391,5408.566465397,18.04462,0,0.91603677472,9700,2018-03-30 06:05:47,18,0,16.553,5408.566465397,18.04462,0.447388,0.91603677472,0,0,-5.144962,67.2, -1.6, 0.5,0,0,1024,1024,1328,1024,67.8,0,98,4.169,4.179,4.172,4.173,0,0,14.93,75.11,6,P-GPS,
0.373305136398272,36.9148090257634,5409.550717397,19.028872,0.223694,0.9302657778,9800,2018-03-30 06:05:47,18,0,16.553,5409.550717397,19.028872,0.447388,0.9302657778,0,-0.223694,-4.921268,67.2, -2.7, 0.2,0,0,1024,1024,1365,1024,67.8,0,98,4.169,4.179,4.172,4.173,0,0,14.93,75.11,6,P-GPS,
0.373305155909474,36.914808972416,5410.206885397,19.68504,0,0.94576446596,9900,2018-03-30 06:05:47,18,0,16.553,5410.206885397,19.68504,0.447388,0.94576446596,0,0,-4.250186,67.2, -3.4, 0.6,0,0,1024,1024,1426,1024,67.8,0,98,4.169,4.179,4.172,4.173,0,0,14.93,75.11,6,P-GPS,
0.373305195380921,36.9148089525592,5410.863053397,20.341208,0,0.94747706444,10000,2018-03-30 06:05:47,18,0,16.553,5410.863053397,20.341208,0.447388,0.94747706444,0,0,-4.47388,67.2, -2.2, 1.1,0,0,1024,1024,1413,1024,67.8,0,98,4.169,4.179,4.172,4.173,0,0,14.93,75.11,6,P-GPS,
0.373305224309415,36.9148089495261,5411.519221397,20.997376,0,0.94494097512,10100,2018-03-30 06:05:47,18,0,16.553,5411.519221397,20.997376,0.447388,0.94747706444,0,0,-4.697574,67.2, -1.1, 1.1,0,0,1024,1024,1389,1024,67.8,0,98,4.169,4.179,4.172,4.173,0,0,14.93,75.11,6,P-GPS,
0.373305243823466,36.9148089462527,5412.175389397,21.653544,0,0.9437172218,10200,2018-03-30 06:05:47,18,0,16.607,5412.175389397,21.653544,0.447388,0.94747706444,0,0,-4.697574,67.2, -1.4, 0.7,0,0,1024,1024,1417,1024,67.8,0,98,4.171,4.172,4.164,4.164,0,0,14.44,75.11,6,P-GPS,
0.37330523474143,36.914808956392,5412.831557397,22.309712,0,0.94131236608,10300,2018-03-30 06:05:47,18,0,16.607,5412.831557397,22.309712,0.447388,0.94747706444,0,0,-4.697574,67.2, -2, 1,0,0,1024,1024,1450,1024,67.8,0,98,4.171,4.172,4.164,4.164,0,0,14.44,75.11,6,P-GPS,
0.373305233832759,36.9148089724604,5413.487725397,22.96588,0,0.9358924184,10400,2018-03-30 06:05:47,18,0,16.607,5413.487725397,22.96588,0.447388,0.94747706444,0,0,-4.921268,67.3, -1.9, 0.9,0,0,1024,1024,1464,1024,67.8,0,98,4.171,4.172,4.164,4.164,0,0,14.44,75.11,6,P-GPS,
0.373305209617389,36.9148089982479,5414.471977397,23.950132,0,0.93003939984,10500,2018-03-30 06:05:47,18,0,16.607,5414.471977397,23.950132,0.447388,0.94747706444,0,0,-5.368656,67.3, -1.6, 0.4,0,0,1024,1024,1485,1024,67.8,0,98,4.171,4.172,4.164,4.164,0,0,14.44,75.11,6,P-GPS,
0.373305201438122,36.9148090235001,5415.128145397,24.6063,0,0.92243769356,10600,2018-03-30 06:05:48,18,0,16.607,5415.128145397,24.6063,0.447388,0.94747706444,0,0,-5.59235,67.3, -1.5, 0.5,0,0,1024,1024,1496,1024,67.8,0,98,4.171,4.172,4.164,4.164,0,0,14.44,75.11,6,P-GPS,
0.373305154876634,36.914809005261,5416.112397397,25.590552,0,0.93473100104,10700,2018-03-30 06:05:48,18,0,16.607,5416.112397397,25.590552,0.447388,0.94747706444,0,0,-5.816044,67.3, -1.4, 0.8,0,0,1024,1024,1502,1024,67.8,0,98,4.171,4.172,4.164,4.164,0,0,14.44,75.11,6,P-GPS,
0.373305120845207,36.9148089927101,5416.768565397,26.24672,0,0.94357286484,10800,2018-03-30 06:05:48,18,0,16.607,5416.768565397,26.24672,0.447388,0.94747706444,0,0,-6.263432,67.3, -1.5, 0.6,0,0,1024,1024,1500,1024,67.8,0,98,4.171,4.172,4.164,4.164,0,0,14.44,75.11,6,P-GPS,
0.373305082898188,36.9148089712062,5417.752817397,27.230972,0,0.95608270776,10900,2018-03-30 06:05:48,18,0,16.607,5417.752817397,27.230972,0.447388,0.95608270776,0,0,-6.487126,67.3, -1.5, 0.5,0,0,1024,1024,1499,1024,67.8,0,98,4.171,4.172,4.164,4.164,0,0,14.44,75.11,6,P-GPS,
0.37330506822204,36.9148089610096,5418.737069397,28.215224,0,0.96157811476,11000,2018-03-30 06:05:48,18,0,16.607,5418.737069397,28.215224,0.447388,0.96157811476,0,0,-6.71082,67.3, -1.5, 0.7,0,0,1024,1024,1500,1024,67.8,0,98,4.171,4.172,4.164,4.164,0,0,14.44,75.11,6,P-GPS,
0.373305021086117,36.9148089471434,5420.049405397,29.52756,0,0.97300199964,11100,2018-03-30 06:05:48,18,0,16.607,5420.049405397,29.52756,0.447388,0.97300199964,0,0,-6.934514,67.3, -1.4, 0.8,0,0,1024,1024,1567,1024,67.8,0,98,4.171,4.172,4.164,4.164,0,0,14.44,75.11,6,P-GPS,
0.373304990894766,36.9148089423979,5421.033657397,30.511812,0,0.97904530692,11200,2018-03-30 06:05:48,18,0,16.499,5421.033657397,30.511812,0.447388,0.97904530692,0,0,-6.934514,67.3, -1.2, 0.8,0,0,1024,1024,1628,1024,67.8,0,98,4.171,4.172,4.164,4.164,0,0,14.44,75.11,6,P-GPS,
0.373304965690524,36.9148089347349,5422.017909397,31.496064,0,0.9853838898,11300,2018-03-30 06:05:48,18,0,16.499,5422.017909397,31.496064,0.447388,0.9853838898,0,0,-7.381902,67.3, -1, 0.6,0,0,1024,1024,1642,1024,67.8,0,98,4.171,4.172,4.164,4.164,0,0,14.44,75.11,6,P-GPS,
0.373304950542534,36.9148089312677,5423.002161397,32.480316,0,0.98884189516,11400,2018-03-30 06:05:48,18,0,16.499,5423.002161397,32.480316,0.447388,0.98884189516,0,0,-8.052984,67.3, -0.7, 0.6,0,0,1024,1024,1647,979,67.8,0,98,4.171,4.172,4.164,4.164,0,0,14.44,75.11,6,P-GPS,
0.37330494027723,36.9148088816938,5424.314497397,33.792652,0,1.00683730256,11500,2018-03-30 06:05:48,18,0,16.499,5424.314497397,33.792652,0.447388,1.00683730256,0,0,-8.724066,67.3, -1.3, 0.3,0,0,1024,1024,1635,966,67.8,0,98,4.171,4.172,4.164,4.164,0,0,14.44,75.11,6,P-GPS,
0.373304942348204,36.9148088338274,5425.626833397,35.104988,0,1.02243441592,11600,2018-03-30 06:05:49,18,0,16.499,5425.626833397,35.104988,0.447388,1.02243441592,0,0,-9.395148,67.2, -1.9, 0.7,0,0,1024,1024,1639,1024,67.7,0,98,4.171,4.172,4.164,4.164,0,0,14.44,75.11,6,P-GPS,
0.373304956719019,36.9148087615081,5427.267253397,36.745408,0,1.04448166072,11700,2018-03-30 06:05:49,18,0,16.499,5427.267253397,36.745408,0.447388,1.04448166072,0,0,-9.618842,66.8, -2.6, 0.8,0,0,1024,1024,1664,1024,67.6,0,98,4.171,4.172,4.164,4.164,0,0,14.44,75.11,6,P-GPS,
0.373304980791696,36.9148087306576,5428.579589397,38.057744,0,1.05142063732,11800,2018-03-30 06:05:49,18,0,16.499,5428.579589397,38.057744,0.447388,1.05142063732,0,0,-9.618842,66.8, -2.2, 0.6,0,0,1024,1024,1684,1024,67.6,0,98,4.171,4.172,4.164,4.164,0,0,14.44,75.11,6,P-GPS,
0.373305010061552,36.9148087399608,5429.891925397,39.37008,0,1.04421591268,11900,2018-03-30 06:05:49,18,0,16.499,5429.891925397,39.37008,0.447388,1.05142063732,0,0,-10.06623,66.8, -1.1, 0.5,0,0,1024,1024,1684,1016,67.6,0,98,4.171,4.172,4.164,4.164,0,0,14.44,75.11,6,P-GPS,
0.373305048172637,36.9148087549923,5431.532345397,41.0105,0,1.03395344516,12000,2018-03-30 06:05:49,18,0,16.499,5431.532345397,41.0105,0.447388,1.05142063732,0,0,-10.513618,66.8, -1.2, 0.8,0,0,1024,1024,1684,1010,67.6,0,98,4.171,4.172,4.164,4.164,0,0,14.44,75.11,6,P-GPS,
0.373305103098221,36.9148087644517,5433.172765397,42.65092,0,1.02353021648,12100,2018-03-30 06:05:49,18,0,16.499,5433.172765397,42.65092,0.447388,1.05142063732,0,0,-10.737312,66.8, -1.9, 1.1,0,0,1024,1024,1684,1024,67.6,0,98,4.171,4.172,4.164,4.164,0,0,14.44,75.11,6,P-GPS,
0.373305150722269,36.914808790585,5434.813185397,44.29134,0,1.00858270944,12200,2018-03-30 06:05:49,18,0,16.499,5434.813185397,44.29134,0.447388,1.05142063732,0,0,-10.737312,66.8, -2.3, 0.9,0,0,1024,1024,1684,1023,67.6,0,98,4.171,4.172,4.164,4.164,0,0,14.44,75.11,6,P-GPS,
0.373305208299367,36.9148087782419,5436.453605397,45.93176,0,1.00591538652,12300,2018-03-30 06:05:49,18,0,16.499,5436.453605397,45.93176,0.447388,1.05142063732,0,0,-10.961006,66.8, -2.2, 0.6,0,0,1024,1024,1684,1016,67.5,0,98,4.171,4.172,4.164,4.164,0,0,14.44,75.11,6,P-GPS,
0.373305273199374,36.9148087986698,5438.094025397,47.57218,0,0.99149281388,12400,2018-03-30 06:05:49,18,0,16.499,5438.094025397,47.57218,0.447388,1.05142063732,0,0,-10.961006,66.8, -1.7, 0.8,0,0,1024,1024,1684,1013,67.5,0,98,4.171,4.172,4.164,4.164,0,0,14.44,75.11,6,P-GPS,
0.373305344805925,36.9148088447622,5439.734445397,49.2126,0,0.9678149916,12500,2018-03-30 06:05:49,18,0,16.499,5439.734445397,49.2126,0.447388,1.05142063732,0,0,-10.961006,66.8, -1.8, 1,0,0,1024,1024,1684,1006,67.6,0,98,4.171,4.172,4.164,4.164,0,0,14.44,75.11,6,P-GPS,
0.373305407399037,36.9148088932238,5441.374865397,50.85302,0,0.94458992524,12600,2018-03-30 06:05:50,18,0,16.499,5441.374865397,50.85302,0.447388,1.05142063732,0,0,-10.961006,66.8, -1.5, 0.8,0,0,1024,1024,1684,1024,67.5,0,98,4.171,4.172,4.164,4.164,0,0,14.44,75.11,6,P-GPS,
0.373305461217483,36.914808900201,5443.015285397,52.49344,0,0.93714569928,12700,2018-03-30 06:05:50,18,0,16.499,5443.015285397,52.49344,0.447388,1.05142063732,0,0,-11.1847,66.8, -1.7, 1,0,0,1024,1024,1684,1024,67.5,0,98,4.171,4.172,4.164,4.164,0,0,14.44,75.11,6,P-GPS,
0.373305508834101,36.9148089200385,5444.655705397,54.13386,0,0.92600396664,12800,2018-03-30 06:05:50,18,0,16.499,5444.655705397,54.13386,0.447388,1.05142063732,0,0,-11.1847,66.8, -1.8, 1.5,0,0,1024,1024,1684,1024,67.5,0,98,4.171,4.172,4.164,4.164,0,0,14.44,75.11,6,P-GPS,
0.373305536531593,36.9148089497975,5446.296125397,55.77428,0,0.9131561972,12900,2018-03-30 06:05:50,18,0,16.499,5446.296125397,55.77428,0.447388,1.05142063732,0,0,-11.1847,66.8, -1.9, 1.6,0,0,1024,1024,1684,1024,67.5,0,98,4.171,4.172,4.164,4.164,0,0,14.44,75.11,6,P-GPS,
0.373305544061823,36.9148089958947,5447.936545397,57.4147,0,0.8961450418,13000,2018-03-30 06:05:50,18,0,16.499,5447.936545397,57.4147,0.447388,1.05142063732,0,0,-11.1847,66.8, -1.7, 1.3,0,0,1024,1024,1684,1022,67.5,0,98,4.171,4.172,4.164,4.164,0,0,14.44,75.11,6,P-GPS,
0.37330549993608,36.9148090141113,5449.576965397,59.05512,0,0.89340225956,13100,2018-03-30 06:05:50,18,0,16.499,5449.576965397,59.05512,0.447388,1.05142063732,0,0,-11.1847,66.8, -2, 0.9,0,0,1024,1024,1684,1022,67.5,0,98,4.171,4.172,4.164,4.164,0,0,14.44,75.11,6,P-GPS,
0.373305466240825,36.9148090561909,5451.217385397,60.69554,0,0.8815945164,13200,2018-03-30 06:05:50,18,0,16.173,5451.217385397,60.69554,0.447388,1.05142063732,0,0,-11.1847,66.8, -1.5, 1,0,0,1024,1024,1684,1022,67.5,0,98,4.115,4.118,4.126,4.134,0,0,18.434,75.11,6,P-GPS,
0.373305381560109,36.9148090651686,5452.857805397,62.33596,0,0.88691931972,13300,2018-03-30 06:05:50,18,0,16.173,5452.857805397,62.33596,0.447388,1.05142063732,0,0,-10.961006,66.8, -1.1, 1.5,0,0,1024,1024,1684,1010,67.5,0,98,4.115,4.118,4.126,4.134,0,0,18.434,75.11,6,P-GPS,
0.37330529939656,36.9148090901365,5454.498225397,63.97638,0,0.88748034336,13400,2018-03-30 06:05:50,18,0,16.173,5454.498225397,63.97638,0.447388,1.05142063732,0,0,-10.961006,66.8, -1.3, 1.3,0,0,1024,1024,1684,1022,67.5,0,98,4.115,4.118,4.126,4.134,0,0,18.434,75.11,6,P-GPS,
0.373305183344481,36.9148091148561,5456.466729397,65.944884,0,0.89372378188,13500,2018-03-30 06:05:50,18,0,16.173,5456.466729397,65.944884,0.447388,1.05142063732,0,0,-10.961006,66.8, -1.5, 1.2,0,0,1024,1024,1684,1023,67.5,0,98,4.115,4.118,4.126,4.134,0,0,18.434,75.11,6,P-GPS,
0.37330507196685,36.9148091602509,5458.107149397,67.585304,0,0.89443244332,13600,2018-03-30 06:05:51,18,0,16.173,5458.107149397,67.585304,0.447388,1.05142063732,0,0,-10.961006,66.8, -1.5, 1.1,0,0,1024,1024,1684,1012,67.5,0,98,4.115,4.118,4.126,4.134,0,0,18.434,75.11,6,P-GPS,
0.373304948326425,36.9148091743178,5459.747569397,69.225724,0,0.90950134144,13700,2018-03-30 06:05:51,18,0,16.173,5459.747569397,69.225724,0.447388,1.05142063732,0,0,-10.961006,66.9, -0.9, 0.7,0,0,1024,1024,1684,1004,67.5,0,98,4.115,4.118,4.126,4.134,0,0,18.434,75.11,6,P-GPS,
0.373304830423416,36.9148092096889,5461.387989397,70.866144,0,0.9187664336,13800,2018-03-30 06:05:51,18,0,16.173,5461.387989397,70.866144,0.447388,1.05142063732,0,0,-10.961006,66.8, -0.8, 0.4,0,0,1024,1024,1670,1020,67.5,0,98,4.115,4.118,4.126,4.134,0,0,18.434,75.11,6,P-GPS,
0.373304695767382,36.9148092322485,5463.028409397,72.506564,0,0.9373523922,13900,2018-03-30 06:05:51,18,0,16.173,5463.028409397,72.506564,0.447388,1.05142063732,0,0,-10.961006,66.8, -0.6, 0.4,0,0,1024,1024,1661,1023,67.4,0,98,4.115,4.118,4.126,4.134,0,0,18.434,75.11,6,P-GPS,
0.373304564816465,36.9148092498174,5464.668829397,74.146984,0,0.95886486008,14000,2018-03-30 06:05:51,18,0,16.173,5464.668829397,74.146984,0.447388,1.05142063732,0,0,-11.1847,66.8, -1.2, 0.3,0,0,1024,1024,1650,1022,67.4,0,98,4.115,4.118,4.126,4.134,0,0,18.434,75.11,6,P-GPS,
0.373304400774548,36.9148092511294,5466.309249397,75.787404,0,0.9943897956,14100,2018-03-30 06:05:51,18,0,16.173,5466.309249397,75.787404,0.447388,1.05142063732,0,0,-10.961006,66.8, -1.2, 0.6,0,0,1024,1024,1647,1024,67.4,0,98,4.115,4.118,4.126,4.134,0,0,18.434,75.11,6,P-GPS,
0.373304245771921,36.9148092605161,5467.949669397,77.427824,0,1.02778218512,14200,2018-03-30 06:05:51,18,0,16.417,5467.949669397,77.427824,0.447388,1.05142063732,0,0,-10.737312,66.8, -1.2, 0.5,0,0,1024,1024,1645,1024,67.4,0,98,4.123,4.13,4.127,4.126,0,0,17.238,75.11,6,P-GPS,
0.373304059030105,36.9148092409205,5469.590089397,79.068244,0,1.07878284292,14300,2018-03-30 06:05:51,18,0,16.417,5469.590089397,79.068244,0.447388,1.07878284292,0,0,-10.513618,66.8, -1.3, 0.3,0,0,1024,1024,1629,1024,67.4,0,98,4.123,4.13,4.127,4.126,0,0,17.238,75.11,6,P-GPS,
0.373303885629725,36.9148092391101,5471.230509397,80.708664,0,1.12361552152,14400,2018-03-30 06:05:51,18,0,16.417,5471.230509397,80.708664,0.447388,1.12361552152,0,0,-10.513618,66.8, -1.4, 0,0,0,1024,1024,1617,1021,67.4,0,98,4.123,4.13,4.127,4.126,0,0,17.238,75.11,6,P-GPS,
0.373303701593162,36.9148092643677,5472.870929397,82.349084,0,1.16644032604,14500,2018-03-30 06:05:51,18,0,16.417,5472.870929397,82.349084,0.447388,1.16644032604,0,0,-10.289924,66.8, -1.3, -0.3,0,0,1024,1024,1626,1020,67.4,-4.1,98,4.123,4.13,4.127,4.126,0,0,17.238,75.11,6,P-GPS,
0.373303535986921,36.9148092874561,5474.183265397,83.66142,0,1.20685043232,14600,2018-03-30 06:05:52,18,0,16.417,5474.183265397,83.66142,0.447388,1.20685043232,0,0,-10.06623,66.8, -1.3, 0,0,0,1024,1024,1626,1020,67.4,-9.7,98,4.123,4.13,4.127,4.126,0,0,17.238,75.11,6,P-GPS,
0.373303330069771,36.9148092471061,5475.823685397,85.30184,0,1.27471132688,14700,2018-03-30 06:05:52,18,0,16.417,5475.823685397,85.30184,0.447388,1.27471132688,0,0,-9.842536,66.8, -1.2, -0.3,0,0,1024,1024,1630,1021,67.4,-15.3,98,4.123,4.13,4.127,4.126,0,0,17.238,75.11,6,P-GPS,
0.37330314382056,36.9148092173883,5477.464105397,86.94226,0,1.3354331136,14800,2018-03-30 06:05:52,18,0,16.417,5477.464105397,86.94226,0.447388,1.3354331136,0,0,-10.06623,66.8, -1.2, -0.7,0,0,1024,1024,1616,1023,67.4,-20.9,98,4.123,4.13,4.127,4.126,0,0,17.238,75.11,6,P-GPS,
0.373302971872751,36.9148091639424,5478.776441397,88.254596,0,1.3976542442,14900,2018-03-30 06:05:52,18,0,16.417,5478.776441397,88.254596,0.447388,1.3976542442,0,0,-9.842536,66.8, -1.4, -1.2,0,0,1024,1024,1593,1024,67.4,-21.7,98,4.123,4.13,4.127,4.126,0,0,17.238,75.11,6,P-GPS,
0.373302831868907,36.9148091024042,5480.416861397,89.895016,0,1.4523130386,15000,2018-03-30 06:05:52,18,0,16.417,5480.416861397,89.895016,0.447388,1.4523130386,0,0,-9.395148,66.8, -2.1, -0.8,0,0,1024,1024,1582,1024,67.4,-21.7,98,4.123,4.13,4.127,4.126,0,0,17.238,75.11,6,P-GPS,
0.373302682806843,36.9148090305174,5481.729197397,91.207352,0,1.51192262056,15100,2018-03-30 06:05:52,18,0,16.417,5481.729197397,91.207352,0.447388,1.51192262056,0,0,-9.171454,66.8, -2.4, 0,0,0,1024,1024,1581,1024,67.4,-21.7,98,4.123,4.13,4.127,4.126,0,0,17.238,75.11,6,P-GPS,
0.373302544542177,36.9148089694091,5483.041533397,92.519688,0,1.56611881652,15200,2018-03-30 06:05:52,18,0,16.417,5483.041533397,92.519688,0.447388,1.56611881652,0,0,-8.94776,66.8, -2.6, 0,0,0,1024,1024,1555,1024,67.4,-21.3,98,4.123,4.13,4.127,4.126,0,0,17.238,75.11,6,P-GPS,
0.373302384074084,36.914808945773,5484.353869397,93.832024,0,1.61953089172,15300,2018-03-30 06:05:52,18,0,16.417,5484.353869397,93.832024,0.447388,1.61953089172,0,0,-8.94776,66.8, -3, -0.4,0,0,1024,1024,1555,1024,67.4,-17,98,4.123,4.13,4.127,4.126,0,0,17.238,75.11,6,P-GPS,
0.373302240976603,36.9148089417893,5485.994289397,95.472444,0,1.66413391152,15400,2018-03-30 06:05:52,18,0,16.417,5485.994289397,95.472444,0.447388,1.66413391152,0,0,-8.94776,66.8, -2.7, -0.8,0,0,1024,1024,1545,1024,67.4,-17,98,4.123,4.13,4.127,4.126,0,0,17.238,75.11,6,P-GPS,
0.373302081073581,36.9148089068747,5487.306625397,96.78478,0.223694,1.72031501568,15500,2018-03-30 06:05:52,18,0,16.417,5487.306625397,96.78478,0.447388,1.72031501568,-0.223694,0,-8.724066,66.8, -2.9, -1.5,0,0,1024,1024,1536,1024,67.4,-13.7,98,4.123,4.13,4.127,4.126,0,0,17.238,75.11,6,P-GPS,
0.373301947555015,36.9148088867289,5488.618961397,98.097116,0,1.7656988754,15600,2018-03-30 06:05:53,18,0,16.417,5488.618961397,98.097116,0.447388,1.7656988754,0,0,-8.276678,66.8, -2.7, -2.2,0,0,1024,1024,1540,1024,67.4,-13.7,98,4.123,4.13,4.127,4.126,0,0,17.238,75.11,6,P-GPS,
0.373301786518595,36.9148088876603,5489.931297397,99.409452,0,1.8160597694,15700,2018-03-30 06:05:53,18,0,16.417,5489.931297397,99.409452,0.447388,1.8160597694,0,0,-8.052984,66.8, -2.3, -2.2,0,0,1024,1024,1518,1024,67.3,-13.7,98,4.123,4.13,4.127,4.126,0,0,17.238,75.11,6,P-GPS,
0.373301678935442,36.9148088827767,5490.915549397,100.393704,0,1.85097118784,15800,2018-03-30 06:05:53,18,0,16.417,5490.915549397,100.393704,0.447388,1.85097118784,0,0,-8.052984,66.8, -2.1, -1.9,0,0,1024,1024,1452,1024,67.3,-13.7,98,4.123,4.13,4.127,4.126,0,0,17.238,75.11,6,P-GPS,
0.373301573931338,36.9148088666992,5492.227885397,101.70604,0,1.88722446984,15900,2018-03-30 06:05:53,18,0,16.417,5492.227885397,101.70604,0.447388,1.88722446984,0,0,-7.82929,66.9, -2.7, -1.7,0,0,1024,1024,1460,1024,67.3,-13.7,98,4.123,4.13,4.127,4.126,0,0,17.238,75.11,6,P-GPS,
0.373301499055076,36.9148088468097,5493.540221397,103.018376,0,1.91462276468,16000,2018-03-30 06:05:53,18,0,16.417,5493.540221397,103.018376,0.447388,1.91462276468,0,0,-7.158208,66.8, -3.7, -1.7,0,0,1024,1024,1520,1024,67.3,-13.7,98,4.123,4.13,4.127,4.126,0,0,17.238,75.11,6,P-GPS,
0.373301425106212,36.9148088105751,5494.524473397,104.002628,0,1.94462932732,16100,2018-03-30 06:05:53,18,0,16.417,5494.524473397,104.002628,0.447388,1.94462932732,0,0,-6.71082,66.9, -2.8, -1.4,0,0,1024,1024,1556,1024,67.3,-13.7,98,4.123,4.13,4.127,4.126,0,0,17.238,75.11,6,P-GPS,
0.373301392413978,36.9148088022976,5495.508725397,104.98688,0,1.95653221484,16200,2018-03-30 06:05:53,18,0,16.444,5495.508725397,104.98688,0.447388,1.95653221484,0,0,-6.934514,66.9, -1.7, -1.1,0,0,1024,1024,1548,1024,67.3,-13.7,98,4.129,4.13,4.127,4.131,0,0,15.99,75.11,6,P-GPS,
0.373301324974412,36.9148087751644,5496.821061397,106.299216,0,1.98286095584,16300,2018-03-30 06:05:53,18,0,16.444,5496.821061397,106.299216,0.447388,1.98286095584,0,0,-7.381902,66.9, -1.3, -1.6,0,0,1024,1024,1539,1024,67.3,-13.7,98,4.129,4.13,4.127,4.131,0,0,15.99,75.11,6,P-GPS,
0.373301288396303,36.9148087508136,5497.805313397,107.283468,0,1.9988353658,16400,2018-03-30 06:05:53,18,0,16.444,5497.805313397,107.283468,0.447388,1.9988353658,0,0,-7.605596,66.9, -1.9, -2,0,0,1024,1024,1522,1024,67.3,-13.7,98,4.129,4.13,4.127,4.131,0,0,15.99,75.11,6,P-GPS,
0.373301214050507,36.9148087245722,5499.117649397,108.595804,0,2.02722119348,16500,2018-03-30 06:05:53,18,0,16.444,5499.117649397,108.595804,0.447388,2.02722119348,0,0,-7.605596,66.9, -2.3, -1.8,0,0,1024,1024,1521,1024,67.3,-13.7,98,4.129,4.13,4.127,4.131,0,0,15.99,75.11,6,P-GPS,
0.37330118997152,36.9148087078432,5500.101901397,109.580056,0,2.03785767676,16600,2018-03-30 06:05:53,18,0,16.444,5500.101901397,109.580056,0.447388,2.03785767676,0,0,-7.381902,66.8, -2.5, -2.1,0,0,1024,1024,1536,1024,67.3,-13.7,98,4.129,4.13,4.127,4.131,0,0,15.99,75.11,6,P-GPS,
0.373301164661022,36.9148086175739,5501.414237397,110.892392,0,2.06192263816,16700,2018-03-30 06:05:54,18,0,16.444,5501.414237397,110.892392,0.447388,2.06192263816,0,0,-7.605596,66.8, -1.9, -1.8,0,0,1024,1024,1552,1024,67.3,-13.7,98,4.129,4.13,4.127,4.131,0,0,15.99,75.11,6,P-GPS,
0.373301189216736,36.9148085462626,5502.398489397,111.876644,0,2.06706371444,16800,2018-03-30 06:05:54,18,0,16.444,5502.398489397,111.876644,0.447388,2.06706371444,0,0,-7.605596,66.8, -1.6, -1.5,0,0,1024,1024,1561,1024,67.3,-13.7,98,4.129,4.13,4.127,4.131,0,0,15.99,75.11,6,P-GPS,
0.373301167239663,36.9148084368275,5503.710825397,113.18898,0,2.09426515888,16900,2018-03-30 06:05:54,18,0,16.444,5503.710825397,113.18898,0.447388,2.09426515888,0,0,-7.82929,66.8, -2.1, -1.9,0,0,1024,1024,1575,1024,67.3,-13.7,98,4.129,4.13,4.127,4.131,0,0,15.99,75.11,6,P-GPS,
0.373301192732139,36.9148083378203,5505.023161397,114.501316,0,2.1051837944,17000,2018-03-30 06:05:54,18,0,16.444,5505.023161397,114.501316,0.447388,2.1051837944,0,0,-8.052984,66.9, -2.8, -1.6,0,0,1024,1024,1590,1024,67.3,-13.7,98,4.129,4.13,4.127,4.131,0,0,15.99,75.11,6,P-GPS,
0.373301207553422,36.9148082329215,5506.335497397,115.813652,0.223694,2.12114180016,17100,2018-03-30 06:05:54,18,0,16.444,5506.335497397,115.813652,0.447388,2.12114180016,0.223694,0,-8.276678,66.9, -2.9, -1,0,0,1024,1024,1576,1024,67.3,-13.7,98,4.129,4.13,4.127,4.131,0,0,15.99,75.11,6,P-GPS,
0.373301269251909,36.9148081619608,5507.647833397,117.125988,0.223694,2.11657815172,17200,2018-03-30 06:05:54,18,0,16.471,5507.647833397,117.125988,0.447388,2.12114180016,0.223694,0,-8.500372,66.8, -2.7, -0.5,0,0,1024,1024,1570,1024,67.3,-13.7,98,4.14,4.156,4.158,4.168,0,0,13.628,76.91,6,P-GPS,
0.37330132904308,36.9148080796804,5508.632085397,118.11024,0.223694,2.115485632,17300,2018-03-30 06:05:54,18,0,16.471,5508.632085397,118.11024,0.447388,2.12114180016,0.223694,0,-8.500372,66.8, -2.1, -0.2,0,0,1024,1024,1572,1024,67.3,-13.7,98,4.14,4.156,4.158,4.168,0,0,13.628,76.91,6,P-GPS,
0.373301409315191,36.9148080205977,5509.944421397,119.422576,0.223694,2.1040355004,17400,2018-03-30 06:05:54,18,0,16.471,5509.944421397,119.422576,0.447388,2.12114180016,0.223694,0,-8.500372,66.8, -1.9, 0,0,0,1024,1024,1581,1024,67.3,-13.7,98,4.14,4.156,4.158,4.168,0,0,13.628,76.91,6,P-GPS,
0.373301401303247,36.9148079320408,5511.256757397,120.734912,0.223694,2.12543313888,17500,2018-03-30 06:05:54,18,0,16.471,5511.256757397,120.734912,0.447388,2.12543313888,0.223694,0,-8.500372,66.8, -1.9, 0,0,0,1024,1024,1584,1024,67.3,-13.7,98,4.14,4.156,4.158,4.168,0,0,13.628,76.91,6,P-GPS,
0.373301409138505,36.9148078689443,5512.569093397,122.047248,0,2.13689639384,17600,2018-03-30 06:05:55,18,0,16.471,5512.569093397,122.047248,0.447388,2.13689639384,0,0,-8.500372,66.8, -2.1, -0.2,0,0,1024,1024,1574,1024,67.3,-13.7,98,4.14,4.156,4.158,4.168,0,0,13.628,76.91,6,P-GPS,
0.373301410484821,36.9148077693788,5513.881429397,123.359584,0,2.158546657,17700,2018-03-30 06:05:55,18,0,16.471,5513.881429397,123.359584,0.447388,2.158546657,0,0,-8.724066,66.9, -2, -1,0,0,1024,1024,1575,1024,67.3,-13.7,98,4.14,4.156,4.158,4.168,0,0,13.628,76.91,6,P-GPS,
0.373301438754202,36.9148076880748,5515.521849397,125.000004,0.223694,2.16875335024,17800,2018-03-30 06:05:55,18,0,16.471,5515.521849397,125.000004,0.447388,2.16875335024,0.223694,0,-8.724066,66.8, -2, -1,0,0,1024,1024,1578,1024,67.3,-13.7,98,4.14,4.156,4.158,4.168,0,0,13.628,76.91,6,P-GPS,
0.373301430896145,36.9148075807869,5516.834185397,126.31234,0.223694,2.19556765556,17900,2018-03-30 06:05:55,18,0,16.471,5516.834185397,126.31234,0.447388,2.19556765556,0.223694,0,-8.500372,66.8, -2.4, -0.7,0,0,1024,1024,1585,1024,67.3,-13.7,98,4.14,4.156,4.158,4.168,0,0,13.628,76.91,6,P-GPS,
0.373301464069178,36.9148074915325,5518.146521397,127.624676,0.223694,2.20706371892,18000,2018-03-30 06:05:55,18,0,16.471,5518.146521397,127.624676,0.447388,2.20706371892,0.223694,0,-8.500372,66.8, -2.6, -0.2,0,0,1024,1024,1595,1024,67.3,-13.7,98,4.14,4.156,4.158,4.168,0,0,13.628,76.91,6,P-GPS,
0.373301470575219,36.9148073638974,5519.458857397,128.937012,0.223694,2.23557421852,18100,2018-03-30 06:05:55,18,0,16.471,5519.458857397,128.937012,0.447388,2.23557421852,0.223694,0,-8.724066,66.8, -2.8, 0.2,0,0,1024,1024,1592,1024,67.2,-13.7,98,4.14,4.156,4.158,4.168,0,0,13.628,76.91,6,P-GPS,
0.373301506043543,36.9148072734622,5520.771193397,130.249348,0.223694,2.2477526966,18200,2018-03-30 06:05:55,18,0,16.444,5520.771193397,130.249348,0.447388,2.2477526966,0.223694,0,-8.500372,66.8, -2.9, 0.4,0,0,1024,1024,1586,1024,67.3,-13.7,98,4.124,4.132,4.126,4.122,0,0,15.22,76.91,6,P-GPS,
0.373301532647433,36.9148071772263,5521.755445397,131.2336,0.223694,2.26423235592,18300,2018-03-30 06:05:55,18,0,16.444,5521.755445397,131.2336,0.447388,2.26423235592,0.223694,0,-8.724066,66.8, -2.9, 0.6,0,0,1024,1024,1586,1023,67.2,-13.7,98,4.124,4.132,4.126,4.122,0,0,15.22,76.91,6,P-GPS,
0.373301571985754,36.9148071213988,5523.395865397,132.87402,0.223694,2.26765755288,18400,2018-03-30 06:05:55,18,0,16.444,5523.395865397,132.87402,0.447388,2.26765755288,0.223694,0,-8.724066,66.8, -2.6, 0.7,0,0,1024,1024,1586,1024,67.2,-13.7,98,4.124,4.132,4.126,4.122,0,0,15.22,76.91,6,P-GPS,
0.37330158511142,36.9148070529883,5524.708201397,134.186356,0,2.28142395752,18500,2018-03-30 06:05:55,18,0,16.444,5524.708201397,134.186356,0.447388,2.28142395752,0,0,-8.724066,66.9, -2.4, 0.7,0,0,1024,1024,1590,1024,67.2,-13.7,98,4.124,4.132,4.126,4.122,0,0,15.22,76.91,6,P-GPS,
0.373301600431821,36.9148070218675,5526.020537397,135.498692,0,2.28530847208,18600,2018-03-30 06:05:55,18,0,16.444,5526.020537397,135.498692,0.447388,2.28530847208,0,0,-8.724066,66.8, -2.3, 0.3,0,0,1024,1024,1594,1024,67.2,-13.7,98,4.124,4.132,4.126,4.122,0,0,15.22,76.91,6,P-GPS,
0.37330155764934,36.9148069907381,5527.332873397,136.811028,0,2.30441608424,18700,2018-03-30 06:05:56,18,0,16.444,5527.332873397,136.811028,0.447388,2.30441608424,0,0,-8.724066,66.8, -2.3, 0,0,0,1024,1024,1589,1024,67.2,-13.7,98,4.124,4.132,4.126,4.122,0,0,15.22,76.91,6,P-GPS,
0.373301533884236,36.9148069842555,5528.645209397,138.123364,0,2.3122868194,18800,2018-03-30 06:05:56,18,0,16.444,5528.645209397,138.123364,0.447388,2.3122868194,0,0,-8.724066,66.8, -2.2, -0.6,0,0,1024,1024,1589,1024,67.2,-13.7,98,4.124,4.132,4.126,4.122,0,0,15.22,76.91,6,P-GPS,
0.373301491467748,36.9148069434242,5529.957545397,139.4357,0,2.33376647888,18900,2018-03-30 06:05:56,18,0,16.444,5529.957545397,139.4357,0.447388,2.33376647888,0,0,-8.724066,66.8, -2.1, -0.4,0,0,1024,1024,1590,1024,67.2,-13.7,98,4.124,4.132,4.126,4.122,0,0,15.22,76.91,6,P-GPS,
0.373301481447525,36.9148069276882,5531.269881397,140.748036,0,2.340387214,19000,2018-03-30 06:05:56,18,0,16.444,5531.269881397,140.748036,0.447388,2.340387214,0,0,-8.724066,66.8, -2, 0,0,0,1024,1024,1590,1024,67.2,-13.7,98,4.124,4.132,4.126,4.122,0,0,15.22,76.91,6,P-GPS,
0.373301464042715,36.9148068697591,5532.582217397,142.060372,0,2.3596785532,19100,2018-03-30 06:05:56,18,0,16.444,5532.582217397,142.060372,0.447388,2.3596785532,0,0,-8.94776,66.8, -1.9, 0.1,0,0,1024,1024,1610,1024,67.2,-13.7,98,4.124,4.132,4.126,4.122,0,0,15.22,76.91,6,P-GPS,
0.373301455184387,36.9148068398867,5533.894553397,143.372708,0,2.36961621756,19200,2018-03-30 06:05:56,18,0,16.499,5533.894553397,143.372708,0.447388,2.36961621756,0,0,-8.94776,66.8, -2, 0.1,0,0,1024,1024,1641,1024,67.2,-13.7,98,4.124,4.132,4.126,4.122,0,0,15.22,76.91,6,P-GPS,
0.373301431013393,36.9148068110313,5535.206889397,144.685044,0,2.383284197,19300,2018-03-30 06:05:56,18,0,16.499,5535.206889397,144.685044,0.447388,2.383284197,0,0,-8.94776,66.8, -2.2, 0,0,0,1024,1024,1677,1024,67.2,-13.7,98,4.124,4.132,4.126,4.122,0,0,15.22,76.91,6,P-GPS,
0.373301420649975,36.9148068044706,5536.847309397,146.325464,0,2.38765755672,19400,2018-03-30 06:05:56,18,0,16.499,5536.847309397,146.325464,0.447388,2.38765755672,0,0,-9.171454,66.8, -2.1, 0,0,0,1024,1024,1684,1024,67.2,-13.7,98,4.124,4.132,4.126,4.122,0,0,15.22,76.91,6,P-GPS,
0.373301364258588,36.914806763363,5538.159645397,147.6378,0,2.41284784624,19500,2018-03-30 06:05:56,18,0,16.499,5538.159645397,147.6378,0.447388,2.41284784624,0,0,-9.618842,66.9, -1.8, 0,0,0,1024,1024,1684,1024,67.2,-13.7,98,4.124,4.132,4.126,4.122,0,0,15.22,76.91,6,P-GPS,
0.373301320889053,36.9148067482009,5539.800065397,149.27822,0,2.4280348546,19600,2018-03-30 06:05:57,18,0,16.499,5539.800065397,149.27822,0.447388,2.4280348546,0,0,-10.289924,66.9, -1.8, -0.1,0,0,1024,1024,1684,1024,67.2,-13.7,98,4.124,4.132,4.126,4.122,0,0,15.22,76.91,6,P-GPS,
0.373301272685483,36.9148067259855,5541.440485397,150.91864,0,2.44629601004,19700,2018-03-30 06:05:57,18,0,16.499,5541.440485397,150.91864,0.447388,2.44629601004,0,0,-10.513618,66.8, -2.9, -0.5,0,0,1024,1024,1684,1024,67.2,-13.7,98,4.124,4.132,4.126,4.122,0,0,15.22,76.91,6,P-GPS,
0.373301247013877,36.9148067317487,5543.080905397,152.55906,0,2.4515748816,19800,2018-03-30 06:05:57,18,0,16.499,5543.080905397,152.55906,0.447388,2.4515748816,0,0,-10.961006,66.9, -3, -0.7,0,0,1024,1024,1684,1024,67.2,-13.7,98,4.124,4.132,4.126,4.122,0,0,15.22,76.91,6,P-GPS,
0.373301174550562,36.914806748324,5544.721325397,154.19948,0,2.466535512,19900,2018-03-30 06:05:57,18,0,16.499,5544.721325397,154.19948,0.447388,2.466535512,0,0,-11.1847,66.8, -2.5, -0.3,0,0,1024,1024,1684,1023,67.2,-13.7,98,4.124,4.132,4.126,4.122,0,0,15.22,76.91,6,P-GPS,
0.373301119590984,36.9148067821963,5546.361745397,155.8399,0,2.47272973792,20000,2018-03-30 06:05:57,18,0,16.499,5546.361745397,155.8399,0.447388,2.47272973792,0,0,-11.1847,66.8, -2, -0.6,0,0,1024,1024,1684,1024,67.2,-13.7,98,4.124,4.132,4.126,4.122,0,0,15.22,76.91,6,P-GPS,
0.373301118555294,36.9148068266742,5548.002165397,157.48032,0,2.46200467196,20100,2018-03-30 06:05:57,18,0,16.499,5548.002165397,157.48032,0.447388,2.47272973792,0,0,-11.1847,66.9, -1.6, -0.3,0,0,1024,1024,1681,1024,67.2,-13.7,98,4.124,4.132,4.126,4.122,0,0,15.22,76.91,6,P-GPS,
0.373301125964307,36.9148068692613,5549.970669397,159.448824,0,2.44952107576,20200,2018-03-30 06:05:57,18,0,16.39,5549.970669397,159.448824,0.447388,2.47272973792,0,0,-11.1847,66.9, -1.5, 0.1,0,0,1024,1024,1681,1024,67.2,-13.7,98,4.127,4.134,4.127,4.122,0,0,15.16,76.91,6,P-GPS,
0.373301081678365,36.9148069076976,5551.611089397,161.089244,0,2.45211293936,20300,2018-03-30 06:05:57,18,0,16.39,5551.611089397,161.089244,0.447388,2.47272973792,0,0,-10.961006,66.8, -1.5, 0.1,0,0,1024,1024,1652,1024,67.2,-13.7,98,4.127,4.134,4.127,4.122,0,0,15.16,76.91,6,P-GPS,
0.373301048367729,36.9148069519196,5553.251509397,162.729664,0,2.45048892356,20400,2018-03-30 06:05:57,18,0,16.39,5553.251509397,162.729664,0.447388,2.47272973792,0,0,-10.961006,66.8, -1.5, 0,0,0,1024,1024,1649,1024,67.2,-13.7,98,4.127,4.134,4.127,4.122,0,0,15.16,76.91,6,P-GPS,
0.373300961467851,36.9148069408719,5554.891929397,164.370084,0,2.47701123412,20500,2018-03-30 06:05:57,18,0,16.39,5554.891929397,164.370084,0.447388,2.47701123412,0,0,-10.513618,66.8, -1.6, -0.1,0,0,1024,1024,1649,1024,67.2,-13.7,98,4.127,4.134,4.127,4.122,0,0,15.16,76.91,6,P-GPS,
0.373300893694862,36.9148069434124,5556.204265397,165.68242,0,2.49513459428,20600,2018-03-30 06:05:57,18,0,16.39,5556.204265397,165.68242,0.447388,2.49513459428,0,0,-10.513618,66.8, -1.6, -0.1,0,0,1024,1024,1668,1024,67.2,-13.7,98,4.127,4.134,4.127,4.122,0,0,15.16,76.91,6,P-GPS,
0.373300796382305,36.914806943831,5557.844685397,167.32284,0,2.5221129416,20700,2018-03-30 06:05:58,18,0,16.39,5557.844685397,167.32284,0.447388,2.5221129416,0,0,-10.289924,66.8, -1.8, -0.2,0,0,1024,1024,1668,1024,67.2,-13.7,98,4.127,4.134,4.127,4.122,0,0,15.16,76.91,6,P-GPS,
0.373300725314566,36.9148069512847,5559.485105397,168.96326,0,2.54028551436,20800,2018-03-30 06:05:58,18,0,16.39,5559.485105397,168.96326,0.447388,2.54028551436,0,0,-10.289924,66.8, -2.4, 0,0,0,1024,1024,1670,1024,67.2,-13.7,98,4.127,4.134,4.127,4.122,0,0,15.16,76.91,6,P-GPS,
0.373300617313311,36.9148069414457,5561.125525397,170.60368,0,2.57302501672,20900,2018-03-30 06:05:58,18,0,16.39,5561.125525397,170.60368,0.447388,2.57302501672,0,0,-10.289924,66.8, -2.3, 0,0,0,1024,1024,1669,1024,67.2,-13.7,98,4.127,4.134,4.127,4.122,0,0,15.16,76.91,6,P-GPS,
0.373300532345174,36.9148069476264,5562.437861397,171.916016,0,2.59574155288,21000,2018-03-30 06:05:58,18,0,16.39,5562.437861397,171.916016,0.447388,2.59574155288,0,0,-10.513618,66.8, -2.3, 0.1,0,0,1024,1024,1668,1024,67.2,-13.7,98,4.127,4.134,4.127,4.122,0,0,15.16,76.91,6,P-GPS,
0.373300442470943,36.9148069414917,5564.078281397,173.556436,0,2.62281504456,21100,2018-03-30 06:05:58,18,0,16.39,5564.078281397,173.556436,0.447388,2.62281504456,0,0,-10.513618,66.8, -2.5, 0,0,0,1024,1024,1667,1024,67.2,-13.7,98,4.127,4.134,4.127,4.122,0,0,15.16,76.91,6,P-GPS,
0.373300387221909,36.9148069621365,5565.718701397,175.196856,0,2.63405192156,21200,2018-03-30 06:05:58,18,0,16.336,5565.718701397,175.196856,0.447388,2.63405192156,0,0,-10.513618,66.8, -2.2, 0.2,0,0,1024,1024,1666,1024,67.2,-13.7,98,4.104,4.117,4.115,4.111,0,0,17.694,76.91,6,P-GPS,
0.373300288494235,36.9148069713214,5567.359121397,176.837276,0,2.66055782792,21300,2018-03-30 06:05:58,18,0,16.336,5567.359121397,176.837276,0.447388,2.66055782792,0,0,-10.513618,66.8, -1.7, -0.1,0,0,1024,1024,1667,1024,67.2,-13.7,98,4.104,4.117,4.115,4.111,0,0,17.694,76.91,6,P-GPS,
0.373300209114918,36.9148069901022,5568.999541397,178.477696,0,2.67954076816,21400,2018-03-30 06:05:58,18,0,16.336,5568.999541397,178.477696,0.447388,2.67954076816,0,0,-10.513618,66.8, -2, -0.4,0,0,1024,1024,1667,1024,67.2,-13.7,98,4.104,4.117,4.115,4.111,0,0,17.694,76.91,6,P-GPS,
0.373300098071322,36.9148069764111,5570.639961397,180.118116,0,2.7150427378,21500,2018-03-30 06:05:59,18,0,16.336,5570.639961397,180.118116,0.447388,2.7150427378,0,0,-10.737312,66.8, -2.4, -0.2,0,0,1024,1024,1659,1024,67.2,-13.7,98,4.104,4.117,4.115,4.111,0,0,17.694,76.91,6,P-GPS,
0.373299946529138,36.9148069644523,5573.920801397,183.398956,0,2.76229667632,21700,2018-03-30 06:05:59,18,0,16.336,5573.920801397,183.398956,0.447388,2.76229667632,0,0,-10.737312,66.8, -2.3, -0.2,0,0,1024,1024,1652,1024,67.2,-13.7,98,4.104,4.117,4.115,4.111,0,0,17.694,76.91,6,P-GPS,
