latitude,longitude,altitude(feet),ascent(feet),speed(mph),distance(feet),time(millisecond),datetime(utc),satellites,gpslevel,voltage(v),max_altitude(feet),max_ascent(feet),max_speed(mph),max_distance(feet), xSpeed(mph), ySpeed(mph), zSpeed(mph), compass_heading(degrees), pitch(degrees), roll(degrees),isPhoto,isVideo,rc_elevator,rc_aileron,rc_throttle,rc_rudder,gimbal_heading(degrees),gimbal_pitch(degrees),battery_percent,voltageCell1,voltageCell2,voltageCell3,voltageCell4,voltageCell5,voltageCell6,current(A),battery_temperature(f),flycStateRaw,flycState,message
0.343868248063327,36.9120001450413,5384.5548976995,0,0,0,0,2018-04-08 05:26:33,14,0,0,5384.5548976995,0,0,0,0,0,0,188.5, -0.7, -2.7,0,0,364,364,364,1684,193,0,99,4.287,4.289,4.289,4.288,0,0,0,76.91,41,Motors_Started,
0.343868247776285,36.9120001370856,5384.5548976995,0,0,0.00290449156276,100,2018-04-08 05:26:33,14,0,0,5384.5548976995,0,0,0.00290449156276,0,0,0,188.5, -0.7, -2.7,0,0,364,364,364,1684,193,0,99,4.287,4.289,4.289,4.288,0,0,0,76.91,41,Motors_Started,
0.343868245852049,36.9120001337622,5384.5548976995,0,0,0.0041934384544,200,2018-04-08 05:26:33,14,0,0,5384.5548976995,0,0,0.0041934384544,0,0,0,188.6, -0.7, -2.7,0,0,364,364,364,1684,193,0,99,4.287,4.289,4.289,4.288,0,0,0,76.91,41,Motors_Started,
0.343868216359994,36.9120001255286,5384.5548976995,0,0,0.0135821526656,300,2018-04-08 05:26:33,14,0,0,5384.5548976995,0,0,0.0135821526656,0,0,0,188.5, -0.7, -2.7,0,0,364,364,364,1684,193,0,99,4.287,4.289,4.289,4.288,0,0,0,76.91,41,Motors_Started,
0.34386819049089,36.9120001218369,5384.5548976995,0,0,0.0226471792024,400,2018-04-08 05:26:34,14,0,0,5384.5548976995,0,0,0.0226471792024,0,0,0,188.5, -0.7, -2.7,0,0,364,364,364,1684,193,0,99,4.287,4.289,4.289,4.288,0,0,0,76.91,41,Motors_Started,
0.343868175215708,36.9120001154092,5384.5548976995,0,0,0.0286930455376,500,2018-04-08 05:26:34,14,0,0,5384.5548976995,0,0,0.0286930455376,0,0,0,188.6, -0.7, -2.7,0,0,364,364,364,1684,193,0,99,4.287,4.289,4.289,4.288,0,0,0,76.91,41,Motors_Started,
0.34386816265225,36.9120001129347,5384.5548976995,0,0,0.033291011564,600,2018-04-08 05:26:34,14,0,17.142,5384.5548976995,0,0,0.033291011564,0,0,0,188.5, -0.7, -2.7,0,0,364,364,364,1684,193,0,99,4.287,4.289,4.289,4.288,0,0,1.502,76.91,41,Motors_Started,Setting new Return-To-Home altitude to 30m (98 ft). Setting new Maximum Flight Altitude to 150m (492 ft)
0.343868123111861,36.9120001082252,5384.5548976995,0,0,0.04752624824,700,2018-04-08 05:26:34,14,0,17.142,5384.5548976995,0,0,0.04752624824,0,0,0,188.5, -0.7, -2.7,0,0,364,364,364,1684,193,0,99,4.287,4.289,4.289,4.288,0,0,1.502,76.91,41,Motors_Started,
0.343868089725611,36.9120001058678,5384.5548976995,0,0,0.05951115676,800,2018-04-08 05:26:34,14,0,17.142,5384.5548976995,0,0,0.05951115676,0,0,0,188.5, -0.7, -2.7,0,0,364,364,364,1684,193,0,99,4.287,4.289,4.289,4.288,0,0,1.502,76.91,41,Motors_Started,
0.34386806933393,36.912000102319,5384.5548976995,0,0,0.067046261988,900,2018-04-08 05:26:34,14,0,17.142,5384.5548976995,0,0,0.067046261988,0,0,0,188.5, -0.7, -2.7,0,0,364,364,364,1684,193,0,99,4.287,4.289,4.289,4.288,0,0,1.502,76.91,41,Motors_Started,
0.34386805315698,36.912000100106,5384.5548976995,0,0,0.072976708372,1000,2018-04-08 05:26:34,14,0,17.142,5384.5548976995,0,0,0.072976708372,0,0,0,188.5, -0.7, -2.7,0,0,364,364,364,1684,193,0,99,4.287,4.289,4.289,4.288,0,0,1.502,76.91,41,Motors_Started,
0.343868049953779,36.9120000592904,5384.5548976995,0,0,0.078760501208,1100,2018-04-08 05:26:34,14,0,17.142,5384.5548976995,0,0,0.078760501208,0,0,0,188.5, -0.7, -2.7,0,0,364,364,364,1684,193,0,99,4.287,4.289,4.289,4.288,0,0,1.502,76.91,41,Motors_Started,
0.343868045516677,36.9120000263524,5384.5548976995,0,0,0.085651577544,1200,2018-04-08 05:26:34,14,0,17.142,5384.5548976995,0,0,0.085651577544,0,0,0,188.5, -0.7, -2.7,0,0,460,410,376,1673,193,0,99,4.287,4.289,4.289,4.288,0,0,1.502,76.91,41,Motors_Started,
0.343868013779359,36.9119999979358,5384.5548976995,0,0,0.100931105592,1300,2018-04-08 05:26:34,14,0,17.142,5384.5548976995,0,0,0.100931105592,0,0,0,188.5, -0.7, -2.7,0,0,679,589,471,1584,193,0,99,4.287,4.289,4.289,4.288,0,0,1.502,76.91,41,Motors_Started,
0.34386798638173,36.9119999770802,5384.5548976995,0,0,0.11344816636,1400,2018-04-08 05:26:34,14,0,17.142,5384.5548976995,0,0,0.11344816636,0,0,0,188.5, -0.7, -2.7,0,0,931,814,761,1292,193,0,99,4.287,4.289,4.289,4.288,0,0,1.502,76.91,41,Motors_Started,
0.343867935062157,36.9119999636712,5384.5548976995,0,0,0.131984584276,1500,2018-04-08 05:26:35,14,0,17.142,5384.5548976995,0,0,0.131984584276,0,0,0,188.5, -0.7, -2.7,0,0,1024,1024,1024,1030,192.8,0,99,4.287,4.289,4.289,4.288,0,0,1.502,76.91,41,Motors_Started,
0.343867885491126,36.9119999496191,5384.5548976995,0,0,0.150274939192,1600,2018-04-08 05:26:35,14,0,17.089,5384.5548976995,0,0,0.150274939192,0,0,0,188.5, -0.7, -2.7,0,0,1024,1024,1024,1024,191.9,0,99,4.281,4.286,4.286,4.285,0,0,1.81,76.91,10,Assisted_Takeoff,
0.343867826846736,36.9119999467281,5384.5548976995,0,0,0.169860897824,1700,2018-04-08 05:26:35,14,0,17.089,5384.5548976995,0,0,0.169860897824,0,0,0,188.4, -0.7, -2.7,0,0,1024,1024,1024,1024,190.6,0,99,4.281,4.286,4.286,4.285,0,0,1.81,76.91,10,Assisted_Takeoff,
0.343867773962381,36.9119999401102,5384.5548976995,0,0,0.188442919416,1800,2018-04-08 05:26:35,14,0,17.089,5384.5548976995,0,0,0.188442919416,0,0,0,188.5, -0.7, -2.7,0,0,1024,1024,1024,1024,190,0,99,4.281,4.286,4.286,4.285,0,0,1.81,76.91,10,Assisted_Takeoff,
0.343867740283869,36.9119999410157,5384.5548976995,0,0,0.199657814788,1900,2018-04-08 05:26:35,14,0,17.089,5384.5548976995,0,0,0.199657814788,0,0,0,188.5, -0.7, -2.7,0,0,1024,1024,1024,1024,189.6,0,99,4.281,4.286,4.286,4.285,0,0,1.81,76.91,10,Assisted_Takeoff,
0.343867712007008,36.911999939247,5384.5548976995,0,0,0.209496725864,2000,2018-04-08 05:26:35,14,0,17.089,5384.5548976995,0,0,0.209496725864,0,0,0,188.4, -0.7, -2.7,0,0,1024,1024,1024,1024,189.4,0,99,4.281,4.286,4.286,4.285,0,0,1.81,76.91,10,Assisted_Takeoff,
0.343867704264622,36.911999908165,5384.5548976995,0,0,0.216410111912,2100,2018-04-08 05:26:35,14,0,17.089,5384.5548976995,0,0,0.216410111912,0,0,0,188.4, -0.7, -2.7,0,0,1024,1024,1024,1024,189.3,0,99,4.281,4.286,4.286,4.285,0,0,1.81,76.91,10,Assisted_Takeoff,
0.343867693755662,36.9119998795949,5384.5548976995,0,0,0.224231306388,2200,2018-04-08 05:26:35,14,0,17.089,5384.5548976995,0,0,0.224231306388,0,0,0,188.5, -0.7, -2.7,0,0,1024,1024,1085,1024,189.2,0,99,4.281,4.286,4.286,4.285,0,0,1.81,76.91,10,Assisted_Takeoff,
0.343867665507756,36.9119998609503,5384.5548976995,0,0,0.236470808092,2300,2018-04-08 05:26:35,14,0,17.089,5384.5548976995,0,0,0.236470808092,0,0,0,188.4, -0.7, -2.7,0,0,1024,1024,1202,1024,189.1,0,99,4.281,4.286,4.286,4.285,0,0,1.81,76.91,10,Assisted_Takeoff,
0.343867636716307,36.9119998466381,5384.5548976995,0,0,0.248201123428,2400,2018-04-08 05:26:35,14,0,17.089,5384.5548976995,0,0,0.248201123428,0,0,0,188.5, -0.7, -2.7,0,0,1024,1024,1283,1024,189,0,99,4.281,4.286,4.286,4.285,0,0,1.81,76.91,10,Assisted_Takeoff,
0.343867625909443,36.9119998428534,5384.5548976995,0,0,0.25235072986,2500,2018-04-08 05:26:35,14,0,17.089,5384.5548976995,0,0,0.25235072986,0,0,0,188.5, -0.7, -2.7,0,0,1024,1024,1329,1024,189,0,99,4.281,4.286,4.286,4.285,0,0,1.81,76.91,10,Assisted_Takeoff,
0.343867613619373,36.9119998379374,5384.5548976995,0,0,0.257167987232,2600,2018-04-08 05:26:36,14,0,16.823,5384.5548976995,0,0,0.257167987232,0,0,0,188.4, -0.7, -2.7,0,0,1024,1024,1338,1024,189,0,99,4.278,4.28,4.279,4.274,0,0,3.06,76.91,10,Assisted_Takeoff,
0.343867616770158,36.9119998435644,5384.5548976995,0,0,0.255242462236,2700,2018-04-08 05:26:36,14,0,16.823,5384.5548976995,0,0,0.257167987232,0,0,0,188.3, -0.4, -2.6,0,0,1024,1024,1337,1024,188.9,0,99,4.278,4.28,4.279,4.274,0,0,3.06,76.91,10,Assisted_Takeoff,
0.34386760879694,36.9119998676579,5384.5548976995,0,0,0.25424541496,2800,2018-04-08 05:26:36,14,0,16.823,5384.5548976995,0,0,0.257167987232,0,0,0,188.3, 1.5, -1.3,0,0,1024,1024,1336,1024,188.9,0,99,4.278,4.28,4.279,4.274,0,0,3.06,76.91,10,Assisted_Takeoff,
0.343867586092207,36.911999906016,5384.5548976995,0,0,0.25678150428,2900,2018-04-08 05:26:36,14,0,16.823,5384.5548976995,0,0,0.257167987232,0,0,-0.447388,188.3, 3.2, 0.6,0,0,1024,1024,1336,1024,188.9,0,99,4.278,4.28,4.279,4.274,0,0,3.06,76.91,6,P-GPS,Obstacle Avoided. Revise Flight Route
0.343867619176998,36.9119999439115,5384.5548976995,0,0,0.24089731742,3000,2018-04-08 05:26:36,14,0,16.823,5384.5548976995,0,0,0.257167987232,0,0,-0.894776,188.2, 2, 0.3,0,0,1024,1024,1328,1024,188.8,0,99,4.278,4.28,4.279,4.274,0,0,3.06,76.91,6,P-GPS,
0.343867705317513,36.9119999656227,5384.5548976995,0,0,0.208559389876,3100,2018-04-08 05:26:36,14,0,16.823,5384.5548976995,0,0,0.257167987232,0,0,-1.342164,188.1, 0.8, -0.3,0,0,1024,1024,1326,1024,188.8,0,99,4.278,4.28,4.279,4.274,0,0,3.06,76.91,6,P-GPS,
0.343867796751793,36.9120000182679,5384.8829816995,0.328084,0.223694,0.17103347004,3200,2018-04-08 05:26:36,14,0,16.823,5384.8829816995,0.328084,0.223694,0.257167987232,0,0.223694,-1.789552,188.2, 0, -0.1,0,0,1024,1024,1326,1024,188.8,0,99,4.278,4.28,4.279,4.274,0,0,3.06,76.91,6,P-GPS,
0.343867887780515,36.912000134701,5385.2110656995,0.656168,0.223694,0.131502956964,3300,2018-04-08 05:26:36,14,0,16.823,5385.2110656995,0.656168,0.223694,0.257167987232,0,0.223694,-2.23694,188.2, -0.1, 0.3,0,0,1024,1024,1326,1024,188.7,0,99,4.278,4.28,4.279,4.274,0,0,3.06,76.91,6,P-GPS,
0.343867969723741,36.9120002686465,5385.5391496995,0.984252,0.223694,0.111114832952,3400,2018-04-08 05:26:36,14,0,16.823,5385.5391496995,0.984252,0.223694,0.257167987232,0,0.223694,-2.460634,188.2, -0.2, 1.4,0,0,1024,1024,1323,1024,188.7,0,99,4.278,4.28,4.279,4.274,0,0,3.06,76.91,6,P-GPS,
0.343868074063058,36.9120003928152,5385.8672336995,1.312336,0.3131716,0.110463258128,3500,2018-04-08 05:26:37,14,0,16.823,5385.8672336995,1.312336,0.3131716,0.257167987232,0.223694,0.223694,-2.908022,188.1, -0.5, 2.3,0,0,1024,1024,1316,1024,188.7,0,99,4.278,4.28,4.279,4.274,0,0,3.06,76.91,6,P-GPS,
0.343868197418489,36.912000492744,5386.5234016995,1.968504,0.223694,0.12819554216,3600,2018-04-08 05:26:37,14,0,16.77,5386.5234016995,1.968504,0.3131716,0.257167987232,0.223694,0,-3.131716,188.2, -1.1, 2.1,0,0,1024,1024,1315,1024,188.7,0,99,4.278,4.28,4.279,4.274,0,0,3.06,76.91,6,P-GPS,Home Point Recorded. RTH Altitude:  30m.
0.343868357586303,36.912000592802,5386.8514856995,2.296588,0.223694,0.168178483072,3700,2018-04-08 05:26:37,14,0,16.77,5386.8514856995,2.296588,0.3131716,0.257167987232,0.223694,0,-3.35541,188.2, -1.9, 1.1,0,0,1024,1024,1308,1024,188.7,0,99,4.278,4.28,4.279,4.274,0,0,3.06,76.91,6,P-GPS,
0.343868520123817,36.9120006860331,5387.5076536995,2.952756,0.3131716,0.220930781348,3800,2018-04-08 05:26:37,14,0,16.77,5387.5076536995,2.952756,0.3131716,0.257167987232,0.223694,0.223694,-3.579104,188.2, -3.1, 0.7,0,0,1024,1024,1307,1024,188.7,0,99,4.278,4.28,4.279,4.274,0,0,3.06,76.91,6,P-GPS,
0.343868685649246,36.9120007902962,5388.1638216995,3.608924,0.3131716,0.284446859496,3900,2018-04-08 05:26:37,14,0,16.77,5388.1638216995,3.608924,0.3131716,0.284446859496,0.223694,0.223694,-3.579104,188.2, -3.9, 1.5,0,0,1024,1024,1315,1024,188.6,0,99,4.278,4.28,4.279,4.274,0,0,3.06,76.91,6,P-GPS,
0.343868803278423,36.9120008893278,5388.4919056995,3.937008,0.223694,0.3387795384,4000,2018-04-08 05:26:37,14,0,16.77,5388.4919056995,3.937008,0.3131716,0.3387795384,0,0.223694,-3.579104,188.1, -3.3, 1.8,0,0,1024,1024,1316,1024,188.6,0,99,4.278,4.28,4.279,4.274,0,0,3.06,76.91,6,P-GPS,
0.343868898366117,36.9120009904397,5389.1480736995,4.593176,0.223694,0.38913715156,4100,2018-04-08 05:26:37,14,0,16.77,5389.1480736995,4.593176,0.3131716,0.38913715156,0,0,-3.35541,188.2, -2.5, 2,0,0,1024,1024,1315,1024,188.6,0,99,4.278,4.28,4.279,4.274,0,0,3.06,76.91,6,P-GPS,
0.34386898079093,36.9120010802863,5389.4761576995,4.92126,0,0.43347114248,4200,2018-04-08 05:26:37,14,0,16.77,5389.4761576995,4.92126,0.3131716,0.43347114248,0,0,-3.35541,188.2, -2.3, 2.4,0,0,1024,1024,1309,1024,188.6,0,99,4.278,4.28,4.279,4.274,0,0,3.06,76.91,6,P-GPS,
0.343869027670423,36.9120011634171,5390.1323256995,5.577428,0,0.46792324332,4300,2018-04-08 05:26:37,14,0,16.77,5390.1323256995,5.577428,0.3131716,0.46792324332,0,0,-3.35541,188.3, -2.3, 2.7,0,0,1024,1024,1308,1024,188.6,0,99,4.278,4.28,4.279,4.274,0,0,3.06,76.91,6,P-GPS,
0.343869076042945,36.9120012182977,5390.4604096995,5.905512,0,0.4945538216,4400,2018-04-08 05:26:37,14,0,16.77,5390.4604096995,5.905512,0.3131716,0.4945538216,0,0,-3.131716,188.3, -2.1, 2.4,0,0,1024,1024,1313,1024,188.6,0,99,4.278,4.28,4.279,4.274,0,0,3.06,76.91,6,P-GPS,
0.343869117308733,36.912001232519,5391.1165776995,6.56168,0,0.50793308712,4500,2018-04-08 05:26:38,14,0,16.77,5391.1165776995,6.56168,0.3131716,0.50793308712,0,0,-3.131716,188.3, -2.3, 2,0,0,1024,1024,1319,1024,188.6,0,99,4.278,4.28,4.279,4.274,0,0,3.06,76.91,6,P-GPS,
0.343869172495683,36.9120012305745,5391.4446616995,6.889764,0,0.52020342872,4600,2018-04-08 05:26:38,14,0,16.505,5391.4446616995,6.889764,0.3131716,0.52020342872,0,0,-3.131716,188.3, -2.6, 1.7,0,0,1024,1024,1326,1024,188.6,0,99,4.146,4.152,4.144,4.146,0,0,12.77,76.91,6,P-GPS,
0.343869218052625,36.9120012194141,5392.1008296995,7.545932,0,0.5281004106,4700,2018-04-08 05:26:38,14,0,16.505,5392.1008296995,7.545932,0.3131716,0.5281004106,0,0,-3.131716,188.3, -2.8, 1.5,0,0,1024,1024,1322,1024,188.6,0,99,4.146,4.152,4.144,4.146,0,0,12.77,76.91,6,P-GPS,
0.343869267528723,36.9120011970045,5392.4289136995,7.874016,0,0.53446195936,4800,2018-04-08 05:26:38,14,0,16.505,5392.4289136995,7.874016,0.3131716,0.53446195936,0,0,-3.35541,188.3, -3.1, 1.1,0,0,1024,1024,1321,1024,188.6,0,99,4.146,4.152,4.144,4.146,0,0,12.77,76.91,6,P-GPS,
0.34386933170224,36.9120011621361,5393.0850816995,8.530184,0,0.54223098848,4900,2018-04-08 05:26:38,14,0,16.505,5393.0850816995,8.530184,0.3131716,0.54223098848,0,0,-3.35541,188.3, -3.2, 0.8,0,0,1024,1024,1312,1024,188.6,0,99,4.146,4.152,4.144,4.146,0,0,12.77,76.91,6,P-GPS,
0.343869382049047,36.9120011285192,5393.4131656995,8.858268,0,0.547654217,5000,2018-04-08 05:26:38,14,0,16.505,5393.4131656995,8.858268,0.3131716,0.547654217,0,0,-3.35541,188.3, -3.3, 0.6,0,0,1024,1007,1318,1024,188.6,0,99,4.146,4.152,4.144,4.146,0,0,12.77,76.91,6,P-GPS,
0.34386944062316,36.912001146713,5394.0693336995,9.514436,0,0.56821852212,5100,2018-04-08 05:26:38,14,0,16.505,5394.0693336995,9.514436,0.3131716,0.56821852212,0,0,-3.35541,188.3, -3, 0.3,0,0,1024,1015,1325,1024,188.6,0,99,4.146,4.152,4.144,4.146,0,0,12.77,76.91,6,P-GPS,
0.343869477144578,36.91200116906,5394.3974176995,9.84252,0,0.58367127852,5200,2018-04-08 05:26:38,14,0,16.505,5394.3974176995,9.84252,0.3131716,0.58367127852,0,0,-3.35541,188.3, -2.9, 0.3,0,0,1024,1024,1311,1024,188.6,0,99,4.146,4.152,4.144,4.146,0,0,12.77,76.91,6,P-GPS,
0.343869505097329,36.912001184478,5395.0535856995,10.498688,0,0.5951115676,5300,2018-04-08 05:26:38,14,0,16.505,5395.0535856995,10.498688,0.3131716,0.5951115676,0,0,-3.35541,188.3, -2.8, 0.8,0,0,1024,1024,1316,1024,188.6,0,99,4.146,4.152,4.144,4.146,0,0,12.77,76.91,6,P-GPS,
0.343869521633261,36.9120011968578,5395.7097536995,11.154856,0,0.60263781456,5400,2018-04-08 05:26:38,14,0,16.505,5395.7097536995,11.154856,0.3131716,0.60263781456,0,0,-3.35541,188.3, -3.1, 1,0,0,1024,1024,1343,1024,188.6,0,99,4.146,4.152,4.144,4.146,0,0,12.77,76.91,6,P-GPS,
0.343869480832801,36.9120012120317,5396.0378376995,11.48294,0,0.59484581956,5500,2018-04-08 05:26:39,14,0,16.505,5396.0378376995,11.48294,0.3131716,0.60263781456,0,0,-3.35541,188.3, -3.3, 1,0,0,1024,1024,1405,1024,188.6,0,99,4.146,4.152,4.144,4.146,0,0,12.77,76.91,6,P-GPS,
0.343869428908744,36.9120012207056,5396.6940056995,12.139108,0,0.58277889004,5600,2018-04-08 05:26:39,14,0,16.531,5396.6940056995,12.139108,0.3131716,0.60263781456,0,0,-3.35541,188.3, -2.7, 0.7,0,0,1024,1024,1415,1024,188.6,0,99,4.143,4.151,4.143,4.141,0,0,13.144,76.91,6,P-GPS,
0.343869366095995,36.9120012234482,5397.0220896995,12.467192,0,0.56674214412,5700,2018-04-08 05:26:39,14,0,16.531,5397.0220896995,12.467192,0.3131716,0.60263781456,0,0,-3.579104,188.3, -2, 0.6,0,0,1024,1024,1414,1024,188.6,0,99,4.143,4.151,4.143,4.141,0,0,13.144,76.91,6,P-GPS,
0.343869311730392,36.9120012350336,5397.6782576995,13.12336,0,0.55565290492,5800,2018-04-08 05:26:39,14,0,16.531,5397.6782576995,13.12336,0.3131716,0.60263781456,0,0,-4.250186,188.3, -2.3, 1.2,0,0,1024,1024,1416,1024,188.6,0,99,4.143,4.151,4.143,4.141,0,0,13.144,76.91,6,P-GPS,
0.343869284375688,36.9120012356484,5398.3344256995,13.779528,0,0.54889109368,5900,2018-04-08 05:26:39,14,0,16.531,5398.3344256995,13.779528,0.3131716,0.60263781456,0,0,-4.47388,188.2, -2.9, 1.1,0,0,1024,1024,1418,1024,188.6,0,99,4.143,4.151,4.143,4.141,0,0,13.144,76.91,6,P-GPS,
0.343869242884564,36.9120012221691,5398.9905936995,14.435696,0,0.53495408536,6000,2018-04-08 05:26:39,14,0,16.531,5398.9905936995,14.435696,0.3131716,0.60263781456,0,0,-4.697574,188.3, -2.9, 0.7,0,0,1024,1024,1418,1024,188.6,0,99,4.143,4.151,4.143,4.141,0,0,13.144,76.91,6,P-GPS,
0.34386917752045,36.9120012007915,5399.6467616995,15.091864,0,0.5131889928,6100,2018-04-08 05:26:39,14,0,16.531,5399.6467616995,15.091864,0.3131716,0.60263781456,0,0,-4.921268,188.3, -2.7, 0.6,0,0,1024,1024,1427,1024,188.6,0,99,4.143,4.151,4.143,4.141,0,0,13.144,76.91,6,P-GPS,
0.343869100896359,36.9120011797245,5400.6310136995,16.076116,0,0.4892060524,6200,2018-04-08 05:26:39,14,0,16.531,5400.6310136995,16.076116,0.3131716,0.60263781456,0,0,-5.144962,188.3, -2.1, 0.2,0,0,1024,1024,1445,1024,188.6,0,99,4.143,4.151,4.143,4.141,0,0,13.144,76.91,6,P-GPS,
0.343868985033942,36.9120011320359,5401.2871816995,16.732284,0,0.4494094632,6300,2018-04-08 05:26:39,14,0,16.531,5401.2871816995,16.732284,0.3131716,0.60263781456,0,0,-5.368656,188.3, -1.9, 0.1,0,0,1024,1024,1470,1024,188.6,0,99,4.143,4.151,4.143,4.141,0,0,13.144,76.91,6,P-GPS,
0.343868883726711,36.9120011032497,5401.9433496995,17.388452,0,0.41952757248,6400,2018-04-08 05:26:39,14,0,16.531,5401.9433496995,17.388452,0.3131716,0.60263781456,0,0,-5.59235,188.3, -2.1, 0.1,0,0,1024,1024,1501,1024,188.6,0,99,4.143,4.151,4.143,4.141,0,0,13.144,76.91,6,P-GPS,
0.343868807087608,36.9120011016034,5402.9276016995,18.372704,0,0.40422245388,6500,2018-04-08 05:26:40,14,0,16.531,5402.9276016995,18.372704,0.3131716,0.60263781456,0,0,-5.59235,188.2, -2.4, 0.3,0,0,1024,1024,1549,1024,188.6,0,99,4.117,4.122,4.108,4.107,0,0,15.05,76.91,6,P-GPS,
0.343868624721777,36.9120010972955,5404.5680216995,20.013124,0,0.37361549752,6700,2018-04-08 05:26:40,14,0,16.531,5404.5680216995,20.013124,0.3131716,0.60263781456,0,0,-6.487126,188.3, -1.6, 0.3,0,0,1024,1024,1582,1024,188.6,0,99,4.117,4.122,4.108,4.107,0,0,15.05,76.91,6,P-GPS,
0.34386846292205,36.9120011563317,5406.8646096995,22.309712,0,0.3771981748,6900,2018-04-08 05:26:40,14,0,16.531,5406.8646096995,22.309712,0.3131716,0.60263781456,0,0,-7.381902,188.2, -2.3, 1,0,0,1024,1024,1640,1024,188.6,0,99,4.117,4.122,4.108,4.107,0,0,15.05,76.91,6,P-GPS,
0.343868386713835,36.9120012003023,5407.8488616995,23.293964,0,0.38831366072,7000,2018-04-08 05:26:40,14,0,16.531,5407.8488616995,23.293964,0.3131716,0.60263781456,0,0,-7.82929,188.2, -2.1, 0.8,0,0,1024,1024,1672,1024,188.6,0,99,4.117,4.122,4.108,4.107,0,0,15.05,76.91,6,P-GPS,
0.343868290257688,36.9120012186658,5409.1611976995,24.6063,0,0.39200788656,7100,2018-04-08 05:26:40,14,0,16.531,5409.1611976995,24.6063,0.3131716,0.60263781456,0,0,-8.276678,188.1, -1.5, 0.7,0,0,1024,1024,1672,1024,188.6,0,99,4.117,4.122,4.108,4.107,0,0,15.05,76.91,6,P-GPS,
0.343868195729593,36.9120012406434,5410.4735336995,25.918636,0,0.40017717816,7200,2018-04-08 05:26:40,14,0,16.531,5410.4735336995,25.918636,0.3131716,0.60263781456,0,0,-8.94776,188.1, -0.8, 0.7,0,0,1024,1024,1684,1024,188.6,0,99,4.117,4.122,4.108,4.107,0,0,15.05,76.91,6,P-GPS,
0.343868112747203,36.912001278081,5411.7858696995,27.230972,0,0.41631891096,7300,2018-04-08 05:26:40,14,0,16.531,5411.7858696995,27.230972,0.3131716,0.60263781456,0,0,-9.618842,188.2, -1.2, 0.7,0,0,1024,1024,1684,1024,188.6,0,99,4.117,4.122,4.108,4.107,0,0,15.05,76.91,6,P-GPS,
0.343868055222966,36.9120013158741,5413.0982056995,28.543308,0,0.43292652304,7400,2018-04-08 05:26:40,14,0,16.531,5413.0982056995,28.543308,0.3131716,0.60263781456,0,0,-10.289924,188.2, -2.8, 0.3,0,0,1024,1024,1684,1048,188.6,0,99,4.117,4.122,4.108,4.107,0,0,15.05,76.91,6,P-GPS,
0.343868015913015,36.9120013333607,5414.7386256995,30.183728,0,0.44174542096,7500,2018-04-08 05:26:41,14,0,16.531,5414.7386256995,30.183728,0.3131716,0.60263781456,0,0,-10.737312,188.2, -3.4, 0.3,0,0,1024,1024,1684,1024,188.6,0,99,4.117,4.122,4.108,4.107,0,0,15.05,76.91,6,P-GPS,
0.343867939187031,36.9120013610817,5416.3790456995,31.824148,0,0.45775263932,7600,2018-04-08 05:26:41,14,0,16.186,5416.3790456995,31.824148,0.3131716,0.60263781456,0,0,-10.961006,188.2, -3.4, 0.2,0,0,1024,1024,1684,1024,188.6,0,99,4.117,4.122,4.108,4.107,0,0,15.05,76.91,6,P-GPS,
0.343867801596643,36.9120014107701,5418.0194656995,33.464568,0,0.48967849336,7700,2018-04-08 05:26:41,14,0,16.186,5418.0194656995,33.464568,0.3131716,0.60263781456,0,0,-10.961006,188.2, -2.9, 0.5,0,0,1024,1024,1684,1024,188.6,0,99,4.117,4.122,4.108,4.107,0,0,15.05,76.91,6,P-GPS,
0.343867642823582,36.9120014715766,5419.6598856995,35.104988,0,0.5319718018,7800,2018-04-08 05:26:41,14,0,16.186,5419.6598856995,35.104988,0.3131716,0.60263781456,0,0,-11.1847,188.2, -2.2, 1.1,0,0,1024,1024,1684,1024,188.6,0,99,4.117,4.122,4.108,4.107,0,0,15.05,76.91,6,P-GPS,
0.343867476584538,36.9120015322729,5421.3003056995,36.745408,0,0.57912403428,7900,2018-04-08 05:26:41,14,0,16.186,5421.3003056995,36.745408,0.3131716,0.60263781456,0,0,-11.1847,188.2, -1.7, 1.4,0,0,1024,1024,1684,1024,188.6,0,99,4.117,4.122,4.108,4.107,0,0,15.05,76.91,6,P-GPS,
0.343867326883717,36.9120015759851,5422.9407256995,38.385828,0,0.62089897,8000,2018-04-08 05:26:41,14,0,16.186,5422.9407256995,38.385828,0.3131716,0.62089897,0,0,-11.1847,188.1, -1.8, 0.7,0,0,1024,1024,1684,1024,188.6,0,99,4.117,4.122,4.108,4.107,0,0,15.05,76.91,6,P-GPS,
0.34386721864135,36.9120016116583,5424.5811456995,40.026248,0,0.65374345924,8100,2018-04-08 05:26:41,14,0,16.186,5424.5811456995,40.026248,0.3131716,0.65374345924,0,0,-11.1847,188.2, -2, 0,0,0,1024,1024,1684,1024,188.6,-0.1,99,4.117,4.122,4.108,4.107,0,0,15.05,76.91,6,P-GPS,
0.343867107962424,36.9120016611471,5426.2215656995,41.666668,0,0.692093198,8200,2018-04-08 05:26:41,14,0,16.186,5426.2215656995,41.666668,0.3131716,0.692093198,0,0,-11.1847,188.2, -2.1, 0.2,0,0,1024,1024,1684,1024,188.6,-1.5,99,4.117,4.122,4.108,4.107,0,0,15.05,76.91,6,P-GPS,
0.343866986135984,36.9120017355903,5427.8619856995,43.307088,0,0.74076117856,8300,2018-04-08 05:26:41,14,0,16.186,5427.8619856995,43.307088,0.3131716,0.74076117856,0,0,-11.1847,188.2, -2, 0.8,0,0,1024,1024,1684,1024,188.6,-5.7,99,4.117,4.122,4.108,4.107,0,0,15.05,76.91,6,P-GPS,
0.343866861801842,36.9120018133779,5429.5024056995,44.947508,0,0.79139110144,8400,2018-04-08 05:26:42,14,0,16.186,5429.5024056995,44.947508,0.3131716,0.79139110144,0,0,-11.1847,188.2, -2, 1,0,0,1024,1024,1684,1024,188.6,-11.3,99,4.117,4.122,4.108,4.107,0,0,15.05,76.91,6,P-GPS,
0.34386676030337,36.9120018883527,5431.1428256995,46.587928,0,0.8361712866,8500,2018-04-08 05:26:42,14,0,16.186,5431.1428256995,46.587928,0.3131716,0.8361712866,0,0,-11.1847,188.2, -2, 1,0,0,1024,1024,1684,1024,188.6,-17,99,4.117,4.122,4.108,4.107,0,0,15.05,76.91,6,P-GPS,
0.343866655203697,36.9120019631816,5432.7832456995,48.228348,0,0.88190291536,8600,2018-04-08 05:26:42,14,0,16.213,5432.7832456995,48.228348,0.3131716,0.88190291536,0,0,-11.1847,188.2, -2, 1.1,0,0,1024,1024,1684,1024,188.5,-22.6,99,4.052,4.058,4.047,4.044,0,0,20.92,76.91,6,P-GPS,
0.343866526703181,36.9120020222248,5434.4236656995,49.868768,0,0.92923887488,8700,2018-04-08 05:26:42,14,0,16.213,5434.4236656995,49.868768,0.3131716,0.92923887488,0,0,-11.1847,188.2, -1.8, 1.2,0,0,1024,1024,1684,1024,188.5,-22.6,99,4.052,4.058,4.047,4.044,0,0,20.92,76.91,6,P-GPS,
0.343866398540771,36.9120020861195,5436.0640856995,51.509188,0,0.97820213104,8800,2018-04-08 05:26:42,14,0,16.213,5436.0640856995,51.509188,0.3131716,0.97820213104,0,0,-11.1847,188.2, -1.8, 1.4,0,0,1024,1024,1684,1024,188.6,-27,99,4.052,4.058,4.047,4.044,0,0,20.92,76.91,6,P-GPS,
0.343866292825647,36.9120021670563,5437.7045056995,53.149608,0,1.02621722444,8900,2018-04-08 05:26:42,14,0,16.213,5437.7045056995,53.149608,0.3131716,1.02621722444,0,0,-11.1847,188.2, -1.9, 1.3,0,0,1024,1024,1684,1024,188.5,-27,99,4.052,4.058,4.047,4.044,0,0,20.92,76.91,6,P-GPS,
0.343866188091661,36.9120022428526,5439.3449256995,54.790028,0,1.07269032304,9000,2018-04-08 05:26:42,14,0,16.213,5439.3449256995,54.790028,0.3131716,1.07269032304,0,0,-11.1847,188.2, -2, 1.3,0,0,1024,1024,1684,1024,188.5,-27,99,4.052,4.058,4.047,4.044,0,0,20.92,76.91,6,P-GPS,
0.343866058485024,36.9120023361676,5441.3134296995,56.758532,0,1.13015751648,9100,2018-04-08 05:26:42,14,0,16.213,5441.3134296995,56.758532,0.3131716,1.13015751648,0,0,-11.1847,188.2, -1.9, 1.4,0,0,1024,1024,1684,1024,188.5,-27,99,4.052,4.058,4.047,4.044,0,0,20.92,76.91,6,P-GPS,
0.343865932726605,36.9120024175313,5442.9538496995,58.398952,0,1.18364177016,9200,2018-04-08 05:26:42,14,0,16.213,5442.9538496995,58.398952,0.3131716,1.18364177016,0,0,-11.1847,188.2, -1.2, 1.5,0,0,1024,1024,1684,1024,188.5,-27,99,4.052,4.058,4.047,4.044,0,0,20.92,76.91,6,P-GPS,
0.343865834288997,36.9120024678069,5444.5942696995,60.039372,0,1.22218179764,9300,2018-04-08 05:26:42,14,0,16.213,5444.5942696995,60.039372,0.3131716,1.22218179764,0,0,-11.1847,188.2, -1.2, 1.3,0,0,1024,1024,1684,1024,188.5,-27,99,4.052,4.058,4.047,4.044,0,0,20.92,76.91,6,P-GPS,
0.343865759079107,36.9120025116966,5446.2346896995,61.679792,0,1.25308074876,9400,2018-04-08 05:26:43,14,0,16.213,5446.2346896995,61.679792,0.3131716,1.25308074876,0,0,-11.1847,188.1, -1.8, 1.1,0,0,1024,1024,1684,1024,188.5,-27,99,4.052,4.058,4.047,4.044,0,0,20.92,76.91,6,P-GPS,
0.343865704092864,36.9120025324005,5447.8751096995,63.320212,0,1.2728510906,9500,2018-04-08 05:26:43,14,0,16.213,5447.8751096995,63.320212,0.3131716,1.2728510906,0,0,-11.1847,188.1, -2.3, 0.6,0,0,1024,1024,1684,1024,188.5,-27,99,4.052,4.058,4.047,4.044,0,0,20.92,76.91,6,P-GPS,
0.343865648211383,36.9120025571336,5449.5155296995,64.960632,0,1.2939140834,9600,2018-04-08 05:26:43,14,0,16.266,5449.5155296995,64.960632,0.3131716,1.2939140834,0,0,-11.408394,188.1, -2.7, 0.6,0,0,1024,1024,1684,1024,188.5,-27,99,4.074,4.083,4.071,4.07,0,0,17.126,76.91,6,P-GPS,
0.343865569002849,36.9120025990868,5451.1559496995,66.601052,0,1.32553810016,9700,2018-04-08 05:26:43,14,0,16.266,5451.1559496995,66.601052,0.3131716,1.32553810016,0,0,-11.1847,188.1, -2.7, 0.9,0,0,1024,1024,1684,1024,188.5,-27,99,4.074,4.083,4.071,4.07,0,0,17.126,76.91,6,P-GPS,
0.343865476907217,36.9120026434339,5453.1244536995,68.569556,0,1.3612861328,9800,2018-04-08 05:26:43,14,0,16.266,5453.1244536995,68.569556,0.3131716,1.3612861328,0,0,-10.961006,188.2, -2.2, 1.3,0,0,1024,1024,1684,1024,188.5,-27,99,4.074,4.083,4.071,4.07,0,0,17.126,76.91,6,P-GPS,
0.343865356766522,36.9120026922123,5454.7648736995,70.209976,0,1.40585306336,9900,2018-04-08 05:26:43,14,0,16.266,5454.7648736995,70.209976,0.3131716,1.40585306336,0,0,-10.961006,188.2, -1.7, 1.5,0,0,1024,1024,1684,1024,188.5,-27,99,4.074,4.083,4.071,4.07,0,0,17.126,76.91,6,P-GPS,
0.343865255409928,36.9120027258134,5456.4052936995,71.850396,0,1.44178482304,10000,2018-04-08 05:26:43,14,0,16.266,5456.4052936995,71.850396,0.3131716,1.44178482304,0,0,-11.1847,188.2, -1.7, 1.6,0,0,1024,1024,1684,1024,188.5,-27,99,4.074,4.083,4.071,4.07,0,0,17.126,76.91,6,P-GPS,
0.3438651970353,36.912002745054,5458.0457136995,73.490816,0,1.46252301268,10100,2018-04-08 05:26:43,14,0,16.266,5458.0457136995,73.490816,0.3131716,1.46252301268,0,0,-11.1847,188.2, -1.7, 1.6,0,0,1024,1024,1684,1024,188.5,-27,99,4.074,4.083,4.071,4.07,0,0,17.126,76.91,6,P-GPS,
0.343865153663119,36.912002739513,5459.6861336995,75.131236,0,1.47330385292,10200,2018-04-08 05:26:43,14,0,16.266,5459.6861336995,75.131236,0.3131716,1.47330385292,0,0,-11.1847,188.2, -1.9, 1,0,0,1024,1024,1684,1024,188.5,-27,99,4.074,4.083,4.071,4.07,0,0,17.126,76.91,6,P-GPS,
0.3438651078098,36.9120026972764,5461.3265536995,76.771656,0,1.4763944042,10300,2018-04-08 05:26:43,14,0,16.266,5461.3265536995,76.771656,0.3131716,1.4763944042,0,0,-11.1847,188.2, -2.2, 0.3,0,0,1024,1024,1684,1024,188.5,-27,99,4.074,4.083,4.071,4.07,0,0,17.126,76.91,6,P-GPS,
0.343865063110844,36.9120026579221,5463.2950576995,78.74016,0,1.480150966,10400,2018-04-08 05:26:44,14,0,16.266,5463.2950576995,78.74016,0.3131716,1.480150966,0,0,-11.1847,188.2, -2.4, -0.1,0,0,1024,1024,1684,1024,188.5,-27,99,4.074,4.083,4.071,4.07,0,0,17.126,76.91,6,P-GPS,
0.343865019118226,36.912002638731,5464.9354776995,80.38058,0,1.48849414212,10500,2018-04-08 05:26:44,14,0,16.266,5464.9354776995,80.38058,0.3131716,1.48849414212,0,0,-11.408394,188.2, -2.3, 0,0,0,1024,1024,1684,1024,188.5,-27,99,4.074,4.083,4.071,4.07,0,0,17.126,76.91,6,P-GPS,
0.343864973923816,36.9120026334432,5466.5758976995,82.021,0,1.500410153,10600,2018-04-08 05:26:44,14,0,16.16,5466.5758976995,82.021,0.3131716,1.500410153,0,0,-11.1847,188.2, -2.2, 0.3,0,0,1024,1024,1684,1024,188.5,-27,99,4.074,4.083,4.071,4.07,0,0,17.44,78.71,6,P-GPS,
0.343864962271689,36.9120026555557,5468.5444016995,83.989504,0,1.50868115064,10700,2018-04-08 05:26:44,14,0,16.16,5468.5444016995,83.989504,0.3131716,1.50868115064,0,0,-11.1847,188.3, -2, 0.9,0,0,1024,1024,1684,1024,188.5,-27,99,4.074,4.083,4.071,4.07,0,0,17.44,78.71,6,P-GPS,
0.343864956068132,36.9120026679808,5470.1848216995,85.629924,0,1.51323495656,10800,2018-04-08 05:26:44,14,0,16.16,5470.1848216995,85.629924,0.3131716,1.51323495656,0,0,-11.1847,188.2, -2.2, 0.9,0,0,1024,1024,1684,1024,188.5,-27,99,4.074,4.083,4.071,4.07,0,0,17.44,78.71,6,P-GPS,
0.343864943587533,36.9120025963552,5473.4656616995,88.910764,0,1.50113521864,11000,2018-04-08 05:26:44,14,0,16.16,5473.4656616995,88.910764,0.3131716,1.51323495656,0,0,-11.1847,188.2, -2.7, 0.2,0,0,1024,1024,1684,1024,188.5,-27,99,4.074,4.083,4.071,4.07,0,0,17.44,78.71,6,P-GPS,
0.343864949881673,36.9120025700271,5475.1060816995,90.551184,0,1.49358272496,11100,2018-04-08 05:26:44,14,0,16.16,5475.1060816995,90.551184,0.3131716,1.51323495656,0,0,-10.961006,188.2, -2.6, 0.4,0,0,1024,1024,1684,1024,188.5,-27,99,4.074,4.083,4.071,4.07,0,0,17.44,78.71,6,P-GPS,
0.343864957878758,36.9120025484654,5478.7150056995,94.160108,0,1.48657813156,11300,2018-04-08 05:26:44,14,0,16.16,5478.7150056995,94.160108,0.3131716,1.51323495656,0,0,-11.1847,188.2, -2.8, 0.5,0,0,1024,1024,1684,1024,188.5,-27,99,4.074,4.083,4.071,4.07,0,0,17.44,78.71,6,P-GPS,
0.343864992484007,36.9120025425299,5482.3239296995,97.769032,0,1.47511815744,11500,2018-04-08 05:26:45,14,0,16.107,5482.3239296995,97.769032,0.3131716,1.51323495656,0,0,-10.961006,188.2, -2.7, 0.4,0,0,1024,1024,1684,1024,188.5,-27,99,4.067,4.078,4.066,4.064,0,0,17.44,78.71,6,P-GPS,
0.343865033642318,36.9120025083392,5485.6047696995,101.049872,0,1.45562996784,11700,2018-04-08 05:26:45,14,0,16.107,5485.6047696995,101.049872,0.3131716,1.51323495656,0,0,-11.1847,188.3, -2.6, 0.1,0,0,1024,1024,1684,1024,188.5,-27,99,4.067,4.078,4.066,4.064,0,0,17.44,78.71,6,P-GPS,
0.34386503817611,36.9120024873749,5487.2451896995,102.690292,0,1.44977366844,11800,2018-04-08 05:26:45,14,0,16.107,5487.2451896995,102.690292,0.3131716,1.51323495656,0,0,-10.961006,188.3, -2.7, 0.4,0,0,1024,1024,1684,1024,188.5,-27,99,4.067,4.078,4.066,4.064,0,0,17.44,78.71,6,P-GPS,
0.343865049122307,36.9120024434231,5489.2136936995,104.658796,0,1.43713587276,11900,2018-04-08 05:26:45,14,0,16.107,5489.2136936995,104.658796,0.3131716,1.51323495656,0,0,-10.961006,188.2, -2.7, 0.5,0,0,1024,1024,1684,1024,188.5,-27,99,4.067,4.078,4.066,4.064,0,0,17.44,78.71,6,P-GPS,
0.343865049730531,36.9120024033946,5490.8541136995,106.299216,0,1.42848101684,12000,2018-04-08 05:26:45,14,0,16.107,5490.8541136995,106.299216,0.3131716,1.51323495656,0,0,-11.1847,188.2, -2.7, 0.5,0,0,1024,1024,1684,1024,188.5,-27,99,4.067,4.078,4.066,4.064,0,0,17.44,78.71,6,P-GPS,
0.343865094044359,36.9120023315206,5492.4945336995,107.939636,0,1.40020345688,12100,2018-04-08 05:26:45,14,0,16.107,5492.4945336995,107.939636,0.3131716,1.51323495656,0,0,-10.961006,188.2, -2.9, 0.2,0,0,1024,1024,1684,1024,188.5,-27,99,4.067,4.078,4.066,4.064,0,0,17.44,78.71,6,P-GPS,
0.34386511750922,36.9120022621518,5494.1349536995,109.580056,0,1.3788386268,12200,2018-04-08 05:26:45,14,0,16.107,5494.1349536995,109.580056,0.3131716,1.51323495656,0,0,-10.961006,188.2, -2.9, -0.2,0,0,1024,1024,1684,1024,188.5,-27,99,4.067,4.078,4.066,4.064,0,0,17.44,78.71,6,P-GPS,
0.343865131429973,36.9120021824363,5495.7753736995,111.220476,0,1.35850726132,12300,2018-04-08 05:26:45,14,0,16.107,5495.7753736995,111.220476,0.3131716,1.51323495656,0,0,-10.961006,188.2, -2.6, -0.1,0,0,1024,1024,1684,1024,188.5,-27,99,4.067,4.078,4.066,4.064,0,0,17.44,78.71,6,P-GPS,
0.343865128551088,36.9120021210107,5497.4157936995,112.860896,0,1.3472605418,12400,2018-04-08 05:26:46,14,0,16.107,5497.4157936995,112.860896,0.3131716,1.51323495656,0,0,-10.961006,188.2, -2.5, 0,0,0,1024,1024,1684,1024,188.5,-27,99,4.067,4.078,4.066,4.064,0,0,17.44,78.71,6,P-GPS,
0.343865164355686,36.9120020176364,5499.0562136995,114.501316,0,1.31627956968,12500,2018-04-08 05:26:46,14,0,16.107,5499.0562136995,114.501316,0.3131716,1.51323495656,0,0,-10.961006,188.2, -2.4, -0.4,0,0,1024,1024,1684,1024,188.5,-27,99,4.067,4.078,4.066,4.064,0,0,17.44,78.71,6,P-GPS,
0.34386518308727,36.9120019350332,5500.6966336995,116.141736,0,1.29498691808,12600,2018-04-08 05:26:46,14,0,16.16,5500.6966336995,116.141736,0.3131716,1.51323495656,0,0,-10.961006,188.2, -2.1, -0.6,0,0,1024,1024,1684,1024,188.5,-27,99,4.06,4.07,4.056,4.056,0,0,17.65,78.71,6,P-GPS,
0.343865214990727,36.9120018683975,5502.6651376995,118.11024,0,1.27276250792,12700,2018-04-08 05:26:46,14,0,16.16,5502.6651376995,118.11024,0.3131716,1.51323495656,0,0,-11.1847,188.2, -2.3, -0.2,0,0,1024,1024,1684,1024,188.5,-27,99,4.06,4.07,4.056,4.056,0,0,17.65,78.71,6,P-GPS,
0.343865238906259,36.9120018281886,5504.3055576995,119.75066,0,1.25795935784,12800,2018-04-08 05:26:46,14,0,16.16,5504.3055576995,119.75066,0.3131716,1.51323495656,0,0,-11.1847,188.2, -2.7, 0,0,0,1024,1024,1684,1024,188.5,-27,99,4.06,4.07,4.056,4.056,0,0,17.65,78.71,6,P-GPS,
0.343865295644709,36.9120017594423,5505.9459776995,121.39108,0,1.22770345136,12900,2018-04-08 05:26:46,14,0,16.16,5505.9459776995,121.39108,0.3131716,1.51323495656,0,0,-11.1847,188.2, -3, 0,0,0,1024,1024,1684,1024,188.5,-27,99,4.06,4.07,4.056,4.056,0,0,17.65,78.71,6,P-GPS,
0.343865339256067,36.9120016974094,5507.9144816995,123.359584,0,1.20294623272,13000,2018-04-08 05:26:46,14,0,16.16,5507.9144816995,123.359584,0.3131716,1.51323495656,0,0,-11.408394,188.2, -3, -0.1,0,0,1024,1024,1684,1024,188.5,-27,99,4.06,4.07,4.056,4.056,0,0,17.65,78.71,6,P-GPS,
0.343865388268771,36.912001567118,5511.1953216995,126.640424,0,1.165272347,13200,2018-04-08 05:26:46,14,0,16.16,5511.1953216995,126.640424,0.3131716,1.51323495656,0,0,-11.1847,188.2, -3.2, -0.4,0,0,1024,1024,1684,1024,188.5,-27,99,4.06,4.07,4.056,4.056,0,0,17.65,78.71,6,P-GPS,
0.343865415700317,36.9120015441155,5512.8357416995,128.280844,0,1.15257877704,13300,2018-04-08 05:26:46,14,0,16.16,5512.8357416995,128.280844,0.3131716,1.51323495656,0,0,-11.1847,188.2, -2.9, -0.2,0,0,1024,1024,1684,1024,188.5,-27,99,4.06,4.07,4.056,4.056,0,0,17.65,78.71,6,P-GPS,
0.343865424550096,36.9120015372496,5514.4761616995,129.921264,0,1.14857615224,13400,2018-04-08 05:26:46,14,0,16.16,5514.4761616995,129.921264,0.3131716,1.51323495656,0,0,-10.961006,188.2, -2.8, 0,0,0,1024,1024,1684,1024,188.5,-27,99,4.06,4.07,4.056,4.056,0,0,17.65,78.71,6,P-GPS,
0.343865465912777,36.9120015167452,5516.1165816995,131.561684,0,1.13173231968,13500,2018-04-08 05:26:47,14,0,16.16,5516.1165816995,131.561684,0.3131716,1.51323495656,0,0,-10.961006,188.2, -2.7, 0.1,0,0,1024,1024,1684,1024,188.5,-27,99,4.06,4.07,4.056,4.056,0,0,17.65,78.71,6,P-GPS,
0.343865484701153,36.9120014967771,5517.7570016995,133.202104,0,1.12236552148,13600,2018-04-08 05:26:47,14,0,16.107,5517.7570016995,133.202104,0.3131716,1.51323495656,0,0,-11.1847,188.2, -2.7, 0,0,0,1024,1024,1684,1024,188.5,-27,99,4.056,4.065,4.051,4.05,0,0,17.594,78.71,6,P-GPS,
0.343865505544015,36.9120014488536,5519.7255056995,135.170608,0,1.1079232638,13700,2018-04-08 05:26:47,14,0,16.107,5519.7255056995,135.170608,0.3131716,1.51323495656,0,0,-11.1847,188.2, -2.9, -0.2,0,0,1024,1024,1684,1024,188.5,-27,99,4.056,4.065,4.051,4.05,0,0,17.594,78.71,6,P-GPS,
0.34386550696585,36.9120014125281,5521.3659256995,136.811028,0,1.10182746308,13800,2018-04-08 05:26:47,14,0,16.107,5521.3659256995,136.811028,0.3131716,1.51323495656,0,0,-11.1847,188.2, -3.1, -0.3,0,0,1024,1024,1684,1024,188.5,-27,99,4.056,4.065,4.051,4.05,0,0,17.594,78.71,6,P-GPS,
0.343865503451058,36.9120013546296,5523.0063456995,138.451448,0,1.09430121612,13900,2018-04-08 05:26:47,14,0,16.107,5523.0063456995,138.451448,0.3131716,1.51323495656,0,0,-10.961006,188.2, -2.8, -0.3,0,0,1024,1024,1684,1024,188.5,-27,99,4.056,4.065,4.051,4.05,0,0,17.594,78.71,6,P-GPS,
0.343865478517341,36.91200131173,5524.6467656995,140.091868,0,1.09646328968,14000,2018-04-08 05:26:47,14,0,16.107,5524.6467656995,140.091868,0.3131716,1.51323495656,0,0,-10.961006,188.2, -2.4, 0,0,0,1024,1024,1684,1024,188.5,-27,99,4.056,4.065,4.051,4.05,0,0,17.594,78.71,6,P-GPS,
0.343865466701148,36.9120012483601,5526.2871856995,141.732288,0,1.09170279084,14100,2018-04-08 05:26:47,14,0,16.107,5526.2871856995,141.732288,0.3131716,1.51323495656,0,0,-11.1847,188.2, -2.5, -0.1,0,0,1024,1024,1684,1024,188.5,-27,99,4.056,4.065,4.051,4.05,0,0,17.594,78.71,6,P-GPS,
0.343865444196662,36.9120012012166,5527.9276056995,143.372708,0,1.09315620296,14200,2018-04-08 05:26:47,14,0,16.107,5527.9276056995,143.372708,0.3131716,1.51323495656,0,0,-11.1847,188.2, -2.9, -0.3,0,0,1024,1024,1684,1024,188.5,-27,99,4.056,4.065,4.051,4.05,0,0,17.594,78.71,6,P-GPS,
0.343865430220745,36.9120011758598,5529.5680256995,145.013128,0,1.0947178828,14300,2018-04-08 05:26:47,14,0,16.107,5529.5680256995,145.013128,0.3131716,1.51323495656,0,0,-10.961006,188.3, -2.3, -0.6,0,0,1024,1024,1684,1024,188.5,-27,99,4.056,4.065,4.051,4.05,0,0,17.594,78.71,6,P-GPS,
0.343865395072003,36.912001176443,5531.2084456995,146.653548,0,1.1068405866,14400,2018-04-08 05:26:47,14,0,16.107,5531.2084456995,146.653548,0.3131716,1.51323495656,0,0,-11.1847,188.3, -1.6, -0.5,0,0,1024,1024,1684,1024,188.5,-27,99,4.056,4.065,4.051,4.05,0,0,17.594,78.71,6,P-GPS,
0.343865361658368,36.9120012156581,5533.1769496995,148.622052,0,1.12320869736,14500,2018-04-08 05:26:48,14,0,16.213,5533.1769496995,148.622052,0.3131716,1.51323495656,0,0,-11.1847,188.2, -1.8, -0.1,0,0,1024,1024,1684,1024,188.5,-27,99,4.056,4.065,4.051,4.05,0,0,17.594,78.71,6,P-GPS,
0.343865336665823,36.9120013379095,5536.4577896995,151.902892,0,1.14791998424,14700,2018-04-08 05:26:48,14,0,16.213,5536.4577896995,151.902892,0.3131716,1.51323495656,0,0,-11.1847,188.2, -2.3, 0.7,0,0,1024,1024,1684,1024,188.5,-27,99,4.056,4.065,4.051,4.05,0,0,17.594,78.71,6,P-GPS,
0.343865337519535,36.912001398829,5538.0982096995,153.543312,0,1.15624347532,14800,2018-04-08 05:26:48,14,0,16.213,5538.0982096995,153.543312,0.3131716,1.51323495656,0,0,-11.1847,188.2, -2.5, 1,0,0,1024,1024,1684,1024,188.5,-27,99,4.056,4.065,4.051,4.05,0,0,17.594,78.71,6,P-GPS,
0.343865364108158,36.9120014527043,5539.7386296995,155.183732,0,1.15531827844,14900,2018-04-08 05:26:48,14,0,16.213,5539.7386296995,155.183732,0.3131716,1.51323495656,0,0,-11.1847,188.2, -2.7, 1.1,0,0,1024,1024,1684,1024,188.5,-27,99,4.056,4.065,4.051,4.05,0,0,17.594,78.71,6,P-GPS,
0.343865371860773,36.9120014995936,5541.3790496995,156.824152,0,1.15992785864,15000,2018-04-08 05:26:48,14,0,16.213,5541.3790496995,156.824152,0.3131716,1.51323495656,0,0,-10.961006,188.2, -2.8, 1.2,0,0,1024,1024,1684,1024,188.5,-27,99,4.056,4.065,4.051,4.05,0,0,17.594,78.71,6,P-GPS,
0.343865390873874,36.9120015301616,5543.0194696995,158.464572,0,1.15847772736,15100,2018-04-08 05:26:48,14,0,16.213,5543.0194696995,158.464572,0.3131716,1.51323495656,0,0,-10.961006,188.2, -2.9, 0.9,0,0,1024,1024,1684,1024,188.5,-27,99,4.056,4.065,4.051,4.05,0,0,17.594,78.71,6,P-GPS,
0.343865388436704,36.9120015517252,5544.6598896995,160.104992,0,1.162729696,15200,2018-04-08 05:26:48,14,0,16.213,5544.6598896995,160.104992,0.3131716,1.51323495656,0,0,-11.1847,188.2, -2.5, 0.5,0,0,1024,1024,1684,1024,188.5,-27,99,4.056,4.065,4.051,4.05,0,0,17.594,78.71,6,P-GPS,
0.343865397690541,36.9120015781336,5546.6283936995,162.073496,0,1.16399610024,15300,2018-04-08 05:26:48,14,0,16.213,5546.6283936995,162.073496,0.3131716,1.51323495656,0,0,-11.1847,188.3, -2.8, 0.6,0,0,1024,1024,1684,1024,188.5,-27,99,4.056,4.065,4.051,4.05,0,0,17.594,78.71,6,P-GPS,
0.343865383975378,36.912001600309,5548.2688136995,163.713916,0,1.17210961756,15400,2018-04-08 05:26:48,14,0,16.213,5548.2688136995,163.713916,0.3131716,1.51323495656,0,0,-11.1847,188.2, -2.5, 0.6,0,0,1024,1024,1684,1024,188.5,-27,99,4.056,4.065,4.051,4.05,0,0,17.594,78.71,6,P-GPS,
0.343865342187266,36.9120015911536,5549.9092336995,165.354336,0,1.18423232136,15500,2018-04-08 05:26:49,14,0,16.213,5549.9092336995,165.354336,0.3131716,1.51323495656,0,0,-10.961006,188.2, -1.7, 0.4,0,0,1024,1024,1684,1024,188.5,-27,99,4.056,4.065,4.051,4.05,0,0,17.594,78.71,6,P-GPS,
0.343865306102372,36.9120015841483,5551.5496536995,166.994756,0,1.19490817472,15600,2018-04-08 05:26:49,14,0,16.107,5551.5496536995,166.994756,0.3131716,1.51323495656,0,0,-10.961006,188.2, -1.6, 0.4,0,0,1024,1024,1684,1024,188.5,-27,99,4.053,4.064,4.051,4.049,0,0,17.144,78.71,6,P-GPS,
0.343865314223626,36.9120015645413,5553.1900736995,168.635176,0,1.18911421128,15700,2018-04-08 05:26:49,14,0,16.107,5553.1900736995,168.635176,0.3131716,1.51323495656,0,0,-10.961006,188.2, -2, 0.2,0,0,1024,1024,1684,1024,188.5,-27,99,4.053,4.064,4.051,4.049,0,0,17.144,78.71,6,P-GPS,
0.343865332138342,36.9120015545176,5554.8304936995,170.275596,0,1.18163717692,15800,2018-04-08 05:26:49,14,0,16.107,5554.8304936995,170.275596,0.3131716,1.51323495656,0,0,-10.961006,188.2, -2.7, 0.1,0,0,1024,1024,1684,1024,188.5,-27,99,4.053,4.064,4.051,4.049,0,0,17.144,78.71,6,P-GPS,
0.343865365838991,36.9120015484908,5556.4709136995,171.916016,0,1.16961617916,15900,2018-04-08 05:26:49,14,0,16.107,5556.4709136995,171.916016,0.3131716,1.51323495656,0,0,-10.961006,188.2, -3, 0,0,0,1024,1024,1684,1024,188.5,-27,99,4.053,4.064,4.051,4.049,0,0,17.144,78.71,6,P-GPS,
0.343865383966422,36.9120015700212,5559.7517536995,175.196856,0,1.16714898748,16100,2018-04-08 05:26:49,14,0,16.107,5559.7517536995,175.196856,0.3131716,1.51323495656,0,0,-11.1847,188.2, -3, 0.9,0,0,1024,1024,1684,1024,188.5,-27,99,4.053,4.064,4.051,4.049,0,0,17.144,78.71,6,P-GPS,
0.343865348173223,36.9120015665133,5563.0325936995,178.477696,0,1.17829400096,16300,2018-04-08 05:26:49,14,0,16.107,5563.0325936995,178.477696,0.3131716,1.51323495656,0,0,-11.1847,188.2, -2.7, 0.4,0,0,1024,1024,1684,1024,188.5,-27,99,4.053,4.064,4.051,4.049,0,0,17.144,78.71,6,P-GPS,
0.343865315529435,36.9120015606884,5564.6730136995,180.118116,0,1.188074185,16400,2018-04-08 05:26:49,14,0,16.107,5564.6730136995,180.118116,0.3131716,1.51323495656,0,0,-10.961006,188.2, -2.4, 0.5,0,0,1024,1024,1684,1024,188.5,-27,99,4.053,4.064,4.051,4.049,0,0,17.144,78.71,6,P-GPS,
0.343865298449703,36.9120015456042,5566.3134336995,181.758536,0,1.19131565492,16500,2018-04-08 05:26:50,14,0,16.107,5566.3134336995,181.758536,0.3131716,1.51323495656,0,0,-11.1847,188.2, -2.4, 0.5,0,0,1024,1024,1684,1024,188.5,-27,99,4.053,4.064,4.051,4.049,0,0,17.144,78.71,6,P-GPS,
0.343865278492104,36.9120015350203,5567.9538536995,183.398956,0,1.19625659996,16600,2018-04-08 05:26:50,14,0,16.054,5567.9538536995,183.398956,0.3131716,1.51323495656,0,0,-10.961006,188.2, -2.5, 0.6,0,0,1024,1024,1684,1024,188.5,-27,99,4.04,4.052,4.039,4.037,0,0,17.924,78.71,6,P-GPS,
0.343865246577248,36.912001525381,5569.5942736995,185.039376,0,1.20533796508,16700,2018-04-08 05:26:50,14,0,16.054,5569.5942736995,185.039376,0.3131716,1.51323495656,0,0,-10.961006,188.2, -2.4, 0.6,0,0,1024,1024,1684,1024,188.5,-27,99,4.04,4.052,4.039,4.037,0,0,17.924,78.71,6,P-GPS,
0.34386521097702,36.9120015182879,5571.2346936995,186.679796,0,1.21608271608,16800,2018-04-08 05:26:50,14,0,16.054,5571.2346936995,186.679796,0.3131716,1.51323495656,0,0,-10.961006,188.2, -2.6, 0.6,0,0,1024,1024,1684,1024,188.5,-27,99,4.04,4.052,4.039,4.037,0,0,17.924,78.71,6,P-GPS,
0.343865192942003,36.9120015139104,5572.8751136995,188.320216,0,1.22142720444,16900,2018-04-08 05:26:50,14,0,16.054,5572.8751136995,188.320216,0.3131716,1.51323495656,0,0,-10.961006,188.2, -2.6, 0.7,0,0,1024,1024,1684,1024,188.5,-27,99,4.04,4.052,4.039,4.037,0,0,17.924,78.71,6,P-GPS,
0.34386515740793,36.9120015103188,5574.5155336995,189.960636,0,1.23273954076,17000,2018-04-08 05:26:50,14,0,16.054,5574.5155336995,189.960636,0.3131716,1.51323495656,0,0,-10.961006,188.2, -2.2, 0.5,0,0,1024,1024,1684,1024,188.5,-27,99,4.04,4.052,4.039,4.037,0,0,17.924,78.71,6,P-GPS,
0.34386510191178,36.9120015113608,5576.1559536995,191.601056,0,1.25144032876,17100,2018-04-08 05:26:50,14,0,16.054,5576.1559536995,191.601056,0.3131716,1.51323495656,0,0,-10.961006,188.2, -1.7, 0.9,0,0,1024,1024,1684,1024,188.5,-27,99,4.04,4.052,4.039,4.037,0,0,17.924,78.71,6,P-GPS,
0.343865053074744,36.9120015187237,5577.7963736995,193.241476,0,1.26886158916,17200,2018-04-08 05:26:50,14,0,16.054,5577.7963736995,193.241476,0.3131716,1.51323495656,0,0,-10.961006,188.2, -1.8, 1,0,0,1024,1024,1684,1024,188.5,-27,99,4.04,4.052,4.039,4.037,0,0,17.924,78.71,6,P-GPS,
0.343865051790512,36.9120015256085,5579.4367936995,194.881896,0,1.27028547372,17300,2018-04-08 05:26:50,14,0,16.054,5579.4367936995,194.881896,0.3131716,1.51323495656,0,0,-11.1847,188.2, -2.1, 1,0,0,1024,1024,1684,1024,188.5,-27,99,4.04,4.052,4.039,4.037,0,0,17.924,78.71,6,P-GPS,
0.343865050931508,36.9120015336636,5581.0772136995,196.522316,0,1.27174216668,17400,2018-04-08 05:26:51,14,0,16.054,5581.0772136995,196.522316,0.3131716,1.51323495656,0,0,-10.961006,188.2, -2.5, 1,0,0,1024,1024,1684,1024,188.5,-27,99,4.04,4.052,4.039,4.037,0,0,17.924,78.71,6,P-GPS,
0.343865078277968,36.9120015393866,5584.3580536995,199.803156,0,1.2634350798,17600,2018-04-08 05:26:51,14,0,16.027,5584.3580536995,199.803156,0.3131716,1.51323495656,0,0,-11.1847,188.3, -2.4, 0.9,0,0,1024,1024,1684,1024,188.5,-27,98,4.035,4.045,4.03,4.029,0,0,18.104,78.71,6,P-GPS,
0.343865098905875,36.9120015658281,5587.9669776995,203.41208,0,1.26048888548,17800,2018-04-08 05:26:51,14,0,16.027,5587.9669776995,203.41208,0.3131716,1.51323495656,0,0,-11.408394,188.2, -3, 1.2,0,0,1024,1024,1684,1024,188.5,-27,98,4.035,4.045,4.03,4.029,0,0,18.104,78.71,6,P-GPS,
0.343865107023872,36.9120015858278,5589.6073976995,205.0525,0,1.26081368864,17900,2018-04-08 05:26:51,14,0,16.027,5589.6073976995,205.0525,0.3131716,1.51323495656,0,0,-11.408394,188.2, -2.7, 1.4,0,0,1024,1024,1684,1024,188.5,-27,98,4.035,4.045,4.03,4.029,0,0,18.104,78.71,6,P-GPS,
0.343865087702995,36.9120016125946,5591.2478176995,206.69292,0,1.27130581496,18000,2018-04-08 05:26:51,14,0,16.027,5591.2478176995,206.69292,0.3131716,1.51323495656,0,0,-11.1847,188.2, -2.4, 1.7,0,0,1024,1024,1684,1024,188.5,-27,98,4.035,4.045,4.03,4.029,0,0,18.104,78.71,6,P-GPS,
0.343864986841449,36.9120016982828,5594.5286576995,209.97376,0,1.31791014716,18200,2018-04-08 05:26:51,14,0,16.027,5594.5286576995,209.97376,0.3131716,1.51323495656,0,0,-11.1847,188.2, -2.2, 2.2,0,0,1024,1024,1684,1024,188.5,-27,98,4.035,4.045,4.03,4.029,0,0,18.104,78.71,6,P-GPS,
0.343864964385816,36.9120017369687,5596.1690776995,211.61418,0,1.33141080376,18300,2018-04-08 05:26:51,14,0,16.027,5596.1690776995,211.61418,0.3131716,1.51323495656,0,0,-11.1847,188.2, -2.2, 2.5,0,0,1024,1024,1684,1024,188.5,-27,98,4.035,4.045,4.03,4.029,0,0,18.104,78.71,6,P-GPS,
0.343864952925031,36.9120017229653,5599.4499176995,214.89502,0,1.33295936024,18500,2018-04-08 05:26:52,14,0,16.027,5599.4499176995,214.89502,0.3131716,1.51323495656,0,0,-11.1847,188.2, -2.5, 1.1,0,0,1024,1024,1684,1024,188.5,-27,98,4.035,4.045,4.03,4.029,0,0,18.104,78.71,6,P-GPS,
0.343864936690666,36.9120016833081,5603.0588416995,218.503944,0,1.33214243108,18700,2018-04-08 05:26:52,14,0,16.027,5603.0588416995,218.503944,0.3131716,1.51323495656,0,0,-11.1847,188.2, -1.4, 1,0,0,1024,1024,1684,1024,188.5,-27,98,4.035,4.045,4.03,4.029,0,0,18.104,78.71,6,P-GPS,
0.343864929002375,36.9120017252382,5606.3396816995,221.784784,0,1.3411909878,18900,2018-04-08 05:26:52,14,0,16.027,5606.3396816995,221.784784,0.3131716,1.51323495656,0,0,-10.961006,188.2, -1.8, 1.7,0,0,1024,1024,1684,1024,188.5,-27,98,4.035,4.045,4.03,4.029,0,0,18.104,78.71,6,P-GPS,
0.343864937441379,36.9120017559837,5607.6520176995,223.09712,0,1.34328416372,19000,2018-04-08 05:26:52,14,0,16.027,5607.6520176995,223.09712,0.3131716,1.51323495656,0,0,-10.961006,188.2, -2.4, 2.2,0,0,1024,1024,1684,1024,188.5,-27,98,4.035,4.045,4.03,4.029,0,0,18.104,78.71,6,P-GPS,
0.343865002766613,36.9120017510755,5610.9328576995,226.37796,0,1.32109912364,19200,2018-04-08 05:26:52,14,0,16.027,5610.9328576995,226.37796,0.3131716,1.51323495656,0,0,-10.961006,188.2, -2.6, 1.9,0,0,1024,1024,1684,1024,188.5,-27,98,4.035,4.045,4.03,4.029,0,0,18.104,78.71,6,P-GPS,
0.3438650685128,36.912001710491,5612.5732776995,228.01838,0,1.29303481828,19300,2018-04-08 05:26:52,14,0,16.027,5612.5732776995,228.01838,0.3131716,1.51323495656,0,0,-10.961006,188.2, -2.9, 1.3,0,0,1024,1024,1684,1024,188.5,-27,98,4.035,4.045,4.03,4.029,0,0,18.104,78.71,6,P-GPS,
0.343865188789674,36.9120016230738,5616.1822016995,231.627304,0,1.23960961972,19500,2018-04-08 05:26:53,14,0,16.027,5616.1822016995,231.627304,0.3131716,1.51323495656,0,0,-11.1847,188.2, -3.1, 1.1,0,0,1024,1024,1684,1024,188.5,-27,98,4.035,4.045,4.03,4.029,0,0,18.104,78.71,6,P-GPS,
0.343865237428853,36.9120015878722,5617.8226216995,233.267724,0,1.21805122008,19600,2018-04-08 05:26:53,14,0,16.054,5617.8226216995,233.267724,0.3131716,1.51323495656,0,0,-11.1847,188.2, -3.4, 1.2,0,0,1024,1024,1684,1024,188.5,-27,98,4.031,4.042,4.031,4.03,0,0,17.86,78.71,6,P-GPS,
0.343865289517077,36.9120015461454,5619.4630416995,234.908144,0,1.19434715108,19700,2018-04-08 05:26:53,14,0,16.054,5619.4630416995,234.908144,0.3131716,1.51323495656,0,0,-11.1847,188.2, -3.4, 1.5,0,0,1024,1024,1684,1024,188.5,-27,98,4.031,4.042,4.031,4.03,0,0,17.86,78.71,6,P-GPS,
0.343865314526517,36.9120015168474,5621.1034616995,236.548564,0,1.18153875172,19800,2018-04-08 05:26:53,14,0,16.054,5621.1034616995,236.548564,0.3131716,1.51323495656,0,0,-10.961006,188.1, -2.9, 1.7,0,0,1024,1024,1684,1024,188.5,-27,98,4.031,4.042,4.031,4.03,0,0,17.86,78.71,6,P-GPS,
0.343865354820938,36.9120014915388,5622.7438816995,238.188984,0,1.16431106088,19900,2018-04-08 05:26:53,14,0,16.054,5622.7438816995,238.188984,0.3131716,1.51323495656,0,0,-11.1847,188.2, -2.5, 1.9,0,0,1024,1024,1684,1024,188.5,-27,98,4.031,4.042,4.031,4.03,0,0,17.86,78.71,6,P-GPS,
0.343865392424153,36.9120014584393,5624.3843016995,239.829404,0,1.14679137528,20000,2018-04-08 05:26:53,14,0,16.054,5624.3843016995,239.829404,0.3131716,1.51323495656,0,0,-10.961006,188.2, -3.1, 1.6,0,0,1024,1024,1684,1024,188.5,-27,98,4.031,4.042,4.031,4.03,0,0,17.86,78.71,6,P-GPS,
0.343865423684171,36.9120013853571,5626.0247216995,241.469824,0,1.12545607276,20100,2018-04-08 05:26:53,14,0,16.054,5626.0247216995,241.469824,0.3131716,1.51323495656,0,0,-10.737312,188.2, -3.2, 1,0,0,1024,1024,1684,1024,188.5,-27,98,4.031,4.042,4.031,4.03,0,0,17.86,78.71,6,P-GPS,
0.343865432665243,36.9120013152341,5627.3370576995,242.78216,0,1.11238848704,20200,2018-04-08 05:26:53,14,0,16.054,5627.3370576995,242.78216,0.3131716,1.51323495656,0,0,-10.737312,188.2, -3.2, 0.7,0,0,1024,1024,1684,1024,188.5,-27,98,4.031,4.042,4.031,4.03,0,0,17.86,78.71,6,P-GPS,
0.34386545392519,36.9120012777504,5628.9774776995,244.42258,0,1.10001972024,20300,2018-04-08 05:26:53,14,0,16.054,5628.9774776995,244.42258,0.3131716,1.51323495656,0,0,-10.961006,188.2, -2.8, 1,0,0,1024,1024,1684,1024,188.5,-27,98,4.031,4.042,4.031,4.03,0,0,17.86,78.71,6,P-GPS,
0.343865462113414,36.9120012486757,5630.6178976995,246.063,0,1.09330055992,20400,2018-04-08 05:26:53,14,0,16.054,5630.6178976995,246.063,0.3131716,1.51323495656,0,0,-10.961006,188.2, -2.7, 1.2,0,0,1024,1024,1684,1024,188.5,-27,98,4.031,4.042,4.031,4.03,0,0,17.86,78.71,6,P-GPS,
0.343865501496518,36.9120012161723,5632.2583176995,247.70342,0,1.07558730476,20500,2018-04-08 05:26:54,14,0,16.054,5632.2583176995,247.70342,0.3131716,1.51323495656,0,0,-11.1847,188.2, -2.8, 1.2,0,0,1024,1024,1684,1024,188.5,-27,98,4.031,4.042,4.031,4.03,0,0,17.86,78.71,6,P-GPS,
0.343865526353494,36.9120011766852,5633.8987376995,249.34384,0,1.06195213372,20600,2018-04-08 05:26:54,14,0,16.054,5633.8987376995,249.34384,0.3131716,1.51323495656,0,0,-10.961006,188.2, -3.2, 1.1,0,0,1024,1024,1684,1024,188.5,-27,98,4.031,4.042,4.031,4.03,0,0,17.86,78.71,6,P-GPS,
0.343865579093503,36.9120011243165,5635.5391576995,250.98426,0,1.03724740852,20700,2018-04-08 05:26:54,14,0,16.054,5635.5391576995,250.98426,0.3131716,1.51323495656,0,0,-10.961006,188.2, -2.7, 0.9,0,0,1024,1024,1684,1024,188.5,-27,98,4.031,4.042,4.031,4.03,0,0,17.86,78.71,6,P-GPS,
0.343865613432094,36.9120010687959,5637.1795776995,252.62468,0,1.01861551816,20800,2018-04-08 05:26:54,14,0,16.054,5637.1795776995,252.62468,0.3131716,1.51323495656,0,0,-10.961006,188.2, -2.8, 0.6,0,0,1024,1024,1684,1024,188.5,-27,98,4.031,4.042,4.031,4.03,0,0,17.86,78.71,6,P-GPS,
0.34386568394494,36.9120010143201,5638.8199976995,254.2651,0,0.98781499224,20900,2018-04-08 05:26:54,14,0,16.054,5638.8199976995,254.2651,0.3131716,1.51323495656,0,0,-10.961006,188.2, -3, 0.5,0,0,1024,1024,1684,1024,188.5,-27,98,4.031,4.042,4.031,4.03,0,0,17.86,78.71,6,P-GPS,
0.34386572422837,36.9120009712146,5640.4604176995,255.90552,0,0.9688976688,21000,2018-04-08 05:26:54,14,0,16.054,5640.4604176995,255.90552,0.3131716,1.51323495656,0,0,-10.961006,188.2, -2.9, 0.6,0,0,1024,1024,1660,1024,188.5,-27,98,4.031,4.042,4.031,4.03,0,0,17.86,78.71,6,P-GPS,
0.343865756914295,36.912000934739,5642.1008376995,257.54594,0,0.95346787828,21100,2018-04-08 05:26:54,14,0,16.054,5642.1008376995,257.54594,0.3131716,1.51323495656,0,0,-10.737312,188.2, -3.2, 0.8,0,0,1024,1024,1556,1024,188.5,-27,98,4.031,4.042,4.031,4.03,0,0,17.86,78.71,6,P-GPS,
0.343865769684349,36.9120009046767,5643.7412576995,259.18636,0,0.94575462344,21200,2018-04-08 05:26:54,14,0,16.054,5643.7412576995,259.18636,0.3131716,1.51323495656,0,0,-10.737312,188.2, -4.4, 0.7,0,0,1024,1024,1448,1024,188.5,-27,98,4.031,4.042,4.031,4.03,0,0,17.86,78.71,6,P-GPS,
0.343865812905492,36.9120008727933,5645.0535936995,260.498696,0,0.92729333676,21300,2018-04-08 05:26:54,14,0,16.054,5645.0535936995,260.498696,0.3131716,1.51323495656,0,0,-9.842536,188.2, -5.9, 0.8,0,0,1024,1024,1271,1024,188.5,-27,98,4.031,4.042,4.031,4.03,0,0,17.86,78.71,6,P-GPS,
0.343865821923204,36.9120008457179,5646.3659296995,261.811032,0,0.92135173552,21400,2018-04-08 05:26:54,14,0,16.054,5646.3659296995,261.811032,0.3131716,1.51323495656,0,0,-8.500372,188.2, -5.8, 0.9,0,0,1024,1024,1080,1024,188.5,-27,98,4.031,4.042,4.031,4.03,0,0,17.86,78.71,6,P-GPS,
0.343865848065226,36.9120007989623,5647.3501816995,262.795284,0,0.90755908416,21500,2018-04-08 05:26:55,14,0,16.054,5647.3501816995,262.795284,0.3131716,1.51323495656,0,0,-6.71082,188.2, -4.8, 0.3,0,0,1024,1024,1024,1024,188.5,-27,98,4.031,4.042,4.031,4.03,0,0,17.86,78.71,6,P-GPS,
0.34386585322719,36.9120007627233,5648.3344336995,263.779536,0,0.90234911024,21600,2018-04-08 05:26:55,14,0,16.054,5648.3344336995,263.779536,0.3131716,1.51323495656,0,0,-5.144962,188.2, -4.1, 0.4,0,0,1024,1024,1024,1024,188.5,-27,98,4.024,4.035,4.022,4.022,0,0,18.266,78.71,6,P-GPS,
0.343865873524523,36.912000721379,5648.6625176995,264.10762,0,0.8915026532,21700,2018-04-08 05:26:55,14,0,16.054,5648.6625176995,264.10762,0.3131716,1.51323495656,0,0,-3.579104,188.2, -3.9, 0.9,0,0,1024,1024,1024,1024,188.5,-27,98,4.024,4.035,4.022,4.022,0,0,18.266,78.71,6,P-GPS,
0.343865880532939,36.9120006905164,5648.9906016995,264.435704,0,0.88642063204,21800,2018-04-08 05:26:55,14,0,16.054,5648.9906016995,264.435704,0.3131716,1.51323495656,0,0,-2.013246,188.2, -3, 0.9,0,0,1024,1024,1024,1024,188.5,-27,98,4.024,4.035,4.022,4.022,0,0,18.266,78.71,6,P-GPS,
0.343865905073793,36.9120006399337,5649.3186856995,264.763788,0,0.87369753452,21900,2018-04-08 05:26:55,14,0,16.054,5649.3186856995,264.763788,0.3131716,1.51323495656,0,0,-1.342164,188.3, -2, 0.7,0,0,1024,1024,1024,1024,188.5,-27,98,4.024,4.035,4.022,4.022,0,0,18.266,78.71,6,P-GPS,
0.343865930795677,36.9120006043906,5649.3186856995,264.763788,0,0.86190291472,22000,2018-04-08 05:26:55,14,0,16.054,5649.3186856995,264.763788,0.3131716,1.51323495656,0,0,-0.671082,188.2, -1.7, 0.7,0,0,1024,1024,1024,1024,188.5,-27,98,4.024,4.035,4.022,4.022,0,0,18.266,78.71,6,P-GPS,
0.343866015303371,36.9120005904674,5649.3186856995,264.763788,0,0.83067259876,22100,2018-04-08 05:26:55,14,0,16.054,5649.3186856995,264.763788,0.3131716,1.51323495656,0,0,-0.447388,188.2, -1.8, 0.8,0,0,1024,1024,1024,1024,188.5,-27,98,4.024,4.035,4.022,4.022,0,0,18.266,78.71,6,P-GPS,
0.343866099016792,36.9120005922204,5649.3186856995,264.763788,0,0.80087272904,22200,2018-04-08 05:26:55,14,0,16.054,5649.3186856995,264.763788,0.3131716,1.51323495656,0,0,-0.223694,188.2, -2, 1.1,0,0,1024,1024,1024,1024,188.5,-27,98,4.024,4.035,4.022,4.022,0,0,18.266,78.71,6,P-GPS,
0.343866187134339,36.9120005377387,5649.3186856995,264.763788,0,0.76545606124,22300,2018-04-08 05:26:55,14,0,16.054,5649.3186856995,264.763788,0.3131716,1.51323495656,0,0,0,188.2, -2.2, 1.3,0,0,1024,1024,1024,1024,188.5,-27,98,4.024,4.035,4.022,4.022,0,0,18.266,78.71,6,P-GPS,
0.343866268636536,36.912000489902,5649.3186856995,264.763788,0,0.7330708896,22400,2018-04-08 05:26:55,14,0,16.054,5649.3186856995,264.763788,0.3131716,1.51323495656,0,0,0,188.2, -2.2, 1.1,0,0,1331,1054,1024,1024,188.5,-27,98,4.024,4.035,4.022,4.022,0,0,18.266,78.71,6,P-GPS,
0.343866450016903,36.9120004284573,5649.3186856995,264.763788,0,0.66411419448,22600,2018-04-08 05:26:56,14,0,15.974,5649.3186856995,264.763788,0.3131716,1.51323495656,0,0,0,188.3, -3.5, 1.2,0,0,1556,1101,1024,1024,188.5,-27,98,4.076,4.1,4.102,4.115,0,0,16.492,78.71,6,P-GPS,
0.343866567162584,36.9120004203977,5649.3186856995,264.763788,0,0.62145015112,22700,2018-04-08 05:26:56,14,0,15.974,5649.3186856995,264.763788,0.3131716,1.51323495656,0,0,0,188.2, -9.6, 1.2,0,0,1684,1040,1024,1024,188.5,-27,98,4.076,4.1,4.102,4.115,0,0,16.492,78.71,6,P-GPS,
0.343866627658668,36.9120004269769,5649.3186856995,264.763788,0.447388,0.60008532104,22800,2018-04-08 05:26:56,14,0,15.974,5649.3186856995,264.763788,0.447388,1.51323495656,-0.447388,0,0,187.8, -22.7, 2.4,0,0,1684,1024,1024,1024,188.5,-27,98,4.076,4.1,4.102,4.115,0,0,16.492,78.71,6,P-GPS,
0.34386643062295,36.912000391849,5649.3186856995,264.763788,1.342164,0.6691765306,22900,2018-04-08 05:26:56,14,0,15.974,5649.3186856995,264.763788,1.342164,1.51323495656,-1.342164,0,0,187.5, -30.8, 2.2,0,0,1684,1024,1024,1024,188.5,-27,98,4.076,4.1,4.102,4.115,0,0,16.492,78.71,6,P-GPS,
0.343865748092606,36.9120002796986,5649.3186856995,264.763788,2.684328,0.9134350686,23000,2018-04-08 05:26:56,14,0,15.974,5649.3186856995,264.763788,2.684328,1.51323495656,-2.684328,0,0,187.8, -30.6, 1.2,0,0,1684,1024,1024,1024,188.5,-27,98,4.076,4.1,4.102,4.115,0,0,16.492,78.71,6,P-GPS,
0.343864465308035,36.9120000473927,5649.3186856995,264.763788,3.802798,1.38059715704,23100,2018-04-08 05:26:56,13,0,15.974,5649.3186856995,264.763788,3.802798,1.51323495656,-3.802798,-0.223694,-0.223694,188, -28.9, 0.9,0,0,1684,1024,1024,1024,188.5,-27,98,4.076,4.1,4.102,4.115,0,0,16.492,78.71,6,P-GPS,
