latitude,longitude,altitude(feet),ascent(feet),speed(mph),distance(feet),time(millisecond),datetime(utc),satellites,voltage(v),max_altitude(feet),max_ascent(feet),max_speed(mph),max_distance(feet),compass_heading(degrees), pitch(degrees), roll(degrees),isPhoto,isVideo,rc_elevator,rc_aileron,rc_throttle,rc_rudder,gimbal_heading(degrees),gimbal_pitch(degrees),battery_percent,voltageCell1,voltageCell2,voltageCell3,voltageCell4,voltageCell5,voltageCell6,battery_temperature(f),flycStateRaw,flycState,message
0,0,5868.5877317581,0,0,0,100,2017-11-02 06:29:50,13,0,5868.5877317581,0,0,0,107.4, 0.8, 4.8,0,0,1024,1024,1024,1024,111.8,-90,98,4.282,4.271,4.266,4.255,0,0,76.91,41,Motors_Started,
0,0,5868.5877317581,0,0,0,200,2017-11-02 06:29:50,13,0,5868.5877317581,0,0,0,107.4, 0.7, 4.8,0,0,1024,1024,1024,1024,111.8,-90,98,4.282,4.271,4.266,4.255,0,0,76.91,41,Motors_Started,
0,0,5868.5877317581,0,0,0,300,2017-11-02 06:29:50,13,0,5868.5877317581,0,0,0,107.5, 0.8, 4.8,0,0,1024,1024,1024,1024,111.9,-89.9,98,4.282,4.271,4.266,4.255,0,0,76.91,41,Motors_Started,
0,0,5868.5877317581,0,0,0,400,2017-11-02 06:29:50,13,0,5868.5877317581,0,0,0,107.6, 0.8, 4.8,0,0,1024,1024,1024,1024,112.1,-89.9,98,4.282,4.271,4.266,4.255,0,0,76.91,41,Motors_Started,
0.0621055331178673,36.9336233087656,5868.5877317581,0,0,0,500,2017-11-02 06:29:50,13,0,5868.5877317581,0,0,0,107.7, 0.8, 4.8,0,0,1024,1024,1024,1024,112.1,-89.9,98,4.282,4.271,4.266,4.255,0,0,76.91,41,Motors_Started,
0.0621054732426787,36.9336232241738,5868.5877317581,0,0,0.037812337168,600,2017-11-02 06:29:50,13,17.055,5868.5877317581,0,0,0.037812337168,107.7, 0.8, 4.7,0,0,1024,1024,1024,1024,112.1,-89.9,98,4.282,4.271,4.266,4.255,0,0,76.91,41,Motors_Started,Setting new Return-To-Home altitude to 30m (98 ft). Setting new Maximum Flight Altitude to 30m (98 ft)
0.0621054572702384,36.9336231716633,5868.5877317581,0,0,0.057166012328,700,2017-11-02 06:29:50,13,17.055,5868.5877317581,0,0,0.057166012328,107.6, 0.7, 4.7,0,0,1024,1024,1024,1024,112.1,-89.9,98,4.282,4.271,4.266,4.255,0,0,76.91,41,Motors_Started,
0.0621056131391473,36.9336232662194,5868.5877317581,0,0,0.03306594594,800,2017-11-02 06:29:50,13,17.055,5868.5877317581,0,0,0.057166012328,107.6, 0.8, 4.8,0,0,1024,1024,1024,1024,112.1,-89.9,98,4.282,4.271,4.266,4.255,0,0,76.91,41,Motors_Started,
0.0621058344387834,36.9336234227629,5868.5877317581,0,0,0.117541342344,900,2017-11-02 06:29:50,13,17.055,5868.5877317581,0,0,0.117541342344,107.6, 0.8, 4.7,0,0,1024,1024,1024,1024,112.1,-89.9,98,4.282,4.271,4.266,4.255,0,0,76.91,41,Motors_Started,
0.0621060086092146,36.9336235428113,5868.5877317581,0,0,0.19335958624,1000,2017-11-02 06:29:50,13,17.055,5868.5877317581,0,0,0.19335958624,107.7, 0.8, 4.6,0,0,1024,1024,1024,1024,112.2,-89.9,98,4.282,4.271,4.266,4.255,0,0,76.91,41,Motors_Started,
0.0621063249047419,36.9336238080946,5868.5877317581,0,0,0.34152888232,1100,2017-11-02 06:29:50,13,17.055,5868.5877317581,0,0,0.34152888232,107.7, 1, 4.5,0,0,1024,1024,1024,1024,112.2,-90,98,4.282,4.271,4.266,4.255,0,0,76.91,41,Motors_Started,
0.0621065982399828,36.9336240373194,5868.5877317581,0,0,0.47082350588,1200,2017-11-02 06:29:51,13,17.055,5868.5877317581,0,0,0.47082350588,107.6, 0.8, 4.7,0,0,1024,1024,1024,1024,112.1,-89.9,98,4.282,4.271,4.266,4.255,0,0,76.91,41,Motors_Started,
0.0621070451566671,36.9336244571057,5868.5877317581,0,0,0.69272968096,1300,2017-11-02 06:29:51,13,17.055,5868.5877317581,0,0,0.69272968096,107.6, 0.8, 4.6,0,0,1024,1024,1024,1024,112.1,-89.9,98,4.282,4.271,4.266,4.255,0,0,76.91,41,Motors_Started,
0.0621074214851895,36.9336248046151,5868.5877317581,0,0,0.878937036,1400,2017-11-02 06:29:51,13,17.055,5868.5877317581,0,0,0.878937036,107.7, 0.9, 4.5,0,0,1024,1024,1024,1024,112.1,-89.9,98,4.282,4.271,4.266,4.255,0,0,76.91,41,Motors_Started,
0.0621079352655807,36.9336253246835,5868.5877317581,0,0,1.14415357992,1500,2017-11-02 06:29:51,13,17.055,5868.5877317581,0,0,1.14415357992,107.7, 1, 4.5,0,0,411,393,364,1684,112.2,-89.9,98,4.282,4.271,4.266,4.255,0,0,76.91,41,Motors_Started,
0.0621083278852604,36.9336257282826,5868.5877317581,0,0,1.34869754972,1600,2017-11-02 06:29:51,13,17.002,5868.5877317581,0,0,1.34869754972,107.7, 1, 4.4,0,0,559,448,489,1599,112.2,-90,98,4.278,4.267,4.256,4.245,0,0,76.91,10,Assisted_Takeoff,
0.0621091643513967,36.933626618552,5868.5877317581,0,0,1.79261488676,1800,2017-11-02 06:29:51,13,17.002,5868.5877317581,0,0,1.79261488676,107.8, 0.8, 4.6,0,0,689,601,680,1321,112,-90,98,4.278,4.267,4.256,4.245,0,0,76.91,10,Assisted_Takeoff,
0.0621095652340048,36.933627051183,5868.5877317581,0,0,2.00712276764,1900,2017-11-02 06:29:51,13,17.002,5868.5877317581,0,0,2.00712276764,107.8, 0.8, 4.6,0,0,1024,1024,1042,1024,112,-90,98,4.278,4.267,4.256,4.245,0,0,76.91,10,Assisted_Takeoff,
0.0621098835198977,36.9336273704277,5868.5877317581,0,0,2.17148628996,2000,2017-11-02 06:29:51,13,17.002,5868.5877317581,0,0,2.17148628996,107.8, 0.8, 4.6,0,0,1024,1024,1024,1024,110.9,-89.9,98,4.278,4.267,4.256,4.245,0,0,76.91,10,Assisted_Takeoff,
0.0621102383725006,36.9336277332563,5868.5877317581,0,0,2.35647317252,2100,2017-11-02 06:29:52,13,17.002,5868.5877317581,0,0,2.35647317252,107.7, 0.8, 4.6,0,0,1024,1024,1024,1024,109.7,-89.9,98,4.278,4.267,4.256,4.245,0,0,76.91,10,Assisted_Takeoff,
0.0621105228067069,36.9336279814355,5868.5877317581,0,0,2.49410769136,2200,2017-11-02 06:29:52,13,17.002,5868.5877317581,0,0,2.49410769136,107.7, 0.7, 4.6,0,0,1024,1024,1024,1024,109.1,-89.9,98,4.278,4.267,4.256,4.245,0,0,76.91,10,Assisted_Takeoff,
0.0621107927127501,36.9336282587011,5868.5877317581,0,0,2.63514116044,2300,2017-11-02 06:29:52,13,17.002,5868.5877317581,0,0,2.63514116044,107.7, 0.8, 4.6,0,0,1024,1024,1024,1024,108.8,-89.9,98,4.278,4.267,4.256,4.245,0,0,76.91,10,Assisted_Takeoff,
0.0621109895496969,36.9336284875017,5868.5877317581,0,0,2.74467528468,2400,2017-11-02 06:29:52,13,17.002,5868.5877317581,0,0,2.74467528468,107.8, 0.8, 4.6,0,0,1024,1024,1024,1024,108.7,-89.9,98,4.278,4.267,4.256,4.245,0,0,76.91,10,Assisted_Takeoff,
0.0621111803870489,36.9336287368933,5868.5877317581,0,0,2.85787082636,2500,2017-11-02 06:29:52,13,17.002,5868.5877317581,0,0,2.85787082636,107.8, 0.7, 4.6,0,0,1024,1024,1024,1024,108.6,-89.9,98,4.278,4.267,4.256,4.245,0,0,76.91,10,Assisted_Takeoff,
0.0621113557688389,36.9336289265521,5868.5877317581,0,0,2.95196203672,2600,2017-11-02 06:29:52,13,17.002,5868.5877317581,0,0,2.95196203672,108, 0.8, 4.6,0,0,1024,1024,1024,1024,108.5,-89.9,98,4.278,4.267,4.256,4.245,0,0,76.91,10,Assisted_Takeoff,
0.0621115329744862,36.9336291460168,5868.5877317581,0,0,3.05411427096,2700,2017-11-02 06:29:52,13,17.002,5868.5877317581,0,0,3.05411427096,108.1, 0.7, 4.6,0,0,1024,1024,1024,1024,108.4,-90,98,4.278,4.267,4.256,4.245,0,0,76.91,10,Assisted_Takeoff,
0.0621117035776073,36.9336293154749,5868.5877317581,0,0.223694,3.14184065172,2800,2017-11-02 06:29:52,13,17.002,5868.5877317581,0,0.223694,3.14184065172,108.1, 0.7, 4.6,0,0,1024,1024,1024,1024,108.4,-90,98,4.278,4.267,4.256,4.245,0,0,76.91,10,Assisted_Takeoff,
0.0621118601239998,36.933629504682,5868.5877317581,0,0.223694,3.23093186192,2900,2017-11-02 06:29:52,13,17.002,5868.5877317581,0,0.223694,3.23093186192,108.1, 0.7, 4.6,0,0,1024,1024,1024,1024,108.4,-90,98,4.278,4.267,4.256,4.245,0,0,76.91,10,Assisted_Takeoff,
0.0621119956561368,36.9336296610074,5868.5877317581,0,0,3.3061680848,3000,2017-11-02 06:29:52,13,17.002,5868.5877317581,0,0.223694,3.3061680848,108, 0.8, 4.5,0,0,1024,1024,1024,1024,108.4,-89.9,98,4.278,4.267,4.256,4.245,0,0,76.91,10,Assisted_Takeoff,
0.0621121196132939,36.9336298263903,5868.5877317581,0,0,3.380741578,3100,2017-11-02 06:29:53,13,17.002,5868.5877317581,0,0.223694,3.380741578,108, 0.8, 4.5,0,0,1024,1024,1024,1024,108.4,-89.9,98,4.278,4.267,4.256,4.245,0,0,76.91,10,Assisted_Takeoff,
0.0621122371323976,36.9336299478508,5868.5877317581,0,0,3.4423885616,3200,2017-11-02 06:29:53,13,17.002,5868.5877317581,0,0.223694,3.4423885616,108, 0.7, 4.6,0,0,1024,1024,1024,1024,108.4,-89.9,98,4.278,4.267,4.256,4.245,0,0,76.91,10,Assisted_Takeoff,
0.0621123522454753,36.9336300889066,5868.5877317581,0,0,3.5084646792,3300,2017-11-02 06:29:53,13,17.002,5868.5877317581,0,0.223694,3.5084646792,108, 0.7, 4.5,0,0,1024,1024,1024,1024,108.4,-89.9,98,4.278,4.267,4.256,4.245,0,0,76.91,10,Assisted_Takeoff,
0.0621124661217497,36.9336301951569,5868.5877317581,0,0,3.5652560196,3400,2017-11-02 06:29:53,13,17.002,5868.5877317581,0,0.223694,3.5652560196,108, 0.7, 4.5,0,0,1024,1024,1024,1024,108.3,-89.9,98,4.278,4.267,4.256,4.245,0,0,76.91,10,Assisted_Takeoff,
0.0621125832817815,36.9336303247313,5868.5877317581,0,0,3.6289043156,3500,2017-11-02 06:29:53,13,17.002,5868.5877317581,0,0.223694,3.6289043156,108, 0.7, 4.5,0,0,1024,1024,1024,1024,108.3,-89.9,98,4.278,4.267,4.256,4.245,0,0,76.91,10,Assisted_Takeoff,
0.062112696992769,36.9336304259944,5868.5877317581,0,0,3.6843505116,3600,2017-11-02 06:29:53,13,17.002,5868.5877317581,0,0.223694,3.6843505116,107.9, 0.7, 4.5,0,0,1024,1024,1024,1024,108.3,-89.9,98,4.266,4.254,4.246,4.236,0,0,76.91,10,Assisted_Takeoff,Setting new Maximum Flight Altitude to 100m (328 ft)
0.0621128038651058,36.9336305738044,5868.5877317581,0,0,3.7500657368,3700,2017-11-02 06:29:53,13,17.002,5868.5877317581,0,0.223694,3.7500657368,107.9, 0.7, 4.5,0,0,1024,1024,1024,1024,108.3,-89.9,98,4.266,4.254,4.246,4.236,0,0,76.91,10,Assisted_Takeoff,Home Point Recorded. RTH Altitude:  30m.
0.0621128908630979,36.9336307064599,5868.5877317581,0,0,3.8067258436,3800,2017-11-02 06:29:53,13,17.002,5868.5877317581,0,0.223694,3.8067258436,107.9, 0.7, 4.5,0,0,1024,1024,1024,1024,108.3,-89.9,98,4.266,4.254,4.246,4.236,0,0,76.91,10,Assisted_Takeoff,
0.0621129888709999,36.9336308779403,5868.5877317581,0,0,3.8763452684,3900,2017-11-02 06:29:53,13,17.002,5868.5877317581,0,0.223694,3.8763452684,107.8, 0.7, 4.5,0,0,1024,1024,1024,1024,108.3,-89.9,98,4.266,4.254,4.246,4.236,0,0,76.91,10,Assisted_Takeoff,
0.0621130915346232,36.9336310028197,5868.5877317581,0,0,3.9351051128,4000,2017-11-02 06:29:53,13,17.002,5868.5877317581,0,0.223694,3.9351051128,107.9, 0.7, 4.5,0,0,1024,1024,1024,1024,108.3,-89.9,98,4.266,4.254,4.246,4.236,0,0,76.91,10,Assisted_Takeoff,
0.0621131976652038,36.9336311671461,5868.5877317581,0,0,4.0050198132,4100,2017-11-02 06:29:53,13,17.002,5868.5877317581,0,0.223694,4.0050198132,107.9, 0.7, 4.5,0,0,1024,1024,1024,1024,108.2,-89.9,98,4.266,4.254,4.246,4.236,0,0,76.91,10,Assisted_Takeoff,
0.0621132839727356,36.9336312882982,5868.5877317581,0,0,4.0586615472,4200,2017-11-02 06:29:54,13,17.002,5868.5877317581,0,0.223694,4.0586615472,107.9, 0.6, 4.5,0,0,1024,1024,1024,1024,108.2,-89.9,98,4.266,4.254,4.246,4.236,0,0,76.91,10,Assisted_Takeoff,
0.062113392728368,36.9336314507934,5868.5877317581,0,0,4.1288715232,4300,2017-11-02 06:29:54,13,17.002,5868.5877317581,0,0.223694,4.1288715232,107.9, 0.6, 4.5,0,0,1024,1024,1024,1024,108.2,-90,98,4.266,4.254,4.246,4.236,0,0,76.91,10,Assisted_Takeoff,
0.0621135008098245,36.9336315723807,5868.5877317581,0,0,4.188156302,4400,2017-11-02 06:29:54,13,17.002,5868.5877317581,0,0.223694,4.188156302,107.8, 0.6, 4.5,0,0,1024,1024,1024,1024,108.2,-90,98,4.266,4.254,4.246,4.236,0,0,76.91,10,Assisted_Takeoff,
0.0621136213220083,36.9336317532496,5868.5877317581,0,0,4.2662074856,4500,2017-11-02 06:29:54,13,17.002,5868.5877317581,0,0.223694,4.2662074856,107.8, 0.6, 4.5,0,0,1024,1024,1024,1024,108.2,-89.9,98,4.266,4.254,4.246,4.236,0,0,76.91,10,Assisted_Takeoff,
0.062113715577161,36.9336319063889,5868.5877317581,0,0,4.330380716,4600,2017-11-02 06:29:54,13,17.002,5868.5877317581,0,0.223694,4.330380716,107.8, 0.6, 4.5,0,0,1024,1024,1024,1024,108.2,-89.9,98,4.273,4.263,4.258,4.247,0,0,76.91,10,Assisted_Takeoff,
0.062113821224908,36.9336321069708,5868.5877317581,0,0,4.4100067028,4700,2017-11-02 06:29:54,13,17.002,5868.5877317581,0,0.223694,4.4100067028,107.8, 0.6, 4.5,0,0,1024,1024,1024,1024,108.2,-90,98,4.273,4.263,4.258,4.247,0,0,76.91,10,Assisted_Takeoff,
0.0621139057069541,36.933632251718,5868.5877317581,0,0,4.4696195656,4800,2017-11-02 06:29:54,13,17.002,5868.5877317581,0,0.223694,4.4696195656,107.8, 0.6, 4.5,0,0,1024,1024,1024,1024,108.2,-90,98,4.273,4.263,4.258,4.247,0,0,76.91,10,Assisted_Takeoff,
0.0621139870803006,36.933632441153,5868.5877317581,0,0,4.5404200928,4900,2017-11-02 06:29:54,13,17.002,5868.5877317581,0,0.223694,4.5404200928,107.8, 0.6, 4.5,0,0,1024,1024,1024,1024,108.2,-90,98,4.273,4.263,4.258,4.247,0,0,76.91,10,Assisted_Takeoff,
0.062114037890196,36.933632579633,5868.5877317581,0,0,4.5901576272,5000,2017-11-02 06:29:54,13,17.002,5868.5877317581,0,0.223694,4.5901576272,107.8, 0.6, 4.5,0,0,1024,1024,1024,1024,108.2,-90,98,4.273,4.263,4.258,4.247,0,0,76.91,10,Assisted_Takeoff,
0.0621141016177234,36.9336327437661,5868.5877317581,0,0,4.6500657656,5100,2017-11-02 06:29:55,13,17.002,5868.5877317581,0,0.223694,4.6500657656,107.8, 0.6, 4.4,0,0,1024,1024,1024,1024,108.2,-89.9,98,4.273,4.263,4.258,4.247,0,0,76.91,10,Assisted_Takeoff,
0.062114163193262,36.9336328475798,5868.5877317581,0,0,4.6932088116,5200,2017-11-02 06:29:55,13,17.002,5868.5877317581,0,0.223694,4.6932088116,107.8, 0.6, 4.4,0,0,1024,1024,1024,1024,108.2,-89.9,98,4.273,4.263,4.258,4.247,0,0,76.91,10,Assisted_Takeoff,
0.0621142464914293,36.9336329780475,5868.5877317581,0,0,4.7489174748,5300,2017-11-02 06:29:55,13,17.002,5868.5877317581,0,0.223694,4.7489174748,107.8, 0.6, 4.4,0,0,1024,1024,1024,1024,108.2,-89.9,98,4.273,4.263,4.258,4.247,0,0,76.91,10,Assisted_Takeoff,
0.0621143184499269,36.9336330602056,5868.5877317581,0,0,4.7887468724,5400,2017-11-02 06:29:55,13,17.002,5868.5877317581,0,0.223694,4.7887468724,107.8, 0.6, 4.5,0,0,1024,1024,1024,1024,108.2,-89.9,98,4.273,4.263,4.258,4.247,0,0,76.91,10,Assisted_Takeoff,
0.0621143953116693,36.9336331606342,5868.5877317581,0,0,4.8347442492,5500,2017-11-02 06:29:55,13,17.002,5868.5877317581,0,0.223694,4.8347442492,107.8, 0.6, 4.5,0,0,1024,1024,1024,1024,108.2,-89.9,98,4.273,4.263,4.258,4.247,0,0,76.91,10,Assisted_Takeoff,
0.0621144448888326,36.9336332307279,5868.5877317581,0,0,4.8658466124,5600,2017-11-02 06:29:55,13,17.002,5868.5877317581,0,0.223694,4.8658466124,107.8, 0.6, 4.4,0,0,1024,1024,1024,1024,108.2,-89.9,98,4.274,4.263,4.258,4.248,0,0,76.91,10,Assisted_Takeoff,
0.0621145011532011,36.9336333423761,5868.5877317581,0,0,4.9098754852,5700,2017-11-02 06:29:55,13,17.002,5868.5877317581,0,0.223694,4.9098754852,107.8, 0.6, 4.4,0,0,1024,1024,1024,1024,108.2,-89.9,98,4.274,4.263,4.258,4.248,0,0,76.91,10,Assisted_Takeoff,
0.0621145383753598,36.9336334374207,5868.5877317581,0,0,4.9448164312,5800,2017-11-02 06:29:55,13,17.002,5868.5877317581,0,0.223694,4.9448164312,107.7, 0.6, 4.5,0,0,1024,1024,1024,1024,108.2,-89.9,98,4.274,4.263,4.258,4.248,0,0,76.91,10,Assisted_Takeoff,
0.0621145829491289,36.933633565075,5868.5877317581,0,0,4.9904529156,5900,2017-11-02 06:29:55,13,17.002,5868.5877317581,0,0.223694,4.9904529156,107.7, 0.6, 4.4,0,0,1024,1024,1024,1024,108.2,-89.9,98,4.274,4.263,4.258,4.248,0,0,76.91,10,Assisted_Takeoff,
0.0621146139074777,36.9336336480831,5868.5877317581,0,0,5.0206366436,6000,2017-11-02 06:29:55,13,17.002,5868.5877317581,0,0.223694,5.0206366436,107.7, 0.6, 4.4,0,0,1024,1024,1024,1024,108.2,-89.9,98,4.274,4.263,4.258,4.248,0,0,76.91,10,Assisted_Takeoff,
0.0621146544598043,36.9336337633102,5868.5877317581,0,0,5.0620408444,6100,2017-11-02 06:29:55,13,17.002,5868.5877317581,0,0.223694,5.0620408444,107.7, 0.6, 4.4,0,0,1024,1024,1024,1024,108.2,-89.9,98,4.274,4.263,4.258,4.248,0,0,76.91,10,Assisted_Takeoff,
0.0621146820309896,36.933633839109,5868.5877317581,0,0,5.0895014752,6200,2017-11-02 06:29:56,13,17.002,5868.5877317581,0,0.223694,5.0895014752,107.8, 0.6, 4.4,0,0,1024,1024,1024,1024,108.2,-89.9,98,4.274,4.263,4.258,4.248,0,0,76.91,10,Assisted_Takeoff,
0.0621147343349824,36.9336339445018,5868.5877317581,0,0,5.1310369096,6300,2017-11-02 06:29:56,13,17.002,5868.5877317581,0,0.223694,5.1310369096,107.8, 0.5, 4.4,0,0,1024,1024,1024,1024,108.2,-89.9,98,4.274,4.263,4.258,4.248,0,0,76.91,10,Assisted_Takeoff,
0.0621147920559941,36.9336340192547,5868.5877317581,0,0,5.1654529212,6400,2017-11-02 06:29:56,13,17.002,5868.5877317581,0,0.223694,5.1654529212,107.8, 0.5, 4.4,0,0,1024,1024,1024,1024,108.2,-89.9,98,4.274,4.263,4.258,4.248,0,0,76.91,10,Assisted_Takeoff,
0.0621148675864835,36.9336341297488,5868.5877317581,0,0,5.2139765448,6500,2017-11-02 06:29:56,13,17.002,5868.5877317581,0,0.223694,5.2139765448,107.8, 0.5, 4.4,0,0,1024,1024,1024,1024,108.1,-90,98,4.274,4.263,4.258,4.248,0,0,76.91,10,Assisted_Takeoff,
0.0621149177686137,36.933634203732,5868.5877317581,0,0,5.2463584356,6600,2017-11-02 06:29:56,13,17.002,5868.5877317581,0,0.223694,5.2463584356,107.7, 0.5, 4.4,0,0,1024,1024,1024,1024,108.1,-89.9,98,4.274,4.263,4.258,4.248,0,0,76.91,10,Assisted_Takeoff,
0.0621149820245712,36.9336343158865,5868.5877317581,0,0,5.2926838964,6700,2017-11-02 06:29:56,13,17.002,5868.5877317581,0,0.223694,5.2926838964,107.8, 0.5, 4.4,0,0,1024,1024,1024,1024,108.1,-89.9,98,4.274,4.263,4.258,4.248,0,0,76.91,10,Assisted_Takeoff,
0.06211502530617,36.9336343918684,5868.5877317581,0,0,5.3240159184,6800,2017-11-02 06:29:56,13,17.002,5868.5877317581,0,0.223694,5.3240159184,107.8, 0.5, 4.4,0,0,1024,1024,1024,1024,108.1,-89.9,98,4.274,4.263,4.258,4.248,0,0,76.91,10,Assisted_Takeoff,
0.0621150846670248,36.9336344922937,5868.5877317581,0,0,5.3659450536,6900,2017-11-02 06:29:56,13,17.002,5868.5877317581,0,0.223694,5.3659450536,107.8, 0.5, 4.4,0,0,1024,1024,1024,1024,108.1,-89.9,98,4.274,4.263,4.258,4.248,0,0,76.91,10,Assisted_Takeoff,
0.0621151247487311,36.933634542007,5868.5877317581,0,0,5.3892062092,7000,2017-11-02 06:29:56,13,17.002,5868.5877317581,0,0.223694,5.3892062092,107.8, 0.5, 4.4,0,0,1024,1024,1024,1024,108.1,-89.9,98,4.274,4.263,4.258,4.248,0,0,76.91,10,Assisted_Takeoff,
0.0621151780525884,36.9336346196879,5868.5877317581,0,0,5.423392562,7100,2017-11-02 06:29:57,13,17.002,5868.5877317581,0,0.223694,5.423392562,107.8, 0.5, 4.4,0,0,1024,1024,1024,1024,108.1,-89.9,98,4.274,4.263,4.258,4.248,0,0,76.91,10,Assisted_Takeoff,
0.0621152158528447,36.9336346830981,5868.5877317581,0,0,5.449967366,7200,2017-11-02 06:29:57,13,17.002,5868.5877317581,0,0.223694,5.449967366,107.8, 0.5, 4.4,0,0,1024,1024,1024,1024,108.1,-90,98,4.274,4.263,4.258,4.248,0,0,76.91,10,Assisted_Takeoff,
0.0621153092164244,36.9336348549029,5868.5877317581,0,0,5.5197836412,7400,2017-11-02 06:29:57,13,17.002,5868.5877317581,0,0.223694,5.5197836412,107.7, 0.4, 4.3,0,0,1024,1024,1024,1024,108.1,-90,98,4.274,4.263,4.258,4.248,0,0,76.91,10,Assisted_Takeoff,
0.0621153635502726,36.9336349677008,5868.5877317581,0,0,5.5640093644,7500,2017-11-02 06:29:57,13,17.002,5868.5877317581,0,0.223694,5.5640093644,107.7, 0.5, 4.4,0,0,1024,1024,1024,1024,108.1,-89.9,98,4.274,4.263,4.258,4.248,0,0,76.91,10,Assisted_Takeoff,
0.0621154021883633,36.9336350480368,5868.5877317581,0,0,5.5955054284,7600,2017-11-02 06:29:57,13,17.002,5868.5877317581,0,0.223694,5.5955054284,107.7, 0.4, 4.3,0,0,1024,1024,1024,1024,108.1,-90,98,4.273,4.262,4.258,4.248,0,0,76.91,10,Assisted_Takeoff,
0.062115432247811,36.9336351095264,5868.5877317581,0,0,5.619750836,7700,2017-11-02 06:29:57,13,17.002,5868.5877317581,0,0.223694,5.619750836,107.7, 0.5, 4.3,0,0,1024,1024,1024,1024,108.1,-89.9,98,4.273,4.262,4.258,4.248,0,0,76.91,10,Assisted_Takeoff,
0.0621154968066591,36.9336352074005,5868.5877317581,0,0,5.662237714,7800,2017-11-02 06:29:57,13,17.002,5868.5877317581,0,0.223694,5.662237714,107.6, 0.5, 4.3,0,0,1024,1024,1024,1024,108.1,-89.9,98,4.273,4.262,4.258,4.248,0,0,76.91,10,Assisted_Takeoff,
0.0621155571413234,36.9336353032309,5868.5877317581,0,0,5.7031825972,7900,2017-11-02 06:29:57,13,17.002,5868.5877317581,0,0.223694,5.7031825972,107.6, 0.5, 4.3,0,0,1024,1024,1024,1024,108.1,-90,98,4.273,4.262,4.258,4.248,0,0,76.91,10,Assisted_Takeoff,
0.0621155984443627,36.9336353703549,5868.5877317581,0,0,5.7316602884,8000,2017-11-02 06:29:57,13,17.002,5868.5877317581,0,0.223694,5.7316602884,107.6, 0.5, 4.3,0,0,1024,1024,1024,1024,108.1,-89.9,98,4.273,4.262,4.258,4.248,0,0,76.91,10,Assisted_Takeoff,
0.0621156563900996,36.9336354773589,5868.5877317581,0,0,5.7751642268,8100,2017-11-02 06:29:58,13,17.002,5868.5877317581,0,0.223694,5.7751642268,107.6, 0.5, 4.3,0,0,1024,1024,1024,1024,108.1,-89.9,98,4.273,4.262,4.258,4.248,0,0,76.91,10,Assisted_Takeoff,
0.0621156977989878,36.9336355557057,5868.5877317581,0,0,5.8068243328,8200,2017-11-02 06:29:58,13,17.002,5868.5877317581,0,0.223694,5.8068243328,107.6, 0.5, 4.3,0,0,1024,1024,1024,1024,108.1,-89.9,98,4.273,4.262,4.258,4.248,0,0,76.91,10,Assisted_Takeoff,
0.0621157570263102,36.9336356611081,5868.5877317581,0,0,5.850229846,8300,2017-11-02 06:29:58,13,17.002,5868.5877317581,0,0.223694,5.850229846,107.6, 0.4, 4.3,0,0,1024,1024,1024,1024,108.1,-89.9,98,4.273,4.262,4.258,4.248,0,0,76.91,10,Assisted_Takeoff,
0.0621157976470315,36.9336357161764,5868.5877317581,0,0,5.8751314216,8400,2017-11-02 06:29:58,13,17.002,5868.5877317581,0,0.223694,5.8751314216,107.5, 0.5, 4.3,0,0,1024,1024,1024,1024,108.1,-89.9,98,4.273,4.262,4.258,4.248,0,0,76.91,10,Assisted_Takeoff,
0.0621158557971382,36.9336358075542,5868.5877317581,0,0,5.914370268,8500,2017-11-02 06:29:58,13,17.002,5868.5877317581,0,0.223694,5.914370268,107.5, 0.5, 4.3,0,0,1024,1024,1024,1024,108.1,-89.9,98,4.273,4.262,4.258,4.248,0,0,76.91,10,Assisted_Takeoff,
0.0621158987050091,36.9336358755925,5868.5877317581,0,0,5.9434713188,8600,2017-11-02 06:29:58,13,17.002,5868.5877317581,0,0.223694,5.9434713188,107.5, 0.4, 4.3,0,0,1024,1024,1024,1024,108.1,-89.9,98,4.272,4.263,4.257,4.248,0,0,76.91,10,Assisted_Takeoff,
0.06211596149211,36.9336359740169,5868.5877317581,0,0,5.9857613464,8700,2017-11-02 06:29:58,13,17.002,5868.5877317581,0,0.223694,5.9857613464,107.5, 0.4, 4.3,0,0,1024,1024,1024,1024,108.1,-89.9,98,4.272,4.263,4.257,4.248,0,0,76.91,10,Assisted_Takeoff,
0.0621160030133608,36.9336360212753,5868.5877317581,0,0,6.008694418,8800,2017-11-02 06:29:58,13,17.002,5868.5877317581,0,0.223694,6.008694418,107.5, 0.5, 4.3,0,0,1024,1024,1024,1024,108.1,-90,98,4.272,4.263,4.257,4.248,0,0,76.91,10,Assisted_Takeoff,
0.0621160623123348,36.9336361066687,5868.5877317581,0,0,6.0464896948,8900,2017-11-02 06:29:58,13,17.002,5868.5877317581,0,0.223694,6.0464896948,107.4, 0.4, 4.3,0,0,1024,1024,1024,1024,108.1,-89.9,98,4.272,4.263,4.257,4.248,0,0,76.91,10,Assisted_Takeoff,
0.0621161037529776,36.9336361712308,5868.5877317581,0,0,6.0742784096,9000,2017-11-02 06:29:58,13,17.002,5868.5877317581,0,0.223694,6.0742784096,107.4, 0.5, 4.3,0,0,1024,1024,1194,1024,108.1,-90,98,4.272,4.263,4.257,4.248,0,0,76.91,10,Assisted_Takeoff,
0.0621161475996464,36.9336362778483,5868.5877317581,0,0,6.114501508,9100,2017-11-02 06:29:59,13,17.002,5868.5877317581,0,0.223694,6.114501508,107.4, 0.4, 4.3,0,0,1024,1024,1607,1024,108,-89.9,98,4.272,4.263,4.257,4.248,0,0,76.91,10,Assisted_Takeoff,
0.0621161591640415,36.9336363550228,5868.5877317581,0,0,6.1389765744,9200,2017-11-02 06:29:59,13,17.002,5868.5877317581,0,0.223694,6.1389765744,107.4, 0.4, 4.2,0,0,1024,1024,1684,1221,108,-89.9,98,4.272,4.263,4.257,4.248,0,0,76.91,10,Assisted_Takeoff,
0.0621161886258503,36.9336364584383,5868.5877317581,0,0,6.1750658144,9300,2017-11-02 06:29:59,13,17.002,5868.5877317581,0,0.223694,6.1750658144,107.4, 0.5, 3.9,0,0,1024,1024,1684,1271,108.3,-90,98,4.272,4.263,4.257,4.248,0,0,76.91,10,Assisted_Takeoff,
0.0621162143186254,36.9336365118118,5868.5877317581,0,0,6.1960959988,9400,2017-11-02 06:29:59,13,17.002,5868.5877317581,0,0.223694,6.1960959988,107.6, 0.5, 3.9,0,0,1024,1024,1684,1228,109.9,-90,98,4.272,4.263,4.257,4.248,0,0,76.91,10,Assisted_Takeoff,
0.0621162622421038,36.9336366025537,5868.5877317581,0,0,6.2328414068,9500,2017-11-02 06:29:59,13,17.002,5868.5877317581,0,0.223694,6.2328414068,108.3, 0.6, 3.3,0,0,1024,1024,1684,1166,110.8,-89.9,98,4.272,4.263,4.257,4.248,0,0,76.91,10,Assisted_Takeoff,
0.062116333418134,36.9336366734397,5868.5877317581,0,0,6.2692587308,9600,2017-11-02 06:29:59,13,17.002,5868.5877317581,0,0.223694,6.2692587308,109.7, 0.7, -0.4,0,0,1024,1024,1684,1120,111.5,-89.9,98,4.272,4.263,4.257,4.248,0,0,76.91,10,Assisted_Takeoff,
0.0621165001203175,36.9336368180627,5868.5877317581,0,0.447388,6.3485566336,9700,2017-11-02 06:29:59,13,17.002,5868.5877317581,0,0.447388,6.3485566336,111.6, 2.1, -5.9,0,0,1024,1024,1684,1114,111.5,-89.9,98,4.272,4.263,4.257,4.248,0,0,76.91,10,Assisted_Takeoff,Home Point Recorded. RTH Altitude:  30m.
0.0621168616120866,36.9336369793073,5868.5877317581,0,1.1408394,6.477690496,9800,2017-11-02 06:29:59,13,17.002,5868.5877317581,0,1.1408394,6.477690496,112.9, 3.2, -6,0,0,1024,1024,1684,1117,112,-89.9,98,4.272,4.263,4.257,4.248,0,0,76.91,6,GPS_Atti,
0.0621175379635025,36.9336372255247,5868.9158157581,0.328084,1.80297364,6.7056104508,9900,2017-11-02 06:29:59,13,17.002,5868.9158157581,0.328084,1.80297364,6.7056104508,113.9, 2.9, -1.8,0,0,1024,1024,1684,1118,112.6,-89.9,98,4.272,4.263,4.257,4.248,0,0,76.91,6,GPS_Atti,
0.062118469041828,36.9336374530122,5869.2438997581,0.656168,2.2481247,6.9933073104,10000,2017-11-02 06:29:59,13,17.002,5869.2438997581,0.656168,2.2481247,6.9933073104,115.2, 1.8, 3.6,0,0,1024,1024,1684,1119,113.2,-89.9,98,4.272,4.263,4.257,4.248,0,0,76.91,6,GPS_Atti,
0.0621195752088236,36.9336376817171,5869.5719837581,0.984252,2.460634,7.3312338304,10100,2017-11-02 06:29:59,13,17.002,5869.5719837581,0.984252,2.460634,7.3312338304,116, -1.1, 6.4,0,0,1024,1024,1684,1116,113.8,-90,98,4.272,4.263,4.257,4.248,0,0,76.91,6,GPS_Atti,
0.0621207459949196,36.9336378694317,5870.2281517581,1.64042,2.684328,7.6830383036,10200,2017-11-02 06:30:00,13,17.002,5870.2281517581,1.64042,2.684328,7.6830383036,116.8, -4.4, 8.4,0,0,1024,1024,1684,1117,114.6,-90,98,4.272,4.263,4.257,4.248,0,0,76.91,6,GPS_Atti,
0.0621219821060465,36.9336381578318,5870.8843197581,2.296588,2.684328,8.0850396288,10300,2017-11-02 06:30:00,13,17.002,5870.8843197581,2.296588,2.684328,8.0850396288,117.9, -6.4, 12,0,0,1024,1024,1684,1122,115.5,-90,98,4.272,4.263,4.257,4.248,0,0,76.91,6,GPS_Atti,
0.0621231313038605,36.9336384419743,5871.5404877581,2.952756,2.2481247,8.4682089324,10400,2017-11-02 06:30:00,13,17.002,5871.5404877581,2.952756,2.684328,8.4682089324,118.9, -7.7, 14.2,0,0,1024,1024,1684,1099,116.7,-90,98,4.272,4.263,4.257,4.248,0,0,76.91,6,GPS_Atti,Obstacle Avoided. Revise Flight Route
0.06212413801771,36.9336388603187,5872.8528237581,4.265092,1.80297364,8.8470803356,10500,2017-11-02 06:30:00,13,17.002,5872.8528237581,4.265092,2.684328,8.8470803356,120.5, -6.2, 13.5,0,0,1024,1024,1684,1095,117.9,-90,98,4.272,4.263,4.257,4.248,0,0,76.91,6,GPS_Atti,
0.0621249625168185,36.9336392558106,5873.8370757581,5.249344,1.58151658,9.1708008184,10600,2017-11-02 06:30:00,13,16.497,5873.8370757581,5.249344,2.684328,9.1708008184,121.9, -4.5, 11.1,0,0,1024,1024,1684,1111,118.8,-89.9,97,4.273,4.262,4.256,4.247,0,0,76.91,6,GPS_Atti,
0.0621257310739904,36.9336396852322,5875.1494117581,6.56168,1.58151658,9.4871066028,10700,2017-11-02 06:30:00,13,16.497,5875.1494117581,6.56168,2.684328,9.4871066028,123.1, -3.9, 11.7,0,0,1024,1024,1684,1111,119.8,-90,97,4.273,4.262,4.256,4.247,0,0,76.91,6,GPS_Atti,
0.0621264588712091,36.9336400152284,5876.7898317581,8.2021,1.565858,9.7694556932,10800,2017-11-02 06:30:00,13,16.497,5876.7898317581,8.2021,2.684328,9.7694556932,124.1, -4.4, 11.5,0,0,1024,1024,1684,1108,121.1,-90,97,4.273,4.262,4.256,4.247,0,0,76.91,6,GPS_Atti,
0.0621271844521155,36.9336402706056,5878.4302517581,9.84252,1.565858,10.0349084576,10900,2017-11-02 06:30:00,13,16.497,5878.4302517581,9.84252,2.684328,10.0349084576,125.1, -6.7, 11.6,0,0,1024,1024,1684,1091,122.4,-90,97,4.273,4.262,4.256,4.247,0,0,76.91,6,GPS_Atti,
0.0621279437613539,36.9336405127108,5880.0706717581,11.48294,1.565858,10.3079727708,11000,2017-11-02 06:30:00,13,16.497,5880.0706717581,11.48294,2.684328,10.3079727708,125.8, -9.3, 12.4,0,0,1024,1024,1684,1091,123.5,-90,97,4.273,4.262,4.256,4.247,0,0,76.91,6,GPS_Atti,
0.0621286588599663,36.9336407216207,5881.7110917581,13.12336,1.565858,10.5617785532,11100,2017-11-02 06:30:00,13,16.497,5881.7110917581,13.12336,2.684328,10.5617785532,126.7, -9.6, 12.1,0,0,1024,1024,1684,1082,123.5,-90,97,4.273,4.262,4.256,4.247,0,0,76.91,6,GPS_Atti,
0.0621294536855683,36.9336410216066,5883.6795957581,15.091864,1.58151658,10.8596460168,11200,2017-11-02 06:30:01,13,16.497,5883.6795957581,15.091864,2.684328,10.8596460168,127.7, -9.1, 12.9,0,0,1024,1024,1684,1074,124.5,-89.9,97,4.273,4.262,4.256,4.247,0,0,76.91,6,GPS_Atti,
0.0621302933210637,36.9336413541786,5885.3200157581,16.732284,1.565858,11.1783468144,11300,2017-11-02 06:30:01,13,16.497,5885.3200157581,16.732284,2.684328,11.1783468144,128.6, -8.8, 13.1,0,0,1024,1024,1684,1075,125.3,-89.9,97,4.273,4.262,4.256,4.247,0,0,76.91,6,GPS_Atti,
0.062131133135688,36.9336416427907,5886.9604357581,18.372704,1.565858,11.4883861944,11400,2017-11-02 06:30:01,13,16.497,5886.9604357581,18.372704,2.684328,11.4883861944,129.4, -8.3, 12.7,0,0,1024,1024,1684,1075,126.2,-90,97,4.273,4.262,4.256,4.247,0,0,76.91,6,GPS_Atti,
0.062132026229743,36.9336419319809,5888.9289397581,20.341208,1.789552,11.8151906668,11500,2017-11-02 06:30:01,13,16.497,5888.9289397581,20.341208,2.684328,11.8151906668,130, -7.6, 11.7,0,0,1024,1024,1684,1071,127,-90,97,4.273,4.262,4.256,4.247,0,0,76.91,6,GPS_Atti,
0.0621329267739293,36.9336421461987,5890.5693597581,21.981628,2.013246,12.129593564,11600,2017-11-02 06:30:01,13,16.205,5890.5693597581,21.981628,2.684328,12.129593564,130.3, -9.6, 11.3,0,0,1024,1024,1684,1072,127.7,-90,97,4.076,4.072,4.055,4.053,0,0,76.91,6,GPS_Atti,
0.0621339241535379,36.9336423875342,5892.2097797581,23.622048,2.013246,12.4800200844,11700,2017-11-02 06:30:01,13,16.205,5892.2097797581,23.622048,2.684328,12.4800200844,130.4, -11.6, 12.3,0,0,1024,1024,1684,1072,128.4,-90,97,4.076,4.072,4.055,4.053,0,0,76.91,6,GPS_Atti,
0.0621349366483636,36.9336426151577,5894.1782837581,25.590552,2.013246,12.8336946364,11800,2017-11-02 06:30:01,13,16.205,5894.1782837581,25.590552,2.684328,12.8336946364,131.1, -11.8, 12.9,0,0,1024,1024,1684,1068,129.1,-89.9,97,4.076,4.072,4.055,4.053,0,0,76.91,6,GPS_Atti,
0.0621359491269049,36.9336428344779,5896.1467877581,27.559056,2.013246,13.1871067212,11900,2017-11-02 06:30:01,13,16.205,5896.1467877581,27.559056,2.684328,13.1871067212,131.7, -11.9, 13.2,0,0,1024,1024,1684,1059,129.9,-90,97,4.076,4.072,4.055,4.053,0,0,76.91,6,GPS_Atti,
0.0621370063388028,36.9336431558068,5898.1152917581,29.52756,2.013246,13.5754925604,12000,2017-11-02 06:30:01,13,16.205,5898.1152917581,29.52756,2.684328,13.5754925604,132, -13.2, 13.2,0,0,1024,1024,1684,1058,130.5,-90,97,4.076,4.072,4.055,4.053,0,0,76.91,6,GPS_Atti,
0.0621380729696208,36.9336434898455,5899.7557117581,31.16798,2.013246,13.9700463788,12100,2017-11-02 06:30:01,13,16.205,5899.7557117581,31.16798,2.684328,13.9700463788,132.6, -13, 13.8,0,0,1024,1024,1684,1060,131.1,-90,97,4.076,4.072,4.055,4.053,0,0,76.91,6,GPS_Atti,
0.0621391042892592,36.9336437989698,5901.7242157581,33.136484,2.013246,14.3496395668,12200,2017-11-02 06:30:02,13,16.205,5901.7242157581,33.136484,2.684328,14.3496395668,133.1, -12.6, 13.8,0,0,1024,1024,1684,1059,131.7,-89.9,97,4.076,4.072,4.055,4.053,0,0,76.91,6,GPS_Atti,
0.0621400904391179,36.933644105088,5903.3646357581,34.776904,2.013246,14.715223568,12300,2017-11-02 06:30:02,13,16.205,5903.3646357581,34.776904,2.684328,14.715223568,133.9, -11.4, 13.7,0,0,1024,1024,1684,1057,131.7,-89.9,97,4.076,4.072,4.055,4.053,0,0,76.91,6,GPS_Atti,
0.0621410351222787,36.9336445054103,5905.3331397581,36.745408,2.013246,15.0859256796,12400,2017-11-02 06:30:02,13,16.205,5905.3331397581,36.745408,2.684328,15.0859256796,134.4, -10.7, 12.9,0,0,1024,1024,1684,1057,132.3,-90,97,4.076,4.072,4.055,4.053,0,0,76.91,6,GPS_Atti,
0.0621419397620017,36.9336448539189,5906.9735597581,38.385828,2.013246,15.4346133548,12500,2017-11-02 06:30:02,13,16.205,5906.9735597581,38.385828,2.684328,15.4346133548,134.6, -11.4, 11.9,0,0,1024,1024,1684,1048,132.8,-90,97,4.076,4.072,4.055,4.053,0,0,76.91,6,GPS_Atti,
0.0621427941414291,36.9336451301209,5908.9420637581,40.354332,1.789552,15.7543640212,12600,2017-11-02 06:30:02,13,16.178,5908.9420637581,40.354332,2.684328,15.7543640212,134.5, -13.1, 11.8,0,0,1024,1024,1684,1056,133.2,-90,97,4.085,4.084,4.072,4.072,0,0,76.91,6,GPS_Atti,
0.0621436425379533,36.9336454739939,5910.9105677581,42.322836,1.80297364,16.0849414596,12700,2017-11-02 06:30:02,13,16.178,5910.9105677581,42.322836,2.684328,16.0849414596,134.7, -13, 12.5,0,0,1024,1024,1684,1062,133.6,-89.9,97,4.085,4.084,4.072,4.072,0,0,76.91,6,GPS_Atti,
0.0621444594957376,36.9336458261232,5912.8790717581,44.29134,1.80297364,16.4072511812,12800,2017-11-02 06:30:02,13,16.178,5912.8790717581,44.29134,2.684328,16.4072511812,135, -13, 12.3,0,0,1024,1024,1684,1031,134,-90,97,4.085,4.084,4.072,4.072,0,0,76.91,6,GPS_Atti,
0.0621452645723946,36.9336462364897,5914.8475757581,46.259844,1.58151658,16.7364834752,12900,2017-11-02 06:30:02,13,16.178,5914.8475757581,46.259844,2.684328,16.7364834752,135.4, -12.9, 12.9,0,0,1024,1024,1684,1045,134.4,-90,97,4.085,4.084,4.072,4.072,0,0,76.91,6,GPS_Atti,
0.0621460275537743,36.9336466163833,5916.4879957581,47.900264,1.58151658,17.0468837476,13000,2017-11-02 06:30:02,13,16.178,5916.4879957581,47.900264,2.684328,17.0468837476,135.7, -12.2, 13.3,0,0,1024,1024,1684,1061,134.8,-90,97,4.085,4.084,4.072,4.072,0,0,76.91,6,GPS_Atti,
0.06214676590331,36.9336470227458,5918.4564997581,49.868768,1.36005952,17.3542984556,13100,2017-11-02 06:30:03,13,16.178,5918.4564997581,49.868768,2.684328,17.3542984556,136, -11, 13.1,0,0,1024,1024,1684,1025,135.1,-90,97,4.085,4.084,4.072,4.072,0,0,76.91,6,GPS_Atti,
0.062147460135041,36.9336473618548,5920.4250037581,51.837272,1.36005952,17.6355648688,13200,2017-11-02 06:30:03,13,16.178,5920.4250037581,51.837272,2.684328,17.6355648688,136.5, -10.2, 12.1,0,0,1024,1024,1684,1038,135.7,-89.9,97,4.085,4.084,4.072,4.072,0,0,76.91,6,GPS_Atti,
0.0621488250316614,36.9336479491145,5924.3620117581,55.77428,1.342164,18.1742459884,13400,2017-11-02 06:30:03,13,16.178,5924.3620117581,55.77428,2.684328,18.1742459884,136.7, -10.8, 10.6,0,0,1024,1024,1684,1039,135.9,-90,97,4.085,4.084,4.072,4.072,0,0,76.91,6,GPS_Atti,
0.0621494910001184,36.9336482291556,5926.0024317581,57.4147,1.342164,18.4359914036,13500,2017-11-02 06:30:03,13,16.178,5926.0024317581,57.4147,2.684328,18.4359914036,136.6, -11.2, 10.9,0,0,1024,1024,1684,1038,135.9,-90,97,4.085,4.084,4.072,4.072,0,0,76.91,6,GPS_Atti,
0.0621501436609311,36.9336484599373,5927.9709357581,59.383204,1.342164,18.684711884,13600,2017-11-02 06:30:03,13,16.258,5927.9709357581,59.383204,2.684328,18.684711884,136.3, -12.7, 11.4,0,0,1024,1024,1684,1038,136.1,-90,97,4.085,4.084,4.072,4.072,0,0,76.91,6,GPS_Atti,
0.062150802796437,36.9336487258703,5929.9394397581,61.351708,1.342164,18.9418641232,13700,2017-11-02 06:30:03,13,16.258,5929.9394397581,61.351708,2.684328,18.9418641232,136, -13.6, 11.5,0,0,1024,1024,1684,1052,136.3,-90,97,4.085,4.084,4.072,4.072,0,0,76.91,6,GPS_Atti,
0.0621514385507441,36.9336490124826,5931.9079437581,63.320212,1.36005952,19.1953418216,13800,2017-11-02 06:30:03,13,16.258,5931.9079437581,63.320212,2.684328,19.1953418216,136.2, -12.3, 11.1,0,0,1024,1024,1684,1052,136.4,-90,97,4.085,4.084,4.072,4.072,0,0,76.91,6,GPS_Atti,
0.0621520725723867,36.9336493811244,5933.8764477581,65.288716,1.36005952,19.4628943236,13900,2017-11-02 06:30:03,13,16.258,5933.8764477581,65.288716,2.684328,19.4628943236,136.4, -11.7, 11.9,0,0,1024,1024,1684,1052,136.6,-90,97,4.085,4.084,4.072,4.072,0,0,76.91,6,GPS_Atti,
0.0621526995852064,36.9336497412745,5935.5168677581,66.929136,1.36005952,19.7266738596,14000,2017-11-02 06:30:03,13,16.258,5935.5168677581,66.929136,2.684328,19.7266738596,136.6, -11.7, 12.1,0,0,1024,1024,1684,1053,136.7,-89.9,97,4.085,4.084,4.072,4.072,0,0,76.91,6,GPS_Atti,
0.0621533291318849,36.9336501397769,5937.4853717581,68.89764,1.36005952,19.9981305612,14100,2017-11-02 06:30:03,13,16.258,5937.4853717581,68.89764,2.684328,19.9981305612,136.8, -11.3, 12.4,0,0,1024,1024,1684,1034,136.9,-89.9,97,4.085,4.084,4.072,4.072,0,0,76.91,6,GPS_Atti,
0.0621539320828161,36.9336505009846,5939.4538757581,70.866144,1.36005952,20.2544953988,14200,2017-11-02 06:30:04,13,16.258,5939.4538757581,70.866144,2.684328,20.2544953988,137.1, -11.1, 12.2,0,0,1024,1024,1684,1024,137,-90,97,4.085,4.084,4.072,4.072,0,0,76.91,6,GPS_Atti,
0.0621545785262296,36.9336509040776,5941.4223797581,72.834648,1.41374608,20.532152888,14300,2017-11-02 06:30:04,13,16.258,5941.4223797581,72.834648,2.684328,20.532152888,137, -11.7, 13.1,0,0,1024,1024,1684,1050,137.2,-90,97,4.085,4.084,4.072,4.072,0,0,76.91,6,GPS_Atti,
0.062155276119069,36.9336513146196,5943.3908837581,74.803152,1.62849232,20.827428488,14400,2017-11-02 06:30:04,13,16.258,5943.3908837581,74.803152,2.684328,20.827428488,137.4, -10.7, 15,0,0,1024,1024,1684,1058,137.4,-90,97,4.085,4.084,4.072,4.072,0,0,76.91,6,GPS_Atti,
0.0621559985521931,36.9336517278188,5945.6874717581,77.09974,1.58151658,21.13107023,14500,2017-11-02 06:30:04,13,16.258,5945.6874717581,77.09974,2.684328,21.13107023,137.7, -10.5, 15.7,0,0,1024,1024,1684,1046,137.7,-90,97,4.085,4.084,4.072,4.072,0,0,76.91,6,GPS_Atti,
0.0621566986723776,36.9336520333353,5947.6559757581,79.068244,1.58151658,21.4083340184,14600,2017-11-02 06:30:04,13,16.205,5947.6559757581,79.068244,2.684328,21.4083340184,137.8, -12, 13.9,0,0,1024,1024,1684,1044,137.9,-90,97,4.07,4.065,4.044,4.048,0,0,76.91,6,GPS_Atti,
0.0621573909792878,36.9336523598008,5949.6244797581,81.036748,1.58151658,21.6869101428,14700,2017-11-02 06:30:04,13,16.205,5949.6244797581,81.036748,2.684328,21.6869101428,138.1, -12.2, 11.9,0,0,1024,1024,1684,1052,137.9,-90,97,4.07,4.065,4.044,4.048,0,0,76.91,6,GPS_Atti,
0.0621580947895263,36.9336526995971,5951.5929837581,83.005252,1.62849232,21.9715230128,14800,2017-11-02 06:30:04,13,16.205,5951.5929837581,83.005252,2.684328,21.9715230128,138.2, -13.3, 13.4,0,0,1024,1024,1684,1044,138.1,-90,97,4.07,4.065,4.044,4.048,0,0,76.91,6,GPS_Atti,
0.0621588184602679,36.9336531089358,5953.5614877581,84.973756,1.62849232,22.2748694792,14900,2017-11-02 06:30:04,13,16.205,5953.5614877581,84.973756,2.684328,22.2748694792,138.5, -13.5, 15.7,0,0,1024,1024,1684,1038,138.4,-90,97,4.07,4.065,4.044,4.048,0,0,76.91,6,GPS_Atti,
0.0621594890600196,36.9336534866775,5955.5299917581,86.94226,1.41374608,22.5556765748,15000,2017-11-02 06:30:04,13,16.205,5955.5299917581,86.94226,2.684328,22.5556765748,138.6, -13.7, 16.7,0,0,1024,1024,1684,1033,138.7,-90,97,4.07,4.065,4.044,4.048,0,0,76.91,6,GPS_Atti,
0.0621600664476369,36.9336538679522,5957.1704117581,88.58268,1.1408394,22.8074482364,15100,2017-11-02 06:30:05,13,16.205,5957.1704117581,88.58268,2.684328,22.8074482364,138.5, -14.5, 16.2,0,0,1024,1024,1684,1034,139.1,-90,97,4.07,4.065,4.044,4.048,0,0,76.91,6,GPS_Atti,
0.0621605273363707,36.9336542167049,5959.1389157581,90.551184,0.99991218,23.0163721276,15200,2017-11-02 06:30:05,13,16.205,5959.1389157581,90.551184,2.684328,23.0163721276,138.6, -14.3, 16,0,0,1024,1024,1684,1038,139.4,-90,97,4.07,4.065,4.044,4.048,0,0,76.91,6,GPS_Atti,
0.0621608742079696,36.9336546124109,5960.7793357581,92.191604,0.80753534,23.197507304,15300,2017-11-02 06:30:05,13,16.205,5960.7793357581,92.191604,2.684328,23.197507304,138.9, -12.9, 15.7,0,0,1024,1024,1684,1055,139.7,-90,97,4.07,4.065,4.044,4.048,0,0,76.91,6,GPS_Atti,
0.0621611253270615,36.9336549719015,5962.7478397581,94.160108,0.63305402,23.3419298808,15400,2017-11-02 06:30:05,13,16.205,5962.7478397581,94.160108,2.684328,23.3419298808,139.2, -11.8, 15.4,0,0,1024,1024,1684,1053,139.9,-89.9,97,4.07,4.065,4.044,4.048,0,0,76.91,6,GPS_Atti,
0.0621613278143018,36.9336553255403,5964.7163437581,96.128612,0.50107456,23.4701122996,15500,2017-11-02 06:30:05,13,16.205,5964.7163437581,96.128612,2.684328,23.4701122996,139.5, -10.6, 14.3,0,0,1024,1024,1684,1052,140,-90,97,4.07,4.065,4.044,4.048,0,0,76.91,6,GPS_Atti,
0.0621615248495117,36.9336556038085,5966.3567637581,97.769032,0.50107456,23.5830716208,15600,2017-11-02 06:30:05,13,15.992,5966.3567637581,97.769032,2.684328,23.5830716208,139.6, -11.2, 14.8,0,0,1024,1024,1684,1041,140.1,-90,97,4.05,4.04,4.02,4.015,0,0,76.91,6,GPS_Atti,
0.0621616906576794,36.9336558795416,5967.9971837581,99.409452,0.31540854,23.6857947212,15700,2017-11-02 06:30:05,13,15.992,5967.9971837581,99.409452,2.684328,23.6857947212,139.6, -11.6, 15.3,0,0,1024,1024,1684,1039,140.3,-90,97,4.05,4.04,4.02,4.015,0,0,76.91,6,GPS_Atti,
0.0621618432559095,36.933656119618,5969.9656877581,101.377956,0.31540854,23.7779535168,15800,2017-11-02 06:30:05,13,15.992,5969.9656877581,101.377956,2.684328,23.7779535168,139.5, -12.4, 16.3,0,0,1024,1024,1684,1044,140.5,-89.9,97,4.05,4.04,4.02,4.015,0,0,76.91,6,GPS_Atti,
0.0621619830936524,36.9336563822687,5971.6061077581,103.018376,0.31540854,23.8703419712,15900,2017-11-02 06:30:05,13,15.992,5971.6061077581,103.018376,2.684328,23.8703419712,139.6, -11.3, 16.8,0,0,1024,1024,1684,1032,140.5,-89.9,97,4.05,4.04,4.02,4.015,0,0,76.91,6,GPS_Atti,
0.0621620920756385,36.9336566034923,5973.2465277581,104.658796,0.31540854,23.9455060156,16000,2017-11-02 06:30:05,13,15.992,5973.2465277581,104.658796,2.684328,23.9455060156,139.5, -11.2, 16.8,0,0,1024,1024,1684,1028,140.6,-90,97,4.05,4.04,4.02,4.015,0,0,76.91,6,GPS_Atti,
0.0621621666518597,36.9336568316512,5974.8869477581,106.299216,0.223694,24.0112540492,16100,2017-11-02 06:30:05,13,15.992,5974.8869477581,106.299216,2.684328,24.0112540492,139.5, -10.8, 17,0,0,1024,1024,1684,1034,140.8,-89.9,97,4.05,4.04,4.02,4.015,0,0,76.91,6,GPS_Atti,
0.0621621756148155,36.9336570466891,5976.5273677581,107.939636,0.223694,24.0541018196,16200,2017-11-02 06:30:06,13,15.992,5976.5273677581,107.939636,2.684328,24.0541018196,140.6, -6.9, 16.6,0,0,1024,1024,1684,1035,140.9,-89.9,97,4.05,4.04,4.02,4.015,0,0,76.91,6,GPS_Atti,
0.0621621111870572,36.9336571793911,5977.8397037581,109.251972,0,24.0587606124,16300,2017-11-02 06:30:06,13,15.992,5977.8397037581,109.251972,2.684328,24.0587606124,141.2, -4.9, 14.5,0,0,1024,1024,1684,1032,140.9,-89.9,97,4.05,4.04,4.02,4.015,0,0,76.91,6,GPS_Atti,
0.0621620931048151,36.9336571460449,5979.4801237581,110.892392,0.223694,24.0468511632,16400,2017-11-02 06:30:06,13,15.992,5979.4801237581,110.892392,2.684328,24.0587606124,140.5, -9.3, 12.4,0,0,1024,1024,1684,1030,141,-90,97,4.05,4.04,4.02,4.015,0,0,76.91,6,GPS_Atti,
0.0621621439774055,36.9336570776779,5981.1205437581,112.532812,0.223694,24.0500007696,16500,2017-11-02 06:30:06,13,15.992,5981.1205437581,112.532812,2.684328,24.0587606124,139.7, -13.2, 13.1,0,0,1024,1024,1684,1029,141.1,-89.9,97,4.05,4.04,4.02,4.015,0,0,76.91,6,GPS_Atti,
0.0621621837179528,36.9336570104801,5983.0890477581,114.501316,0.223694,24.0499023444,16600,2017-11-02 06:30:06,13,15.913,5983.0890477581,114.501316,2.684328,24.0587606124,139.5, -13.1, 13.7,0,0,1024,1024,1684,1024,141.2,-89.9,97,4.059,4.047,4.023,4.009,0,0,76.91,6,GPS_Atti,
0.0621621981524804,36.9336570120517,5984.4013837581,115.813652,0.223694,24.0547251792,16700,2017-11-02 06:30:06,13,15.913,5984.4013837581,115.813652,2.684328,24.0587606124,139.7, -12.2, 13.7,0,0,1024,1024,1684,1024,141.2,-89.9,97,4.059,4.047,4.023,4.009,0,0,76.91,6,GPS_Atti,
0.0621621921923754,36.9336570531232,5986.3698877581,117.782156,0,24.0604994576,16800,2017-11-02 06:30:06,13,15.913,5986.3698877581,117.782156,2.684328,24.0604994576,140.1, -10.6, 12.3,0,0,1024,1024,1684,1024,141.3,-90,97,4.059,4.047,4.023,4.009,0,0,76.91,6,GPS_Atti,
0.0621621849360289,36.9336570991794,5988.0103077581,119.422576,0,24.0668314788,16900,2017-11-02 06:30:06,13,15.913,5988.0103077581,119.422576,2.684328,24.0668314788,140.1, -10.7, 12.7,0,0,1024,1024,1684,1024,141.3,-90,97,4.059,4.047,4.023,4.009,0,0,76.91,6,GPS_Atti,
0.0621621316793965,36.9336572281794,5989.6507277581,121.062996,0,24.074311794,17000,2017-11-02 06:30:06,13,15.913,5989.6507277581,121.062996,2.684328,24.074311794,140, -10.3, 15.5,0,0,1024,1024,1684,1024,141.4,-89.9,97,4.059,4.047,4.023,4.009,0,0,76.91,6,GPS_Atti,
0.0621620267750342,36.9336572916452,5991.2911477581,122.703416,0.223694,24.0534128432,17100,2017-11-02 06:30:06,13,15.913,5991.2911477581,122.703416,2.684328,24.074311794,140.3, -9.2, 14.8,0,0,1024,1024,1684,1024,141.4,-89.9,97,4.059,4.047,4.023,4.009,0,0,76.91,6,GPS_Atti,
0.0621618873867418,36.9336572119302,5992.9315677581,124.343836,0.447388,23.9948498492,17200,2017-11-02 06:30:07,13,15.913,5992.9315677581,124.343836,2.684328,24.074311794,140.6, -8.7, 11.7,0,0,1024,1024,1684,1024,141.4,-90,97,4.059,4.047,4.023,4.009,0,0,76.91,6,GPS_Atti,
0.0621617758708969,36.9336570782839,5994.5719877581,125.984256,0.671082,23.934876094,17300,2017-11-02 06:30:07,13,15.913,5994.5719877581,125.984256,2.684328,24.074311794,140.3, -11.2, 11.2,0,0,1024,1024,1684,1024,141.5,-90,97,4.059,4.047,4.023,4.009,0,0,76.91,6,GPS_Atti,
0.0621617651296803,36.9336568973203,5996.5404917581,127.95276,0.447388,23.8975729432,17400,2017-11-02 06:30:07,13,15.913,5996.5404917581,127.95276,2.684328,24.074311794,139.8, -13.9, 11.5,0,0,1024,1024,1684,1024,141.5,-90,97,4.059,4.047,4.023,4.009,0,0,76.91,6,GPS_Atti,
0.0621618107130847,36.9336567378046,5998.5089957581,129.921264,0.50107456,23.8820873784,17500,2017-11-02 06:30:07,13,15.913,5998.5089957581,129.921264,2.684328,24.074311794,139.7, -14.4, 12.6,0,0,1024,1024,1684,1024,141.6,-89.9,97,4.059,4.047,4.023,4.009,0,0,76.91,6,GPS_Atti,
0.0621618840582023,36.9336566768032,6000.4774997581,131.889768,0.50107456,23.8937343604,17600,2017-11-02 06:30:07,13,16.152,6000.4774997581,131.889768,2.684328,24.074311794,139.9, -13.9, 13.1,0,0,1024,1024,1684,1024,141.6,-89.9,97,4.059,4.047,4.023,4.009,0,0,76.91,6,GPS_Atti,
0.0621620059439786,36.9336565787835,6002.4460037581,133.858272,0.63305402,23.9138459096,17700,2017-11-02 06:30:07,13,16.152,6002.4460037581,133.858272,2.684328,24.074311794,139.9, -14.2, 13.6,0,0,1024,1024,1684,1024,141.7,-90,97,4.059,4.047,4.023,4.009,0,0,76.91,6,GPS_Atti,
0.0621621720452663,36.9336565890139,6004.4145077581,135.826776,0.63305402,23.9679797696,17800,2017-11-02 06:30:07,13,16.152,6004.4145077581,135.826776,2.684328,24.074311794,139.5, -15.6, 14.8,0,0,1024,1024,1684,1024,141.8,-90,97,4.059,4.047,4.023,4.009,0,0,76.91,6,GPS_Atti,
0.0621623658105606,36.9336565324318,6006.3830117581,137.79528,0.63305402,24.018537514,17900,2017-11-02 06:30:07,13,16.152,6006.3830117581,137.79528,2.684328,24.074311794,139.4, -16.1, 15.3,0,0,1024,1024,1684,1024,141.9,-89.9,97,4.059,4.047,4.023,4.009,0,0,76.91,6,GPS_Atti,
0.0621624706693264,36.9336565407566,6008.3515157581,139.763784,0.31540854,24.0530847592,18000,2017-11-02 06:30:07,13,16.152,6008.3515157581,139.763784,2.684328,24.074311794,139.5, -15.8, 15.1,0,0,1024,1024,1684,1024,142,-89.9,97,4.059,4.047,4.023,4.009,0,0,76.91,6,GPS_Atti,
0.0621625462486692,36.9336565426473,6009.9919357581,141.404204,0.31540854,24.07726455,18100,2017-11-02 06:30:07,13,16.152,6009.9919357581,141.404204,2.684328,24.07726455,139.6, -15.3, 14,0,0,1024,1024,1684,1024,142,-90,97,4.059,4.047,4.023,4.009,0,0,76.91,6,GPS_Atti,
0.0621626052113694,36.9336565100868,6011.9604397581,143.372708,0.31540854,24.0898629756,18200,2017-11-02 06:30:08,13,16.152,6011.9604397581,143.372708,2.684328,24.0898629756,139.5, -15.3, 13.5,0,0,1024,1024,1684,1024,142.1,-90,97,4.059,4.047,4.023,4.009,0,0,76.91,6,GPS_Atti,
0.0621626115492735,36.9336565338686,6013.6008597581,145.013128,0.223694,24.0962278052,18300,2017-11-02 06:30:08,13,16.152,6013.6008597581,145.013128,2.684328,24.0962278052,139.7, -14.2, 13.9,0,0,1024,1024,1684,1024,142.1,-90,97,4.059,4.047,4.023,4.009,0,0,76.91,6,GPS_Atti,
0.0621625988604379,36.9336565072819,6015.2412797581,146.653548,0.223694,24.0873695372,18400,2017-11-02 06:30:08,13,16.152,6015.2412797581,146.653548,2.684328,24.0962278052,139.7, -13.9, 13.8,0,0,1024,1024,1684,1024,142.1,-90,97,4.059,4.047,4.023,4.009,0,0,76.91,6,GPS_Atti,
0.0621625392203049,36.9336564723619,6017.2097837581,148.622052,0.223694,24.0621398776,18500,2017-11-02 06:30:08,13,16.152,6017.2097837581,148.622052,2.684328,24.0962278052,139.6, -14.7, 13.5,0,0,1024,1024,1684,1024,142.1,-90,97,4.059,4.047,4.023,4.009,0,0,76.91,6,GPS_Atti,
0.0621624640578438,36.9336563995199,6019.1782877581,150.590556,0.223694,24.0250663856,18600,2017-11-02 06:30:08,13,16.098,6019.1782877581,150.590556,2.684328,24.0962278052,139.5, -15.2, 13.6,0,0,1024,1024,1684,1024,142.2,-90,97,4.057,4.044,4.034,4.032,0,0,76.91,6,GPS_Atti,
0.0621623604888056,36.9336563522797,6020.8187077581,152.230976,0.223694,23.9837278016,18700,2017-11-02 06:30:08,13,16.098,6020.8187077581,152.230976,2.684328,24.0962278052,139.6, -15.2, 13.4,0,0,1024,1024,1684,1024,142.2,-90,97,4.057,4.044,4.034,4.032,0,0,76.91,6,GPS_Atti,
0.0621622854175373,36.9336562918393,6022.7872117581,154.19948,0.223694,23.948983706,18800,2017-11-02 06:30:08,13,16.098,6022.7872117581,154.19948,2.684328,24.0962278052,139.6, -14.7, 13,0,0,1024,1024,1684,1024,142.2,-90,97,4.057,4.044,4.034,4.032,0,0,76.91,6,GPS_Atti,
0.062162181620517,36.933656259872,6024.4276317581,155.8399,0.223694,23.9103682192,18900,2017-11-02 06:30:08,13,16.098,6024.4276317581,155.8399,2.684328,24.0962278052,139.7, -14.1, 12.4,0,0,1024,1024,1684,1024,142.2,-90,97,4.057,4.044,4.034,4.032,0,0,76.91,6,GPS_Atti,
0.0621621041391516,36.933656214471,6026.3961357581,157.808404,0.223694,23.877625436,19000,2017-11-02 06:30:08,13,16.098,6026.3961357581,157.808404,2.684328,24.0962278052,139.8, -14.3, 12.4,0,0,1024,1024,1684,1024,142.2,-90,97,4.057,4.044,4.034,4.032,0,0,76.91,6,GPS_Atti,
0.0621620535987637,36.9336561654044,6028.3646397581,159.776908,0.223694,23.852691052,19100,2017-11-02 06:30:08,13,16.098,6028.3646397581,159.776908,2.684328,24.0962278052,139.7, -14.7, 12.7,0,0,1024,1024,1684,1024,142.2,-90,97,4.057,4.044,4.034,4.032,0,0,76.91,6,GPS_Atti,
0.0621619762020774,36.9336561654472,6030.0050597581,161.417328,0.223694,23.8282816024,19200,2017-11-02 06:30:09,13,16.098,6030.0050597581,161.417328,2.684328,24.0962278052,139.5, -15, 13.4,0,0,1024,1024,1684,1024,142.3,-90,97,4.057,4.044,4.034,4.032,0,0,76.91,6,GPS_Atti,
0.0621619092274327,36.9336561568634,6031.9735637581,163.385832,0.223694,23.8055781896,19300,2017-11-02 06:30:09,13,16.098,6031.9735637581,163.385832,2.684328,24.0962278052,139.4, -15, 13.8,0,0,1024,1024,1684,1024,142.3,-89.9,97,4.057,4.044,4.034,4.032,0,0,76.91,6,GPS_Atti,
0.0621618558144696,36.9336561070281,6033.6139837581,165.026252,0.223694,23.7795939368,19400,2017-11-02 06:30:09,13,16.098,6033.6139837581,165.026252,2.684328,24.0962278052,139.5, -14.9, 12.7,0,0,1024,1024,1684,1024,142.3,-90,97,4.057,4.044,4.034,4.032,0,0,76.91,6,GPS_Atti,
0.0621617769196149,36.9336560766216,6035.2544037581,166.666672,0.223694,23.7491477416,19500,2017-11-02 06:30:09,13,16.098,6035.2544037581,166.666672,2.684328,24.0962278052,139.4, -15.5, 12.8,0,0,1024,1024,1684,1024,142.3,-90,97,4.057,4.044,4.034,4.032,0,0,76.91,6,GPS_Atti,
0.0621617118339652,36.9336560459325,6037.2229077581,168.635176,0.223694,23.7229666384,19600,2017-11-02 06:30:09,13,15.833,6037.2229077581,168.635176,2.684328,24.0962278052,139.3, -16, 13.4,0,0,1024,1024,1684,1024,142.3,-90,97,4.002,3.996,3.981,3.986,0,0,76.91,6,GPS_Atti,
0.0621616384693062,36.9336560442603,6038.8633277581,170.275596,0.223694,23.6995414408,19700,2017-11-02 06:30:09,13,15.833,6038.8633277581,170.275596,2.684328,24.0962278052,139.3, -15.9, 13.9,0,0,1024,1024,1684,1024,142.3,-90,97,4.002,3.996,3.981,3.986,0,0,76.91,6,GPS_Atti,
0.062161576510269,36.9336560291202,6040.5037477581,171.916016,0,23.6772317288,19800,2017-11-02 06:30:09,13,15.833,6040.5037477581,171.916016,2.684328,24.0962278052,139.5, -14.8, 13.8,0,0,1024,1024,1684,1024,142.3,-90,97,4.002,3.996,3.981,3.986,0,0,76.91,6,GPS_Atti,
0.06216148901723,36.9336560268077,6042.1441677581,173.556436,0.223694,23.6492461636,19900,2017-11-02 06:30:09,13,15.833,6042.1441677581,173.556436,2.684328,24.0962278052,139.7, -14, 13.4,0,0,1024,1024,1684,1024,142.4,-90,97,4.002,3.996,3.981,3.986,0,0,76.91,6,GPS_Atti,
0.0621614188638626,36.9336560006515,6043.7845877581,175.196856,0.223694,23.6223432756,20000,2017-11-02 06:30:09,13,15.833,6043.7845877581,175.196856,2.684328,24.0962278052,139.7, -14.1, 13.1,0,0,1024,1024,1684,1024,142.4,-90,97,4.002,3.996,3.981,3.986,0,0,76.91,6,GPS_Atti,
0.0621613366013856,36.9336559849804,6045.4250077581,176.837276,0.223694,23.5935375004,20100,2017-11-02 06:30:09,13,15.833,6045.4250077581,176.837276,2.684328,24.0962278052,139.7, -14.3, 13.1,0,0,1024,1024,1684,1024,142.4,-90,97,4.002,3.996,3.981,3.986,0,0,76.91,6,GPS_Atti,
0.0621612679071041,36.9336559460071,6047.0654277581,178.477696,0.223694,23.5647317252,20200,2017-11-02 06:30:10,13,15.833,6047.0654277581,178.477696,2.684328,24.0962278052,139.7, -14.6, 12.8,0,0,1024,1024,1684,1024,142.4,-90,97,4.002,3.996,3.981,3.986,0,0,76.91,6,GPS_Atti,
0.0621611840292107,36.9336559077405,6048.7058477581,180.118116,0.223694,23.5312671572,20300,2017-11-02 06:30:10,13,15.833,6048.7058477581,180.118116,2.684328,24.0962278052,139.6, -15.1, 12.9,0,0,1024,1024,1684,1024,142.4,-90,97,4.002,3.996,3.981,3.986,0,0,76.91,6,GPS_Atti,
0.0621611226629271,36.9336558401615,6050.3462677581,181.758536,0.223694,23.499508626,20400,2017-11-02 06:30:10,13,15.833,6050.3462677581,181.758536,2.684328,24.0962278052,139.5, -15.6, 13,0,0,1024,1024,1684,1024,142.4,-90,97,4.002,3.996,3.981,3.986,0,0,76.91,6,GPS_Atti,
0.0621610555580069,36.9336558038819,6051.9866877581,183.398956,0.223694,23.4716871028,20500,2017-11-02 06:30:10,13,15.833,6051.9866877581,183.398956,2.684328,24.0962278052,139.5, -15.6, 13.4,0,0,1024,1024,1684,1024,142.4,-90,97,4.002,3.996,3.981,3.986,0,0,76.91,6,GPS_Atti,
0.062161011674698,36.9336557683409,6053.6271077581,185.039376,0.223694,23.4513130864,20600,2017-11-02 06:30:10,13,15.939,6053.6271077581,185.039376,2.684328,24.0962278052,139.5, -15.6, 13.2,0,0,1024,1024,1684,1024,142.5,-90,97,4.011,4.007,3.991,3.992,0,0,76.91,6,GPS_Atti,
0.0621609465499657,36.9336557619474,6055.2675277581,186.679796,0.223694,23.429626734,20700,2017-11-02 06:30:10,13,15.939,6055.2675277581,186.679796,2.684328,24.0962278052,139.5, -15.6, 12.9,0,0,1024,1024,1684,1024,142.5,-90,97,4.011,4.007,3.991,3.992,0,0,76.91,6,GPS_Atti,
0.06216089687591,36.933655753203,6057.2360317581,188.6483,0.223694,23.4123695156,20800,2017-11-02 06:30:10,13,15.939,6057.2360317581,188.6483,2.684328,24.0962278052,139.5, -15.5, 12.8,0,0,1024,1024,1684,1024,142.5,-90,97,4.011,4.007,3.991,3.992,0,0,76.91,6,GPS_Atti,
0.0621608423295499,36.9336557782587,6058.8764517581,190.28872,0.223694,23.3998367068,20900,2017-11-02 06:30:10,13,15.939,6058.8764517581,190.28872,2.684328,24.0962278052,139.5, -15.4, 13.1,0,0,1024,1024,1684,1024,142.5,-90,97,4.011,4.007,3.991,3.992,0,0,76.91,6,GPS_Atti,
0.0621608127244381,36.9336557655724,6060.5168717581,191.92914,0.223694,23.3881897248,21000,2017-11-02 06:30:10,13,15.939,6060.5168717581,191.92914,2.684328,24.0962278052,139.4, -16, 13.7,0,0,1024,1024,1684,1024,142.5,-90,97,4.011,4.007,3.991,3.992,0,0,76.91,6,GPS_Atti,
0.0621607706063625,36.9336557424651,6062.1572917581,193.56956,0.223694,23.3706700392,21100,2017-11-02 06:30:10,13,15.939,6062.1572917581,193.56956,2.684328,24.0962278052,139.4, -15.5, 13.6,0,0,1024,1024,1684,1024,142.5,-90,97,4.011,4.007,3.991,3.992,0,0,76.91,6,GPS_Atti,
0.0621606613703392,36.9336558106286,6063.7977117581,195.20998,0.223694,23.34891807,21200,2017-11-02 06:30:11,13,15.939,6063.7977117581,195.20998,2.684328,24.0962278052,139.5, -14.5, 13,0,0,1024,1024,1684,1024,142.5,-89.9,97,4.011,4.007,3.991,3.992,0,0,76.91,6,GPS_Atti,
0.0621605402141058,36.9336558537557,6065.4381317581,196.8504,0.223694,23.3188655756,21300,2017-11-02 06:30:11,13,15.939,6065.4381317581,196.8504,2.684328,24.0962278052,139.5, -14.5, 12.7,0,0,1024,1024,1684,1024,142.5,-90,97,4.011,4.007,3.991,3.992,0,0,76.91,6,GPS_Atti,
0.0621604343913011,36.9336558413905,6067.0785517581,198.49082,0.223694,23.2833340784,21400,2017-11-02 06:30:11,13,15.939,6067.0785517581,198.49082,2.684328,24.0962278052,139.5, -15, 12.4,0,0,1024,1024,1684,1024,142.5,-89.9,97,4.011,4.007,3.991,3.992,0,0,76.91,6,GPS_Atti,
0.0621603084083598,36.9336558496939,6068.7189717581,200.13124,0.223694,23.2453419512,21500,2017-11-02 06:30:11,13,15.939,6068.7189717581,200.13124,2.684328,24.0962278052,139.5, -14.8, 12,0,0,1024,1024,1684,1024,142.5,-90,97,4.011,4.007,3.991,3.992,0,0,76.91,6,GPS_Atti,
0.0621601902354358,36.9336558412364,6070.3593917581,201.77166,0.223694,23.2067264644,21600,2017-11-02 06:30:11,13,15.833,6070.3593917581,201.77166,2.684328,24.0962278052,139.5, -14.4, 11.5,0,0,1024,1024,1684,1024,142.5,-90,97,4.011,4.007,3.991,3.992,0,0,76.91,6,GPS_Atti,
0.0621600676266304,36.9336558723066,6071.9998117581,203.41208,0,23.1741149148,21700,2017-11-02 06:30:11,13,15.833,6071.9998117581,203.41208,2.684328,24.0962278052,139.7, -14.3, 11.7,0,0,1024,1024,1684,1024,142.5,-90,97,4.011,4.007,3.991,3.992,0,0,76.91,6,GPS_Atti,
0.0621599910246248,36.9336558960177,6073.6402317581,205.0525,0,23.1545611084,21800,2017-11-02 06:30:11,13,15.833,6073.6402317581,205.0525,2.684328,24.0962278052,139.5, -15, 12.7,0,0,1024,1024,1684,1024,142.5,-90,97,4.011,4.007,3.991,3.992,0,0,76.91,6,GPS_Atti,
0.0621599250791567,36.9336559618517,6075.2806517581,206.69292,0,23.1462605832,21900,2017-11-02 06:30:11,13,15.833,6075.2806517581,206.69292,2.684328,24.0962278052,139.4, -15.3, 13.4,0,0,1024,1024,1684,1024,142.6,-90,97,4.011,4.007,3.991,3.992,0,0,76.91,6,GPS_Atti,
0.0621598610943351,36.9336560196113,6076.9210717581,208.33334,0,23.1371070396,22000,2017-11-02 06:30:11,13,15.833,6076.9210717581,208.33334,2.684328,24.0962278052,139.5, -15, 13.8,0,0,1024,1024,1684,1024,142.6,-90,97,4.011,4.007,3.991,3.992,0,0,76.91,6,GPS_Atti,
0.0621597777049749,36.9336560938386,6078.2334077581,209.645676,0,23.1250335484,22100,2017-11-02 06:30:11,13,15.833,6078.2334077581,209.645676,2.684328,24.0962278052,139.7, -14, 13.1,0,0,1024,1024,1684,1024,142.6,-89.9,97,4.011,4.007,3.991,3.992,0,0,76.91,6,GPS_Atti,
0.0621597059361911,36.9336561209541,6079.8738277581,211.286096,0.223694,23.10777633,22200,2017-11-02 06:30:12,13,15.833,6079.8738277581,211.286096,2.684328,24.0962278052,139.9, -13.6, 12.4,0,0,1024,1024,1684,1024,142.6,-89.9,97,4.011,4.007,3.991,3.992,0,0,76.91,6,GPS_Atti,
0.0621596536826801,36.9336561207636,6081.5142477581,212.926516,0.223694,23.0914377468,22300,2017-11-02 06:30:12,13,15.833,6081.5142477581,212.926516,2.684328,24.0962278052,139.7, -14.4, 12.1,0,0,1024,1024,1684,1024,142.6,-90,97,4.011,4.007,3.991,3.992,0,0,76.91,6,GPS_Atti,
0.0621595794647165,36.9336561703141,6083.1546677581,214.566936,0.223694,23.0776582188,22400,2017-11-02 06:30:12,13,15.833,6083.1546677581,214.566936,2.684328,24.0962278052,139.6, -14.8, 12.6,0,0,1024,1024,1684,1024,142.6,-90,97,4.011,4.007,3.991,3.992,0,0,76.91,6,GPS_Atti,
0.0621595115716294,36.9336562239092,6084.7950877581,216.207356,0.223694,23.0666674048,22500,2017-11-02 06:30:12,13,15.833,6084.7950877581,216.207356,2.684328,24.0962278052,139.5, -15, 12.6,0,0,1024,1024,1684,1024,142.6,-90,97,4.011,4.007,3.991,3.992,0,0,76.91,6,GPS_Atti,
0.0621594488179116,36.9336562618739,6086.1074237581,217.519692,0,23.0543642548,22600,2017-11-02 06:30:12,13,15.78,6086.1074237581,217.519692,2.684328,24.0962278052,139.7, -14.6, 12.5,0,0,1024,1024,1684,1024,142.6,-90,97,3.999,3.991,3.975,3.982,0,0,76.91,6,GPS_Atti,
0.0621593718674189,36.9336563340114,6087.7478437581,219.160112,0,23.0441608424,22700,2017-11-02 06:30:12,13,15.78,6087.7478437581,219.160112,2.684328,24.0962278052,139.7, -14, 12.3,0,0,1024,1024,1684,1024,142.6,-90,97,3.999,3.991,3.975,3.982,0,0,76.91,6,GPS_Atti,
0.0621593118950834,36.9336563808148,6089.3882637581,220.800532,0,23.034449556,22800,2017-11-02 06:30:12,13,15.78,6089.3882637581,220.800532,2.684328,24.0962278052,139.7, -14.2, 12.6,0,0,1024,1024,1684,1024,142.6,-90,97,3.999,3.991,3.975,3.982,0,0,76.91,6,GPS_Atti,
0.0621592700017331,36.933656410003,6091.0286837581,222.440952,0.223694,23.0270020492,22900,2017-11-02 06:30:12,13,15.78,6091.0286837581,222.440952,2.684328,24.0962278052,139.7, -14.4, 12.6,0,0,1024,1024,1684,1024,142.6,-90,97,3.999,3.991,3.975,3.982,0,0,76.91,6,GPS_Atti,
