latitude,longitude,altitude(feet),ascent(feet),speed(mph),distance(feet),time(millisecond),datetime(utc),satellites,gpslevel,voltage(v),max_altitude(feet),max_ascent(feet),max_speed(mph),max_distance(feet), xSpeed(mph), ySpeed(mph), zSpeed(mph), compass_heading(degrees), pitch(degrees), roll(degrees),isPhoto,isVideo,rc_elevator,rc_aileron,rc_throttle,rc_rudder,gimbal_heading(degrees),gimbal_pitch(degrees),battery_percent,voltageCell1,voltageCell2,voltageCell3,voltageCell4,voltageCell5,voltageCell6,current(A),battery_temperature(f),flycStateRaw,flycState,message
0.0316474924378896,36.8843907971188,5917.0446010908,0,0,0,0,2018-04-12 05:55:14,13,0,0,5917.0446010908,0,0,0,0,0,0,73.1, -3.1, 1.3,0,0,364,364,364,1684,77.7,0,99,4.29,4.291,4.291,4.288,0,0,0,69.71,41,Motors_Started,
0.0316474638814957,36.88439079656,5917.0446010908,0,0,0.01042076805,100,2018-04-12 05:55:14,13,0,0,5917.0446010908,0,0,0.01042076805,0,0,0,73.1, -3.1, 1.3,0,0,364,364,364,1684,77.7,0,99,4.29,4.291,4.291,4.288,0,0,0,69.71,41,Motors_Started,
0.0316474405072176,36.8843907953202,5917.0446010908,0,0,0.0189582355148,200,2018-04-12 05:55:14,13,0,0,5917.0446010908,0,0,0.0189582355148,0,0,0,73.1, -3.1, 1.3,0,0,364,364,364,1684,77.7,0,99,4.29,4.291,4.291,4.288,0,0,0,69.71,41,Motors_Started,
0.0316474241486835,36.8843907951329,5917.0446010908,0,0,0.0249258210076,300,2018-04-12 05:55:14,13,0,17.134,5917.0446010908,0,0,0.0249258210076,0,0,0,73.1, -3.1, 1.3,0,0,364,364,364,1684,77.7,0,99,4.29,4.291,4.291,4.288,0,0,1.598,69.71,41,Motors_Started,Setting new Return-To-Home altitude to 45m (148 ft). Setting new Maximum Flight Altitude to 150m (492 ft)
0.0316473916950159,36.8843907943353,5917.0446010908,0,0,0.0367700143,400,2018-04-12 05:55:14,13,0,17.134,5917.0446010908,0,0,0.0367700143,0,0,0,73.1, -3.1, 1.3,0,0,364,364,364,1684,77.7,0,99,4.29,4.291,4.291,4.288,0,0,1.598,69.71,41,Motors_Started,
0.0316473547549852,36.8843907947892,5917.0446010908,0,0,0.050240815256,500,2018-04-12 05:55:14,13,0,17.134,5917.0446010908,0,0,0.050240815256,0,0,0,73.1, -3.1, 1.3,0,0,585,476,451,1611,77.7,0,99,4.29,4.291,4.291,4.288,0,0,1.598,69.71,41,Motors_Started,
0.0316473234819396,36.8843907945741,5917.0446010908,0,0,0.061650592524,600,2018-04-12 05:55:14,13,0,17.134,5917.0446010908,0,0,0.061650592524,0,0,0,73.1, -3.1, 1.3,0,0,1018,941,796,1237,77.7,0,99,4.29,4.291,4.291,4.288,0,0,1.598,69.71,41,Motors_Started,
0.0316472984934664,36.8843907957859,5917.0446010908,0,0,0.070762141372,700,2018-04-12 05:55:14,13,0,17.134,5917.0446010908,0,0,0.070762141372,0,0,0,73.1, -3.1, 1.3,0,0,1024,1024,1024,1024,77.3,0,99,4.29,4.291,4.291,4.288,0,0,1.598,69.71,41,Motors_Started,
0.031647268072097,36.8843907954872,5917.0446010908,0,0,0.08186187926,800,2018-04-12 05:55:14,13,0,17.134,5917.0446010908,0,0,0.08186187926,0,0,0,73.1, -3.1, 1.3,0,0,1024,1024,1024,1024,75.8,0,99,4.29,4.291,4.291,4.288,0,0,1.598,69.71,41,Motors_Started,
0.0316472300609573,36.8843907961392,5917.0446010908,0,0,0.095728677604,900,2018-04-12 05:55:14,13,0,17.134,5917.0446010908,0,0,0.095728677604,0,0,0,73.1, -3.1, 1.3,0,0,1024,1024,1024,1024,74.9,0,99,4.29,4.291,4.291,4.288,0,0,1.598,69.71,41,Motors_Started,
0.0316472021013881,36.8843907957859,5917.0446010908,0,0,0.1059301215,1000,2018-04-12 05:55:15,13,0,17.134,5917.0446010908,0,0,0.1059301215,0,0,0,73.1, -3.1, 1.3,0,0,1024,1024,1024,1024,74.4,0,99,4.29,4.291,4.291,4.288,0,0,1.598,69.71,41,Motors_Started,
0.0316471824106503,36.8843907963619,5917.0446010908,0,0,0.11311352068,1100,2018-04-12 05:55:15,13,0,17.134,5917.0446010908,0,0,0.11311352068,0,0,0,73.1, -3, 1.3,0,0,1024,1024,1024,1024,74.2,0,99,4.29,4.291,4.291,4.288,0,0,1.598,69.71,41,Motors_Started,
0.0316471516424224,36.8843908205589,5917.0446010908,0,0,0.124632878004,1200,2018-04-12 05:55:15,13,0,17.134,5917.0446010908,0,0,0.124632878004,0,0,0,73, -3.1, 1.3,0,0,1024,1024,1024,1024,74,0,99,4.29,4.291,4.291,4.288,0,0,1.598,69.71,41,Motors_Started,
0.0316471138112256,36.8843908506045,5917.0446010908,0,0,0.139513127824,1300,2018-04-12 05:55:15,13,0,17.134,5917.0446010908,0,0,0.139513127824,0,0,0,73, -3.1, 1.3,0,0,1024,1024,1024,1024,73.9,0,99,4.29,4.291,4.29,4.288,0,0,1.592,69.71,41,Motors_Started,
0.0316470875586729,36.8843908816789,5917.0446010908,0,0,0.15090715706,1400,2018-04-12 05:55:15,13,0,17.134,5917.0446010908,0,0,0.15090715706,0,0,0,73, -3, 1.3,0,0,1024,1024,1024,1024,73.8,0,99,4.29,4.291,4.29,4.288,0,0,1.592,69.71,41,Motors_Started,
0.0316470679021325,36.8843909008967,5917.0446010908,0,0,0.159452432924,1500,2018-04-12 05:55:15,13,0,17.134,5917.0446010908,0,0,0.159452432924,0,0,0,73, -3.1, 1.3,0,0,1024,1024,1024,1024,73.7,0,99,4.29,4.291,4.29,4.288,0,0,1.592,69.71,41,Motors_Started,
0.0316470632284982,36.8843908917958,5917.0446010908,0,0,0.160361225604,1600,2018-04-12 05:55:15,13,0,17.134,5917.0446010908,0,0,0.160361225604,0,0,0,73, -3.1, 1.3,0,0,1024,1024,1024,1024,73.7,0,99,4.29,4.291,4.29,4.288,0,0,1.592,69.71,10,Assisted_Takeoff,
0.0316470548074072,36.8843908727771,5917.0446010908,0,0,0.162037734844,1700,2018-04-12 05:55:15,13,0,17.134,5917.0446010908,0,0,0.162037734844,0,0,0,73, -3.1, 1.3,0,0,1024,1024,1024,1024,73.6,0,99,4.29,4.291,4.29,4.288,0,0,1.592,69.71,10,Assisted_Takeoff,
0.0316470345821328,36.8843908487706,5917.0446010908,0,0,0.168107945012,1800,2018-04-12 05:55:15,13,0,17.134,5917.0446010908,0,0,0.168107945012,0,0,0,73, -3.1, 1.3,0,0,1024,1024,1024,1024,73.6,0,99,4.29,4.291,4.29,4.288,0,0,1.592,69.71,10,Assisted_Takeoff,
0.031647007045959,36.884390836929,5917.0446010908,0,0,0.177689638232,1900,2018-04-12 05:55:15,13,0,17.134,5917.0446010908,0,0,0.177689638232,0,0,0,73, -3.1, 1.3,0,0,1024,1024,1024,1024,73.6,0,99,4.29,4.291,4.29,4.288,0,0,1.592,69.71,10,Assisted_Takeoff,
0.0316469900360472,36.884390823109,5917.0446010908,0,0,0.183546265716,2000,2018-04-12 05:55:16,13,0,17.134,5917.0446010908,0,0,0.183546265716,0,0,0,73, -3.1, 1.3,0,0,1024,1024,1024,1024,73.6,0,99,4.29,4.291,4.29,4.288,0,0,1.592,69.71,10,Assisted_Takeoff,
0.0316469773850729,36.8843908164822,5917.0446010908,0,0,0.1880495467,2100,2018-04-12 05:55:16,13,0,17.134,5917.0446010908,0,0,0.1880495467,0,0,0,73, -3.1, 1.3,0,0,1024,1024,1024,1024,73.5,0,99,4.29,4.291,4.29,4.288,0,0,1.592,69.71,10,Assisted_Takeoff,
0.0316469517757555,36.8843908090278,5917.0446010908,0,0,0.19730807718,2200,2018-04-12 05:55:16,13,0,17.134,5917.0446010908,0,0,0.19730807718,0,0,0,73, -3.1, 1.3,0,0,1024,1024,1024,1024,73.5,0,99,4.29,4.291,4.29,4.288,0,0,1.592,69.71,10,Assisted_Takeoff,
0.0316469198444114,36.8843908067775,5917.0446010908,0,0,0.208939967316,2300,2018-04-12 05:55:16,13,0,17.08,5917.0446010908,0,0,0.208939967316,0,0,0,73, -3.1, 1.3,0,0,1024,1024,1024,1024,73.5,0,99,4.267,4.266,4.264,4.253,0,0,3.23,69.71,10,Assisted_Takeoff,
0.031646897748869,36.8843908036878,5917.0446010908,0,0,0.216985243164,2400,2018-04-12 05:55:16,13,0,17.08,5917.0446010908,0,0,0.216985243164,0,0,0,73, -3.1, 1.3,0,0,1024,1024,1024,1024,73.5,0,99,4.267,4.266,4.264,4.253,0,0,3.23,69.71,10,Assisted_Takeoff,
0.0316468824402741,36.8843908036578,5917.0446010908,0,0,0.222570217096,2500,2018-04-12 05:55:16,13,0,17.08,5917.0446010908,0,0,0.222570217096,0,0,0,73, -3.1, 1.3,0,0,1024,1024,1024,1024,73.5,0,99,4.267,4.266,4.264,4.253,0,0,3.23,69.71,10,Assisted_Takeoff,
0.0316468786118023,36.8843908022586,5917.0446010908,0,0,0.223961949424,2600,2018-04-12 05:55:16,13,0,17.08,5917.0446010908,0,0,0.223961949424,0,0,0,73, -3.1, 1.3,0,0,1024,1024,1024,1024,73.5,0,99,4.267,4.266,4.264,4.253,0,0,3.23,69.71,10,Assisted_Takeoff,
0.0316468726052866,36.8843908032029,5917.0446010908,0,0,0.2261565033,2700,2018-04-12 05:55:16,13,0,17.08,5917.0446010908,0,0,0.2261565033,0,0,0,73, -3.1, 1.3,0,0,1024,1024,1024,1024,73.5,0,99,4.267,4.266,4.264,4.253,0,0,3.23,69.71,10,Assisted_Takeoff,
0.0316468513589778,36.8843908031782,5917.0446010908,0,0,0.233907815884,2800,2018-04-12 05:55:16,13,0,17.08,5917.0446010908,0,0,0.233907815884,0,0,0,73, -3.1, 1.3,0,0,1024,1024,1024,1024,73.5,0,99,4.267,4.266,4.264,4.253,0,0,3.23,69.71,10,Assisted_Takeoff,
0.0316468224703813,36.8843908055099,5917.0446010908,0,0,0.244456372652,2900,2018-04-12 05:55:16,13,0,17.08,5917.0446010908,0,0,0.244456372652,0,0,0,73, -3.1, 1.3,0,0,1024,1024,1024,1024,73.5,0,99,4.267,4.266,4.264,4.253,0,0,3.23,69.71,10,Assisted_Takeoff,
0.0316468029404524,36.8843908069242,5917.0446010908,0,0,0.251588262644,3000,2018-04-12 05:55:16,13,0,17.08,5917.0446010908,0,0,0.251588262644,0,0,0,73, -3.1, 1.3,0,0,1024,1024,1024,1024,73.5,0,99,4.267,4.266,4.264,4.253,0,0,3.23,69.71,10,Assisted_Takeoff,
0.0316467890958287,36.8843908101166,5917.0446010908,0,0,0.256657816612,3100,2018-04-12 05:55:17,13,0,17.08,5917.0446010908,0,0,0.256657816612,0,0,0,73, -3.1, 1.3,0,0,1024,1024,1024,1024,73.4,0,99,4.267,4.266,4.264,4.253,0,0,3.23,69.71,10,Assisted_Takeoff,
0.0316467865583058,36.8843908114901,5917.0446010908,0,0,0.257593184096,3200,2018-04-12 05:55:17,13,0,17.08,5917.0446010908,0,0,0.257593184096,0,0,0,73, -3.1, 1.3,0,0,1024,1024,1024,1024,73.4,0,99,4.267,4.266,4.264,4.253,0,0,3.23,69.71,10,Assisted_Takeoff,
0.0316467834031956,36.8843908151536,5917.0446010908,0,0,0.25877461458,3300,2018-04-12 05:55:17,13,0,16.973,5917.0446010908,0,0,0.25877461458,0,0,0,73, -3.1, 1.3,0,0,1024,1024,1024,1024,73.4,0,99,4.267,4.266,4.264,4.253,0,0,3.23,69.71,10,Assisted_Takeoff,
0.0316467899100507,36.8843908165111,5917.0446010908,0,0,0.256414378284,3400,2018-04-12 05:55:17,13,0,16.973,5917.0446010908,0,0,0.25877461458,0,0,0,73, -3.1, 1.3,0,0,1024,1024,1024,1024,73.4,0,99,4.267,4.266,4.264,4.253,0,0,3.23,69.71,10,Assisted_Takeoff,
0.0316467928208943,36.8843908206467,5917.0446010908,0,0,0.255399286388,3500,2018-04-12 05:55:17,13,0,16.973,5917.0446010908,0,0,0.25877461458,0,0,0,73, -3.1, 1.3,0,0,1024,1024,1024,1024,73.4,0,99,4.267,4.266,4.264,4.253,0,0,3.23,69.71,10,Assisted_Takeoff,
0.0316467796150277,36.8843908227997,5917.0446010908,0,0,0.260241806228,3600,2018-04-12 05:55:17,13,0,16.973,5917.0446010908,0,0,0.260241806228,0,0,0,73, -3.1, 1.3,0,0,1024,1024,1024,1024,73.4,0,99,4.267,4.266,4.264,4.253,0,0,3.23,69.71,10,Assisted_Takeoff,
0.0316467555714592,36.8843908271665,5917.0446010908,0,0,0.269068578164,3700,2018-04-12 05:55:17,13,0,16.973,5917.0446010908,0,0,0.269068578164,0,0,0,73, -3.1, 1.3,0,0,1024,1024,1024,1024,73.4,0,99,4.267,4.266,4.264,4.253,0,0,3.23,69.71,10,Assisted_Takeoff,
0.031646735556254,36.8843908284137,5917.0446010908,0,0,0.276383867112,3800,2018-04-12 05:55:17,13,0,16.973,5917.0446010908,0,0,0.276383867112,0,0,0,73, -3.1, 1.3,0,0,1024,1024,1024,1024,73.4,0,99,4.267,4.266,4.264,4.253,0,0,3.23,69.71,10,Assisted_Takeoff,
0.0316467224020906,36.884390833333,5917.0446010908,0,0,0.281257554932,3900,2018-04-12 05:55:17,13,0,16.973,5917.0446010908,0,0,0.281257554932,0,0,0,73, -3.1, 1.3,0,0,1024,1024,1024,1024,73.4,0,99,4.267,4.266,4.264,4.253,0,0,3.23,69.71,10,Assisted_Takeoff,
0.031646715992535,36.8843908343265,5917.0446010908,0,0,0.28361057338,4000,2018-04-12 05:55:18,13,0,16.973,5917.0446010908,0,0,0.28361057338,0,0,0,73, -3.1, 1.3,0,0,1024,1024,1024,1024,73.4,0,99,4.267,4.266,4.264,4.253,0,0,3.23,69.71,10,Assisted_Takeoff,
0.0316467106300689,36.8843908398399,5917.0446010908,0,0,0.28566766006,4100,2018-04-12 05:55:18,13,0,16.973,5917.0446010908,0,0,0.28566766006,0,0,0,73, -3.2, 1.3,0,0,1024,1024,1024,1024,73.4,0,99,4.267,4.266,4.264,4.253,0,0,3.23,69.71,10,Assisted_Takeoff,
0.0316467117292686,36.8843908404544,5917.0446010908,0,0,0.285279536688,4200,2018-04-12 05:55:18,13,0,16.973,5917.0446010908,0,0,0.28566766006,0,0,0,73, -3.1, 1.3,0,0,1024,1024,1024,1024,73.4,0,99,4.267,4.266,4.264,4.253,0,0,3.23,69.71,10,Assisted_Takeoff,
0.0316467115000651,36.8843908446425,5917.0446010908,0,0,0.285451780788,4300,2018-04-12 05:55:18,13,0,17.107,5917.0446010908,0,0,0.28566766006,0,0,0,73, -3.1, 1.3,0,0,1024,1024,1024,1024,73.4,0,99,4.28,4.282,4.282,4.282,0,0,2.234,69.71,10,Assisted_Takeoff,
0.031646717067308,36.8843908433289,5917.0446010908,0,0,0.283395350276,4400,2018-04-12 05:55:18,13,0,17.107,5917.0446010908,0,0,0.28566766006,0,0,0,73, -3.2, 1.3,0,0,1024,1024,1024,1024,73.4,0,99,4.28,4.282,4.282,4.282,0,0,2.234,69.71,10,Assisted_Takeoff,
0.0316467192746639,36.8843908462601,5917.0446010908,0,0,0.28265748936,4500,2018-04-12 05:55:18,13,0,17.107,5917.0446010908,0,0,0.28566766006,0,0,0,73, -3.1, 1.3,0,0,1024,1024,1025,1024,73.4,0,99,4.28,4.282,4.282,4.282,0,0,2.234,69.71,10,Assisted_Takeoff,
0.0316467256821839,36.8843908190045,5917.0446010908,0,0,0.279864182184,4600,2018-04-12 05:55:18,13,0,17.107,5917.0446010908,0,0,0.28566766006,0,0,0,73, -3.2, 1.3,0,0,1024,1024,1025,1024,73.4,0,99,4.28,4.282,4.282,4.282,0,0,2.234,69.71,10,Assisted_Takeoff,
0.0316467279994597,36.8843907917445,5917.0446010908,0,0,0.278911754332,4700,2018-04-12 05:55:18,13,0,17.107,5917.0446010908,0,0,0.28566766006,0,0,0,73, -3.2, 1.3,0,0,1024,1024,1024,1024,73.4,0,99,4.28,4.282,4.282,4.282,0,0,2.234,69.71,10,Assisted_Takeoff,
0.0316467334987151,36.8843907596991,5917.0446010908,0,0,0.277234917008,4800,2018-04-12 05:55:18,13,0,17.107,5917.0446010908,0,0,0.28566766006,0,0,0,73, -3.2, 1.3,0,0,1024,1024,1045,1024,73.4,0,99,4.28,4.282,4.282,4.282,0,0,2.234,69.71,10,Assisted_Takeoff,
0.0316467355591038,36.8843907440356,5917.0446010908,0,0,0.276825140092,4900,2018-04-12 05:55:18,13,0,17.107,5917.0446010908,0,0,0.28566766006,0,0,0,73, -3.2, 1.3,0,0,1024,1024,1087,1024,73.4,0,99,4.28,4.282,4.282,4.282,0,0,2.234,69.71,10,Assisted_Takeoff,
0.0316467156501546,36.8843907279514,5917.0446010908,0,0,0.284531833252,5000,2018-04-12 05:55:19,13,0,17.107,5917.0446010908,0,0,0.28566766006,0,0,0,73, -3.2, 1.3,0,0,1024,1024,1161,1024,73.4,0,99,4.28,4.282,4.282,4.282,0,0,2.234,69.71,10,Assisted_Takeoff,
0.031646686944351,36.8843907214712,5917.0446010908,0,0,0.2951771748,5100,2018-04-12 05:55:19,13,0,17.107,5917.0446010908,0,0,0.2951771748,0,0,0,73, -3.2, 1.3,0,0,1024,1024,1212,1024,73.4,0,99,4.28,4.282,4.282,4.282,0,0,2.234,69.71,10,Assisted_Takeoff,
0.0316466594252759,36.8843906880009,5917.0446010908,0,0,0.3065206791,5200,2018-04-12 05:55:19,13,0,17.107,5917.0446010908,0,0,0.3065206791,0,0,0,73, -3.2, 1.4,0,0,1024,1024,1241,1024,73.4,0,99,4.28,4.282,4.282,4.282,0,0,2.234,69.71,10,Assisted_Takeoff,
0.0316466404070855,36.8843906588835,5917.0446010908,0,0,0.3149278316,5300,2018-04-12 05:55:19,13,0,17.134,5917.0446010908,0,0,0.3149278316,0,0,0,73, -3, 1.4,0,0,1024,1024,1247,1024,73.4,0,99,4.283,4.284,4.285,4.281,0,0,2.068,69.71,10,Assisted_Takeoff,
0.0316466254453492,36.8843906557093,5917.0446010908,0,0,0.320501650676,5400,2018-04-12 05:55:19,13,0,17.134,5917.0446010908,0,0,0.320501650676,0,0,0,73, -3, 1.5,0,0,1024,1024,1252,1024,73.4,0,99,4.283,4.284,4.285,4.281,0,0,2.068,69.71,10,Assisted_Takeoff,
0.0316466130850521,36.8843906730696,5917.0446010908,0,0,0.324007884384,5500,2018-04-12 05:55:19,13,0,17.134,5917.0446010908,0,0,0.324007884384,0,0,0,72.8, -2.7, 1.5,0,0,1024,1024,1264,1024,73.4,0,99,4.283,4.284,4.285,4.281,0,0,2.068,69.71,10,Assisted_Takeoff,
0.0316466039413391,36.8843907097688,5917.0446010908,0,0,0.325730325384,5600,2018-04-12 05:55:19,13,0,17.134,5917.0446010908,0,0,0.325730325384,0,0,0,72.7, -0.9, 0.4,0,0,1024,1024,1281,1024,73.4,0,99,4.283,4.284,4.285,4.281,0,0,2.068,69.71,10,Assisted_Takeoff,
0.0316465905628575,36.8843907720096,5917.0446010908,0,0,0.32917651972,5700,2018-04-12 05:55:19,13,0,17.134,5917.0446010908,0,0,0.32917651972,0,0,-0.223694,72.6, 1.5, -1.1,0,0,1024,1024,1306,1024,73.4,0,99,4.283,4.284,4.285,4.281,0,0,2.068,69.71,10,Assisted_Takeoff,
0.0316465749652137,36.884390794725,5917.0446010908,0,0,0.33474082436,5800,2018-04-12 05:55:19,13,0,17.134,5917.0446010908,0,0,0.33474082436,0,0,-0.671082,72.6, 1.3, -1,0,0,1024,1024,1355,1024,73.4,0,99,4.283,4.284,4.285,4.281,0,0,2.068,69.71,6,P-GPS,Obstacle Avoided. Revise Flight Route
0.0316465719570706,36.8843907681599,5917.0446010908,0,0,0.33600394776,5900,2018-04-12 05:55:19,13,0,17.134,5917.0446010908,0,0,0.33600394776,0,0,-1.11847,72.5, 0.8, -0.2,0,0,1024,1024,1369,1024,73.3,0,99,4.283,4.284,4.285,4.281,0,0,2.068,69.71,6,P-GPS,
0.0316465882972847,36.8843907302199,5917.0446010908,0,0,0.33077756964,6000,2018-04-12 05:55:20,13,0,17.134,5917.0446010908,0,0,0.33600394776,0,0,-1.789552,72.4, 0.1, 0.8,0,0,1024,1024,1369,1024,73.3,0,99,4.283,4.284,4.285,4.281,0,0,2.068,69.71,6,P-GPS,
0.0316466021565645,36.884390688973,5917.3726850908,0.328084,0,0.3272063753,6100,2018-04-12 05:55:20,13,0,17.134,5917.3726850908,0.328084,0,0.33600394776,0,0,-2.460634,72.2, 0.1, 1.1,0,0,1024,1024,1374,1024,73.3,0,99,4.283,4.284,4.285,4.281,0,0,2.068,69.71,6,P-GPS,
0.0316465847965373,36.884390651427,5918.0288530908,0.984252,0,0.33539043068,6200,2018-04-12 05:55:20,13,0,17.134,5918.0288530908,0.984252,0,0.33600394776,0,0,-2.908022,72.2, 0.1, 0,0,0,1024,1024,1403,1024,73.3,0,99,4.283,4.284,4.285,4.281,0,0,2.068,69.71,6,P-GPS,
0.0316465620687515,36.884390590868,5918.3569370908,1.312336,0.223694,0.347687019,6300,2018-04-12 05:55:20,13,0,17.08,5918.3569370908,1.312336,0.223694,0.347687019,0,-0.223694,-3.35541,72.5, -0.3, -0.6,0,0,1024,1024,1408,1024,73.3,0,99,4.283,4.284,4.285,4.281,0,0,2.75,69.71,6,P-GPS,
0.0316465372516721,36.884390477804,5919.0131050908,1.968504,0.223694,0.36745736084,6400,2018-04-12 05:55:20,13,0,17.08,5919.0131050908,1.968504,0.223694,0.36745736084,0,-0.223694,-4.026492,72.5, -1.2, 0.6,0,0,1024,1024,1412,1024,73.3,0,99,4.283,4.284,4.285,4.281,0,0,2.75,69.71,6,P-GPS,Home Point Recorded. RTH Altitude:  45m.
0.0316465274508819,36.8843903585092,5919.6692730908,2.624672,0.223694,0.38673557668,6500,2018-04-12 05:55:20,13,0,17.08,5919.6692730908,2.624672,0.223694,0.38673557668,0,-0.223694,-4.47388,72.3, -1.5, 1.9,0,0,1024,1024,1403,1024,73.3,0,99,4.283,4.284,4.285,4.281,0,0,2.75,69.71,6,P-GPS,
0.0316465004297036,36.884390229363,5920.3254410908,3.28084,0,0.41701772988,6600,2018-04-12 05:55:20,13,0,17.08,5920.3254410908,3.28084,0.223694,0.41701772988,0,0,-4.921268,72.2, -1.5, 1.6,0,0,1024,1024,1389,1024,73.3,0,99,4.283,4.284,4.285,4.281,0,0,2.75,69.71,6,P-GPS,
0.0316464591775531,36.8843901147499,5920.9816090908,3.937008,0,0.45177494884,6700,2018-04-12 05:55:20,13,0,17.08,5920.9816090908,3.937008,0.223694,0.45177494884,0,0,-5.144962,72.4, -1.2, 1.4,0,0,1024,1024,1380,1024,73.2,0,99,4.283,4.284,4.285,4.281,0,0,2.75,69.71,6,P-GPS,
0.0316463695907422,36.8843899600342,5921.9658610908,4.92126,0.223694,0.51098426832,6800,2018-04-12 05:55:20,13,0,17.08,5921.9658610908,4.92126,0.223694,0.51098426832,0,-0.223694,-5.144962,72.5, -1.4, 1.8,0,0,1024,1024,1378,1024,73.2,0,99,4.283,4.284,4.285,4.281,0,0,2.75,69.71,6,P-GPS,
0.0316462461131619,36.8843898126198,5922.6220290908,5.577428,0.223694,0.57947508416,6900,2018-04-12 05:55:20,13,0,17.08,5922.6220290908,5.577428,0.223694,0.57947508416,0,-0.223694,-5.144962,72.6, -1.9, 1.4,0,0,1024,1024,1376,1024,73.2,0,99,4.283,4.284,4.285,4.281,0,0,2.75,69.71,6,P-GPS,
0.0316460889011429,36.8843896519261,5923.2781970908,6.233596,0.223694,0.6609088138,7000,2018-04-12 05:55:21,13,0,17.08,5923.2781970908,6.233596,0.223694,0.6609088138,0,-0.223694,-4.921268,72.6, -2.9, 0.6,0,0,1024,1024,1377,1024,73.2,0,99,4.283,4.284,4.285,4.281,0,0,2.75,69.71,6,P-GPS,
0.0316459362280044,36.8843895140409,5923.9343650908,6.889764,0.223694,0.73588256948,7100,2018-04-12 05:55:21,13,0,17.08,5923.9343650908,6.889764,0.223694,0.73588256948,0,-0.223694,-4.697574,72.7, -3.2, 0.2,0,0,1024,1024,1406,1024,73.2,0,99,4.283,4.284,4.285,4.281,0,0,2.75,69.71,6,P-GPS,
0.0316457894172643,36.8843893602727,5924.5905330908,7.545932,0,0.81295278192,7200,2018-04-12 05:55:21,13,0,17.08,5924.5905330908,7.545932,0.223694,0.81295278192,0,0,-4.697574,72.7, -3.4, 0.1,0,0,1024,1024,1420,1024,73.2,0,99,4.283,4.284,4.285,4.281,0,0,2.75,69.71,6,P-GPS,
0.0316456551325154,36.884389225627,5925.2467010908,8.2021,0,0.88209648492,7300,2018-04-12 05:55:21,13,0,16.652,5925.2467010908,8.2021,0.223694,0.88209648492,0,0,-4.47388,72.7, -3.1, 0,0,0,1024,1024,1424,1024,73.2,0,99,4.258,4.257,4.247,4.242,0,0,2.75,69.71,6,P-GPS,
0.0316455696485691,36.884389080494,5925.9028690908,8.858268,0,0.94042982012,7400,2018-04-12 05:55:21,13,0,16.652,5925.9028690908,8.858268,0.223694,0.94042982012,0,0,-4.697574,72.7, -2.9, 0.1,0,0,1024,1024,1414,1024,73.2,0,99,4.258,4.257,4.247,4.242,0,0,2.75,69.71,6,P-GPS,
0.0316454965412043,36.8843889484434,5926.8871210908,9.84252,0.223694,0.99257877192,7500,2018-04-12 05:55:21,13,0,16.652,5926.8871210908,9.84252,0.223694,0.99257877192,0,-0.223694,-4.697574,72.7, -3.2, 0.1,0,0,1024,1024,1393,1024,73.2,0,99,4.258,4.257,4.247,4.242,0,0,2.75,69.71,6,P-GPS,
0.0316454400838652,36.884388797024,5927.5432890908,10.498688,0,1.04556761876,7600,2018-04-12 05:55:21,13,0,16.652,5927.5432890908,10.498688,0.223694,1.04556761876,0,0,-4.921268,72.7, -3.6, 0,0,0,1024,1024,1398,1024,73.2,0,99,4.258,4.257,4.247,4.242,0,0,2.75,69.71,6,P-GPS,
0.0316453742625659,36.884388667091,5928.1994570908,11.154856,0,1.09598756788,7700,2018-04-12 05:55:21,13,0,16.652,5928.1994570908,11.154856,0.223694,1.09598756788,0,0,-4.697574,72.7, -4.2, 0,0,0,1024,1024,1399,1024,73.2,0,99,4.258,4.257,4.247,4.242,0,0,2.75,69.71,6,P-GPS,
0.0316453247277422,36.8843885256451,5928.8556250908,11.811024,0,1.14556762196,7800,2018-04-12 05:55:21,13,0,16.652,5928.8556250908,11.811024,0.223694,1.14556762196,0,0,-4.697574,72.7, -4.1, 0,0,0,1024,1024,1404,1024,73.2,0,99,4.258,4.257,4.247,4.242,0,0,2.75,69.71,6,P-GPS,
0.0316452753366287,36.8843884204187,5929.5117930908,12.467192,0,1.185859618,7900,2018-04-12 05:55:21,13,0,16.652,5929.5117930908,12.467192,0.223694,1.185859618,0,0,-4.697574,72.7, -3.7, 0,0,0,1024,1024,1427,1024,73.2,0,99,4.258,4.257,4.247,4.242,0,0,2.75,69.71,6,P-GPS,
0.0316452539286968,36.8843883228961,5930.4960450908,13.451444,0,1.21734583948,8000,2018-04-12 05:55:22,13,0,16.652,5930.4960450908,13.451444,0.223694,1.21734583948,0,0,-4.697574,72.7, -3.5, 0.1,0,0,1024,1024,1450,1024,73.2,0,99,4.258,4.257,4.247,4.242,0,0,2.75,69.71,6,P-GPS,
0.0316452348787518,36.8843882505298,5931.1522130908,14.107612,0,1.2416503022,8100,2018-04-12 05:55:22,13,0,16.652,5931.1522130908,14.107612,0.223694,1.2416503022,0,0,-4.921268,72.7, -3.5, 0.1,0,0,1024,1024,1472,1024,73.2,0,99,4.258,4.257,4.247,4.242,0,0,2.75,69.71,6,P-GPS,
0.0316452301131104,36.8843881715153,5931.8083810908,14.76378,0,1.2645013528,8200,2018-04-12 05:55:22,13,0,16.652,5931.8083810908,14.76378,0.223694,1.2645013528,0,0,-4.921268,72.7, -3.7, 0.1,0,0,1024,1024,1471,1024,73.2,0,99,4.258,4.257,4.247,4.242,0,0,2.75,69.71,6,P-GPS,
0.0316452246513093,36.8843881159848,5932.4645490908,15.419948,0,1.28120410924,8300,2018-04-12 05:55:22,13,0,16.598,5932.4645490908,15.419948,0.223694,1.28120410924,0,0,-5.368656,72.7, -3.8, 0.1,0,0,1024,1024,1464,1024,73.2,0,99,4.151,4.153,4.156,4.138,0,0,16.55,69.71,6,P-GPS,
0.031645249139443,36.8843880809835,5933.4488010908,16.4042,0,1.28527235084,8400,2018-04-12 05:55:22,13,0,16.598,5933.4488010908,16.4042,0.223694,1.28527235084,0,0,-5.59235,72.7, -3.4, 0.2,0,0,1024,1024,1471,1024,73.2,0,99,4.151,4.153,4.156,4.138,0,0,16.55,69.71,6,P-GPS,
0.0316452785479202,36.8843880741618,5934.1049690908,17.060368,0,1.2803970226,8500,2018-04-12 05:55:22,13,0,16.598,5934.1049690908,17.060368,0.223694,1.28527235084,0,0,-5.816044,72.7, -3.1, 0.2,0,0,1024,1024,1485,1024,73.2,0,99,4.151,4.153,4.156,4.138,0,0,16.55,69.71,6,P-GPS,
0.0316452949475726,36.8843880849746,5935.0892210908,18.04462,0,1.27356303288,8600,2018-04-12 05:55:22,13,0,16.598,5935.0892210908,18.04462,0.223694,1.28527235084,0,0,-6.039738,72.7, -3.2, 0.1,0,0,1024,1024,1498,1024,73.2,0,99,4.151,4.153,4.156,4.138,0,0,16.55,69.71,6,P-GPS,
0.0316453003320227,36.8843881119872,5936.0734730908,19.028872,0,1.26467851816,8700,2018-04-12 05:55:22,13,0,16.598,5936.0734730908,19.028872,0.223694,1.28527235084,0,0,-6.263432,72.7, -3.4, 0.1,0,0,1024,1024,1501,1024,73.2,0,99,4.151,4.153,4.156,4.138,0,0,16.55,69.71,6,P-GPS,
0.0316453102345906,36.8843881499582,5937.0577250908,20.013124,0,1.25167654924,8800,2018-04-12 05:55:22,13,0,16.598,5937.0577250908,20.013124,0.223694,1.28527235084,0,0,-6.263432,72.7, -3.6, 0,0,0,1024,1024,1517,1024,73.2,0,99,4.151,4.153,4.156,4.138,0,0,16.55,69.71,6,P-GPS,
0.0316453325776565,36.8843882035125,5938.0419770908,20.997376,0,1.2314304856,8900,2018-04-12 05:55:23,13,0,16.598,5938.0419770908,20.997376,0.223694,1.28527235084,0,0,-6.487126,72.7, -3.1, 0.1,0,0,1024,1024,1610,1024,73.2,0,99,4.151,4.153,4.156,4.138,0,0,16.55,69.71,6,P-GPS,
0.031645326267436,36.8843882554587,5940.0104810908,22.96588,0,1.21841867416,9100,2018-04-12 05:55:23,13,0,16.598,5940.0104810908,22.96588,0.223694,1.28527235084,0,0,-6.934514,72.6, -2.2, 0,0,0,1024,1024,1610,1024,73.2,0,99,4.151,4.153,4.156,4.138,0,0,16.55,69.71,6,P-GPS,
0.0316453147860916,36.8843882245792,5940.9947330908,23.950132,0,1.22971788712,9200,2018-04-12 05:55:23,13,0,16.598,5940.9947330908,23.950132,0.223694,1.28527235084,0,0,-7.605596,72.6, -2, 0,0,0,1024,1024,1619,1024,73.1,0,99,4.151,4.153,4.156,4.138,0,0,16.55,69.71,6,P-GPS,
0.031645320267027,36.8843881881583,5942.3070690908,25.262468,0,1.23860896352,9300,2018-04-12 05:55:23,13,0,16.545,5942.3070690908,25.262468,0.223694,1.28527235084,0,0,-8.052984,72.6, -2.5, 0.2,0,0,1024,1024,1622,1024,73.2,0,99,4.149,4.146,4.149,4.136,0,0,14.186,69.71,6,P-GPS,
0.0316453618570796,36.8843881162288,5943.2913210908,26.24672,0,1.2493930846,9400,2018-04-12 05:55:23,13,0,16.545,5943.2913210908,26.24672,0.223694,1.28527235084,0,0,-8.500372,72.6, -3.8, 0.5,0,0,1024,1024,1638,1024,73.2,0,99,4.149,4.146,4.149,4.136,0,0,14.186,69.71,6,P-GPS,
0.0316454277475877,36.8843880927555,5944.6036570908,27.559056,0,1.24137471164,9500,2018-04-12 05:55:23,13,0,16.545,5944.6036570908,27.559056,0.223694,1.28527235084,0,0,-8.94776,72.6, -3.9, 0.5,0,0,1024,1024,1649,1024,73.1,0,99,4.149,4.146,4.149,4.136,0,0,14.186,69.71,6,P-GPS,
0.0316454363815978,36.8843880434001,5945.9159930908,28.871392,0.223694,1.25384846532,9600,2018-04-12 05:55:23,13,0,16.545,5945.9159930908,28.871392,0.223694,1.28527235084,0,0.223694,-9.171454,72.6, -3.2, 0.1,0,0,1024,1024,1676,1024,73.1,0,99,4.149,4.146,4.149,4.136,0,0,14.186,69.71,6,P-GPS,
0.0316454266255898,36.8843880257292,5947.5564130908,30.511812,0,1.26114505348,9700,2018-04-12 05:55:23,13,0,16.545,5947.5564130908,30.511812,0.223694,1.28527235084,0,0,-9.618842,72.6, -2.4, 0,0,0,1024,1024,1676,1024,73.1,0,99,4.149,4.146,4.149,4.136,0,0,14.186,69.71,6,P-GPS,
0.0316454225943767,36.8843879537783,5948.8687490908,31.824148,0,1.2831529282,9800,2018-04-12 05:55:23,13,0,16.545,5948.8687490908,31.824148,0.223694,1.28527235084,0,0,-9.842536,72.6, -2, 0.2,0,0,1024,1024,1678,1024,73.1,-0.9,99,4.149,4.146,4.149,4.136,0,0,14.186,69.71,6,P-GPS,
0.0316454481487341,36.884387903196,5950.5091690908,33.464568,0,1.2927165768,9900,2018-04-12 05:55:23,13,0,16.545,5950.5091690908,33.464568,0.223694,1.2927165768,0,0,-10.06623,72.6, -2.1, 0.4,0,0,1024,1024,1678,1024,73.1,-2,99,4.149,4.146,4.149,4.136,0,0,14.186,69.71,6,P-GPS,
0.0316454728115184,36.8843878101356,5951.8215050908,34.776904,0,1.31553153816,10000,2018-04-12 05:55:24,13,0,16.545,5951.8215050908,34.776904,0.223694,1.31553153816,0,0,-10.289924,72.6, -3.2, 0.5,0,0,1024,1024,1678,1024,73.1,-6.8,99,4.149,4.146,4.149,4.136,0,0,14.186,69.71,6,P-GPS,
0.0316455195555962,36.8843876688031,5955.1023450908,38.057744,0,1.34938324528,10200,2018-04-12 05:55:24,13,0,16.545,5955.1023450908,38.057744,0.223694,1.34938324528,0,0,-10.513618,72.6, -3.5, 0.1,0,0,1024,1024,1667,1024,73.1,-10,99,4.149,4.146,4.149,4.136,0,0,14.186,69.71,6,P-GPS,
0.0316455425459686,36.8843876077484,5956.4146810908,39.37008,0,1.36388127724,10300,2018-04-12 05:55:24,13,0,16.545,5956.4146810908,39.37008,0.223694,1.36388127724,0,0,-10.513618,72.6, -3.2, 0.2,0,0,1024,1024,1664,1024,73.1,-10,99,4.149,4.146,4.149,4.136,0,0,14.186,69.71,6,P-GPS,
0.0316456022752588,36.884387550505,5958.0551010908,41.0105,0,1.37064965016,10400,2018-04-12 05:55:24,13,0,16.545,5958.0551010908,41.0105,0.223694,1.37064965016,0,0,-10.513618,72.6, -2.7, 0.2,0,0,1024,1024,1655,1024,73.1,-13.2,99,4.149,4.146,4.149,4.136,0,0,14.186,69.71,6,P-GPS,
0.0316456787062778,36.8843875357033,5959.6955210908,42.65092,0,1.36155188084,10500,2018-04-12 05:55:24,13,0,16.545,5959.6955210908,42.65092,0.223694,1.37064965016,0,0,-10.513618,72.6, -2.6, 0.1,0,0,1024,1024,1652,1024,73.1,-16.2,99,4.149,4.146,4.149,4.136,0,0,14.186,69.71,6,P-GPS,
0.0316457571276625,36.8843874865877,5961.3359410908,44.29134,0,1.36372379692,10600,2018-04-12 05:55:24,13,0,16.545,5961.3359410908,44.29134,0.223694,1.37064965016,0,0,-10.513618,72.7, -2.8, 0.2,0,0,1024,1024,1649,1024,73.1,-16.6,99,4.149,4.146,4.149,4.136,0,0,14.186,69.71,6,P-GPS,
0.0316458313513257,36.8843874430561,5962.9763610908,45.93176,0,1.36557747152,10700,2018-04-12 05:55:24,13,0,16.545,5962.9763610908,45.93176,0.223694,1.37064965016,0,0,-10.513618,72.6, -3, 0.1,0,0,1024,1024,1644,1024,73.1,-16.6,99,4.149,4.146,4.149,4.136,0,0,14.186,69.71,6,P-GPS,
0.0316459066261494,36.8843873769634,5964.6167810908,47.57218,0,1.37545279992,10800,2018-04-12 05:55:24,13,0,16.545,5964.6167810908,47.57218,0.223694,1.37545279992,0,0,-10.513618,72.6, -2.9, 0.2,0,0,1024,1024,1635,1024,73.1,-16.6,99,4.149,4.146,4.149,4.136,0,0,14.186,69.71,6,P-GPS,
0.0316459800416972,36.8843873288862,5966.2572010908,49.2126,0,1.38045936176,10900,2018-04-12 05:55:24,13,0,16.545,5966.2572010908,49.2126,0.223694,1.38045936176,0,0,-10.513618,72.6, -2.9, 0.3,0,0,1024,1024,1614,1024,73.1,-16.6,99,4.149,4.146,4.149,4.136,0,0,14.186,69.71,6,P-GPS,
0.0316460481375256,36.8843872335133,5967.5695370908,50.524936,0,1.40290686904,11000,2018-04-12 05:55:25,13,0,16.545,5967.5695370908,50.524936,0.223694,1.40290686904,0,0,-10.289924,72.6, -2.7, 0.4,0,0,1024,1024,1612,1024,73.1,-16.6,99,4.149,4.146,4.149,4.136,0,0,14.186,69.71,6,P-GPS,
0.03164611060708,36.8843871549184,5969.2099570908,52.165356,0,1.42127957304,11100,2018-04-12 05:55:25,13,0,16.545,5969.2099570908,52.165356,0.223694,1.42127957304,0,0,-10.06623,72.6, -2.9, 0.4,0,0,1024,1024,1624,1024,73.1,-16.6,99,4.149,4.146,4.149,4.136,0,0,14.186,69.71,6,P-GPS,
0.0316461571736574,36.8843870376032,5970.8503770908,53.805776,0,1.45560372112,11200,2018-04-12 05:55:25,13,0,16.545,5970.8503770908,53.805776,0.223694,1.45560372112,0,0,-9.842536,72.6, -2.9, 0.4,0,0,1024,1024,1637,1024,73.1,-16.6,99,4.149,4.146,4.149,4.136,0,0,14.186,69.71,6,P-GPS,
0.0316462010129983,36.8843869427335,5972.1627130908,55.118112,0,1.48310700284,11300,2018-04-12 05:55:25,13,0,16.545,5972.1627130908,55.118112,0.223694,1.48310700284,0,0,-9.842536,72.6, -2.9, 0.5,0,0,1024,1024,1637,1024,73.1,-16.6,99,4.149,4.146,4.149,4.136,0,0,14.186,69.71,6,P-GPS,
0.0316462723298889,36.8843868337579,5973.8031330908,56.758532,0,1.51299873608,11400,2018-04-12 05:55:25,13,0,16.545,5973.8031330908,56.758532,0.223694,1.51299873608,0,0,-10.06623,72.6, -2.9, 0.4,0,0,1024,1024,1647,1024,73.1,-16.6,99,4.149,4.146,4.149,4.136,0,0,14.186,69.71,6,P-GPS,
0.0316463644595151,36.8843867702838,5975.4435530908,58.398952,0,1.5257382378,11500,2018-04-12 05:55:25,13,0,16.545,5975.4435530908,58.398952,0.223694,1.5257382378,0,0,-10.289924,72.6, -2.8, 0.3,0,0,1024,1024,1647,1024,73.1,-16.6,99,4.149,4.146,4.149,4.136,0,0,14.186,69.71,6,P-GPS,
0.031646455828658,36.8843866756154,5977.0839730908,60.039372,0,1.55056107324,11600,2018-04-12 05:55:25,13,0,16.545,5977.0839730908,60.039372,0.223694,1.55056107324,0,0,-10.289924,72.6, -2.8, 0.5,0,0,1024,1024,1648,1024,73.1,-16.6,99,4.149,4.146,4.149,4.136,0,0,14.186,69.71,6,P-GPS,
0.0316465249300506,36.8843866023412,5978.7243930908,61.679792,0,1.57064309488,11700,2018-04-12 05:55:25,13,0,16.545,5978.7243930908,61.679792,0.223694,1.57064309488,0,0,-10.289924,72.6, -2.7, 0.8,0,0,1024,1024,1648,1024,73.1,-16.6,99,4.149,4.146,4.149,4.136,0,0,14.186,69.71,6,P-GPS,
0.0316465799861137,36.8843864763522,5980.3648130908,63.320212,0,1.61119755812,11800,2018-04-12 05:55:25,13,0,16.545,5980.3648130908,63.320212,0.223694,1.61119755812,0,0,-10.513618,72.6, -2.6, 0.8,0,0,1024,1024,1649,1024,73.1,-16.6,99,4.149,4.146,4.149,4.136,0,0,14.186,69.71,6,P-GPS,
0.0316466148107957,36.8843863627411,5982.0052330908,64.960632,0,1.6492618638,11900,2018-04-12 05:55:25,13,0,16.545,5982.0052330908,64.960632,0.223694,1.6492618638,0,0,-10.513618,72.6, -2.7, 0.7,0,0,1024,1024,1651,1024,73.1,-16.6,99,4.149,4.146,4.149,4.136,0,0,14.186,69.71,6,P-GPS,
0.031646637562601,36.8843862042666,5983.3175690908,66.272968,0,1.704478401,12000,2018-04-12 05:55:25,13,0,16.545,5983.3175690908,66.272968,0.223694,1.704478401,0,0,-10.513618,72.6, -3, 0.7,0,0,1024,1024,1656,1024,73.1,-16.6,99,4.149,4.146,4.149,4.136,0,0,14.186,69.71,6,P-GPS,
0.0316466523814413,36.8843860923835,5985.2860730908,68.241472,0,1.7436680348,12100,2018-04-12 05:55:26,13,0,16.545,5985.2860730908,68.241472,0.223694,1.7436680348,0,0,-10.513618,72.6, -3, 0.7,0,0,1024,1024,1659,1024,73.1,-16.6,99,4.149,4.146,4.149,4.136,0,0,14.186,69.71,6,P-GPS,
0.031646665613363,36.8843859391505,5986.9264930908,69.881892,0,1.7979167242,12200,2018-04-12 05:55:26,13,0,16.545,5986.9264930908,69.881892,0.223694,1.7979167242,0,0,-10.737312,72.6, -3, 0.5,0,0,1024,1024,1659,1024,73,-16.6,99,4.149,4.146,4.149,4.136,0,0,14.186,69.71,6,P-GPS,
0.0316466761160126,36.8843858103737,5988.5669130908,71.522312,0,1.84362866792,12300,2018-04-12 05:55:26,13,0,16.357,5988.5669130908,71.522312,0.223694,1.84362866792,0,0,-10.737312,72.6, -3, 0.4,0,0,1024,1024,1661,1024,73,-16.6,99,4.111,4.116,4.122,4.104,0,0,18.162,69.71,6,P-GPS,
0.0316466787422857,36.8843856315841,5990.2073330908,73.162732,0,1.90788063848,12400,2018-04-12 05:55:26,13,0,16.357,5990.2073330908,73.162732,0.223694,1.90788063848,0,0,-10.737312,72.6, -3.2, 0.6,0,0,1024,1024,1657,1024,73,-16.6,99,4.111,4.116,4.122,4.104,0,0,18.162,69.71,6,P-GPS,
0.0316466707958861,36.8843854885302,5991.8477530908,74.803152,0,1.95989835668,12500,2018-04-12 05:55:26,13,0,16.357,5991.8477530908,74.803152,0.223694,1.95989835668,0,0,-10.737312,72.6, -3.4, 0.6,0,0,1024,1024,1650,1024,73,-16.6,99,4.111,4.116,4.122,4.104,0,0,18.162,69.71,6,P-GPS,
0.0316466767108018,36.8843853274585,5993.4881730908,76.443572,0,2.01767394908,12600,2018-04-12 05:55:26,13,0,16.357,5993.4881730908,76.443572,0.223694,2.01767394908,0,0,-10.737312,72.6, -3.4, 0.5,0,0,1024,1024,1643,1024,73,-16.6,99,4.111,4.116,4.122,4.104,0,0,18.162,69.71,6,P-GPS,
0.0316466897477173,36.8843852175216,5995.1285930908,78.083992,0,2.05667001332,12700,2018-04-12 05:55:26,13,0,16.357,5995.1285930908,78.083992,0.223694,2.05667001332,0,0,-10.513618,72.6, -3.5, 0.7,0,0,1024,1024,1643,1024,73,-16.6,99,4.111,4.116,4.122,4.104,0,0,18.162,69.71,6,P-GPS,
0.0316466822312269,36.884385072652,5996.7690130908,79.724412,0,2.1093832696,12800,2018-04-12 05:55:26,13,0,16.357,5996.7690130908,79.724412,0.223694,2.1093832696,0,0,-10.513618,72.6, -3.5, 0.6,0,0,1024,1024,1641,1024,73,-16.6,99,4.111,4.116,4.122,4.104,0,0,18.162,69.71,6,P-GPS,
0.0316466516718469,36.8843849570368,5998.4094330908,81.364832,0,2.15271660432,12900,2018-04-12 05:55:26,13,0,16.357,5998.4094330908,81.364832,0.223694,2.15271660432,0,0,-10.513618,72.6, -3.7, 0.6,0,0,1024,1024,1620,1024,73,-16.6,99,4.111,4.116,4.122,4.104,0,0,18.162,69.71,6,P-GPS,
0.0316466231858831,36.8843847980228,6000.0498530908,83.005252,0,2.21162408652,13000,2018-04-12 05:55:27,13,0,16.357,6000.0498530908,83.005252,0.223694,2.21162408652,0,0,-10.513618,72.6, -3.8, 0.6,0,0,1024,1024,1622,1024,73,-16.6,99,4.111,4.116,4.122,4.104,0,0,18.162,69.71,6,P-GPS,
0.0316466014408633,36.8843846822705,6001.6902730908,84.645672,0,2.25455715876,13100,2018-04-12 05:55:27,13,0,16.357,6001.6902730908,84.645672,0.223694,2.25455715876,0,0,-10.289924,72.5, -4, 0.6,0,0,1024,1024,1633,1024,73,-16.6,99,4.111,4.116,4.122,4.104,0,0,18.162,69.71,6,P-GPS,
0.0316465885676064,36.8843845349772,6003.3306930908,86.286092,0,2.3084154282,13200,2018-04-12 05:55:27,13,0,16.357,6003.3306930908,86.286092,0.223694,2.3084154282,0,0,-10.06623,72.6, -3.9, 0.5,0,0,1024,1024,1651,1024,73,-16.6,99,4.111,4.116,4.122,4.104,0,0,18.162,69.71,6,P-GPS,
0.0316465826087227,36.8843844268945,6004.6430290908,87.598428,0,2.34775926148,13300,2018-04-12 05:55:27,13,0,16.384,6004.6430290908,87.598428,0.223694,2.34775926148,0,0,-9.842536,72.6, -3.8, 0.6,0,0,1024,1024,1677,1024,73,-16.6,99,4.104,4.108,4.115,4.097,0,0,17.724,71.51,6,P-GPS,
0.0316465861180196,36.8843843001089,6006.2834490908,89.238848,0,2.39338262252,13400,2018-04-12 05:55:27,13,0,16.384,6006.2834490908,89.238848,0.223694,2.39338262252,0,0,-9.842536,72.6, -3.6, 0.5,0,0,1024,1024,1684,1024,73,-16.6,99,4.104,4.108,4.115,4.097,0,0,17.724,71.51,6,P-GPS,
0.0316465894774995,36.8843842275328,6007.9238690908,90.879268,0,2.41944233464,13500,2018-04-12 05:55:27,13,0,16.384,6007.9238690908,90.879268,0.223694,2.41944233464,0,0,-10.289924,72.6, -3.2, 0.5,0,0,1024,1024,1684,1024,73,-16.6,99,4.104,4.108,4.115,4.097,0,0,17.724,71.51,6,P-GPS,
0.0316465768847421,36.8843841065626,6009.2362050908,92.191604,0,2.4637960106,13600,2018-04-12 05:55:27,13,0,16.384,6009.2362050908,92.191604,0.223694,2.4637960106,0,0,-10.513618,72.6, -3.3, 0.3,0,0,1024,1024,1684,1024,73,-16.6,99,4.104,4.108,4.115,4.097,0,0,17.724,71.51,6,P-GPS,
0.0316465513413767,36.8843840061559,6010.8766250908,93.832024,0,2.50135834776,13700,2018-04-12 05:55:27,13,0,16.384,6010.8766250908,93.832024,0.223694,2.50135834776,0,0,-10.737312,72.6, -4.1, 0.4,0,0,1024,1024,1684,1024,73,-16.6,99,4.104,4.108,4.115,4.097,0,0,17.724,71.51,6,P-GPS,
0.0316465561782625,36.8843838998547,6012.8451290908,95.800528,0,2.53954076368,13800,2018-04-12 05:55:27,13,0,16.384,6012.8451290908,95.800528,0.223694,2.53954076368,0,0,-10.737312,72.6, -4.2, 0.4,0,0,1024,1024,1684,1024,73,-16.6,99,4.104,4.108,4.115,4.097,0,0,17.724,71.51,6,P-GPS,
0.0316465791946899,36.8843838684634,6014.4855490908,97.440948,0,2.54978026532,13900,2018-04-12 05:55:27,13,0,16.384,6014.4855490908,97.440948,0.223694,2.54978026532,0,0,-11.1847,72.6, -3.9, 0.5,0,0,1024,1024,1684,1024,73,-16.6,99,4.104,4.108,4.115,4.097,0,0,17.724,71.51,6,P-GPS,
0.0316465914279683,36.8843838159926,6016.4540530908,99.409452,0.223694,2.56818577772,14000,2018-04-12 05:55:27,13,0,16.384,6016.4540530908,99.409452,0.223694,2.56818577772,0,0.223694,-11.1847,72.6, -3.5, 0.5,0,0,1024,1024,1684,1024,73,-16.6,99,4.104,4.108,4.115,4.097,0,0,17.724,71.51,6,P-GPS,
0.0316465857251574,36.8843837890827,6018.0944730908,101.049872,0.223694,2.57818905888,14100,2018-04-12 05:55:28,13,0,16.384,6018.0944730908,101.049872,0.223694,2.57818905888,0,0.223694,-11.408394,72.6, -3.3, 0.7,0,0,1024,1024,1684,1024,73,-16.6,99,4.104,4.108,4.115,4.097,0,0,17.724,71.51,6,P-GPS,
0.0316466170596768,36.8843837308244,6019.7348930908,102.690292,0.223694,2.59784129048,14200,2018-04-12 05:55:28,13,0,16.384,6019.7348930908,102.690292,0.223694,2.59784129048,0,0.223694,-11.1847,72.6, -3.3, 0.7,0,0,1024,1024,1684,1024,73,-16.6,99,4.104,4.108,4.115,4.097,0,0,17.724,71.51,6,P-GPS,
0.0316466655356048,36.8843837051971,6021.7033970908,104.658796,0.223694,2.60501320672,14300,2018-04-12 05:55:28,13,0,16.384,6021.7033970908,104.658796,0.223694,2.60501320672,0,0.223694,-11.1847,72.6, -3.1, 0.7,0,0,1024,1024,1684,1024,73,-16.6,99,4.104,4.108,4.115,4.097,0,0,17.724,71.51,6,P-GPS,
0.0316466708687589,36.884383617937,6023.3438170908,106.299216,0.223694,2.63641412636,14400,2018-04-12 05:55:28,13,0,16.384,6023.3438170908,106.299216,0.223694,2.63641412636,0,0.223694,-11.1847,72.6, -3.1, 0.8,0,0,1024,1024,1684,1024,73,-16.6,99,4.104,4.108,4.115,4.097,0,0,17.724,71.51,6,P-GPS,
0.0316466256712958,36.8843835475769,6024.9842370908,107.939636,0,2.6638288254,14500,2018-04-12 05:55:28,13,0,16.384,6024.9842370908,107.939636,0.223694,2.6638288254,0,0,-11.1847,72.6, -3.3, 0.8,0,0,1024,1024,1684,1024,73,-16.6,99,4.104,4.108,4.115,4.097,0,0,17.724,71.51,6,P-GPS,
0.0316465473008,36.8843834189928,6026.6246570908,109.580056,0,2.71390100548,14600,2018-04-12 05:55:28,13,0,16.384,6026.6246570908,109.580056,0.223694,2.71390100548,0,0,-11.1847,72.6, -3.7, 0.6,0,0,1024,1024,1684,1024,73,-16.6,99,4.104,4.108,4.115,4.097,0,0,17.724,71.51,6,P-GPS,
0.0316464714771906,36.884383331493,6028.5931610908,111.54856,0,2.749179878,14700,2018-04-12 05:55:28,13,0,16.384,6028.5931610908,111.54856,0.223694,2.749179878,0,0,-11.1847,72.6, -3.7, 0.4,0,0,1024,1024,1684,1024,73,-16.6,99,4.104,4.108,4.115,4.097,0,0,17.724,71.51,6,P-GPS,
0.0316463821102196,36.8843832180253,6030.2335810908,113.18898,0,2.79474418392,14800,2018-04-12 05:55:28,13,0,16.384,6030.2335810908,113.18898,0.223694,2.79474418392,0,0,-10.961006,72.6, -3.7, 0.3,0,0,1024,1024,1684,1024,73,-16.6,99,4.104,4.108,4.115,4.097,0,0,17.724,71.51,6,P-GPS,
0.0316463097132635,36.8843831620644,6031.8740010908,114.8294,0,2.81886820044,14900,2018-04-12 05:55:28,13,0,16.384,6031.8740010908,114.8294,0.223694,2.81886820044,0,0,-11.1847,72.6, -3.7, 0.2,0,0,1024,1024,1684,1024,73,-16.6,99,4.104,4.108,4.115,4.097,0,0,17.724,71.51,6,P-GPS,
0.0316462315727854,36.8843830565725,6033.5144210908,116.46982,0,2.86135507844,15000,2018-04-12 05:55:29,13,0,16.384,6033.5144210908,116.46982,0.223694,2.86135507844,0,0,-11.1847,72.6, -3.7, 0.2,0,0,1024,1024,1684,1024,73,-16.6,99,4.104,4.108,4.115,4.097,0,0,17.724,71.51,6,P-GPS,
0.0316461720674062,36.8843829889767,6035.1548410908,118.11024,0,2.8892389376,15100,2018-04-12 05:55:29,13,0,16.384,6035.1548410908,118.11024,0.223694,2.8892389376,0,0,-10.961006,72.6, -3.8, 0.2,0,0,1024,1024,1684,1024,73,-16.6,99,4.104,4.108,4.115,4.097,0,0,17.724,71.51,6,P-GPS,
0.0316461133823557,36.8843828755069,6037.1233450908,120.078744,0,2.93366479204,15200,2018-04-12 05:55:29,13,0,16.384,6037.1233450908,120.078744,0.223694,2.93366479204,0,0,-10.961006,72.6, -3.9, 0.4,0,0,1024,1024,1684,1024,73,-16.6,99,4.104,4.108,4.115,4.097,0,0,17.724,71.51,6,P-GPS,
0.0316460622952177,36.884382798914,6038.7637650908,121.719164,0,2.96442266704,15300,2018-04-12 05:55:29,13,0,16.33,6038.7637650908,121.719164,0.223694,2.96442266704,0,0,-10.961006,72.6, -3.8, 0.3,0,0,1024,1024,1684,1024,73,-16.6,99,4.091,4.095,4.108,4.088,0,0,17.52,71.51,6,P-GPS,
0.0316460302718665,36.8843826774278,6040.4041850908,123.359584,0,3.01011492572,15400,2018-04-12 05:55:29,13,0,16.33,6040.4041850908,123.359584,0.223694,3.01011492572,0,0,-11.1847,72.6, -3.9, 0.3,0,0,1024,1024,1684,1024,73,-16.6,99,4.091,4.095,4.108,4.088,0,0,17.52,71.51,6,P-GPS,
0.0316460157693514,36.8843825976167,6042.0446050908,125.000004,0,3.03970810252,15500,2018-04-12 05:55:29,13,0,16.33,6042.0446050908,125.000004,0.223694,3.03970810252,0,0,-10.961006,72.6, -4.2, 0.3,0,0,1024,1024,1684,1024,73,-16.6,99,4.091,4.095,4.108,4.088,0,0,17.52,71.51,6,P-GPS,
0.0316460037620196,36.884382470298,6043.6850250908,126.640424,0,3.086204167,15600,2018-04-12 05:55:29,13,0,16.33,6043.6850250908,126.640424,0.223694,3.086204167,0,0,-10.961006,72.6, -4.2, 0.5,0,0,1024,1024,1684,1024,73,-16.6,99,4.091,4.095,4.108,4.088,0,0,17.52,71.51,6,P-GPS,
0.0316459829110156,36.8843824030212,6045.6535290908,128.608928,0,3.11170941716,15700,2018-04-12 05:55:29,13,0,16.33,6045.6535290908,128.608928,0.223694,3.11170941716,0,0.223694,-10.961006,72.6, -4.1, 0.5,0,0,1024,1024,1684,1024,73,-16.6,99,4.091,4.095,4.108,4.088,0,0,17.52,71.51,6,P-GPS,
0.0316459729925703,36.8843823012699,6047.2939490908,130.249348,0.223694,3.14888789604,15800,2018-04-12 05:55:29,13,0,16.33,6047.2939490908,130.249348,0.223694,3.14888789604,0,0.223694,-10.961006,72.6, -4.1, 0.5,0,0,1024,1024,1684,1024,73,-16.6,99,4.091,4.095,4.108,4.088,0,0,17.52,71.51,6,P-GPS,
0.0316459683535404,36.8843822435169,6048.9343690908,131.889768,0.223694,3.16992792296,15900,2018-04-12 05:55:29,13,0,16.33,6048.9343690908,131.889768,0.223694,3.16992792296,0,0.223694,-10.961006,72.6, -4, 0.6,0,0,1024,1024,1684,1024,73,-16.6,99,4.091,4.095,4.108,4.088,0,0,17.52,71.51,6,P-GPS,
0.0316459496264345,36.8843821612864,6050.5747890908,133.530188,0.223694,3.20066283208,16000,2018-04-12 05:55:29,12,0,16.33,6050.5747890908,133.530188,0.223694,3.20066283208,0,0.223694,-10.961006,72.6, -3.9, 0.3,0,0,1024,1024,1684,1024,73,-16.6,99,4.091,4.095,4.108,4.088,0,0,17.52,71.51,6,P-GPS,
0.0316459181693747,36.8843821324195,6052.2152090908,135.170608,0.223694,3.21306440728,16100,2018-04-12 05:55:30,12,0,16.33,6052.2152090908,135.170608,0.223694,3.21306440728,0,0.223694,-10.961006,72.6, -3.8, 0.4,0,0,1024,1024,1684,1024,72.9,-16.6,99,4.091,4.095,4.108,4.088,0,0,17.52,71.51,6,P-GPS,
0.0316458961133221,36.8843820946412,6053.8556290908,136.811028,0.223694,3.2280676886,16200,2018-04-12 05:55:30,13,0,16.33,6053.8556290908,136.811028,0.223694,3.2280676886,0,0.223694,-10.961006,72.6, -3.8, 0.4,0,0,1024,1024,1684,1024,73,-16.6,99,4.091,4.095,4.108,4.088,0,0,17.52,71.51,6,P-GPS,
0.0316458746113475,36.8843821128174,6055.8241330908,138.779532,0.223694,3.22297254408,16300,2018-04-12 05:55:30,13,0,16.223,6055.8241330908,138.779532,0.223694,3.2280676886,0,0.223694,-10.961006,72.6, -3.7, 0.1,0,0,1024,1024,1684,1024,73,-16.6,99,4.092,4.096,4.103,4.085,0,0,17.296,71.51,6,P-GPS,
0.0316458454748204,36.8843820735338,6057.4645530908,140.419952,0.223694,3.23901913252,16400,2018-04-12 05:55:30,13,0,16.223,6057.4645530908,140.419952,0.223694,3.23901913252,0,0.223694,-10.961006,72.6, -3.6, 0.2,0,0,1024,1024,1684,1024,73,-16.6,99,4.092,4.096,4.103,4.085,0,0,17.296,71.51,6,P-GPS,
0.031645807211679,36.8843820474911,6059.1049730908,142.060372,0.223694,3.2509679518,16500,2018-04-12 05:55:30,13,0,16.223,6059.1049730908,142.060372,0.223694,3.2509679518,0,0.223694,-10.961006,72.6, -3.8, 0,0,0,1024,1024,1684,1024,73,-16.6,99,4.092,4.096,4.103,4.085,0,0,17.296,71.51,6,P-GPS,
0.0316457815510656,36.8843819752662,6060.7453930908,143.700792,0.223694,3.27861887132,16600,2018-04-12 05:55:30,13,0,16.223,6060.7453930908,143.700792,0.223694,3.27861887132,0,0.223694,-11.1847,72.6, -3.7, 0.2,0,0,1024,1024,1684,1024,73,-16.6,99,4.092,4.096,4.103,4.085,0,0,17.296,71.51,6,P-GPS,
0.0316457645036996,36.8843819450225,6062.3858130908,145.341212,0.223694,3.2906497116,16700,2018-04-12 05:55:30,13,0,16.223,6062.3858130908,145.341212,0.223694,3.2906497116,0,0.223694,-10.961006,72.6, -3.5, 0.2,0,0,1024,1024,1684,1024,73,-16.6,99,4.092,4.096,4.103,4.085,0,0,17.296,71.51,6,P-GPS,
0.0316457571740731,36.8843818683611,6064.3543170908,147.309716,0.223694,3.3186024684,16800,2018-04-12 05:55:30,13,0,16.223,6064.3543170908,147.309716,0.223694,3.3186024684,0,0.223694,-10.961006,72.6, -3.7, 0,0,0,1024,1024,1684,1024,72.9,-16.6,99,4.092,4.096,4.103,4.085,0,0,17.296,71.51,6,P-GPS,
0.0316457545925823,36.8843818196887,6065.9947370908,148.950136,0.223694,3.3362205792,16900,2018-04-12 05:55:30,13,0,16.223,6065.9947370908,148.950136,0.223694,3.3362205792,0,0.223694,-11.1847,72.6, -3.9, 0.2,0,0,1024,1024,1684,1024,72.9,-16.6,99,4.092,4.096,4.103,4.085,0,0,17.296,71.51,6,P-GPS,
0.0316457458449883,36.8843817377558,6067.6351570908,150.590556,0.223694,3.3661746484,17000,2018-04-12 05:55:31,13,0,16.223,6067.6351570908,150.590556,0.223694,3.3661746484,0,0.223694,-11.1847,72.6, -4.1, 0.3,0,0,1024,1024,1678,1024,72.9,-16.6,99,4.092,4.096,4.103,4.085,0,0,17.296,71.51,6,P-GPS,
0.0316457201587269,36.8843816895501,6069.2755770908,152.230976,0.223694,3.3852035204,17100,2018-04-12 05:55:31,13,0,16.223,6069.2755770908,152.230976,0.223694,3.3852035204,0,0.223694,-10.961006,72.6, -4.2, 0.2,0,0,1024,1024,1678,1024,72.9,-16.6,99,4.092,4.096,4.103,4.085,0,0,17.296,71.51,6,P-GPS,
0.0316457020178608,36.8843815778789,6070.9159970908,153.871396,0.223694,3.4264764876,17200,2018-04-12 05:55:31,13,0,16.223,6070.9159970908,153.871396,0.223694,3.4264764876,0,0.223694,-10.961006,72.6, -4.3, 0.1,0,0,1024,1024,1678,1024,72.9,-16.6,99,4.092,4.096,4.103,4.085,0,0,17.296,71.51,6,P-GPS,
0.0316456951018591,36.8843815266692,6072.5564170908,155.511816,0.223694,3.4453085092,17300,2018-04-12 05:55:31,13,0,16.33,6072.5564170908,155.511816,0.223694,3.4453085092,0,0.223694,-10.961006,72.6, -4.2, 0.2,0,0,1024,1024,1674,1024,72.9,-16.6,99,4.087,4.09,4.095,4.077,0,0,17.662,71.51,6,P-GPS,
0.0316456788438813,36.8843814203423,6074.5249210908,157.48032,0.223694,3.4845145472,17400,2018-04-12 05:55:31,13,0,16.33,6074.5249210908,157.48032,0.223694,3.4845145472,0,0.223694,-10.961006,72.6, -4.1, 0.2,0,0,1024,1024,1668,1024,72.9,-16.6,99,4.087,4.09,4.095,4.077,0,0,17.662,71.51,6,P-GPS,
0.0316456539897548,36.8843813611782,6076.1653410908,159.12074,0.223694,3.5074476188,17500,2018-04-12 05:55:31,13,0,16.33,6076.1653410908,159.12074,0.223694,3.5074476188,0,0.223694,-10.961006,72.6, -4, 0.3,0,0,1024,1024,1663,1024,72.9,-16.6,99,4.087,4.09,4.095,4.077,0,0,17.662,71.51,6,P-GPS,
0.0316456527256752,36.8843812695866,6077.8057610908,160.76116,0.223694,3.5403216356,17600,2018-04-12 05:55:31,13,0,16.33,6077.8057610908,160.76116,0.223694,3.5403216356,0,0.223694,-10.737312,72.6, -4.1, 0.4,0,0,1024,1024,1645,1024,72.9,-16.6,99,4.087,4.09,4.095,4.077,0,0,17.662,71.51,6,P-GPS,
0.0316456675099111,36.8843812314101,6079.4461810908,162.40158,0.223694,3.552985678,17700,2018-04-12 05:55:31,13,0,16.33,6079.4461810908,162.40158,0.223694,3.552985678,0,0.223694,-10.961006,72.6, -3.9, 0.4,0,0,1024,1024,1627,1024,72.9,-16.6,99,4.087,4.09,4.095,4.077,0,0,17.662,71.51,6,P-GPS,
0.0316456865973103,36.8843811502373,6081.0866010908,164.042,0.223694,3.5808072012,17800,2018-04-12 05:55:31,13,0,16.33,6081.0866010908,164.042,0.223694,3.5808072012,0,0.223694,-10.737312,72.6, -3.8, 0.3,0,0,1024,1024,1642,1024,72.9,-16.6,99,4.087,4.09,4.095,4.077,0,0,17.662,71.51,6,P-GPS,
0.031645690619567,36.8843811189595,6082.7270210908,165.68242,0.223694,3.5917323984,17900,2018-04-12 05:55:31,13,0,16.33,6082.7270210908,165.68242,0.223694,3.5917323984,0,0.223694,-10.513618,72.6, -3.8, 0.1,0,0,1024,1024,1676,1024,72.9,-16.6,99,4.087,4.09,4.095,4.077,0,0,17.662,71.51,6,P-GPS,
0.0316457019388812,36.8843810597441,6084.3674410908,167.32284,0.223694,3.6122376484,18000,2018-04-12 05:55:32,13,0,16.33,6084.3674410908,167.32284,0.223694,3.6122376484,0,0.223694,-10.289924,72.6, -3.8, 0.3,0,0,1024,1024,1684,1024,72.9,-16.6,99,4.087,4.09,4.095,4.077,0,0,17.662,71.51,6,P-GPS,
0.0316457049225977,36.8843810553483,6086.0078610908,168.96326,0.223694,3.6136156012,18100,2018-04-12 05:55:32,13,0,16.33,6086.0078610908,168.96326,0.223694,3.6136156012,0,0.223694,-10.513618,72.6, -3.4, 0.3,0,0,1024,1024,1684,1024,72.9,-16.6,99,4.087,4.09,4.095,4.077,0,0,17.662,71.51,6,P-GPS,
0.0316457903601334,36.8843810317037,6087.6482810908,170.60368,0.223694,3.616633974,18200,2018-04-12 05:55:32,13,0,16.33,6087.6482810908,170.60368,0.223694,3.616633974,0,0.223694,-10.737312,72.6, -3.6, 0.3,0,0,1024,1024,1684,1024,72.9,-16.6,99,4.087,4.09,4.095,4.077,0,0,17.662,71.51,6,P-GPS,
0.0316459021072173,36.8843810434478,6089.2887010908,172.2441,0.223694,3.6056103516,18300,2018-04-12 05:55:32,13,0,16.25,6089.2887010908,172.2441,0.223694,3.616633974,0,0.223694,-10.961006,72.6, -4, 0.3,0,0,1024,1024,1684,1024,72.9,-16.6,99,4.087,4.09,4.095,4.077,0,0,17.662,71.51,6,P-GPS,
0.0316460630528513,36.8843810420261,6091.2572050908,174.212604,0.223694,3.5971457844,18400,2018-04-12 05:55:32,13,0,16.25,6091.2572050908,174.212604,0.223694,3.616633974,0,0.223694,-11.1847,72.6, -3.9, 0.5,0,0,1024,1024,1684,1024,72.9,-16.6,99,4.087,4.09,4.095,4.077,0,0,17.662,71.51,6,P-GPS,
0.0316461818368489,36.8843810788409,6092.8976250908,175.853024,0.223694,3.5778216368,18500,2018-04-12 05:55:32,13,0,16.25,6092.8976250908,175.853024,0.223694,3.616633974,0,0.223694,-11.1847,72.6, -3.8, 0.5,0,0,1024,1024,1684,1024,72.9,-16.6,99,4.087,4.09,4.095,4.077,0,0,17.662,71.51,6,P-GPS,
0.0316462970264635,36.8843810508177,6094.5380450908,177.493444,0.223694,3.5825788548,18600,2018-04-12 05:55:32,13,0,16.25,6094.5380450908,177.493444,0.223694,3.616633974,0,0.223694,-11.408394,72.6, -3.7, 0.5,0,0,1024,1024,1684,1024,72.9,-16.6,99,4.087,4.09,4.095,4.077,0,0,17.662,71.51,6,P-GPS,
0.0316463557493753,36.8843810357419,6096.1784650908,179.133864,0.223694,3.5854988024,18700,2018-04-12 05:55:32,13,0,16.25,6096.1784650908,179.133864,0.223694,3.616633974,0,0.223694,-11.1847,72.6, -3.5, 0.6,0,0,1024,1024,1684,1024,72.9,-16.6,99,4.087,4.09,4.095,4.077,0,0,17.662,71.51,6,P-GPS,
0.031646377618564,36.8843809465698,6097.8188850908,180.774284,0.223694,3.6168964412,18800,2018-04-12 05:55:32,13,0,16.25,6097.8188850908,180.774284,0.223694,3.6168964412,0,0.223694,-11.1847,72.6, -3.6, 0.6,0,0,1024,1024,1684,1024,72.9,-16.6,99,4.087,4.09,4.095,4.077,0,0,17.662,71.51,6,P-GPS,
0.0316463610047712,36.8843808944844,6099.7873890908,182.742788,0.223694,3.636483056,18900,2018-04-12 05:55:32,13,0,16.25,6099.7873890908,182.742788,0.223694,3.636483056,0,0.223694,-11.1847,72.6, -3.6, 0.5,0,0,1024,1024,1684,1024,72.9,-16.6,99,4.087,4.09,4.095,4.077,0,0,17.662,71.51,6,P-GPS,
0.0316463248455794,36.8843807926131,6101.4278090908,184.383208,0.223694,3.6749016924,19000,2018-04-12 05:55:32,13,0,16.25,6101.4278090908,184.383208,0.223694,3.6749016924,0,0.223694,-10.961006,72.6, -3.8, 0.4,0,0,1024,1024,1684,1024,72.9,-16.6,99,4.087,4.09,4.095,4.077,0,0,17.662,71.51,6,P-GPS,
0.0316462868898067,36.8843807485035,6103.0682290908,186.023628,0.223694,3.6925198032,19100,2018-04-12 05:55:33,13,0,16.25,6103.0682290908,186.023628,0.223694,3.6925198032,0,0.223694,-10.961006,72.7, -4.2, 0.1,0,0,1024,1024,1684,1024,72.9,-16.6,99,4.087,4.09,4.095,4.077,0,0,17.662,71.51,6,P-GPS,
0.0316462524962552,36.8843806413029,6104.7086490908,187.664048,0.223694,3.7328413268,19200,2018-04-12 05:55:33,13,0,16.25,6104.7086490908,187.664048,0.223694,3.7328413268,0,0.223694,-10.961006,72.7, -3.9, 0,0,0,1024,1024,1684,1024,72.9,-16.6,99,4.087,4.09,4.095,4.077,0,0,17.662,71.51,6,P-GPS,
0.0316462388816492,36.8843805962276,6106.3490690908,189.304468,0.223694,3.7497704612,19300,2018-04-12 05:55:33,13,0,16.384,6106.3490690908,189.304468,0.223694,3.7497704612,0,0.223694,-10.961006,72.6, -3.6, 0.2,0,0,1024,1024,1684,1024,72.9,-16.6,99,4.099,4.111,4.111,4.095,0,0,17.06,71.51,6,P-GPS,
0.0316462321508831,36.8843804986494,6107.9894890908,190.944888,0.223694,3.785433192,19400,2018-04-12 05:55:33,13,0,16.384,6107.9894890908,190.944888,0.223694,3.785433192,0,0.223694,-10.961006,72.6, -3.6, 0.2,0,0,1024,1024,1684,1024,72.9,-16.6,99,4.099,4.111,4.111,4.095,0,0,17.06,71.51,6,P-GPS,
0.0316462294643576,36.8843804602074,6109.6299090908,192.585308,0.223694,3.7994751872,19500,2018-04-12 05:55:33,13,0,16.384,6109.6299090908,192.585308,0.223694,3.7994751872,0,0.223694,-10.961006,72.6, -3.8, 0.1,0,0,1024,1024,1684,1024,72.9,-16.6,99,4.099,4.111,4.111,4.095,0,0,17.06,71.51,6,P-GPS,
0.0316462382038094,36.8843803503475,6111.2703290908,194.225728,0.223694,3.8388780756,19600,2018-04-12 05:55:33,13,0,16.384,6111.2703290908,194.225728,0.223694,3.8388780756,0,0.223694,-10.961006,72.6, -3.7, 0.2,0,0,1024,1024,1684,1024,72.9,-16.6,99,4.099,4.111,4.111,4.095,0,0,17.06,71.51,6,P-GPS,
0.0316462513429098,36.8843802874708,6112.9107490908,195.866148,0.223694,3.8610893624,19700,2018-04-12 05:55:33,13,0,16.384,6112.9107490908,195.866148,0.223694,3.8610893624,0,0.223694,-10.961006,72.6, -3.8, 0.6,0,0,1024,1024,1684,1024,72.9,-16.6,99,4.099,4.111,4.111,4.095,0,0,17.06,71.51,6,P-GPS,
0.0316462641412583,36.8843801780435,6114.5511690908,197.506568,0.223694,3.9001969752,19800,2018-04-12 05:55:33,13,0,16.384,6114.5511690908,197.506568,0.223694,3.9001969752,0,0.223694,-10.961006,72.6, -3.8, 0.6,0,0,1024,1024,1684,1024,72.9,-16.6,99,4.099,4.111,4.111,4.095,0,0,17.06,71.51,6,P-GPS,
0.0316462722309609,36.8843801429716,6116.1915890908,199.146988,0.223694,3.912565742,19900,2018-04-12 05:55:33,13,0,16.384,6116.1915890908,199.146988,0.223694,3.912565742,0,0.223694,-10.961006,72.6, -3.8, 0.4,0,0,1024,1024,1684,1024,72.9,-16.6,99,4.099,4.111,4.111,4.095,0,0,17.06,71.51,6,P-GPS,
0.031646280967563,36.8843800457959,6117.8320090908,200.787408,0.223694,3.9474410712,20000,2018-04-12 05:55:34,13,0,16.384,6117.8320090908,200.787408,0.223694,3.9474410712,0,0.223694,-10.961006,72.6, -3.2, 0.5,0,0,1024,1024,1684,1024,72.9,-16.6,99,4.099,4.111,4.111,4.095,0,0,17.06,71.51,6,P-GPS,
0.0316462832498272,36.8843799899977,6119.4724290908,202.427828,0.223694,3.9675854288,20100,2018-04-12 05:55:34,13,0,16.384,6119.4724290908,202.427828,0.223694,3.9675854288,0,0.223694,-10.961006,72.6, -3.3, 0.6,0,0,1024,1024,1684,1024,72.9,-16.6,99,4.099,4.111,4.111,4.095,0,0,17.06,71.51,6,P-GPS,
0.0316462902663853,36.8843798490228,6121.1128490908,204.068248,0.223694,4.0184056404,20200,2018-04-12 05:55:34,13,0,16.384,6121.1128490908,204.068248,0.223694,4.0184056404,0,0.223694,-10.961006,72.6, -3.9, 0.5,0,0,1024,1024,1684,1024,72.9,-16.6,99,4.099,4.111,4.111,4.095,0,0,17.06,71.51,6,P-GPS,
0.0316462985673786,36.8843797649017,6122.7532690908,205.708668,0.223694,4.0485893684,20300,2018-04-12 05:55:34,13,0,16.277,6122.7532690908,205.708668,0.223694,4.0485893684,0,0.223694,-10.961006,72.6, -4.3, 0.4,0,0,1024,1024,1684,1024,72.9,-16.6,98,4.083,4.088,4.093,4.077,0,0,17.066,71.51,6,P-GPS,
0.031646310514458,36.8843796231966,6124.3936890908,207.349088,0.223694,4.0995408136,20400,2018-04-12 05:55:34,13,0,16.277,6124.3936890908,207.349088,0.223694,4.0995408136,0,0.223694,-10.961006,72.6, -4.2, 0.4,0,0,1024,1024,1684,1024,72.9,-16.6,98,4.083,4.088,4.093,4.077,0,0,17.066,71.51,6,P-GPS,
0.0316463128687809,36.8843795516697,6126.0341090908,208.989508,0.223694,4.1253938328,20500,2018-04-12 05:55:34,13,0,16.277,6126.0341090908,208.989508,0.223694,4.1253938328,0,0.223694,-10.961006,72.6, -4.1, 0.6,0,0,1024,1024,1684,1024,72.9,-16.6,98,4.083,4.088,4.093,4.077,0,0,17.066,71.51,6,P-GPS,
0.0316463134151238,36.8843794264386,6127.6745290908,210.629928,0.223694,4.1708334668,20600,2018-04-12 05:55:34,13,0,16.277,6127.6745290908,210.629928,0.223694,4.1708334668,0,0.223694,-10.961006,72.6, -4.1, 0.6,0,0,1024,1024,1684,1024,72.9,-16.6,98,4.083,4.088,4.093,4.077,0,0,17.066,71.51,6,P-GPS,
0.0316463033155142,36.8843793582026,6129.3149490908,212.270348,0.223694,4.1959647012,20700,2018-04-12 05:55:34,13,0,16.277,6129.3149490908,212.270348,0.223694,4.1959647012,0,0.223694,-10.961006,72.7, -4.3, 0.5,0,0,1024,1024,1684,1024,72.9,-16.6,98,4.083,4.088,4.093,4.077,0,0,17.066,71.51,6,P-GPS,
0.0316463139435539,36.8843792221116,6130.9553690908,213.910768,0.223694,4.2449804508,20800,2018-04-12 05:55:34,13,0,16.277,6130.9553690908,213.910768,0.223694,4.2449804508,0,0.223694,-10.961006,72.7, -4.1, 0.5,0,0,1024,1024,1684,1024,72.9,-16.6,98,4.083,4.088,4.093,4.077,0,0,17.066,71.51,6,P-GPS,
0.0316463216587145,36.8843791737625,6132.5957890908,215.551188,0.223694,4.2622376692,20900,2018-04-12 05:55:34,13,0,16.277,6132.5957890908,215.551188,0.223694,4.2622376692,0,0.223694,-10.961006,72.7, -4, 0.4,0,0,1024,1024,1684,1024,72.9,-16.6,98,4.083,4.088,4.093,4.077,0,0,17.066,71.51,6,P-GPS,
0.0316463135694189,36.8843790682513,6134.2362090908,217.191608,0.223694,4.3008203476,21000,2018-04-12 05:55:35,13,0,16.277,6134.2362090908,217.191608,0.223694,4.3008203476,0,0.223694,-10.961006,72.6, -3.9, 0.2,0,0,1024,1024,1684,1024,72.9,-16.6,98,4.083,4.088,4.093,4.077,0,0,17.066,71.51,6,P-GPS,
0.0316462811755967,36.8843790164657,6135.8766290908,218.832028,0.223694,4.3208334716,21100,2018-04-12 05:55:35,13,0,16.277,6135.8766290908,218.832028,0.223694,4.3208334716,0,0.223694,-10.961006,72.6, -4.2, 0.1,0,0,1024,1024,1684,1024,72.9,-16.6,98,4.083,4.088,4.093,4.077,0,0,17.066,71.51,6,P-GPS,
0.0316462615805301,36.8843788947611,6137.5170490908,220.472448,0.223694,4.3657153628,21200,2018-04-12 05:55:35,13,0,16.277,6137.5170490908,220.472448,0.223694,4.3657153628,0,0.223694,-10.961006,72.6, -4.3, 0.3,0,0,1024,1024,1684,1024,72.9,-16.6,98,4.083,4.088,4.093,4.077,0,0,17.066,71.51,6,P-GPS,
0.0316462482944626,36.8843788440845,6139.1574690908,222.112868,0.223694,4.3846130012,21300,2018-04-12 05:55:35,13,0,16.304,6139.1574690908,222.112868,0.223694,4.3846130012,0,0.223694,-10.961006,72.6, -4, 0.4,0,0,1024,1024,1684,1024,72.9,-16.6,98,4.083,4.088,4.093,4.077,0,0,17.47,71.51,6,P-GPS,
0.0316462435182364,36.8843787258743,6140.7978890908,223.753288,0.223694,4.4276904304,21400,2018-04-12 05:55:35,13,0,16.304,6140.7978890908,223.753288,0.223694,4.4276904304,0,0.223694,-10.961006,72.6, -3.7, 0.4,0,0,1024,1024,1684,1024,72.9,-16.6,98,4.083,4.088,4.093,4.077,0,0,17.47,71.51,6,P-GPS,
0.0316462270823511,36.8843786645091,6142.4383090908,225.393708,0.223694,4.4505906936,21500,2018-04-12 05:55:35,13,0,16.304,6142.4383090908,225.393708,0.223694,4.4505906936,0,0.223694,-10.961006,72.6, -4, 0.4,0,0,1024,1024,1684,1024,72.9,-16.6,98,4.083,4.088,4.093,4.077,0,0,17.47,71.51,6,P-GPS,
