latitude,longitude,altitude(feet),ascent(feet),speed(mph),distance(feet),time(millisecond),datetime(utc),satellites,gpslevel,voltage(v),max_altitude(feet),max_ascent(feet),max_speed(mph),max_distance(feet), xSpeed(mph), ySpeed(mph), zSpeed(mph), compass_heading(degrees), pitch(degrees), roll(degrees),isPhoto,isVideo,rc_elevator,rc_aileron,rc_throttle,rc_rudder,gimbal_heading(degrees),gimbal_pitch(degrees),battery_percent,voltageCell1,voltageCell2,voltageCell3,voltageCell4,voltageCell5,voltageCell6,current(A),battery_temperature(f),flycStateRaw,flycState,message
0.318385180997961,36.9028652066502,5545.2832171472,0,0,0,0,2018-04-06 12:03:51,13,0,0,5545.2832171472,0,0,0,0,0,0,196, 4.7, -2.7,0,0,364,364,364,1684,200.7,0,99,4.307,4.306,4.309,4.307,0,0,0,80.51,41,Motors_Started,
0.318385159295281,36.9028651892217,5545.2832171472,0,0,0.010155348094,100,2018-04-06 12:03:51,13,0,17.214,5545.2832171472,0,0,0.010155348094,0,0,0,196, 4.7, -2.7,0,0,364,364,364,1684,200.7,0,99,4.307,4.306,4.309,4.307,0,0,1.482,80.51,41,Motors_Started,Setting new Return-To-Home altitude to 30m (98 ft). Setting new Maximum Flight Altitude to 150m (492 ft)
0.318385152574285,36.9028651724728,5545.2832171472,0,0,0.0162182419888,200,2018-04-06 12:03:51,13,0,17.214,5545.2832171472,0,0,0.0162182419888,0,0,0,196, 4.7, -2.7,0,0,364,364,364,1684,200.7,0,99,4.307,4.306,4.309,4.307,0,0,1.482,80.51,41,Motors_Started,
0.318385147162559,36.9028651409707,5545.2832171472,0,0,0.0269556767156,300,2018-04-06 12:03:51,13,0,17.214,5545.2832171472,0,0,0.0269556767156,0,0,0,195.9, 4.7, -2.7,0,0,364,364,364,1684,200.7,0,99,4.307,4.306,4.309,4.307,0,0,1.482,80.51,41,Motors_Started,
0.318385149038933,36.9028650999214,5545.2832171472,0,0,0.040647639096,400,2018-04-06 12:03:51,13,0,17.214,5545.2832171472,0,0,0.040647639096,0,0,0,195.9, 4.7, -2.7,0,0,364,364,364,1684,200.7,0,99,4.307,4.306,4.309,4.307,0,0,1.482,80.51,41,Motors_Started,
0.318385150701982,36.9028650555975,5545.2832171472,0,0,0.056208335132,500,2018-04-06 12:03:51,13,0,17.214,5545.2832171472,0,0,0.056208335132,0,0,0,196, 4.7, -2.7,0,0,376,364,364,1684,200.7,0,99,4.307,4.306,4.309,4.307,0,0,1.482,80.51,41,Motors_Started,
0.318385145259315,36.9028650158636,5545.2832171472,0,0,0.070818243736,600,2018-04-06 12:03:51,13,0,17.214,5545.2832171472,0,0,0.070818243736,0,0,0,195.9, 4.7, -2.7,0,0,393,364,370,1684,200.7,0,99,4.307,4.306,4.309,4.307,0,0,1.482,80.51,41,Motors_Started,
0.318385121209233,36.9028649944155,5545.2832171472,0,0,0.080446524884,700,2018-04-06 12:03:52,13,0,17.214,5545.2832171472,0,0,0.080446524884,0,0,0,196, 4.7, -2.7,0,0,407,364,383,1676,200.7,0,99,4.307,4.306,4.309,4.307,0,0,1.482,80.51,41,Motors_Started,
0.318385097615929,36.9028649681896,5545.2832171472,0,0,0.092166341532,800,2018-04-06 12:03:52,13,0,17.214,5545.2832171472,0,0,0.092166341532,0,0,0,195.9, 4.7, -2.7,0,0,463,377,396,1665,200.7,0,99,4.307,4.306,4.309,4.307,0,0,1.482,80.51,41,Motors_Started,
0.318385084840786,36.9028649325878,5545.2832171472,0,0,0.105965882656,900,2018-04-06 12:03:52,13,0,17.214,5545.2832171472,0,0,0.105965882656,0,0,0,196, 4.7, -2.7,0,0,463,377,396,1665,200.7,0,99,4.307,4.306,4.309,4.307,0,0,1.482,80.51,41,Motors_Started,
0.318385060492698,36.9028648886775,5545.2832171472,0,0,0.124062339928,1000,2018-04-06 12:03:52,13,0,17.214,5545.2832171472,0,0,0.124062339928,0,0,0,196, 4.7, -2.8,0,0,720,567,537,1558,200.7,0,99,4.307,4.306,4.309,4.307,0,0,1.482,80.51,41,Motors_Started,
0.318385025164013,36.9028648421876,5545.2832171472,0,0,0.144617130612,1100,2018-04-06 12:03:52,13,0,17.214,5545.2832171472,0,0,0.144617130612,0,0,0,195.9, 4.7, -2.7,0,0,776,624,827,1304,200.5,0,99,4.303,4.303,4.306,4.305,0,0,1.618,82.31,41,Motors_Started,
0.318384991925435,36.902864797682,5545.2832171472,0,0,0.164384191612,1200,2018-04-06 12:03:52,13,0,17.214,5545.2832171472,0,0,0.164384191612,0,0,0,195.9, 4.7, -2.7,0,0,1004,860,1024,1059,199.7,0,99,4.303,4.303,4.306,4.305,0,0,1.618,82.31,41,Motors_Started,
0.318384972754171,36.9028647799182,5545.2832171472,0,0,0.173240163024,1300,2018-04-06 12:03:52,13,0,17.214,5545.2832171472,0,0,0.173240163024,0,0,0,195.9, 4.6, -2.8,0,0,1024,949,1024,1024,198.4,0,99,4.303,4.303,4.306,4.305,0,0,1.618,82.31,41,Motors_Started,
0.318384944439194,36.9028647552184,5545.2832171472,0,0,0.185945872092,1400,2018-04-06 12:03:52,13,0,17.214,5545.2832171472,0,0,0.185945872092,0,0,0,195.9, 4.7, -2.8,0,0,1024,1024,1024,1024,197.7,0,99,4.303,4.303,4.306,4.305,0,0,1.618,82.31,41,Motors_Started,
0.318384906332383,36.9028647202489,5545.2832171472,0,0,0.203800203372,1500,2018-04-06 12:03:52,13,0,17.214,5545.2832171472,0,0,0.203800203372,0,0,0,196, 4.7, -2.7,0,0,1024,1024,1024,1024,197.4,0,99,4.303,4.303,4.306,4.305,0,0,1.618,82.31,10,Assisted_Takeoff,
0.318384872131802,36.902864683133,5545.2832171472,0,0,0.221767395548,1600,2018-04-06 12:03:53,13,0,17.214,5545.2832171472,0,0,0.221767395548,0,0,0,195.9, 4.7, -2.7,0,0,1024,1024,1024,1024,197.2,0,99,4.303,4.303,4.306,4.305,0,0,1.618,82.31,10,Assisted_Takeoff,
0.318384856092443,36.9028646748116,5545.2832171472,0,0,0.227382553208,1700,2018-04-06 12:03:53,13,0,17.214,5545.2832171472,0,0,0.227382553208,0,0,0,195.9, 4.7, -2.7,0,0,1024,1024,1024,1024,197,0,99,4.303,4.303,4.306,4.305,0,0,1.618,82.31,10,Assisted_Takeoff,
0.318384845689943,36.9028646589178,5545.2832171472,0,0,0.234309718784,1800,2018-04-06 12:03:53,13,0,17.214,5545.2832171472,0,0,0.234309718784,0,0,0,195.9, 4.7, -2.7,0,0,1024,1024,1024,1024,197,0,99,4.303,4.303,4.306,4.305,0,0,1.618,82.31,10,Assisted_Takeoff,
0.318384839640681,36.9028646275919,5545.2832171472,0,0,0.245243774252,1900,2018-04-06 12:03:53,13,0,17.214,5545.2832171472,0,0,0.245243774252,0,0,0,195.9, 4.7, -2.7,0,0,1024,1024,1024,1024,196.8,0,99,4.303,4.303,4.306,4.305,0,0,1.618,82.31,10,Assisted_Takeoff,
0.318384828312003,36.902864602735,5545.2832171472,0,0,0.255157160396,2000,2018-04-06 12:03:53,13,0,17.214,5545.2832171472,0,0,0.255157160396,0,0,0,195.9, 4.7, -2.7,0,0,1024,1024,1024,1024,196.8,0,99,4.303,4.303,4.306,4.305,0,0,1.618,82.31,10,Assisted_Takeoff,
0.318384800684229,36.9028645899211,5545.2832171472,0,0,0.264354011084,2100,2018-04-06 12:03:53,13,0,17.134,5545.2832171472,0,0,0.264354011084,0,0,0,195.9, 4.7, -2.7,0,0,1024,1024,1024,1024,196.8,0,99,4.303,4.303,4.306,4.305,0,0,3.904,80.51,10,Assisted_Takeoff,
0.318384776026737,36.9028645723747,5545.2832171472,0,0,0.274558407736,2200,2018-04-06 12:03:53,13,0,17.134,5545.2832171472,0,0,0.274558407736,0,0,0,195.9, 4.7, -2.7,0,0,1024,1024,1024,1024,196.7,0,99,4.303,4.303,4.306,4.305,0,0,3.904,80.51,10,Assisted_Takeoff,
0.318384763174243,36.9028645408218,5545.2832171472,0,0,0.286793644348,2300,2018-04-06 12:03:53,13,0,17.134,5545.2832171472,0,0,0.286793644348,0,0,0,195.9, 4.7, -2.7,0,0,1024,1024,1024,1024,196.7,0,99,4.303,4.303,4.306,4.305,0,0,3.904,80.51,10,Assisted_Takeoff,
0.318384756859544,36.9028645141157,5545.2832171472,0,0,0.296289051476,2400,2018-04-06 12:03:53,13,0,17.134,5545.2832171472,0,0,0.296289051476,0,0,0,195.9, 4.7, -2.7,0,0,1024,1024,1024,1024,196.6,0,99,4.303,4.303,4.306,4.305,0,0,3.904,80.51,10,Assisted_Takeoff,
0.318384754586236,36.9028645009658,5545.2832171472,0,0,0.30081857918,2500,2018-04-06 12:03:53,13,0,17.134,5545.2832171472,0,0,0.30081857918,0,0,0,195.9, 4.7, -2.7,0,0,1024,1024,1024,1024,196.6,0,99,4.303,4.303,4.306,4.305,0,0,3.904,80.51,10,Assisted_Takeoff,
0.318384744821272,36.902864481255,5545.2832171472,0,0,0.308816939016,2600,2018-04-06 12:03:53,13,0,17.134,5545.2832171472,0,0,0.308816939016,0,0,0,195.9, 4.7, -2.7,0,0,1024,1024,1024,1024,196.6,0,99,4.303,4.303,4.306,4.305,0,0,3.904,80.51,10,Assisted_Takeoff,
0.318384719016948,36.9028644494401,5545.2832171472,0,0,0.323622713768,2700,2018-04-06 12:03:54,13,0,17.134,5545.2832171472,0,0,0.323622713768,0,0,0,195.9, 4.7, -2.7,0,0,1024,1024,1024,1024,196.6,0,99,4.303,4.303,4.306,4.305,0,0,3.904,80.51,10,Assisted_Takeoff,
0.318384695408582,36.9028644223123,5545.2832171472,0,0,0.3365649714,2800,2018-04-06 12:03:54,13,0,17.134,5545.2832171472,0,0,0.3365649714,0,0,0,195.9, 4.7, -2.7,0,0,1024,1024,1024,1024,196.6,0,99,4.303,4.303,4.306,4.305,0,0,3.904,80.51,10,Assisted_Takeoff,
0.318384683519719,36.9028644076291,5545.2832171472,0,0,0.3434055228,2900,2018-04-06 12:03:54,13,0,17.134,5545.2832171472,0,0,0.3434055228,0,0,0,195.9, 4.7, -2.7,0,0,1024,1024,1024,1024,196.5,0,99,4.303,4.303,4.306,4.305,0,0,3.904,80.51,10,Assisted_Takeoff,
0.318384676710788,36.902864385609,5545.2832171472,0,0,0.35154528684,3000,2018-04-06 12:03:54,13,0,17.187,5545.2832171472,0,0,0.35154528684,0,0,0,195.9, 4.7, -2.7,0,0,1024,1024,1024,1024,196.5,0,99,4.291,4.299,4.304,4.299,0,0,3.904,80.51,10,Assisted_Takeoff,
0.318384675523652,36.9028643223386,5545.2832171472,0,0,0.37162402764,3200,2018-04-06 12:03:54,13,0,17.187,5545.2832171472,0,0,0.37162402764,0,0,0,195.9, 4.7, -2.7,0,1,1024,1024,1024,1024,196.5,0,99,4.291,4.299,4.304,4.299,0,0,3.904,80.51,10,Assisted_Takeoff,
0.318384677857619,36.9028643067764,5545.2832171472,0,0,0.376148306,3300,2018-04-06 12:03:54,13,0,17.187,5545.2832171472,0,0,0.376148306,0,0,0,195.9, 4.7, -2.7,0,1,1024,1024,1024,1024,196.5,0,99,4.291,4.299,4.304,4.299,0,0,3.904,80.51,10,Assisted_Takeoff,
0.318384685218186,36.9028642845988,5545.2832171472,0,0,0.38195211196,3400,2018-04-06 12:03:54,13,0,17.187,5545.2832171472,0,0,0.38195211196,0,0,0,195.9, 4.7, -2.7,0,1,1024,1024,1024,1024,196.5,0,99,4.291,4.299,4.304,4.299,0,0,3.904,80.51,10,Assisted_Takeoff,
0.318384689821797,36.9028642506738,5545.2832171472,0,0,0.3921259968,3500,2018-04-06 12:03:54,13,0,17.187,5545.2832171472,0,0,0.3921259968,0,0,0,195.9, 4.7, -2.7,0,1,1024,1024,1024,1024,196.5,0,99,4.291,4.299,4.304,4.299,0,0,3.904,80.51,10,Assisted_Takeoff,
0.31838468403675,36.9028642211243,5545.2832171472,0,0,0.40269358244,3600,2018-04-06 12:03:54,13,0,17.187,5545.2832171472,0,0,0.40269358244,0,0,0,195.9, 4.7, -2.7,0,1,1024,1024,1024,1024,196.5,0,99,4.291,4.299,4.304,4.299,0,0,3.904,80.51,10,Assisted_Takeoff,
0.318384660459324,36.902864205146,5545.2832171472,0,0,0.41180119428,3700,2018-04-06 12:03:55,13,0,17.187,5545.2832171472,0,0,0.41180119428,0,0,0,195.9, 4.7, -2.7,0,1,1024,1024,1024,1024,196.5,0,99,4.291,4.299,4.304,4.299,0,0,3.904,80.51,10,Assisted_Takeoff,
0.318384649175428,36.9028641977748,5545.2832171472,0,0,0.416092533,3800,2018-04-06 12:03:55,13,0,17.187,5545.2832171472,0,0,0.416092533,0,0,0,195.9, 4.7, -2.7,0,1,1024,1024,1024,1024,196.5,0,99,4.291,4.299,4.304,4.299,0,0,3.904,80.51,10,Assisted_Takeoff,
0.318384666754481,36.9028641937185,5545.2832171472,0,0,0.41446195552,3900,2018-04-06 12:03:55,13,0,17.187,5545.2832171472,0,0,0.416092533,0,0,0,195.9, 4.7, -2.7,0,1,1024,1024,1024,1024,196.5,0,99,4.291,4.299,4.304,4.299,0,0,3.904,80.51,10,Assisted_Takeoff,
0.318384689623941,36.9028641829782,5545.2832171472,0,0,0.41428150932,4000,2018-04-06 12:03:55,13,0,17.187,5545.2832171472,0,0,0.416092533,0,0,0,195.9, 4.7, -2.7,0,1,1024,1024,1024,1024,196.5,0,99,4.291,4.299,4.304,4.299,0,0,3.904,80.51,10,Assisted_Takeoff,
0.318384704295815,36.9028641564119,5545.2832171472,0,0,0.42079725756,4100,2018-04-06 12:03:55,13,0,17.187,5545.2832171472,0,0,0.42079725756,0,0,0,195.9, 4.7, -2.7,0,1,1024,1024,1024,1024,196.5,0,99,4.301,4.301,4.303,4.301,0,0,1.978,82.31,10,Assisted_Takeoff,
0.318384706409942,36.9028641336991,5545.2832171472,0,0,0.42804463312,4200,2018-04-06 12:03:55,13,0,17.187,5545.2832171472,0,0,0.42804463312,0,0,0,195.9, 4.7, -2.7,0,1,1024,1024,1024,1024,196.5,0,99,4.301,4.301,4.303,4.301,0,0,1.978,82.31,10,Assisted_Takeoff,
0.318384688003232,36.9028641215009,5545.2832171472,0,0,0.43485237612,4300,2018-04-06 12:03:55,13,0,17.187,5545.2832171472,0,0,0.43485237612,0,0,0,195.9, 4.7, -2.7,0,1,1024,1024,1024,1024,196.5,0,99,4.301,4.301,4.303,4.301,0,0,1.978,82.31,10,Assisted_Takeoff,
0.318384664930624,36.9028641001957,5545.2832171472,0,0,0.44543308512,4400,2018-04-06 12:03:55,13,0,17.187,5545.2832171472,0,0,0.44543308512,0,0,0,195.9, 4.7, -2.7,0,1,1024,1024,1024,1024,196.5,0,99,4.301,4.301,4.303,4.301,0,0,1.978,82.31,10,Assisted_Takeoff,
0.318384653064152,36.9028640667144,5545.2832171472,0,0,0.45833662884,4500,2018-04-06 12:03:55,13,0,17.187,5545.2832171472,0,0,0.45833662884,0,0,0,195.9, 4.7, -2.7,0,1,1024,1024,1024,1024,196.5,0,99,4.301,4.301,4.303,4.301,0,0,1.978,82.31,10,Assisted_Takeoff,
0.318384639778899,36.9028640361893,5545.2832171472,0,0,0.47047901768,4600,2018-04-06 12:03:56,13,0,17.187,5545.2832171472,0,0,0.47047901768,0,0,0,195.9, 4.7, -2.7,0,1,1024,1024,1054,1024,196.5,0,99,4.301,4.301,4.303,4.301,0,0,1.978,82.31,10,Assisted_Takeoff,
0.318384633451987,36.902864019292,5545.2832171472,0,0,0.47704397852,4700,2018-04-06 12:03:56,13,0,17.187,5545.2832171472,0,0,0.47704397852,0,0,0,195.9, 4.7, -2.7,0,1,1024,1024,1093,1024,196.5,0,99,4.301,4.301,4.303,4.301,0,0,1.978,82.31,10,Assisted_Takeoff,
0.318384626614558,36.9028639938607,5545.2832171472,0,0,0.4865157636,4800,2018-04-06 12:03:56,13,0,17.187,5545.2832171472,0,0,0.4865157636,0,0,0,195.9, 4.7, -2.7,0,1,1024,1024,1110,1024,196.5,0,99,4.301,4.301,4.303,4.301,0,0,1.978,82.31,10,Assisted_Takeoff,
0.31838462355349,36.9028639586171,5545.2832171472,0,0,0.49869424168,4900,2018-04-06 12:03:56,13,0,17.187,5545.2832171472,0,0,0.49869424168,0,0,0,195.9, 4.6, -2.7,0,1,1024,1024,1132,1024,196.4,0,99,4.301,4.301,4.303,4.301,0,0,1.978,82.31,10,Assisted_Takeoff,
0.318384621333107,36.9028639277006,5545.2832171472,0,0,0.50934056748,5000,2018-04-06 12:03:56,13,0,17.187,5545.2832171472,0,0,0.50934056748,0,0,0,195.9, 4.6, -2.7,0,1,1024,1024,1164,1024,196.4,0,99,4.301,4.301,4.303,4.301,0,0,1.978,82.31,10,Assisted_Takeoff,
0.318384620803048,36.9028639112944,5545.2832171472,0,0,0.51490487212,5100,2018-04-06 12:03:56,13,0,17.187,5545.2832171472,0,0,0.51490487212,0,0,0,195.9, 4.7, -2.7,0,1,1024,1024,1192,1024,196.4,0,99,4.301,4.301,4.303,4.301,0,0,1.992,82.31,10,Assisted_Takeoff,
0.318384621523228,36.9028638872764,5545.2832171472,0,0,0.52285762828,5200,2018-04-06 12:03:56,13,0,17.187,5545.2832171472,0,0,0.52285762828,0,0,0,196, 4.6, -2.7,0,1,1024,1024,1197,1024,196.4,0,99,4.301,4.301,4.303,4.301,0,0,1.992,82.31,10,Assisted_Takeoff,
0.318384622941195,36.9028638524531,5545.2832171472,0,0,0.53437993836,5300,2018-04-06 12:03:56,13,0,17.187,5545.2832171472,0,0,0.53437993836,0,0,0,195.9, 4.6, -2.7,0,1,1024,1024,1194,1024,196.4,0,99,4.301,4.301,4.303,4.301,0,0,1.992,82.31,10,Assisted_Takeoff,
0.318384624971865,36.9028638217674,5545.2832171472,0,0,0.5444718022,5400,2018-04-06 12:03:56,13,0,17.187,5545.2832171472,0,0,0.5444718022,0,0,0,195.9, 4.6, -2.7,0,1,1024,1024,1179,1024,196.4,0,99,4.301,4.301,4.303,4.301,0,0,1.992,82.31,10,Assisted_Takeoff,
0.318384625853667,36.9028638063857,5545.2832171472,0,0,0.54956366588,5500,2018-04-06 12:03:56,13,0,17.187,5545.2832171472,0,0,0.54956366588,0,0,0,195.9, 4.6, -2.6,0,1,1024,1024,1174,1024,196.4,0,99,4.301,4.301,4.303,4.301,0,0,1.992,82.31,10,Assisted_Takeoff,
0.318384630567198,36.9028637968239,5545.2832171472,0,0,0.5521817762,5600,2018-04-06 12:03:56,13,0,17.187,5545.2832171472,0,0,0.5521817762,0,0,0,195.9, 4.3, -2.7,0,1,1024,1024,1182,1024,196.4,0,99,4.301,4.301,4.303,4.301,0,0,1.992,82.31,10,Assisted_Takeoff,
0.31838468834887,36.9028637944742,5545.2832171472,0,0,0.54567587048,5700,2018-04-06 12:03:57,13,0,17.187,5545.2832171472,0,0,0.5521817762,0,0,0,196, 2.8, -1.4,0,1,1024,1024,1189,1024,196.4,0,99,4.301,4.301,4.303,4.301,0,0,1.992,82.31,10,Assisted_Takeoff,
0.31838474849382,36.9028638392338,5545.2832171472,0,0,0.52325460992,5800,2018-04-06 12:03:57,13,0,17.187,5545.2832171472,0,0,0.5521817762,0,0,-0.223694,196.1, 1.7, 0.6,0,1,1024,1024,1187,1024,196.4,0,99,4.301,4.301,4.303,4.301,0,0,1.992,82.31,10,Assisted_Takeoff,
0.318384800354876,36.902863893929,5545.2832171472,0,0,0.49866799496,5900,2018-04-06 12:03:57,13,0,17.187,5545.2832171472,0,0,0.5521817762,0,0,-0.447388,196.2, 1.2, 1,0,1,1024,1024,1186,1024,196.4,0,99,4.301,4.301,4.303,4.301,0,0,1.992,82.31,6,P-GPS,Obstacle Avoided. Revise Flight Route
0.318384844622091,36.9028639282495,5545.2832171472,0,0,0.48229332252,6000,2018-04-06 12:03:57,13,0,17.187,5545.2832171472,0,0,0.5521817762,0,0,-0.447388,196.1, 0.5, 0.4,0,1,1024,1024,1186,1024,196.4,0,99,4.301,4.301,4.303,4.301,0,0,1.992,82.31,6,P-GPS,
0.318384841334262,36.9028639634169,5545.2832171472,0,0,0.4702099888,6100,2018-04-06 12:03:57,13,0,17.187,5545.2832171472,0,0,0.5521817762,0,0,-0.671082,196.1, 0, 0,0,1,1024,1024,1194,1024,196.4,0,99,4.301,4.301,4.303,4.301,0,0,1.992,82.31,6,P-GPS,
0.318384812616652,36.9028639999201,5545.2832171472,0,0,0.46032481788,6200,2018-04-06 12:03:57,13,0,17.187,5545.2832171472,0,0,0.5521817762,0,0,-0.894776,196.1, 0, 0.2,0,1,1024,1024,1194,1024,196.4,0,99,4.301,4.301,4.303,4.301,0,0,1.992,82.31,6,P-GPS,Home Point Recorded. RTH Altitude:  30m.
0.318384759523679,36.9028640299918,5545.6113011472,0.328084,0,0.45600723244,6300,2018-04-06 12:03:57,13,0,17.187,5545.6113011472,0.328084,0,0.5521817762,0,0,-0.894776,196, 0.5, 0.6,0,1,1024,1024,1198,1024,196.4,0,99,4.301,4.301,4.303,4.301,0,0,1.992,82.31,6,P-GPS,
0.318384677203392,36.9028640459757,5545.6113011472,0.328084,0,0.46163715388,6400,2018-04-06 12:03:57,13,0,17.187,5545.6113011472,0.328084,0,0.5521817762,0,0,-0.894776,196, 1.2, 0.7,0,1,1024,1024,1185,1024,196.4,0,99,4.301,4.301,4.303,4.301,0,0,1.992,82.31,6,P-GPS,
0.318384507673008,36.9028640713066,5545.9393851472,0.656168,0,0.48159122276,6500,2018-04-06 12:03:57,13,0,17.187,5545.9393851472,0.656168,0,0.5521817762,0,0,-0.894776,195.9, 1.6, 0.7,0,1,1024,1024,1179,1024,196.4,0,99,4.301,4.301,4.303,4.301,0,0,1.992,82.31,6,P-GPS,
0.318384339913965,36.9028640791239,5545.9393851472,0.656168,0,0.51321852036,6600,2018-04-06 12:03:57,13,0,17.187,5545.9393851472,0.656168,0,0.5521817762,0,0,-0.894776,195.9, 1.5, 0.9,0,1,1024,1024,1195,1024,196.4,0,99,4.301,4.301,4.303,4.301,0,0,1.992,82.31,6,P-GPS,
0.318384185551315,36.9028640565406,5545.9393851472,0.656168,0,0.55495736684,6700,2018-04-06 12:03:58,13,0,17.187,5545.9393851472,0.656168,0,0.55495736684,0,0,-0.894776,196, 1.8, 1.3,0,1,1024,1024,1215,1024,196.4,0,99,4.301,4.301,4.303,4.301,0,0,1.992,82.31,6,P-GPS,
0.318384029247968,36.9028640066126,5546.2674691472,0.984252,0,0.60685369396,6800,2018-04-06 12:03:58,13,0,17.187,5546.2674691472,0.984252,0,0.60685369396,0,0,-1.11847,196, 2.3, 0.5,0,1,1024,1024,1202,1024,196.4,0,99,4.301,4.301,4.303,4.301,0,0,1.992,82.31,6,P-GPS,
0.318383898401272,36.9028639043596,5546.2674691472,0.984252,0,0.66688322344,6900,2018-04-06 12:03:58,13,0,17.187,5546.2674691472,0.984252,0,0.66688322344,0,0,-1.11847,196.1, 2.4, -0.4,0,1,1024,1024,1182,1024,196.4,0,99,4.301,4.301,4.303,4.301,0,0,1.992,82.31,6,P-GPS,
0.3183837774547,36.9028638280518,5546.5955531472,1.312336,0,0.7177821752,7000,2018-04-06 12:03:58,13,0,17.187,5546.5955531472,1.312336,0,0.7177821752,0,0,-1.342164,196.1, 2.4, -0.7,0,1,1024,1024,1176,1024,196.4,0,99,4.301,4.301,4.303,4.301,0,0,1.992,82.31,6,P-GPS,
0.318383663255994,36.9028638036198,5546.9236371472,1.64042,0.223694,0.75409779316,7100,2018-04-06 12:03:58,13,0,16.812,5546.9236371472,1.64042,0.223694,0.75409779316,-0.223694,0,-1.342164,196.1, 2.5, -0.2,0,1,1024,1024,1184,1024,196.4,0,99,4.246,4.247,4.248,4.239,0,0,7.16,82.31,6,P-GPS,
0.31838354568478,36.9028637932253,5547.2517211472,1.968504,0.223694,0.78861222996,7200,2018-04-06 12:03:58,13,0,16.812,5547.2517211472,1.968504,0.223694,0.78861222996,-0.223694,0,-1.342164,196.1, 2.7, 0,0,1,1024,1024,1196,1024,196.4,0,99,4.246,4.247,4.248,4.239,0,0,7.16,82.31,6,P-GPS,
0.318383454371411,36.9028637575495,5547.2517211472,1.968504,0,0.82241472448,7300,2018-04-06 12:03:58,13,0,16.812,5547.2517211472,1.968504,0.223694,0.82241472448,0,0,-1.342164,196.1, 3, 0,0,1,1024,1024,1199,1024,196.4,0,99,4.246,4.247,4.248,4.239,0,0,7.16,82.31,6,P-GPS,
0.318383362099704,36.9028637428795,5547.5798051472,2.296588,0,0.85182417424,7400,2018-04-06 12:03:58,13,0,16.812,5547.5798051472,2.296588,0.223694,0.85182417424,0,0,-1.342164,196, 2.6, 0.4,0,1,1024,1024,1201,1024,196.4,0,99,4.246,4.247,4.248,4.239,0,0,7.16,82.31,6,P-GPS,
0.318383288078782,36.9028637619138,5547.9078891472,2.624672,0,0.86879595956,7500,2018-04-06 12:03:58,13,0,16.812,5547.9078891472,2.624672,0.223694,0.86879595956,0,0,-1.565858,196, 2.7, 0.7,0,1,1024,1024,1210,1024,196.4,0,99,4.246,4.247,4.248,4.239,0,0,7.16,82.31,6,P-GPS,
0.318383207759038,36.9028637751005,5547.9078891472,2.624672,0,0.889435724,7600,2018-04-06 12:03:59,13,0,16.812,5547.9078891472,2.624672,0.223694,0.889435724,0,0,-1.342164,196, 2.8, 1,0,1,1024,1024,1217,1024,196.4,-0.1,99,4.246,4.247,4.248,4.239,0,0,7.16,82.31,6,P-GPS,
0.318383138467932,36.9028637878637,5548.2359731472,2.952756,0,0.90735567208,7700,2018-04-06 12:03:59,13,0,16.812,5548.2359731472,2.952756,0.223694,0.90735567208,0,0,-1.565858,196, 2.9, 1.3,0,1,1024,1024,1215,1024,196.4,-0.4,99,4.246,4.247,4.248,4.239,0,0,7.16,82.31,6,P-GPS,
0.318383072016832,36.902863772148,5548.5640571472,3.28084,0,0.93058401928,7800,2018-04-06 12:03:59,13,0,16.812,5548.5640571472,3.28084,0.223694,0.93058401928,0,0,-1.565858,196, 3.1, 1.1,0,1,1024,1024,1210,1024,196.4,-0.9,99,4.246,4.247,4.248,4.239,0,0,7.16,82.31,6,P-GPS,
0.318383007501952,36.9028637234729,5548.8921411472,3.608924,0,0.96003611996,7900,2018-04-06 12:03:59,13,0,16.812,5548.8921411472,3.608924,0.223694,0.96003611996,0,0,-1.565858,196, 3.1, 0.8,0,1,1024,1024,1200,1024,196.4,-1.4,99,4.246,4.247,4.248,4.239,0,0,7.16,82.31,6,P-GPS,
0.318382955206102,36.9028636742224,5548.8921411472,3.608924,0,0.98593179008,8000,2018-04-06 12:03:59,13,0,16.812,5548.8921411472,3.608924,0.223694,0.98593179008,0,0,-1.789552,196, 3, 0.7,0,1,1024,1024,1197,1024,196.4,-1.4,99,4.246,4.247,4.248,4.239,0,0,7.16,82.31,6,P-GPS,
0.318382941838205,36.9028636768197,5549.2202251472,3.937008,0,0.989419323,8100,2018-04-06 12:03:59,13,0,16.866,5549.2202251472,3.937008,0.223694,0.989419323,0,0,-1.565858,196, 3, 0.8,0,1,1024,1024,1197,1024,196.4,-2.2,99,4.222,4.226,4.227,4.217,0,0,12.902,82.31,6,P-GPS,
0.318382931876199,36.9028636630886,5549.5483091472,4.265092,0,0.99524609484,8200,2018-04-06 12:03:59,13,0,16.866,5549.5483091472,4.265092,0.223694,0.99524609484,0,0,-1.565858,196, 3, 0.4,0,1,1024,1024,1199,1024,196.4,-3.2,99,4.222,4.226,4.227,4.217,0,0,12.902,82.31,6,P-GPS,
0.318382935429463,36.9028636215044,5549.8763931472,4.593176,0,1.00285108196,8300,2018-04-06 12:03:59,13,0,16.866,5549.8763931472,4.593176,0.223694,1.00285108196,0,0,-1.565858,196, 2.9, 0.2,0,1,1024,1024,1202,1024,196.4,-4.4,99,4.222,4.226,4.227,4.217,0,0,12.902,82.31,6,P-GPS,
0.318382936493652,36.9028635743632,5549.8763931472,4.593176,0,1.01255252584,8400,2018-04-06 12:03:59,13,0,16.866,5549.8763931472,4.593176,0.223694,1.01255252584,0,0,-1.342164,196.1, 2.5, 0.1,0,1,1024,1024,1205,1024,196.4,-5.7,99,4.222,4.226,4.227,4.217,0,0,12.902,82.31,6,P-GPS,
0.318382920511288,36.9028635246526,5550.2044771472,4.92126,0,1.02799543972,8500,2018-04-06 12:03:59,13,0,16.866,5550.2044771472,4.92126,0.223694,1.02799543972,0,0,-1.342164,196.2, 2.5, 0,0,1,1024,1024,1200,1024,196.4,-7.1,99,4.222,4.226,4.227,4.217,0,0,12.902,82.31,6,P-GPS,
0.318382889381953,36.9028634751322,5550.5325611472,5.249344,0,1.04792326188,8600,2018-04-06 12:03:59,13,0,16.866,5550.5325611472,5.249344,0.223694,1.04792326188,0,0,-1.342164,196.2, 3.1, 0,0,1,1024,1024,1200,1024,196.4,-8.4,99,4.222,4.226,4.227,4.217,0,0,12.902,82.31,6,P-GPS,
0.318382901772783,36.9028634659261,5550.5325611472,5.249344,0,1.04635502036,8700,2018-04-06 12:04:00,13,0,16.866,5550.5325611472,5.249344,0.223694,1.04792326188,0,0,-1.565858,196.2, 3.1, -0.1,0,1,1024,1024,1195,1024,196.4,-9.7,99,4.222,4.226,4.227,4.217,0,0,12.902,82.31,6,P-GPS,
0.318382899162387,36.9028634555894,5550.8606451472,5.577428,0,1.04940292072,8800,2018-04-06 12:04:00,13,0,16.866,5550.8606451472,5.577428,0.223694,1.04940292072,0,0,-1.565858,196.1, 3, 0,0,1,1024,1024,1207,1024,196.4,-11.1,99,4.222,4.226,4.227,4.217,0,0,12.902,82.31,6,P-GPS,
0.3183828535456,36.9028634346879,5551.1887291472,5.905512,0,1.067257252,8900,2018-04-06 12:04:00,13,0,16.866,5551.1887291472,5.905512,0.223694,1.067257252,0,0,-1.342164,196, 3.6, 0,0,1,1024,1024,1214,1024,196.4,-12.4,99,4.222,4.226,4.227,4.217,0,0,12.902,82.31,6,P-GPS,
0.318382806791344,36.9028634220623,5551.5168131472,6.233596,0,1.08364176696,9000,2018-04-06 12:04:00,13,0,16.866,5551.5168131472,6.233596,0.223694,1.08364176696,0,0,-1.565858,195.9, 3.9, 0.3,0,1,1024,1024,1214,1024,196.4,-13.8,99,4.222,4.226,4.227,4.217,0,0,12.902,82.31,6,P-GPS,
0.318382698728615,36.9028633885057,5551.5168131472,6.233596,0,1.12259846112,9100,2018-04-06 12:04:00,13,0,16.839,5551.5168131472,6.233596,0.223694,1.12259846112,0,0,-1.565858,196, 4, 0.6,0,1,1024,1024,1209,1024,196.4,-15,99,4.221,4.223,4.226,4.217,0,0,11.958,82.31,6,P-GPS,
0.318382599980585,36.9028633551839,5551.8448971472,6.56168,0,1.15890423656,9200,2018-04-06 12:04:00,13,0,16.839,5551.8448971472,6.56168,0.223694,1.15890423656,0,0,-1.565858,196.1, 4.2, 0.6,0,1,1024,1024,1205,1024,196.4,-16.2,99,4.221,4.223,4.226,4.217,0,0,11.958,82.31,6,P-GPS,
0.318382525406806,36.9028633248344,5552.1729811472,6.889764,0,1.18748691464,9300,2018-04-06 12:04:00,13,0,16.839,5552.1729811472,6.889764,0.223694,1.18748691464,0,0,-1.565858,196.2, 4.2, 0,0,1,1024,1024,1211,1024,196.4,-16.6,99,4.221,4.223,4.226,4.217,0,0,11.958,82.31,6,P-GPS,
0.318382455286008,36.9028632887405,5552.5010651472,7.217848,0,1.21598101004,9400,2018-04-06 12:04:00,13,0,16.839,5552.5010651472,7.217848,0.223694,1.21598101004,0,0,-1.565858,196.2, 3.9, -0.6,0,1,1024,1024,1222,1024,196.4,-16.6,99,4.221,4.223,4.226,4.217,0,0,11.958,82.31,6,P-GPS,
0.31838242486586,36.9028632793071,5552.5010651472,7.217848,0,1.22704400252,9500,2018-04-06 12:04:00,13,0,16.839,5552.5010651472,7.217848,0.223694,1.22704400252,0,0,-1.565858,196.2, 4.5, -0.5,0,1,1024,1024,1220,1024,196.4,-16.6,99,4.221,4.223,4.226,4.217,0,0,11.958,82.31,6,P-GPS,
0.318382377211075,36.9028632831453,5552.8291491472,7.545932,0,1.24054137828,9600,2018-04-06 12:04:00,13,0,16.839,5552.8291491472,7.545932,0.223694,1.24054137828,0,0,-1.565858,196.2, 5, 0,0,1,1024,1024,1215,1024,196.4,-16.6,99,4.221,4.223,4.226,4.217,0,0,11.958,82.31,6,P-GPS,
0.318382336758083,36.902863276337,5553.1572331472,7.874016,0,1.25413061756,9700,2018-04-06 12:04:01,13,0,16.839,5553.1572331472,7.874016,0.223694,1.25413061756,0,0,-1.789552,196.2, 5.1, 0.1,0,1,1024,1024,1208,1024,196.4,-16.6,99,4.221,4.223,4.226,4.217,0,0,11.958,82.31,6,P-GPS,
0.318382300898118,36.9028632643374,5553.4853171472,8.2021,0,1.2674213004,9800,2018-04-06 12:04:01,13,0,16.839,5553.4853171472,8.2021,0.223694,1.2674213004,0,0,-1.789552,196.3, 5.1, -0.1,0,1,1024,1024,1216,1024,196.3,-16.6,99,4.221,4.223,4.226,4.217,0,0,11.958,82.31,6,P-GPS,
0.318382283212402,36.9028632677799,5553.4853171472,8.2021,0,1.27207681236,9900,2018-04-06 12:04:01,13,0,16.839,5553.4853171472,8.2021,0.223694,1.27207681236,0,0,-1.789552,196.3, 4.8, -0.3,0,1,1024,1024,1231,1024,196.3,-16.6,99,4.221,4.223,4.226,4.217,0,0,11.958,82.31,6,P-GPS,
0.318382257727253,36.9028632789292,5553.8134011472,8.530184,0,1.27757221936,10000,2018-04-06 12:04:01,13,0,16.839,5553.8134011472,8.530184,0.223694,1.27757221936,0,0,-1.565858,196.3, 4.8, -0.1,0,1,1024,1024,1234,1024,196.4,-16.6,99,4.221,4.223,4.226,4.217,0,0,11.958,82.31,6,P-GPS,
0.318382225282135,36.9028632614441,5554.1414851472,8.858268,0,1.29096788908,10100,2018-04-06 12:04:01,13,0,16.839,5554.1414851472,8.858268,0.223694,1.29096788908,0,0,-1.789552,196.2, 5, 0.2,0,1,1024,1024,1225,1024,196.4,-16.7,99,4.221,4.223,4.226,4.217,0,0,11.958,82.31,6,P-GPS,
0.318382188413349,36.9028632518065,5554.4695691472,9.186352,0,1.30414374252,10200,2018-04-06 12:04:01,13,0,16.839,5554.4695691472,9.186352,0.223694,1.30414374252,0,0,-1.789552,196.3, 5.6, 0.2,0,1,1024,1024,1224,1024,196.3,-17,99,4.221,4.223,4.226,4.217,0,0,11.958,82.31,6,P-GPS,
0.318382151472911,36.9028631969974,5554.7976531472,9.514436,0,1.32639768024,10300,2018-04-06 12:04:01,13,0,16.839,5554.7976531472,9.514436,0.223694,1.32639768024,0,0,-1.789552,196.2, 5.7, 0,0,1,1024,1024,1224,1024,196.3,-17.5,99,4.221,4.223,4.226,4.217,0,0,11.958,82.31,6,P-GPS,
0.318382139928871,36.9028631543822,5555.1257371472,9.84252,0,1.33854334992,10400,2018-04-06 12:04:01,13,0,16.839,5555.1257371472,9.84252,0.223694,1.33854334992,0,0,-1.789552,196.2, 5.6, 0.2,0,1,1024,1024,1223,1024,196.4,-18.2,99,4.221,4.223,4.226,4.217,0,0,11.958,82.31,6,P-GPS,
0.318382161255788,36.9028631300336,5555.1257371472,9.84252,0,1.33711290368,10500,2018-04-06 12:04:01,13,0,16.839,5555.1257371472,9.84252,0.223694,1.33854334992,0,0,-1.789552,196.2, 5.3, 0.1,0,1,1024,1024,1220,1024,196.4,-20.4,99,4.221,4.223,4.226,4.217,0,0,11.958,82.31,6,P-GPS,
0.318382167117372,36.9028630750211,5555.7819051472,10.498688,0,1.34684059428,10700,2018-04-06 12:04:02,13,0,16.839,5555.7819051472,10.498688,0.223694,1.34684059428,0,0,-1.789552,196.2, 4.9, -0.1,0,1,1024,1024,1224,1024,196.4,-22,99,4.221,4.223,4.226,4.217,0,0,11.958,82.31,6,P-GPS,
0.318382154851118,36.9028630500273,5556.1099891472,10.826772,0,1.35577104076,10800,2018-04-06 12:04:02,13,0,16.839,5556.1099891472,10.826772,0.223694,1.35577104076,0,0,-1.789552,196.2, 5.2, 0.1,0,1,1024,1024,1220,1024,196.4,-22,99,4.221,4.223,4.226,4.217,0,0,11.958,82.31,6,P-GPS,
0.318382225673776,36.9028629858166,5556.4380731472,11.154856,0,1.348753324,10900,2018-04-06 12:04:02,13,0,16.839,5556.4380731472,11.154856,0.223694,1.35577104076,0,0,-1.789552,196.2, 5.4, 0,0,1,1024,1024,1212,1024,196.3,-23.7,99,4.221,4.223,4.226,4.217,0,0,11.958,82.31,6,P-GPS,
0.31838230267475,36.9028629160075,5556.7661571472,11.48294,0,1.34211290384,11000,2018-04-06 12:04:02,13,0,16.839,5556.7661571472,11.48294,0.223694,1.35577104076,0,0,-1.789552,196.2, 5.6, -0.8,0,1,1024,1024,1207,1024,196.3,-25.4,99,4.221,4.223,4.226,4.217,0,0,11.958,82.31,6,P-GPS,
0.318382329816841,36.9028628264371,5557.0942411472,11.811024,0,1.3550853452,11100,2018-04-06 12:04:02,13,0,16.812,5557.0942411472,11.811024,0.223694,1.35577104076,0,0,-1.789552,196.2, 5.3, -1.4,0,1,1024,1024,1206,1024,196.3,-26.5,99,4.209,4.21,4.218,4.215,0,0,11.93,82.31,6,P-GPS,
0.318382373770987,36.9028627611261,5557.0942411472,11.811024,0,1.35834321932,11200,2018-04-06 12:04:02,13,0,16.812,5557.0942411472,11.811024,0.223694,1.35834321932,0,0,-1.565858,196.2, 4.9, -1.4,0,1,1024,1024,1199,1024,196.4,-26.5,99,4.209,4.21,4.218,4.215,0,0,11.93,82.31,6,P-GPS,
0.318382426239452,36.9028627478776,5557.4223251472,12.139108,0,1.34718180164,11300,2018-04-06 12:04:02,13,0,16.812,5557.4223251472,12.139108,0.223694,1.35834321932,0,0,-1.565858,196.2, 4.7, -1.4,0,1,1024,1024,1196,1024,196.3,-26.5,99,4.209,4.21,4.218,4.215,0,0,11.93,82.31,6,P-GPS,
0.318382486254942,36.9028627266282,5557.7504091472,12.467192,0,1.33616474092,11400,2018-04-06 12:04:02,13,0,16.812,5557.7504091472,12.467192,0.223694,1.35834321932,0,0,-1.565858,196.2, 4.4, -1.3,0,1,1024,1024,1193,1024,196.3,-26.5,99,4.209,4.21,4.218,4.215,0,0,11.93,82.31,6,P-GPS,
0.318382574374932,36.902862648046,5558.0784931472,12.795276,0,1.3326115912,11500,2018-04-06 12:04:02,13,0,16.812,5558.0784931472,12.795276,0.223694,1.35834321932,0,0,-1.565858,196.2, 4.6, -1.4,0,1,1024,1024,1193,1024,196.3,-26.5,99,4.209,4.21,4.218,4.215,0,0,11.93,82.31,6,P-GPS,
0.318382654035969,36.9028625673074,5558.0784931472,12.795276,0,1.33314636812,11600,2018-04-06 12:04:03,13,0,16.812,5558.0784931472,12.795276,0.223694,1.35834321932,0,0,-1.342164,196.2, 4.6, -2.1,0,1,1024,1024,1217,1024,196.3,-26.5,99,4.209,4.21,4.218,4.215,0,0,11.93,82.31,6,P-GPS,
0.318382714085656,36.9028624803701,5558.4065771472,13.12336,0,1.3414370508,11700,2018-04-06 12:04:03,13,0,16.812,5558.4065771472,13.12336,0.223694,1.35834321932,0,0,-1.342164,196.2, 4.9, -2.1,0,1,1024,1024,1217,1024,196.3,-26.5,99,4.209,4.21,4.218,4.215,0,0,11.93,82.31,6,P-GPS,
0.318382764805987,36.9028624081829,5558.7346611472,13.451444,0,1.34891408516,11800,2018-04-06 12:04:03,13,0,16.812,5558.7346611472,13.451444,0.223694,1.35834321932,0,0,-1.342164,196.2, 5.2, -2,0,1,1024,1024,1221,1024,196.3,-26.5,99,4.209,4.21,4.218,4.215,0,0,11.93,82.31,6,P-GPS,
0.318382819726075,36.9028623554138,5558.7346611472,13.451444,0,1.35067589624,11900,2018-04-06 12:04:03,13,0,16.812,5558.7346611472,13.451444,0.223694,1.35834321932,0,0,-1.565858,196.2, 5, -2,0,1,1024,1024,1228,1024,196.3,-26.5,99,4.209,4.21,4.218,4.215,0,0,11.93,82.31,6,P-GPS,
0.318382942338137,36.9028622215335,5559.3908291472,14.107612,0,1.36134518792,12100,2018-04-06 12:04:03,13,0,16.786,5559.3908291472,14.107612,0.223694,1.36134518792,0,0,-1.565858,196.1, 4.3, -1.4,0,1,1024,1024,1243,1024,196.3,-26.5,99,4.213,4.218,4.221,4.21,0,0,11.636,82.31,6,P-GPS,
0.318383007641998,36.9028621091841,5559.7189131472,14.435696,0,1.38053482108,12200,2018-04-06 12:04:03,13,0,16.786,5559.7189131472,14.435696,0.223694,1.38053482108,0,0,-1.789552,196.1, 4, -2.5,0,1,1024,1024,1236,1024,196.3,-26.5,99,4.213,4.218,4.221,4.21,0,0,11.636,82.31,6,P-GPS,
0.318383075943825,36.9028620112753,5560.0469971472,14.76378,0,1.39605975596,12300,2018-04-06 12:04:03,13,0,16.786,5560.0469971472,14.76378,0.223694,1.39605975596,0,0,-2.013246,196.1, 3.7, -3.2,0,1,1024,1024,1226,1024,196.3,-26.5,99,4.213,4.218,4.221,4.21,0,0,11.636,82.31,6,P-GPS,
0.318383124105056,36.9028619363439,5560.0469971472,14.76378,0,1.40953744668,12400,2018-04-06 12:04:03,13,0,16.786,5560.0469971472,14.76378,0.223694,1.40953744668,0,0,-2.013246,196, 4, -2.8,0,1,1024,1024,1229,1024,196.3,-26.5,99,4.213,4.218,4.221,4.21,0,0,11.636,82.31,6,P-GPS,
0.318383161215666,36.9028618842707,5560.3750811472,15.091864,0,1.41857288004,12500,2018-04-06 12:04:03,13,0,16.786,5560.3750811472,15.091864,0.223694,1.41857288004,0,0,-2.013246,196, 5, -2.5,0,1,1024,1024,1233,1024,196.3,-26.5,99,4.213,4.218,4.221,4.21,0,0,11.636,82.31,6,P-GPS,
0.318383198670692,36.9028618309614,5560.7031651472,15.419948,0,1.42826120056,12600,2018-04-06 12:04:03,13,0,16.786,5560.7031651472,15.419948,0.223694,1.42826120056,0,0,-2.013246,196, 5.3, -2.7,0,1,1024,1024,1235,1024,196.3,-26.5,99,4.213,4.218,4.221,4.21,0,0,11.636,82.31,6,P-GPS,
0.318383283535423,36.9028617569055,5561.0312491472,15.748032,0.223694,1.43644689636,12700,2018-04-06 12:04:04,13,0,16.786,5561.0312491472,15.748032,0.223694,1.43644689636,0.223694,0,-2.013246,196, 4.5, -2.9,0,1,1024,1024,1231,1024,196.3,-26.5,99,4.213,4.218,4.221,4.21,0,0,11.636,82.31,6,P-GPS,
0.318383368881359,36.9028616768239,5561.3593331472,16.076116,0.223694,1.44763127992,12800,2018-04-06 12:04:04,13,0,16.786,5561.3593331472,16.076116,0.223694,1.44763127992,0.223694,0,-2.013246,196, 3.8, -3.5,0,1,1024,1024,1229,1024,196.3,-26.5,99,4.213,4.218,4.221,4.21,0,0,11.636,82.31,6,P-GPS,
0.318383424903089,36.9028615918191,5561.6874171472,16.4042,0,1.46624348524,12900,2018-04-06 12:04:04,13,0,16.786,5561.6874171472,16.4042,0.223694,1.46624348524,0,0,-2.013246,196, 3.8, -3.6,0,1,1024,1024,1231,1024,196.3,-26.5,99,4.213,4.218,4.221,4.21,0,0,11.636,82.31,6,P-GPS,
0.318383470960371,36.9028615209199,5562.0155011472,16.732284,0,1.48240162224,13000,2018-04-06 12:04:04,13,0,16.786,5562.0155011472,16.732284,0.223694,1.48240162224,0,0,-2.013246,196, 4.1, -3.7,0,1,1024,1024,1227,1024,196.3,-26.5,99,4.213,4.218,4.221,4.21,0,0,11.636,82.31,6,P-GPS,
0.318383496932424,36.9028614897845,5562.3435851472,17.060368,0,1.4887795752,13100,2018-04-06 12:04:04,13,0,16.678,5562.3435851472,17.060368,0.223694,1.4887795752,0,0,-2.013246,196, 4.9, -3.7,0,1,1024,1024,1228,1024,196.3,-26.5,99,4.213,4.218,4.221,4.21,0,0,12.876,82.31,6,P-GPS,
0.318383504616237,36.9028614653003,5562.6716691472,17.388452,0,1.49577104524,13200,2018-04-06 12:04:04,13,0,16.678,5562.6716691472,17.388452,0.223694,1.49577104524,0,0,-1.789552,196, 5.6, -3.5,0,1,1024,1024,1228,1024,196.3,-26.5,99,4.213,4.218,4.221,4.21,0,0,12.876,82.31,6,P-GPS,
0.318383488500341,36.9028614061927,5562.9997531472,17.716536,0,1.51786094096,13300,2018-04-06 12:04:04,13,0,16.678,5562.9997531472,17.716536,0.223694,1.51786094096,0,0,-1.789552,195.9, 5.6, -3.4,0,1,1024,1024,1228,1024,196.3,-26.5,99,4.213,4.218,4.221,4.21,0,0,12.876,82.31,6,P-GPS,
0.318383478832269,36.9028613517936,5563.3278371472,18.04462,0,1.5374344324,13400,2018-04-06 12:04:04,13,0,16.678,5563.3278371472,18.04462,0.223694,1.5374344324,0,0,-1.789552,195.9, 5.4, -3.5,0,1,1024,1024,1226,1024,196.3,-26.5,99,4.213,4.218,4.221,4.21,0,0,12.876,82.31,6,P-GPS,
0.318383472815168,36.9028613010345,5563.6559211472,18.372704,0,1.55527235948,13500,2018-04-06 12:04:04,13,0,16.678,5563.6559211472,18.372704,0.223694,1.55527235948,0,0,-1.789552,195.9, 5.1, -4.1,0,1,1024,1024,1225,1024,196.3,-26.5,99,4.213,4.218,4.221,4.21,0,0,12.876,82.31,6,P-GPS,
0.318383462198528,36.9028612596652,5563.9840051472,18.700788,0,1.5706529374,13600,2018-04-06 12:04:05,13,0,16.678,5563.9840051472,18.700788,0.223694,1.5706529374,0,0,-1.789552,195.9, 5.2, -4.2,0,1,1024,1024,1229,1024,196.4,-26.5,99,4.213,4.218,4.221,4.21,0,0,12.876,82.31,6,P-GPS,
0.318383452320386,36.9028612715436,5564.3120891472,19.028872,0,1.5681266906,13700,2018-04-06 12:04:05,13,0,16.678,5564.3120891472,19.028872,0.223694,1.5706529374,0,0,-1.789552,196, 5.7, -4.1,0,1,1024,1024,1227,1024,196.4,-26.5,99,4.213,4.218,4.221,4.21,0,0,12.876,82.31,6,P-GPS,
0.318383435084121,36.9028612938872,5564.3120891472,19.028872,0,1.56321855396,13800,2018-04-06 12:04:05,13,0,16.678,5564.3120891472,19.028872,0.223694,1.5706529374,0,0,-1.789552,196.1, 5.6, -3.8,0,1,1024,1024,1227,1024,196.3,-26.5,99,4.213,4.218,4.221,4.21,0,0,12.876,82.31,6,P-GPS,
0.31838341032363,36.9028613213889,5564.6401731472,19.356956,0,1.55778548292,13900,2018-04-06 12:04:05,13,0,16.678,5564.6401731472,19.356956,0.223694,1.5706529374,0,0,-1.789552,196.2, 5.9, -3.3,0,1,1024,1024,1227,1024,196.4,-26.5,99,4.213,4.218,4.221,4.21,0,0,12.876,82.31,6,P-GPS,
0.318383375802246,36.9028613840333,5564.9682571472,19.68504,0,1.5423556924,14000,2018-04-06 12:04:05,13,0,16.678,5564.9682571472,19.68504,0.223694,1.5706529374,0,0.223694,-1.789552,196.2, 5.9, -2.7,0,1,1024,1024,1226,1024,196.3,-26.5,99,4.213,4.218,4.221,4.21,0,0,12.876,82.31,6,P-GPS,
0.318383375387807,36.9028615503171,5565.2963411472,20.013124,0.223694,1.48778876152,14100,2018-04-06 12:04:05,13,0,16.812,5565.2963411472,20.013124,0.223694,1.5706529374,0,0.223694,-1.789552,196.1, 5.5, -1.8,0,1,1024,1024,1226,1024,196.3,-26.4,99,4.205,4.209,4.214,4.205,0,0,12.876,82.31,6,P-GPS,
0.318383374041898,36.9028617162926,5565.6244251472,20.341208,0.223694,1.43396986216,14200,2018-04-06 12:04:05,13,0,16.812,5565.6244251472,20.341208,0.223694,1.5706529374,0,0.223694,-1.789552,196.1, 5.1, -1.1,0,1,1024,1024,1226,1024,196.3,-26.3,99,4.205,4.209,4.214,4.205,0,0,12.876,82.31,6,P-GPS,
0.318383361527305,36.9028618899671,5565.9525091472,20.669292,0.223694,1.38019689456,14300,2018-04-06 12:04:05,13,0,16.812,5565.9525091472,20.669292,0.223694,1.5706529374,0,0.223694,-1.789552,196.1, 5, -0.6,0,1,1024,1024,1218,1024,196.3,-26.2,99,4.205,4.209,4.214,4.205,0,0,12.876,82.31,6,P-GPS,
0.318383358978791,36.9028620407826,5566.2805931472,20.997376,0,1.33268376968,14400,2018-04-06 12:04:05,13,0,16.812,5566.2805931472,20.997376,0.223694,1.5706529374,0,0,-1.789552,196.1, 4.8, -0.9,0,1,1024,1024,1216,1024,196.4,-26.1,99,4.205,4.209,4.214,4.205,0,0,12.876,82.31,6,P-GPS,
0.3183833690784,36.9028621567011,5566.2805931472,20.997376,0,1.29431434588,14500,2018-04-06 12:04:05,13,0,16.812,5566.2805931472,20.997376,0.223694,1.5706529374,0,0,-1.789552,196, 4.7, -1.6,0,1,1024,1024,1227,1024,196.4,-26,99,4.205,4.209,4.214,4.205,0,0,12.876,82.31,6,P-GPS,
0.318383368952196,36.9028622623699,5566.6086771472,21.32546,0.223694,1.26134518472,14600,2018-04-06 12:04:05,13,0,16.812,5566.6086771472,21.32546,0.223694,1.5706529374,0,0.223694,-1.789552,196.1, 4.3, -1.1,0,1,1024,1024,1235,1024,196.4,-25.9,99,4.205,4.209,4.214,4.205,0,0,12.876,82.31,6,P-GPS,
0.318383403533833,36.902862313654,5566.9367611472,21.653544,0,1.23879925224,14700,2018-04-06 12:04:06,13,0,16.812,5566.9367611472,21.653544,0.223694,1.5706529374,0,0,-1.789552,196.1, 4.3, -1.6,0,1,1024,1024,1234,1024,196.4,-25.9,99,4.205,4.209,4.214,4.205,0,0,12.876,82.31,6,P-GPS,
0.318383390691109,36.9028623105455,5567.2648451472,21.981628,0,1.2422244492,14800,2018-04-06 12:04:06,12,0,16.812,5567.2648451472,21.981628,0.223694,1.5706529374,0,0,-1.789552,196.1, 5.4, -2.2,0,1,1024,1024,1229,1024,196.3,-25.9,99,4.205,4.209,4.214,4.205,0,0,12.876,82.31,6,P-GPS,
0.318383326474234,36.9028622646227,5567.5929291472,22.309712,0,1.26884190412,14900,2018-04-06 12:04:06,12,0,16.812,5567.5929291472,22.309712,0.223694,1.5706529374,0,0,-1.789552,196, 6.3, -2.2,0,1,1024,1024,1229,1024,196.3,-25.9,99,4.205,4.209,4.214,4.205,0,0,12.876,82.31,6,P-GPS,
0.318383272251934,36.9028622092469,5567.9210131472,22.637796,0,1.29649610448,15000,2018-04-06 12:04:06,13,0,16.812,5567.9210131472,22.637796,0.223694,1.5706529374,0,0,-1.789552,196, 6.6, -2.1,0,1,1024,1024,1235,1024,196.3,-25.9,99,4.205,4.209,4.214,4.205,0,0,12.876,82.31,6,P-GPS,
0.318383267637738,36.9028621604549,5568.2490971472,22.96588,0,1.31244098688,15100,2018-04-06 12:04:06,13,0,16.678,5568.2490971472,22.96588,0.223694,1.5706529374,0,0,-1.789552,196, 6.2, -1.8,0,1,1024,1024,1237,1024,196.3,-25.9,99,4.2,4.203,4.208,4.203,0,0,12.244,82.31,6,P-GPS,
0.318383269862193,36.9028620919613,5568.5771811472,23.293964,0,1.33324479332,15200,2018-04-06 12:04:06,13,0,16.678,5568.5771811472,23.293964,0.223694,1.5706529374,0,0,-1.789552,196, 6, -2.5,0,1,1024,1024,1235,1024,196.3,-25.9,99,4.2,4.203,4.208,4.203,0,0,12.244,82.31,6,P-GPS,
0.318383271904262,36.9028619765424,5568.9052651472,23.622048,0,1.36893377084,15300,2018-04-06 12:04:06,13,0,16.678,5568.9052651472,23.622048,0.223694,1.5706529374,0,0,-2.013246,196, 6, -3.7,0,1,1024,1024,1231,1024,196.3,-25.9,99,4.2,4.203,4.208,4.203,0,0,12.244,82.31,6,P-GPS,
0.318383268431605,36.902861894723,5569.2333491472,23.950132,0,1.39534781368,15400,2018-04-06 12:04:06,13,0,16.678,5569.2333491472,23.950132,0.223694,1.5706529374,0,0,-2.013246,196, 6.1, -3.3,0,1,1024,1024,1234,1024,196.3,-25.9,99,4.2,4.203,4.208,4.203,0,0,12.244,82.31,6,P-GPS,
0.318383240108078,36.902861807053,5569.2333491472,23.950132,0,1.428231673,15500,2018-04-06 12:04:06,13,0,16.678,5569.2333491472,23.950132,0.223694,1.5706529374,0,0,-2.013246,196.1, 6, -3,0,1,1024,1024,1242,1024,196.3,-25.9,99,4.2,4.203,4.208,4.203,0,0,12.244,82.31,6,P-GPS,
0.318383242511662,36.9028617591851,5569.5614331472,24.278216,0,1.442995453,15600,2018-04-06 12:04:06,13,0,16.678,5569.5614331472,24.278216,0.223694,1.5706529374,0,0,-2.013246,196.2, 5.3, -3.3,0,1,1024,1024,1242,1024,196.4,-25.9,99,4.2,4.203,4.208,4.203,0,0,12.244,82.31,6,P-GPS,
0.318383270108902,36.9028617800881,5569.8895171472,24.6063,0,1.43142064948,15700,2018-04-06 12:04:07,13,0,16.678,5569.8895171472,24.6063,0.223694,1.5706529374,0,0,-2.013246,196.1, 6, -2.1,0,1,1024,1024,1242,1024,196.4,-25.3,99,4.2,4.203,4.208,4.203,0,0,12.244,82.31,6,P-GPS,
0.31838328241831,36.9028617974459,5570.2176011472,24.934384,0,1.4237041138,15800,2018-04-06 12:04:07,13,0,16.678,5570.2176011472,24.934384,0.223694,1.5706529374,0,0,-2.013246,196.1, 6.9, -2,0,1,1024,1024,1234,1024,196.4,-24.4,99,4.2,4.203,4.208,4.203,0,0,12.244,82.31,6,P-GPS,
0.318383267068597,36.9028617724684,5570.5456851472,25.262468,0,1.43438980968,15900,2018-04-06 12:04:07,13,0,16.678,5570.5456851472,25.262468,0.223694,1.5706529374,0,0,-2.013246,196.1, 6.8, -2.5,0,1,1024,1024,1230,1024,196.4,-23.7,99,4.2,4.203,4.208,4.203,0,0,12.244,82.31,6,P-GPS,
0.31838326208393,36.9028617387735,5570.8737691472,25.590552,0,1.44602038748,16000,2018-04-06 12:04:07,13,0,16.678,5570.8737691472,25.590552,0.223694,1.5706529374,0,0,-2.23694,196, 6.8, -2.5,0,1,1024,1024,1228,1024,196.4,-23,99,4.2,4.203,4.208,4.203,0,0,12.244,82.31,6,P-GPS,
0.318383280962481,36.9028617337751,5571.2018531472,25.918636,0,1.44429794648,16100,2018-04-06 12:04:07,13,0,16.705,5571.2018531472,25.918636,0.223694,1.5706529374,0,0,-2.23694,195.9, 6.8, -3.3,0,1,1024,1024,1224,1024,196.4,-22.3,99,4.198,4.201,4.205,4.198,0,0,12.424,82.31,6,P-GPS,
0.318383304002521,36.9028617142989,5571.5299371472,26.24672,0,1.4465387602,16200,2018-04-06 12:04:07,13,0,16.705,5571.5299371472,26.24672,0.223694,1.5706529374,0,0,-2.013246,195.9, 7.1, -3.9,0,1,1024,1024,1219,1024,196.4,-21.6,99,4.198,4.201,4.205,4.198,0,0,12.424,82.31,6,P-GPS,
0.318383379429605,36.9028616855429,5571.8580211472,26.574804,0,1.4430446656,16300,2018-04-06 12:04:07,13,0,16.705,5571.8580211472,26.574804,0.223694,1.5706529374,0,0,-2.23694,195.8, 7, -4,0,1,1024,1024,1218,1024,196.4,-21,99,4.198,4.201,4.205,4.198,0,0,12.424,82.31,6,P-GPS,
0.318383452426235,36.9028616677412,5572.1861051472,26.902888,0,1.43694558404,16400,2018-04-06 12:04:07,13,0,16.705,5572.1861051472,26.902888,0.223694,1.5706529374,0,0,-2.013246,195.8, 6.6, -4.2,0,1,1024,1024,1216,1024,196.4,-20.4,99,4.198,4.201,4.205,4.198,0,0,12.424,82.31,6,P-GPS,
0.318383557004094,36.9028616947301,5572.5141891472,27.230972,0,1.41166671184,16500,2018-04-06 12:04:07,13,0,16.705,5572.5141891472,27.230972,0.223694,1.5706529374,0,0,-1.789552,195.9, 6.2, -4.2,0,1,1024,1024,1215,1024,196.4,-19.8,99,4.198,4.201,4.205,4.198,0,0,12.424,82.31,6,P-GPS,
0.318383642311762,36.9028617299894,5572.8422731472,27.559056,0,1.38711618612,16600,2018-04-06 12:04:07,13,0,16.705,5572.8422731472,27.559056,0.223694,1.5706529374,0,0,-1.789552,195.9, 6.3, -4.4,0,1,1024,1024,1215,1024,196.4,-19.8,99,4.198,4.201,4.205,4.198,0,0,12.424,82.31,6,P-GPS,
0.318383726131845,36.902861760863,5573.1703571472,27.88714,0,1.36463915128,16700,2018-04-06 12:04:08,13,0,16.705,5573.1703571472,27.88714,0.223694,1.5706529374,0,0,-1.565858,195.9, 6.6, -4.2,0,1,1024,1024,1216,1024,196.4,-19.2,99,4.198,4.201,4.205,4.198,0,0,12.424,82.31,6,P-GPS,
0.318383804685134,36.9028618200571,5573.4984411472,28.215224,0,1.33371723428,16800,2018-04-06 12:04:08,13,0,16.705,5573.4984411472,28.215224,0.223694,1.5706529374,0,0,-1.565858,195.9, 6.6, -4,0,1,1024,1024,1216,1024,196.4,-18.6,99,4.198,4.201,4.205,4.198,0,0,12.424,82.31,6,P-GPS,
0.318383919061748,36.9028619314643,5573.8265251472,28.543308,0,1.28056434544,16900,2018-04-06 12:04:08,13,0,16.705,5573.8265251472,28.543308,0.223694,1.5706529374,0,0,-1.565858,195.9, 6, -3.6,0,1,1024,1024,1217,1024,196.4,-17.9,99,4.198,4.201,4.205,4.198,0,0,12.424,82.31,6,P-GPS,
0.318384023015913,36.9028620543233,5574.1546091472,28.871392,0,1.22525266388,17000,2018-04-06 12:04:08,13,0,16.759,5574.1546091472,28.871392,0.223694,1.5706529374,0,0,-1.565858,195.9, 5.5, -3.3,0,1,1024,1024,1218,1024,196.3,-16.8,99,4.198,4.201,4.205,4.198,0,0,12.424,82.31,6,P-GPS,
0.31838425380551,36.9028623081163,5574.4826931472,29.199476,0,1.1103018728,17200,2018-04-06 12:04:08,13,0,16.759,5574.4826931472,29.199476,0.223694,1.5706529374,0,0,-1.565858,196, 5.3, -3.2,0,1,1024,1024,1204,1024,196.4,-16.2,99,4.198,4.201,4.205,4.198,0,0,12.424,82.31,6,P-GPS,
0.318384416839623,36.9028624379032,5574.8107771472,29.52756,0,1.04792982356,17300,2018-04-06 12:04:08,13,0,16.759,5574.8107771472,29.52756,0.223694,1.5706529374,0,0,-1.789552,196, 5.3, -3.1,0,1,1024,1024,1199,1024,196.4,-16,99,4.198,4.201,4.205,4.198,0,0,12.424,82.31,6,P-GPS,
0.318384546192223,36.9028625890963,5575.1388611472,29.855644,0.223694,0.98268375848,17400,2018-04-06 12:04:08,13,0,16.759,5575.1388611472,29.855644,0.223694,1.5706529374,0,0.223694,-1.342164,196, 5.6, -2.9,0,1,1024,1024,1200,1024,196.4,-16,99,4.198,4.201,4.205,4.198,0,0,12.424,82.31,6,P-GPS,
0.31838479055775,36.9028629240491,5575.7950291472,30.511812,0.447388,0.84488847848,17600,2018-04-06 12:04:08,13,0,16.759,5575.7950291472,30.511812,0.447388,1.5706529374,0,0.447388,-1.11847,196.3, 5.5, -1.8,0,1,1024,1024,1197,1024,196.3,-16,99,4.198,4.201,4.205,4.198,0,0,12.424,82.31,6,P-GPS,
0.318384881769748,36.9028631745098,5575.7950291472,30.511812,0.447388,0.7494094728,17700,2018-04-06 12:04:09,14,0,16.759,5575.7950291472,30.511812,0.447388,1.5706529374,0,0.447388,-1.11847,196.2, 5.6, -1.1,0,1,1024,1024,1196,1024,196.4,-16,99,4.198,4.201,4.205,4.198,0,0,12.424,82.31,6,P-GPS,
0.318384972565679,36.9028634353766,5576.1231131472,30.839896,0.447388,0.65069555888,17800,2018-04-06 12:04:09,14,0,16.759,5576.1231131472,30.839896,0.447388,1.5706529374,0,0.447388,-1.11847,196.2, 4.8, -0.4,0,1,1024,1024,1201,1024,196.4,-16,99,4.198,4.201,4.205,4.198,0,0,12.424,82.31,6,P-GPS,
0.318385074862495,36.9028637585618,5576.4511971472,31.16798,0.447388,0.52974411144,17900,2018-04-06 12:04:09,14,0,16.759,5576.4511971472,31.16798,0.447388,1.5706529374,0,0.447388,-1.342164,196, 4.4, 0.7,0,1,1024,1024,1204,1024,196.3,-16,99,4.198,4.201,4.205,4.198,0,0,12.424,82.31,6,P-GPS,
0.318385163340743,36.9028640515827,5576.4511971472,31.16798,0.447388,0.42146982976,18000,2018-04-06 12:04:09,14,0,16.759,5576.4511971472,31.16798,0.447388,1.5706529374,0,0.447388,-1.342164,195.9, 4.1, 1.3,0,1,1024,1024,1204,1024,196.3,-16,99,4.198,4.201,4.205,4.198,0,0,12.424,82.31,6,P-GPS,
0.318385311542174,36.9028643174704,5576.7792811472,31.496064,0.447388,0.327889446188,18100,2018-04-06 12:04:09,14,0,16.786,5576.7792811472,31.496064,0.447388,1.5706529374,0,0.447388,-1.565858,195.9, 4.1, 1.5,0,1,1024,1024,1215,1024,196.3,-16,99,4.205,4.207,4.21,4.202,0,0,10.968,82.31,6,P-GPS,
0.318385441532309,36.9028645356611,5577.1073651472,31.824148,0.447388,0.26261319738,18200,2018-04-06 12:04:09,14,0,16.786,5577.1073651472,31.824148,0.447388,1.5706529374,0,0.447388,-1.565858,195.9, 4.4, 1.5,0,1,1024,1024,1216,1024,196.3,-16,99,4.205,4.207,4.21,4.202,0,0,10.968,82.31,6,P-GPS,
0.318385542168519,36.9028646939511,5577.4354491472,32.152232,0.447388,0.228809390524,18300,2018-04-06 12:04:09,14,0,16.786,5577.4354491472,32.152232,0.447388,1.5706529374,0,0.447388,-1.342164,195.9, 4.2, 1.3,0,1,1024,1024,1216,1024,196.3,-16,99,4.205,4.207,4.21,4.202,0,0,10.968,82.31,6,P-GPS,
0.318385665769454,36.9028648105718,5577.7635331472,32.480316,0.447388,0.228396004684,18400,2018-04-06 12:04:09,14,0,16.786,5577.7635331472,32.480316,0.447388,1.5706529374,0,0.447388,-1.565858,196, 4.1, 1.3,0,1,1024,1024,1218,1024,196.3,-16,99,4.205,4.207,4.21,4.202,0,0,10.968,82.31,6,P-GPS,
0.318385807887426,36.9028648875992,5578.0916171472,32.8084,0.223694,0.256637475404,18500,2018-04-06 12:04:09,14,0,16.786,5578.0916171472,32.8084,0.447388,1.5706529374,0,0.223694,-1.342164,196, 3.9, 0.8,0,1,1024,1024,1227,1024,196.3,-16,99,4.205,4.207,4.21,4.202,0,0,10.968,82.31,6,P-GPS,
0.318385970037294,36.9028649228298,5578.4197011472,33.136484,0.223694,0.305937673832,18600,2018-04-06 12:04:09,14,0,16.786,5578.4197011472,33.136484,0.447388,1.5706529374,0,0.223694,-1.565858,196.1, 3.7, 0.3,0,1,1024,1024,1234,1024,196.3,-16,99,4.205,4.207,4.21,4.202,0,0,10.968,82.31,6,P-GPS,
0.318386122238998,36.9028649544882,5578.4197011472,33.136484,0.223694,0.35552166492,18700,2018-04-06 12:04:10,14,0,16.786,5578.4197011472,33.136484,0.447388,1.5706529374,0,0.223694,-1.565858,196.1, 3.5, 0.5,0,1,1024,1024,1245,1024,196.3,-16,99,4.205,4.207,4.21,4.202,0,0,10.968,82.31,6,P-GPS,
0.318386280360096,36.9028649700003,5578.7477851472,33.464568,0.223694,0.41028872704,18800,2018-04-06 12:04:10,14,0,16.786,5578.7477851472,33.464568,0.447388,1.5706529374,0,0.223694,-1.565858,196.1, 3.3, 0.6,0,1,1024,1024,1246,1024,196.3,-16,99,4.205,4.207,4.21,4.202,0,0,10.968,82.31,6,P-GPS,
0.318386414636703,36.9028649990018,5579.0758691472,33.792652,0,0.45642389912,18900,2018-04-06 12:04:10,14,0,16.786,5579.0758691472,33.792652,0.447388,1.5706529374,0,0,-1.789552,196.1, 3.7, 0.8,0,1,1024,1024,1254,1024,196.3,-16,99,4.205,4.207,4.21,4.202,0,0,10.968,82.31,6,P-GPS,
0.318386560051459,36.9028650215327,5579.4039531472,34.120736,0,0.5076607774,19000,2018-04-06 12:04:10,14,0,16.786,5579.4039531472,34.120736,0.447388,1.5706529374,0,0,-1.789552,196.1, 3.8, 0.6,0,1,1024,1024,1275,1024,196.3,-16,99,4.205,4.207,4.21,4.202,0,0,10.968,82.31,6,P-GPS,
0.318386698143917,36.9028650521401,5579.7320371472,34.44882,0.223694,0.55639437476,19100,2018-04-06 12:04:10,14,0,16.705,5579.7320371472,34.44882,0.447388,1.5706529374,0.223694,0,-2.013246,196.2, 3.2, 0,0,1,1024,1024,1293,1024,196.3,-16,99,4.192,4.198,4.202,4.193,0,0,12.604,82.31,6,P-GPS,
0.31838683022416,36.9028650601215,5580.0601211472,34.776904,0,0.60408794584,19200,2018-04-06 12:04:10,14,0,16.705,5580.0601211472,34.776904,0.447388,1.5706529374,0,0,-2.23694,196.2, 2.9, 0.2,0,1,1024,1024,1304,1024,196.3,-16,99,4.192,4.198,4.202,4.193,0,0,12.604,82.31,6,P-GPS,
0.318386920932155,36.902865025103,5580.3882051472,35.104988,0,0.63826117528,19300,2018-04-06 12:04:10,14,0,16.705,5580.3882051472,35.104988,0.447388,1.5706529374,0,0,-2.460634,196.2, 3, 0.1,0,1,1024,1024,1307,1024,196.3,-16,99,4.192,4.198,4.202,4.193,0,0,12.604,82.31,6,P-GPS,
0.318387012075758,36.9028649750534,5581.0443731472,35.761156,0,0.67338912916,19400,2018-04-06 12:04:10,14,0,16.705,5581.0443731472,35.761156,0.447388,1.5706529374,0,0,-2.908022,196.2, 3.1, -0.5,0,1,1024,1024,1308,1024,196.3,-16,99,4.192,4.198,4.202,4.193,0,0,12.604,82.31,6,P-GPS,
0.318387095211488,36.902864956064,5581.3724571472,36.08924,0,0.70435697792,19500,2018-04-06 12:04:10,14,0,16.705,5581.3724571472,36.08924,0.447388,1.5706529374,0,0,-3.131716,196.1, 3.3, -1,0,1,1024,1024,1312,1024,196.3,-16,99,4.192,4.198,4.202,4.193,0,0,12.604,82.31,6,P-GPS,
0.318387185249582,36.9028649360542,5582.0286251472,36.745408,0,0.73788388188,19600,2018-04-06 12:04:10,14,0,16.705,5582.0286251472,36.745408,0.447388,1.5706529374,0,0,-3.131716,196, 3.8, -0.9,0,1,1024,1024,1317,1024,196.3,-16,99,4.192,4.198,4.202,4.193,0,0,12.604,82.31,6,P-GPS,
0.318387273746353,36.9028649128394,5582.6847931472,37.401576,0.223694,0.77102692756,19700,2018-04-06 12:04:11,14,0,16.705,5582.6847931472,37.401576,0.447388,1.5706529374,0.223694,0,-3.35541,196, 3.5, -0.1,0,1,1024,1024,1319,1024,196.3,-16,99,4.192,4.198,4.202,4.193,0,0,12.604,82.31,6,P-GPS,
0.318387375918593,36.9028648764541,5583.0128771472,37.72966,0.223694,0.8098261414,19800,2018-04-06 12:04:11,14,0,16.705,5583.0128771472,37.72966,0.447388,1.5706529374,0.223694,0,-3.35541,196, 3.3, -0.5,0,1,1024,1024,1319,1024,196.3,-16,99,4.192,4.198,4.202,4.193,0,0,12.604,82.31,6,P-GPS,
0.318387444890321,36.9028648321444,5583.6690451472,38.385828,0.3131716,0.8372047512,19900,2018-04-06 12:04:11,14,0,16.705,5583.6690451472,38.385828,0.447388,1.5706529374,0.223694,-0.223694,-3.579104,196.1, 3.1, -1.4,0,1,1024,1024,1319,1024,196.3,-16,99,4.192,4.198,4.202,4.193,0,0,12.604,82.31,6,P-GPS,
0.318387514774588,36.9028647750988,5584.3252131472,39.041996,0.223694,0.8659121012,20000,2018-04-06 12:04:11,14,0,16.705,5584.3252131472,39.041996,0.447388,1.5706529374,0,-0.223694,-3.579104,196.1, 2.5, -2.1,0,1,1024,1024,1325,1024,196.3,-16,99,4.192,4.198,4.202,4.193,0,0,12.604,82.31,6,P-GPS,
0.318387543681301,36.9028647114001,5584.9813811472,39.698164,0.223694,0.8807579022,20100,2018-04-06 12:04:11,14,0,16.705,5584.9813811472,39.698164,0.447388,1.5706529374,0,-0.223694,-3.579104,196, 2.9, -2.4,0,1,1024,1024,1326,1024,196.3,-16,99,4.192,4.198,4.202,4.193,0,0,12.604,82.31,6,P-GPS,
0.318387565039362,36.9028646489594,5585.6375491472,40.354332,0,0.89329727268,20200,2018-04-06 12:04:11,14,0,16.705,5585.6375491472,40.354332,0.447388,1.5706529374,0,0,-3.802798,196, 3.4, -2.5,0,1,1024,1024,1330,1024,196.3,-16,99,4.192,4.198,4.202,4.193,0,0,12.604,82.31,6,P-GPS,
0.318387582688234,36.9028646120187,5586.2937171472,41.0105,0,0.90271328348,20300,2018-04-06 12:04:11,14,0,16.705,5586.2937171472,41.0105,0.447388,1.5706529374,0,0,-3.579104,196.2, 2.9, -2.9,0,1,1024,1024,1327,1024,196.3,-16,99,4.192,4.198,4.202,4.193,0,0,12.604,82.31,6,P-GPS,
0.31838758780623,36.9028645863066,5586.6218011472,41.338584,0,0.90682089516,20400,2018-04-06 12:04:11,14,0,16.705,5586.6218011472,41.338584,0.447388,1.5706529374,0,0,-3.579104,196.2, 3.3, -3,0,1,1024,1024,1326,1024,196.3,-16,99,4.192,4.198,4.202,4.193,0,0,12.604,82.31,6,P-GPS,
0.318387545920411,36.9028645932177,5587.2779691472,41.994752,0,0.89139438548,20500,2018-04-06 12:04:11,14,0,16.705,5587.2779691472,41.994752,0.447388,1.5706529374,0,0,-3.579104,196.2, 3.8, -2.2,0,1,1024,1024,1329,1024,196.3,-16,99,4.192,4.198,4.202,4.193,0,0,12.604,82.31,6,P-GPS,
0.31838749684603,36.9028646168431,5587.6060531472,42.322836,0,0.87190619588,20600,2018-04-06 12:04:11,14,0,16.705,5587.6060531472,42.322836,0.447388,1.5706529374,0,0,-3.579104,196.1, 4.1, -2,0,1,1024,1024,1331,1024,196.3,-16,99,4.192,4.198,4.202,4.193,0,0,12.604,82.31,6,P-GPS,
0.318387415315539,36.9028646586101,5588.2622211472,42.979004,0.223694,0.8393537014,20700,2018-04-06 12:04:12,14,0,16.705,5588.2622211472,42.979004,0.447388,1.5706529374,-0.223694,0,-3.579104,196.1, 4.7, -1.3,0,1,1024,1024,1333,1024,196.3,-16,99,4.192,4.198,4.202,4.193,0,0,12.604,82.31,6,P-GPS,
0.318387328548989,36.9028646950886,5588.9183891472,43.635172,0.223694,0.80545606252,20800,2018-04-06 12:04:12,14,0,16.705,5588.9183891472,43.635172,0.447388,1.5706529374,-0.223694,0,-3.802798,196.2, 4.6, -1.6,0,1,1024,1024,1334,1024,196.3,-16,99,4.192,4.198,4.202,4.193,0,0,12.604,82.31,6,P-GPS,
0.31838721806741,36.9028647135405,5589.5745571472,44.29134,0.223694,0.76468834468,20900,2018-04-06 12:04:12,14,0,16.705,5589.5745571472,44.29134,0.447388,1.5706529374,-0.223694,0,-3.802798,196.2, 5.3, -1.9,0,1,1024,1024,1334,1024,196.3,-16,99,4.192,4.198,4.202,4.193,0,0,12.604,82.31,6,P-GPS,
0.318387094159106,36.9028647379786,5590.2307251472,44.947508,0.223694,0.71865487864,21000,2018-04-06 12:04:12,14,0,16.705,5590.2307251472,44.947508,0.447388,1.5706529374,-0.223694,0,-3.579104,196.1, 5.8, -1.7,0,1,1024,1024,1331,1024,196.3,-16,99,4.192,4.198,4.202,4.193,0,0,12.604,82.31,6,P-GPS,
0.318386996293693,36.902864780645,5590.5588091472,45.275592,0.223694,0.68030185904,21100,2018-04-06 12:04:12,14,0,16.625,5590.5588091472,45.275592,0.447388,1.5706529374,-0.223694,0,-3.802798,196.2, 5.5, -1.4,0,1,1024,1024,1331,1024,196.3,-16,99,4.186,4.191,4.194,4.184,0,0,13.494,82.31,6,P-GPS,
0.318386895886279,36.9028648268817,5591.2149771472,45.93176,0.223694,0.64083335384,21200,2018-04-06 12:04:12,14,0,16.625,5591.2149771472,45.93176,0.447388,1.5706529374,-0.223694,0,-3.579104,196.1, 5.2, -1.8,0,1,1024,1024,1331,1024,196.3,-16,99,4.186,4.191,4.194,4.184,0,0,13.494,82.31,6,P-GPS,
0.318386847843517,36.9028648352947,5591.8711451472,46.587928,0.223694,0.62305776272,21300,2018-04-06 12:04:12,14,0,16.625,5591.8711451472,46.587928,0.447388,1.5706529374,-0.223694,0,-3.579104,196.1, 6.5, -1.5,0,1,1024,1024,1334,1024,196.3,-16,99,4.186,4.191,4.194,4.184,0,0,13.494,82.31,6,P-GPS,
0.318386789746335,36.9028648508219,5592.1992291472,46.916012,0.223694,0.60113518984,21400,2018-04-06 12:04:12,14,0,16.625,5592.1992291472,46.916012,0.447388,1.5706529374,-0.223694,0,-3.579104,196.1, 6.8, -1.1,0,1,1024,1024,1335,1024,196.3,-16,99,4.186,4.191,4.194,4.184,0,0,13.494,82.31,6,P-GPS,
0.31838676373642,36.9028648246255,5592.8553971472,47.57218,0,0.5940452946,21500,2018-04-06 12:04:12,14,0,16.625,5592.8553971472,47.57218,0.447388,1.5706529374,0,0,-3.579104,196.1, 6.5, -1.8,0,1,1024,1024,1331,1024,196.3,-16,99,4.186,4.191,4.194,4.184,0,0,13.494,82.31,6,P-GPS,
0.318386736572346,36.9028648025844,5593.5115651472,48.228348,0,0.5863845332,21600,2018-04-06 12:04:13,14,0,16.625,5593.5115651472,48.228348,0.447388,1.5706529374,0,0,-3.802798,196, 6.4, -1.8,0,1,1024,1024,1331,1024,196.3,-16,99,4.186,4.191,4.194,4.184,0,0,13.494,82.31,6,P-GPS,
0.31838662465509,36.9028647694992,5594.8239011472,49.540684,0,0.55033466328,21800,2018-04-06 12:04:13,14,0,16.625,5594.8239011472,49.540684,0.447388,1.5706529374,0,0,-3.802798,196, 6.4, -2.4,0,1,1024,1024,1332,1024,196.3,-16,99,4.186,4.191,4.194,4.184,0,0,13.494,82.31,6,P-GPS,
0.318386631833271,36.902864723084,5595.1519851472,49.868768,0,0.55796261628,21900,2018-04-06 12:04:13,14,0,16.625,5595.1519851472,49.868768,0.447388,1.5706529374,0,0,-3.579104,196, 6.4, -3,0,1,1024,1024,1329,1024,196.3,-16,99,4.186,4.191,4.194,4.184,0,0,13.494,82.31,6,P-GPS,
0.318386627206861,36.9028646790358,5595.8081531472,50.524936,0,0.56166668464,22000,2018-04-06 12:04:13,14,0,16.625,5595.8081531472,50.524936,0.447388,1.5706529374,0,0,-3.802798,195.9, 6.5, -2.9,0,1,1024,1024,1330,1024,196.3,-16,99,4.186,4.191,4.194,4.184,0,0,13.494,82.31,6,P-GPS,
