latitude,longitude,altitude(feet),ascent(feet),speed(mph),distance(feet),time(millisecond),datetime(utc),satellites,gpslevel,voltage(v),max_altitude(feet),max_ascent(feet),max_speed(mph),max_distance(feet), xSpeed(mph), ySpeed(mph), zSpeed(mph), compass_heading(degrees), pitch(degrees), roll(degrees),isPhoto,isVideo,rc_elevator,rc_aileron,rc_throttle,rc_rudder,gimbal_heading(degrees),gimbal_pitch(degrees),battery_percent,voltageCell1,voltageCell2,voltageCell3,voltageCell4,voltageCell5,voltageCell6,current(A),battery_temperature(f),flycStateRaw,flycState,message
0.00654609787064815,36.900322111063,5918.4158898486,0,0,0,0,2018-04-12 08:52:20,12,0,0,5918.4158898486,0,0,0,0,0,0,45.7, -0.5, 0,0,0,364,364,364,1684,0,0,99,4.299,4.301,4.299,4.299,0,0,0,80.51,41,Motors_Started,
0.00654614860848487,36.9003221353885,5918.4158898486,0,0,0.0205292657488,100,2018-04-12 08:52:20,12,0,0,5918.4158898486,0,0,0.0205292657488,0,0,0,45.6, -0.5, 0,0,0,364,364,364,1684,50.2,0,99,4.299,4.301,4.299,4.299,0,0,0,80.51,41,Motors_Started,
0.00654621066807848,36.9003221397907,5918.4158898486,0,0,0.042467849128,200,2018-04-12 08:52:20,12,0,0,5918.4158898486,0,0,0.042467849128,0,0,0,45.6, -0.5, 0,0,0,364,364,364,1684,50.2,0,99,4.299,4.301,4.299,4.299,0,0,0,80.51,41,Motors_Started,
0.0065462669705119,36.9003221476873,5918.4158898486,0,0,0.063126314356,300,2018-04-12 08:52:20,12,0,0,5918.4158898486,0,0,0.063126314356,0,0,0,45.7, -0.5, 0,0,0,364,364,364,1684,50.2,0,99,4.299,4.301,4.299,4.299,0,0,0,80.51,41,Motors_Started,
0.00654630319545216,36.9003221651846,5918.4158898486,0,0,0.077471459172,400,2018-04-12 08:52:20,12,0,0,5918.4158898486,0,0,0.077471459172,0,0,0,45.6, -0.5, 0,0,0,364,364,364,1684,50.2,0,99,4.299,4.301,4.299,4.299,0,0,0,80.51,41,Motors_Started,
0.00654633133028265,36.9003221918718,5918.4158898486,0,0,0.090135829656,500,2018-04-12 08:52:20,12,0,0,5918.4158898486,0,0,0.090135829656,0,0,0,45.7, -0.5, 0,0,0,364,364,364,1684,50.2,0,99,4.299,4.301,4.299,4.299,0,0,0,80.51,41,Motors_Started,
0.00654636558317724,36.9003222025079,5918.4158898486,0,0,0.103215882568,600,2018-04-12 08:52:20,12,0,0,5918.4158898486,0,0,0.103215882568,0,0,0,45.6, -0.5, 0,0,0,364,364,364,1684,50.2,0,99,4.299,4.301,4.299,4.299,0,0,0,80.51,41,Motors_Started,
0.00654640438268746,36.9003222127929,5918.4158898486,0,0,0.117829072012,700,2018-04-12 08:52:20,12,0,0,5918.4158898486,0,0,0.117829072012,0,0,0,45.6, -0.5, 0,0,0,364,364,364,1684,50.2,0,99,4.299,4.301,4.299,4.299,0,0,0,80.51,41,Motors_Started,
0.00654642186484799,36.9003222086691,5918.4158898486,0,0,0.123456696864,800,2018-04-12 08:52:20,12,0,0,5918.4158898486,0,0,0.123456696864,0,0,0,45.6, -0.5, 0,0,0,364,364,364,1684,50.2,0,99,4.299,4.301,4.299,4.299,0,0,0,80.51,41,Motors_Started,
0.0065464382081155,36.9003222094784,5918.4158898486,0,0,0.129259190488,900,2018-04-12 08:52:21,12,0,17.077,5918.4158898486,0,0,0.129259190488,0,0,0,45.6, -0.5, 0,0,0,748,613,904,1227,50.2,0,99,4.299,4.301,4.299,4.299,0,0,1.466,80.51,41,Motors_Started,Setting new Return-To-Home altitude to 30m (98 ft). Setting new Maximum Flight Altitude to 150m (492 ft)
0.00654649300749511,36.9003222531566,5918.4158898486,0,0,0.15320374506,1100,2018-04-12 08:52:21,12,0,17.077,5918.4158898486,0,0,0.15320374506,0,0,0,45.6, -0.5, 0,0,0,1024,1024,1024,1024,49.1,0,99,4.299,4.301,4.299,4.299,0,0,1.466,80.51,41,Motors_Started,
0.00654650705201036,36.9003222677635,5918.4158898486,0,0,0.159862537924,1200,2018-04-12 08:52:21,12,0,17.077,5918.4158898486,0,0,0.159862537924,0,0,0,45.6, -0.5, 0,0,0,1024,1024,1024,1024,47.7,0,99,4.299,4.301,4.299,4.299,0,0,1.466,80.51,41,Motors_Started,
0.00654652020882008,36.9003222815899,5918.4158898486,0,0,0.166176514504,1300,2018-04-12 08:52:21,12,0,17.077,5918.4158898486,0,0,0.166176514504,0,0,0,45.6, -0.5, 0,0,0,1024,1024,1024,1024,47.1,0,99,4.299,4.301,4.299,4.299,0,0,1.466,80.51,41,Motors_Started,
0.00654651532694853,36.900322283002,5918.4158898486,0,0,0.164721790048,1400,2018-04-12 08:52:21,12,0,17.077,5918.4158898486,0,0,0.166176514504,0,0,0,45.6, -0.5, 0,0,0,1024,1024,1024,1024,46.7,0,99,4.299,4.301,4.299,4.299,0,0,1.466,80.51,41,Motors_Started,
0.00654651765541989,36.9003222880133,5918.4158898486,0,0,0.16620899482,1500,2018-04-12 08:52:21,12,0,17.077,5918.4158898486,0,0,0.16620899482,0,0,0,45.6, -0.4, 0,0,0,1024,1024,1024,1024,46.7,0,99,4.299,4.301,4.299,4.299,0,0,1.466,80.51,41,Motors_Started,
0.00654653433211131,36.9003222825588,5918.4158898486,0,0,0.17109416558,1600,2018-04-12 08:52:21,12,0,17.077,5918.4158898486,0,0,0.17109416558,0,0,0,45.6, -0.5, 0,0,0,1024,1024,1024,1024,46.5,0,99,4.299,4.301,4.299,4.299,0,0,1.466,80.51,10,Assisted_Takeoff,
0.00654655950215594,36.9003222813993,5918.4158898486,0,0,0.17952592438,1700,2018-04-12 08:52:21,12,0,17.077,5918.4158898486,0,0,0.17952592438,0,0,0,45.6, -0.5, 0,0,0,1024,1024,1024,1024,46.4,0,99,4.299,4.301,4.299,4.299,0,0,1.466,80.51,10,Assisted_Takeoff,
0.0065465715664833,36.9003222718434,5918.4158898486,0,0,0.18251148878,1800,2018-04-12 08:52:21,12,0,17.077,5918.4158898486,0,0,0.18251148878,0,0,0,45.6, -0.5, 0,0,0,1024,1024,1024,1024,46.3,0,99,4.299,4.301,4.299,4.299,0,0,1.466,80.51,10,Assisted_Takeoff,
0.00654658283287309,36.9003222675119,5918.4158898486,0,0,0.185917328784,1900,2018-04-12 08:52:21,12,0,17.077,5918.4158898486,0,0,0.185917328784,0,0,0,45.6, -0.5, 0,0,0,1024,1024,1024,1024,46.2,0,99,4.299,4.301,4.299,4.299,0,0,1.466,80.51,10,Assisted_Takeoff,
0.00654657991449789,36.9003222562559,5918.4158898486,0,0,0.183678155484,2000,2018-04-12 08:52:21,12,0,17.077,5918.4158898486,0,0,0.185917328784,0,0,0,45.6, -0.5, 0,0,0,1024,1024,1024,1024,46.2,0,99,4.299,4.301,4.299,4.299,0,0,1.466,80.51,10,Assisted_Takeoff,
0.00654658174975428,36.9003222508656,5918.4158898486,0,0,0.183763785408,2100,2018-04-12 08:52:22,12,0,17.077,5918.4158898486,0,0,0.185917328784,0,0,0,45.6, -0.5, 0,0,0,1024,1024,1024,1024,46.1,0,99,4.299,4.301,4.299,4.299,0,0,1.466,80.51,10,Assisted_Takeoff,
0.00654660151784306,36.9003222701573,5918.4158898486,0,0,0.192705386744,2200,2018-04-12 08:52:22,12,0,17.077,5918.4158898486,0,0,0.192705386744,0,0,0,45.6, -0.5, 0,0,0,1024,1024,1024,1024,46.1,0,99,4.299,4.301,4.299,4.299,0,0,1.466,80.51,10,Assisted_Takeoff,
0.0065466345679282,36.9003222999502,5918.4158898486,0,0,0.2075869489,2300,2018-04-12 08:52:22,12,0,17.077,5918.4158898486,0,0,0.2075869489,0,0,0,45.6, -0.4, 0,0,0,1024,1024,1024,1024,46.1,0,99,4.299,4.301,4.299,4.299,0,0,1.466,80.51,10,Assisted_Takeoff,
0.0065466431638734,36.9003223134993,5918.4158898486,0,0,0.212217198392,2400,2018-04-12 08:52:22,12,0,17.077,5918.4158898486,0,0,0.212217198392,0,0,0,45.6, -0.4, 0,0,0,1024,1024,1024,1024,46,0,99,4.299,4.301,4.299,4.299,0,0,1.466,80.51,10,Assisted_Takeoff,
0.00654665633533911,36.9003223273172,5918.4158898486,0,0,0.218498366572,2500,2018-04-12 08:52:22,12,0,17.077,5918.4158898486,0,0,0.218498366572,0,0,0,45.6, -0.5, 0,0,0,1024,1024,1024,1024,46,0,99,4.299,4.301,4.299,4.299,0,0,1.466,80.51,10,Assisted_Takeoff,
0.00654665816998483,36.9003223346184,5918.4158898486,0,0,0.220095807568,2600,2018-04-12 08:52:22,12,0,17.077,5918.4158898486,0,0,0.220095807568,0,0,0,45.6, -0.5, 0,0,0,1024,1024,1024,1024,46,0,99,4.299,4.301,4.299,4.299,0,0,1.466,80.51,10,Assisted_Takeoff,
0.00654666270133381,36.9003223409626,5918.4158898486,0,0,0.222494429692,2700,2018-04-12 08:52:22,12,0,17.077,5918.4158898486,0,0,0.222494429692,0,0,0,45.6, -0.5, 0,0,0,1024,1024,1024,1024,46,0,99,4.299,4.301,4.299,4.299,0,0,1.466,80.51,10,Assisted_Takeoff,
0.00654665725988819,36.9003223411757,5918.4158898486,0,0,0.220686686852,2800,2018-04-12 08:52:22,12,0,17.077,5918.4158898486,0,0,0.222494429692,0,0,0,45.6, -0.5, 0,0,0,1024,1024,1024,1024,46,0,99,4.299,4.301,4.299,4.299,0,0,1.466,80.51,10,Assisted_Takeoff,
0.0065466566290697,36.9003223429657,5918.4158898486,0,0,0.22072343226,2900,2018-04-12 08:52:23,12,0,17.023,5918.4158898486,0,0,0.222494429692,0,0,0,45.6, -0.5, 0,0,0,1024,1024,1024,1024,46,0,99,4.272,4.271,4.267,4.299,0,0,3.054,80.51,10,Assisted_Takeoff,
0.00654664814324803,36.9003223107993,5918.4158898486,0,0,0.213583340168,3000,2018-04-12 08:52:23,12,0,17.023,5918.4158898486,0,0,0.222494429692,0,0,0,45.6, -0.5, 0,0,0,1024,1024,1024,1024,45.9,0,99,4.272,4.271,4.267,4.299,0,0,3.054,80.51,10,Assisted_Takeoff,
0.00654664427895042,36.9003222789884,5918.4158898486,0,0,0.208558733708,3100,2018-04-12 08:52:23,12,0,17.023,5918.4158898486,0,0,0.222494429692,0,0,0,45.6, -0.5, 0,0,0,1024,1024,1195,1024,45.9,0,99,4.272,4.271,4.267,4.299,0,0,3.054,80.51,10,Assisted_Takeoff,
0.006546663210019,36.9003222732127,5918.4158898486,0,0,0.21458005936,3200,2018-04-12 08:52:23,12,0,17.023,5918.4158898486,0,0,0.222494429692,0,0,0,45.6, -0.5, 0,0,0,1024,1024,1535,1024,45.9,0,99,4.272,4.271,4.267,4.299,0,0,3.054,80.51,10,Assisted_Takeoff,
0.00654668827971078,36.9003222810653,5918.4158898486,0,0,0.224162408748,3300,2018-04-12 08:52:23,12,0,17.023,5918.4158898486,0,0,0.224162408748,0,0,0,45.6, -0.4, 0,0,0,1024,1024,1684,1030,45.9,0,99,4.272,4.271,4.267,4.299,0,0,3.054,80.51,10,Assisted_Takeoff,
0.00654670868268917,36.9003222883794,5918.4158898486,0,0,0.232054797452,3400,2018-04-12 08:52:23,12,0,17.023,5918.4158898486,0,0,0.232054797452,0,0,0,45.6, -0.4, 0,0,0,1024,1024,1684,1079,45.9,0,99,4.272,4.271,4.267,4.299,0,0,3.054,80.51,10,Assisted_Takeoff,
0.00654672500051224,36.9003222931371,5918.4158898486,0,0,0.23825624122,3500,2018-04-12 08:52:23,12,0,17.023,5918.4158898486,0,0,0.23825624122,0,0,0,45.6, -0.4, 0,0,0,1024,1024,1684,1024,46,0,99,4.272,4.271,4.267,4.299,0,0,3.054,80.51,10,Assisted_Takeoff,
0.00654673724905732,36.9003223265806,5918.4158898486,0,0,0.246172580056,3600,2018-04-12 08:52:23,12,0,17.023,5918.4158898486,0,0,0.246172580056,0,0,0,45.8, 0.2, 0,0,0,1024,1024,1684,1059,46,0,99,4.272,4.271,4.267,4.299,0,0,3.054,80.51,10,Assisted_Takeoff,
0.00654676050853004,36.9003223642797,5918.4158898486,0,0,0.258813656576,3700,2018-04-12 08:52:23,12,0,17.023,5918.4158898486,0,0,0.258813656576,0,0,-0.223694,45.8, 2.6, 0.5,0,0,1024,1024,1684,1059,46,0,99,4.272,4.271,4.267,4.299,0,0,3.054,80.51,10,Assisted_Takeoff,
0.00654675476826495,36.900322411207,5918.4158898486,0,0,0.263501320768,3800,2018-04-12 08:52:23,12,0,17.023,5918.4158898486,0,0,0.263501320768,0,0,-0.671082,45.9, 3.1, 0.7,0,0,1024,1024,1684,1054,46,0,99,4.272,4.271,4.267,4.299,0,0,3.054,80.51,6,P-GPS,Obstacle Avoided. Revise Flight Route
0.00654669857371595,36.9003224111995,5918.4158898486,0,0.223694,0.24500000784,3900,2018-04-12 08:52:23,12,0,17.13,5918.4158898486,0,0.223694,0.263501320768,-0.223694,0,-1.11847,46, 1.4, 0.2,0,0,1024,1024,1684,1070,46,0,99,4.29,4.295,4.294,4.293,0,0,1.752,80.51,6,P-GPS,Home Point Recorded. RTH Altitude:  30m.
0.0065466242411506,36.9003223876695,5918.7439738486,0.328084,0.223694,0.216948169672,4000,2018-04-12 08:52:23,12,0,17.13,5918.7439738486,0.328084,0.223694,0.263501320768,0,0,-2.013246,46.2, 0.2, 0.4,0,0,1024,1024,1684,1056,46.1,0,99,4.29,4.295,4.294,4.293,0,0,1.752,80.51,6,P-GPS,
0.00654657182642367,36.9003223536371,5919.0720578486,0.656168,0,0.194254927476,4100,2018-04-12 08:52:24,12,0,17.13,5919.0720578486,0.656168,0.223694,0.263501320768,0,0,-2.684328,46.6, 0.5, 0.4,0,0,1024,1024,1684,1053,46.1,0,99,4.29,4.295,4.294,4.293,0,0,1.752,80.51,6,P-GPS,
0.00654654953058269,36.9003223128655,5919.4001418486,0.984252,0,0.180488522836,4200,2018-04-12 08:52:24,12,0,17.13,5919.4001418486,0.984252,0.223694,0.263501320768,0,0,-3.579104,46.8, 0.8, 0.7,0,0,1024,1024,1684,1049,46.1,0,99,4.29,4.295,4.294,4.293,0,0,1.752,80.51,6,P-GPS,
0.00654652251510389,36.9003222621794,5920.0563098486,1.64042,0,0.164449152244,4300,2018-04-12 08:52:24,12,0,17.13,5920.0563098486,1.64042,0.223694,0.263501320768,0,0,-4.47388,47.1, 0.3, 1.3,0,0,1024,1024,1684,1039,46.2,0,99,4.29,4.295,4.294,4.293,0,0,1.752,80.51,6,P-GPS,
0.00654649573269614,36.9003222213874,5920.7124778486,2.296588,0,0.150637143928,4400,2018-04-12 08:52:24,12,0,17.13,5920.7124778486,2.296588,0.223694,0.263501320768,0,0,-5.59235,47.5, -0.3, 1.6,0,0,1024,1024,1684,1030,46.2,0,99,4.29,4.295,4.294,4.293,0,0,1.752,80.51,6,P-GPS,
0.00654643819569862,36.9003222294039,5921.6967298486,3.28084,0.223694,0.13145997796,4500,2018-04-12 08:52:24,12,0,17.13,5921.6967298486,3.28084,0.223694,0.263501320768,-0.223694,0,-6.71082,47.6, -0.6, -0.3,0,0,1024,1024,1684,1031,46.2,0,99,4.29,4.295,4.294,4.293,0,0,1.752,80.51,6,P-GPS,
0.00654636370863464,36.9003222262735,5922.6809818486,4.265092,0,0.105707680548,4600,2018-04-12 08:52:24,12,0,17.13,5922.6809818486,4.265092,0.223694,0.263501320768,0,0,-7.82929,47.6, 0.1, -1.4,0,0,1024,1024,1684,1032,46.2,0,99,4.29,4.295,4.294,4.293,0,0,1.752,80.51,6,P-GPS,
0.00654630368011781,36.9003221920945,5923.9933178486,5.577428,0,0.080699805732,4700,2018-04-12 08:52:24,12,0,17.13,5923.9933178486,5.577428,0.223694,0.263501320768,0,0,-9.171454,47.5, 0, -1.3,0,0,1024,1024,1684,1027,46.3,0,99,4.29,4.295,4.294,4.293,0,0,1.752,80.51,6,P-GPS,
0.00654621308814981,36.9003220803955,5925.6337378486,7.217848,0,0.04350065756,4800,2018-04-12 08:52:24,11,0,17.13,5925.6337378486,7.217848,0.223694,0.263501320768,0,0,-10.06623,47.5, -0.7, -0.7,0,0,1024,1024,1684,1027,46.3,0,99,4.29,4.295,4.294,4.293,0,0,1.752,80.51,6,P-GPS,
0.006546134779942,36.9003219616757,5926.9460738486,8.530184,0,0.056142718332,4900,2018-04-12 08:52:25,11,0,17.104,5926.9460738486,8.530184,0.223694,0.263501320768,0,0,-10.737312,47.5, -1.9, -0.4,0,0,1024,1024,1684,1024,46.4,0,99,4.29,4.295,4.294,4.293,0,0,1.752,80.51,6,P-GPS,
0.00654607629580074,36.9003218096665,5928.5864938486,10.170604,0,0.110245738436,5000,2018-04-12 08:52:25,12,0,17.104,5928.5864938486,10.170604,0.223694,0.263501320768,0,0,-11.1847,47.5, -2.5, -0.4,0,0,1024,1024,1684,1024,46.4,0,99,4.29,4.295,4.294,4.293,0,0,1.752,80.51,6,P-GPS,
0.00654606810370966,36.9003216964044,5930.2269138486,11.811024,0,0.151677170208,5100,2018-04-12 08:52:25,12,0,17.104,5930.2269138486,11.811024,0.223694,0.263501320768,0,0,-11.408394,47.5, -2.6, -0.8,0,0,1024,1024,1684,1027,46.4,0,99,4.29,4.295,4.294,4.293,0,0,1.752,80.51,6,P-GPS,
0.00654611958533818,36.9003216405796,5932.1954178486,13.779528,0,0.171838260092,5200,2018-04-12 08:52:25,12,0,17.104,5932.1954178486,13.779528,0.223694,0.263501320768,0,0,-11.632088,47.5, -2.2, -0.4,0,0,1024,1024,1684,1027,46.4,0,99,4.29,4.295,4.294,4.293,0,0,1.752,80.51,6,P-GPS,
0.0065462157563553,36.9003216233295,5933.8358378486,15.419948,0,0.183073496672,5300,2018-04-12 08:52:25,12,0,17.104,5933.8358378486,15.419948,0.223694,0.263501320768,0,0,-11.632088,47.4, -1.6, 0.1,0,0,1024,1024,1684,1024,46.5,0,99,4.29,4.295,4.294,4.293,0,0,1.752,80.51,6,P-GPS,
0.0065463667291947,36.9003216272702,5935.4762578486,17.060368,0,0.201937014336,5400,2018-04-12 08:52:25,12,0,17.104,5935.4762578486,17.060368,0.223694,0.263501320768,0,0,-11.632088,47.4, -0.8, 0,0,0,1024,1024,1684,1044,46.5,0,99,4.29,4.295,4.294,4.293,0,0,1.752,80.51,6,P-GPS,
0.0065465170323365,36.9003216314283,5937.1166778486,18.700788,0,0.232402566492,5500,2018-04-12 08:52:25,12,0,17.104,5937.1166778486,18.700788,0.223694,0.263501320768,0,0,-11.408394,47.5, -0.3, -0.2,0,0,1024,1024,1684,1031,46.5,0,99,4.29,4.295,4.294,4.293,0,0,1.752,80.51,6,P-GPS,
0.0065466981668085,36.9003216645197,5938.7570978486,20.341208,0,0.272968840756,5600,2018-04-12 08:52:25,12,0,17.104,5938.7570978486,20.341208,0.223694,0.272968840756,0,0,-11.1847,47.5, -0.4, -0.3,0,0,1024,1024,1684,1047,46.5,0,99,4.29,4.295,4.294,4.293,0,0,1.752,80.51,6,P-GPS,
0.00654686552179451,36.9003216832032,5940.3975178486,21.981628,0,0.320642726796,5700,2018-04-12 08:52:25,12,0,17.104,5940.3975178486,21.981628,0.223694,0.320642726796,0,0,-11.1847,47.5, -0.8, 0,0,0,1024,1024,1684,1038,46.6,0,99,4.29,4.295,4.294,4.293,0,0,1.752,80.51,6,P-GPS,
0.00654705383505831,36.900321730106,5942.0379378486,23.622048,0,0.37545604876,5800,2018-04-12 08:52:25,12,0,17.104,5942.0379378486,23.622048,0.223694,0.37545604876,0,0,-10.961006,47.4, -0.8, 0,0,0,1024,1024,1684,1045,46.6,0,99,4.29,4.295,4.294,4.293,0,0,1.752,80.51,6,P-GPS,
0.00654722994211658,36.9003217631427,5943.6783578486,25.262468,0,0.4321030322,5900,2018-04-12 08:52:25,12,0,16.381,5943.6783578486,25.262468,0.223694,0.4321030322,0,0,-10.961006,47.4, -0.7, 0,0,0,1024,1024,1684,1046,46.6,0,99,4.198,4.195,4.193,4.183,0,0,11.722,80.51,6,P-GPS,
0.00654741755026413,36.9003218026896,5945.3187778486,26.902888,0,0.4944553964,6000,2018-04-12 08:52:25,12,0,16.381,5945.3187778486,26.902888,0.223694,0.4944553964,0,0,-10.961006,47.4, -0.7, 0,0,0,1024,1024,1684,1059,46.6,0,99,4.198,4.195,4.193,4.183,0,0,11.722,80.51,6,P-GPS,
0.0065475885218207,36.9003218234608,5946.9591978486,28.543308,0,0.55389437468,6100,2018-04-12 08:52:26,12,0,16.381,5946.9591978486,28.543308,0.223694,0.55389437468,0,0,-10.961006,47.4, -0.8, 0,0,0,1024,1024,1684,1038,46.6,0,99,4.198,4.195,4.193,4.183,0,0,11.722,80.51,6,P-GPS,
0.00654776076071381,36.9003218453786,5948.5996178486,30.183728,0,0.61439962596,6200,2018-04-12 08:52:26,12,0,16.381,5948.5996178486,30.183728,0.223694,0.61439962596,0,0,-10.737312,47.5, -0.9, 0,0,0,1024,1024,1684,1024,46.6,0,99,4.198,4.195,4.193,4.183,0,0,11.722,80.51,6,P-GPS,
0.00654792074678718,36.9003218568615,5950.2400378486,31.824148,0,0.67150920784,6300,2018-04-12 08:52:26,12,0,16.381,5950.2400378486,31.824148,0.223694,0.67150920784,0,0,-10.961006,47.5, -1.1, 0,0,0,1024,1024,1684,1024,46.6,0,99,4.198,4.195,4.193,4.183,0,0,11.722,80.51,6,P-GPS,
0.00654807425328188,36.9003218713656,5951.8804578486,33.464568,0,0.72636485264,6400,2018-04-12 08:52:26,12,0,16.381,5951.8804578486,33.464568,0.223694,0.72636485264,0,0,-10.961006,47.5, -1.3, -0.1,0,0,1024,1024,1684,1024,46.7,0,99,4.198,4.195,4.193,4.183,0,0,11.722,80.51,6,P-GPS,
0.00654822560615939,36.9003218836921,5953.5208778486,35.104988,0,0.78072180976,6500,2018-04-12 08:52:26,12,0,16.381,5953.5208778486,35.104988,0.223694,0.78072180976,0,0,-10.961006,47.5, -1.4, -0.2,0,0,1024,1024,1684,1024,46.7,0,99,4.198,4.195,4.193,4.183,0,0,11.722,80.51,6,P-GPS,
0.00654835969386654,36.9003219306345,5955.1612978486,36.745408,0,0.82784779552,6600,2018-04-12 08:52:26,12,0,16.381,5955.1612978486,36.745408,0.223694,0.82784779552,0,0,-10.961006,47.5, -1, -0.4,0,0,1024,1024,1684,1024,46.7,0,99,4.198,4.195,4.193,4.183,0,0,11.722,80.51,6,P-GPS,
0.0065484987491421,36.9003219692264,5956.4736338486,38.057744,0,0.87748690472,6700,2018-04-12 08:52:26,12,0,16.381,5956.4736338486,38.057744,0.223694,0.87748690472,0,0,-10.961006,47.5, -0.9, -0.2,0,0,1024,1024,1684,1024,46.7,0,99,4.198,4.195,4.193,4.183,0,0,11.722,80.51,6,P-GPS,
0.00654866498233375,36.9003220212561,5958.1140538486,39.698164,0,0.93718178852,6800,2018-04-12 08:52:26,12,0,16.381,5958.1140538486,39.698164,0.223694,0.93718178852,0,0,-10.961006,47.5, -1.1, -0.1,0,0,1024,1024,1684,1024,46.7,0,99,4.198,4.195,4.193,4.183,0,0,11.722,80.51,6,P-GPS,
0.00654883739954148,36.9003220610995,5959.7544738486,41.338584,0,0.99968179052,6900,2018-04-12 08:52:27,12,0,16.408,5959.7544738486,41.338584,0.223694,0.99968179052,0,0,-10.737312,47.5, -1.5, -0.3,0,0,1024,1024,1684,1024,46.7,0,99,4.121,4.123,4.128,4.121,0,0,22.002,80.51,6,P-GPS,
0.00654898367615195,36.9003220943557,5961.3948938486,42.979004,0,1.052903577,7000,2018-04-12 08:52:27,12,0,16.408,5961.3948938486,42.979004,0.223694,1.052903577,0,0,-10.737312,47.5, -1.4, -0.2,0,0,1024,1024,1684,1024,46.8,0,99,4.121,4.123,4.128,4.121,0,0,22.002,80.51,6,P-GPS,
0.00654912876074141,36.9003221127653,5963.0353138486,44.619424,0,1.10582024536,7100,2018-04-12 08:52:27,12,0,16.408,5963.0353138486,44.619424,0.223694,1.10582024536,0,0,-10.737312,47.5, -1.3, -0.1,0,0,1024,1024,1684,1024,46.8,0,99,4.121,4.123,4.128,4.121,0,0,22.002,80.51,6,P-GPS,
0.006549270922681,36.9003221233874,5964.6757338486,46.259844,0,1.1576936066,7200,2018-04-12 08:52:27,12,0,16.408,5964.6757338486,46.259844,0.223694,1.1576936066,0,0,-10.737312,47.5, -1.4, -0.1,0,0,1024,1024,1684,1024,46.8,0,99,4.121,4.123,4.128,4.121,0,0,22.002,80.51,6,P-GPS,
0.00654942514569106,36.9003221299286,5966.3161538486,47.900264,0,1.21397313596,7300,2018-04-12 08:52:27,12,0,16.408,5966.3161538486,47.900264,0.223694,1.21397313596,0,0,-10.961006,47.5, -1.4, 0,0,0,1024,1024,1684,1024,46.8,0,99,4.121,4.123,4.128,4.121,0,0,22.002,80.51,6,P-GPS,
0.0065495727055154,36.9003221346209,5967.9565738486,49.540684,0,1.26782156288,7400,2018-04-12 08:52:27,12,0,16.408,5967.9565738486,49.540684,0.223694,1.26782156288,0,0,-10.961006,47.5, -1.2, 0.1,0,0,1024,1024,1684,1024,46.8,0,99,4.121,4.123,4.128,4.121,0,0,22.002,80.51,6,P-GPS,
0.00654972320508826,36.90032214201,5969.5969938486,51.181104,0,1.32274938616,7500,2018-04-12 08:52:27,12,0,16.408,5969.5969938486,51.181104,0.223694,1.32274938616,0,0,-11.1847,47.5, -1.3, 0.3,0,0,1024,1024,1684,1024,46.8,0,99,4.121,4.123,4.128,4.121,0,0,22.002,80.51,6,P-GPS,
0.00654985997809956,36.9003221500264,5971.2374138486,52.821524,0,1.37267720928,7600,2018-04-12 08:52:27,12,0,16.408,5971.2374138486,52.821524,0.223694,1.37267720928,0,0,-11.1847,47.5, -1.4, 0.2,0,0,1024,1024,1684,1024,46.8,0,99,4.121,4.123,4.128,4.121,0,0,22.002,80.51,6,P-GPS,
0.0065499971781703,36.900322169453,5972.8778338486,54.461944,0,1.422818287,7700,2018-04-12 08:52:27,12,0,16.408,5972.8778338486,54.461944,0.223694,1.422818287,0,0,-11.1847,47.5, -1.3, 0,0,0,1024,1024,1684,1024,46.8,0,99,4.121,4.123,4.128,4.121,0,0,22.002,80.51,6,P-GPS,
0.00655015234527077,36.9003221875382,5974.5182538486,56.102364,0,1.47953416808,7800,2018-04-12 08:52:27,12,0,16.408,5974.5182538486,56.102364,0.223694,1.47953416808,0,0,-11.1847,47.5, -1.2, 0,0,0,1024,1024,1684,1024,46.8,0,99,4.121,4.123,4.128,4.121,0,0,22.002,80.51,6,P-GPS,
0.00655031559515301,36.9003222073865,5976.1586738486,57.742784,0,1.53923561356,7900,2018-04-12 08:52:27,12,0,16.408,5976.1586738486,57.742784,0.223694,1.53923561356,0,0,-11.1847,47.5, -0.8, 0,0,0,1024,1024,1684,1024,46.9,0,99,4.123,4.125,4.129,4.121,0,0,17.296,80.51,6,P-GPS,
0.00655044092305279,36.9003222048097,5977.7990938486,59.383204,0,1.58492787224,8000,2018-04-12 08:52:27,12,0,16.408,5977.7990938486,59.383204,0.223694,1.58492787224,0,0,-11.1847,47.5, -0.9, 0.1,0,0,1024,1024,1684,1024,46.9,0,99,4.123,4.125,4.129,4.121,0,0,17.296,80.51,6,P-GPS,
0.00655054735489554,36.9003221969185,5979.4395138486,61.023624,0,1.62369427768,8100,2018-04-12 08:52:28,12,0,16.408,5979.4395138486,61.023624,0.223694,1.62369427768,0,0,-11.1847,47.5, -1, 0.4,0,0,1024,1024,1684,1024,46.9,0,99,4.123,4.125,4.129,4.121,0,0,17.296,80.51,6,P-GPS,
0.00655064313956433,36.9003221730523,5981.0799338486,62.664044,0,1.65849414756,8200,2018-04-12 08:52:28,12,0,16.408,5981.0799338486,62.664044,0.223694,1.65849414756,0,0,-11.1847,47.5, -1.2, 0.5,0,0,1024,1024,1684,1024,46.9,0,99,4.123,4.125,4.129,4.121,0,0,17.296,80.51,6,P-GPS,
0.00655073608707656,36.9003221587473,5982.7203538486,64.304464,0,1.692339293,8300,2018-04-12 08:52:28,12,0,16.408,5982.7203538486,64.304464,0.223694,1.692339293,0,0,-11.1847,47.5, -1.5, 0.2,0,0,1024,1024,1684,1024,46.9,0,99,4.123,4.125,4.129,4.121,0,0,17.296,80.51,6,P-GPS,
0.00655081350086151,36.900322118723,5984.3607738486,65.944884,0,1.72049874272,8400,2018-04-12 08:52:28,12,0,16.408,5984.3607738486,65.944884,0.223694,1.72049874272,0,0,-11.1847,47.5, -1.6, 0.2,0,0,1024,1024,1684,1024,46.9,0,99,4.123,4.125,4.129,4.121,0,0,17.296,80.51,6,P-GPS,
0.00655089526910571,36.9003220887384,5986.3292778486,67.913388,0,1.75034782504,8500,2018-04-12 08:52:28,12,0,16.408,5986.3292778486,67.913388,0.223694,1.75034782504,0,0,-11.1847,47.5, -1.4, 0.4,0,0,1024,1024,1684,1024,46.9,0,99,4.123,4.125,4.129,4.121,0,0,17.296,80.51,6,P-GPS,
0.00655097402391428,36.9003220353545,5987.9696978486,69.553808,0,1.77927499132,8600,2018-04-12 08:52:28,12,0,16.408,5987.9696978486,69.553808,0.223694,1.77927499132,0,0,-11.1847,47.5, -1.3, 0.4,0,0,1024,1024,1684,1024,46.9,0,99,4.123,4.125,4.129,4.121,0,0,17.296,80.51,6,P-GPS,
0.00655105102163179,36.9003219978599,5989.6101178486,71.194228,0,1.80762472976,8700,2018-04-12 08:52:28,12,0,16.408,5989.6101178486,71.194228,0.223694,1.80762472976,0,0,-11.1847,47.5, -1.2, 0.5,0,0,1024,1024,1684,1024,46.9,0,99,4.123,4.125,4.129,4.121,0,0,17.296,80.51,6,P-GPS,
0.00655112026225632,36.9003219621392,5991.2505378486,72.834648,0,1.83322184344,8800,2018-04-12 08:52:28,12,0,16.408,5991.2505378486,72.834648,0.223694,1.83322184344,0,0,-11.1847,47.5, -1.3, 0.4,0,0,1024,1024,1684,1024,46.9,0,99,4.123,4.125,4.129,4.121,0,0,17.296,80.51,6,P-GPS,
0.00655118261374851,36.9003219470421,5992.8909578486,74.475068,0,1.85613194916,8900,2018-04-12 08:52:29,12,0,16.274,5992.8909578486,74.475068,0.223694,1.85613194916,0,0,-11.1847,47.5, -1.3, 0.1,0,0,1024,1024,1684,1024,46.9,0,99,4.123,4.125,4.129,4.121,0,0,17.296,80.51,6,P-GPS,
0.00655122502168708,36.9003219302031,5994.5313778486,76.115488,0,1.871801241,9000,2018-04-12 08:52:29,12,0,16.274,5994.5313778486,76.115488,0.223694,1.871801241,0,0,-11.1847,47.5, -1.3, 0.2,0,0,1024,1024,1684,1024,47,0,99,4.123,4.125,4.129,4.121,0,0,17.296,80.51,6,P-GPS,
0.00655125899509997,36.900321915487,5996.4998818486,78.083992,0,1.8843832624,9100,2018-04-12 08:52:29,12,0,16.274,5996.4998818486,78.083992,0.223694,1.8843832624,0,0,-11.1847,47.5, -1.6, 0.4,0,0,1024,1024,1684,1024,47,0,99,4.123,4.125,4.129,4.121,0,0,17.296,80.51,6,P-GPS,
0.0065512826954739,36.9003218760932,5998.1403018486,79.724412,0,1.89362210784,9200,2018-04-12 08:52:29,12,0,16.274,5998.1403018486,79.724412,0.223694,1.89362210784,0,0,-11.408394,47.5, -1.7, 0.5,0,0,1024,1024,1684,1024,47,0,99,4.123,4.125,4.129,4.121,0,0,17.296,80.51,6,P-GPS,
0.00655130926272349,36.9003218480443,5999.7807218486,81.364832,0,1.90379271184,9300,2018-04-12 08:52:29,12,0,16.274,5999.7807218486,81.364832,0.223694,1.90379271184,0,0,-11.1847,47.5, -2, 0.5,0,0,1024,1024,1684,1024,47,0,99,4.123,4.125,4.129,4.121,0,0,17.296,80.51,6,P-GPS,
0.00655130968774737,36.9003218331901,6001.7492258486,83.333336,0,1.90422906356,9400,2018-04-12 08:52:29,12,0,16.274,6001.7492258486,83.333336,0.223694,1.90422906356,0,0,-11.408394,47.5, -1.9, 0.3,0,0,1024,1024,1684,1024,47,0,99,4.123,4.125,4.129,4.121,0,0,17.296,80.51,6,P-GPS,
0.00655130880105961,36.900321837209,6003.3896458486,84.973756,0,1.90382880108,9500,2018-04-12 08:52:29,12,0,16.274,6003.3896458486,84.973756,0.223694,1.90422906356,0,0,-11.1847,47.5, -1.8, 0.1,0,0,1024,1024,1684,1024,47,0,99,4.123,4.125,4.129,4.121,0,0,17.296,80.51,6,P-GPS,
0.00655129025308249,36.9003218426465,6005.0300658486,86.614176,0,1.89696856464,9600,2018-04-12 08:52:29,12,0,16.274,6005.0300658486,86.614176,0.223694,1.90422906356,0,0,-11.408394,47.5, -1.8, -0.2,0,0,1024,1024,1684,1024,47,0,99,4.123,4.125,4.129,4.121,0,0,17.296,80.51,6,P-GPS,
0.0065512863041058,36.9003218487701,6006.6704858486,88.254596,0,1.89541344648,9700,2018-04-12 08:52:29,12,0,16.274,6006.6704858486,88.254596,0.223694,1.90422906356,0,0,-11.1847,47.5, -1.9, -0.1,0,0,1024,1024,1684,1024,47,0,99,4.123,4.125,4.129,4.121,0,0,17.296,80.51,6,P-GPS,
0.00655127831088844,36.9003218180116,6008.6389898486,90.2231,0,1.89310373512,9800,2018-04-12 08:52:29,12,0,16.274,6008.6389898486,90.2231,0.223694,1.90422906356,0,0,-11.408394,47.5, -2.1, 0.3,0,0,1024,1024,1684,1024,47,0,99,4.123,4.125,4.129,4.121,0,0,17.296,80.51,6,P-GPS,
0.0065512818144857,36.9003217926712,6010.2794098486,91.86352,0,1.89492132048,9900,2018-04-12 08:52:29,12,0,16.327,6010.2794098486,91.86352,0.223694,1.90422906356,0,0,-11.1847,47.5, -2.1, 0.5,0,0,1024,1024,1684,1024,47,0,99,4.113,4.115,4.118,4.108,0,0,17.812,80.51,6,P-GPS,
0.0065512949169461,36.9003218016211,6011.9198298486,93.50394,0,1.89949809228,10000,2018-04-12 08:52:29,12,0,16.327,6011.9198298486,93.50394,0.223694,1.90422906356,0,0,-11.1847,47.5, -2, 0.5,0,0,1024,1024,1684,1024,47,0,99,4.113,4.115,4.118,4.108,0,0,17.812,80.51,6,P-GPS,
0.00655131722337197,36.9003218409839,6013.8883338486,95.472444,0,1.906824208,10100,2018-04-12 08:52:30,12,0,16.327,6013.8883338486,95.472444,0.223694,1.906824208,0,0,-11.1847,47.5, -1.8, 0.3,0,0,1024,1024,1684,1024,47,0,99,4.113,4.115,4.118,4.108,0,0,17.812,80.51,6,P-GPS,
0.00655132529394041,36.900321882022,6015.5287538486,97.112864,0,1.90905189836,10200,2018-04-12 08:52:30,12,0,16.327,6015.5287538486,97.112864,0.223694,1.90905189836,0,0,-10.961006,47.5, -1.7, 0.2,0,0,1024,1024,1684,1024,47,0,99,4.113,4.115,4.118,4.108,0,0,17.812,80.51,6,P-GPS,
0.00655132638255523,36.900321927047,6017.1691738486,98.753284,0,1.90879927368,10300,2018-04-12 08:52:30,12,0,16.327,6017.1691738486,98.753284,0.223694,1.90905189836,0,0,-11.1847,47.5, -1.8, -0.1,0,0,1024,1024,1684,1024,47,0,99,4.113,4.115,4.118,4.108,0,0,17.812,80.51,6,P-GPS,
0.00655131558027197,36.9003219628522,6018.8095938486,100.393704,0,1.904445599,10400,2018-04-12 08:52:30,12,0,16.327,6018.8095938486,100.393704,0.223694,1.90905189836,0,0,-11.1847,47.5, -1.8, -0.5,0,0,1024,1024,1684,1024,47,0,99,4.113,4.115,4.118,4.108,0,0,17.812,80.51,6,P-GPS,
0.00655131886972885,36.900321997224,6020.4500138486,102.034124,0,1.9053314258,10500,2018-04-12 08:52:30,12,0,16.327,6020.4500138486,102.034124,0.223694,1.90905189836,0,0,-11.1847,47.5, -1.7, -0.5,0,0,1024,1024,1684,1024,47,0,99,4.113,4.115,4.118,4.108,0,0,17.812,80.51,6,P-GPS,
0.00655130085262446,36.9003220301194,6022.4185178486,104.002628,0,1.89853352532,10600,2018-04-12 08:52:30,12,0,16.327,6022.4185178486,104.002628,0.223694,1.90905189836,0,0,-11.1847,47.5, -1.8, -0.2,0,0,1024,1024,1684,1024,47,0,99,4.113,4.115,4.118,4.108,0,0,17.812,80.51,6,P-GPS,
0.00655129017491718,36.9003220770457,6024.0589378486,105.643048,0,1.89444887952,10700,2018-04-12 08:52:30,12,0,16.327,6024.0589378486,105.643048,0.223694,1.90905189836,0,0,-11.1847,47.5, -1.6, -0.2,0,0,1024,1024,1684,1024,47.1,0,99,4.113,4.115,4.118,4.108,0,0,17.812,80.51,6,P-GPS,
0.00655124767008619,36.900322102476,6025.6993578486,107.283468,0,1.8789042596,10800,2018-04-12 08:52:30,12,0,16.327,6025.6993578486,107.283468,0.223694,1.90905189836,0,0,-10.961006,47.5, -1.6, -0.3,0,0,1024,1024,1684,1024,47.1,0,99,4.113,4.115,4.118,4.108,0,0,17.812,80.51,6,P-GPS,
0.00655121859666129,36.9003221282329,6027.3397778486,108.923888,0,1.86830386556,10900,2018-04-12 08:52:31,12,0,16.301,6027.3397778486,108.923888,0.223694,1.90905189836,0,0,-11.1847,47.5, -1.5, -0.5,0,0,1024,1024,1684,1024,47.1,0,99,4.107,4.11,4.113,4.106,0,0,17.454,80.51,6,P-GPS,
0.00655115615153357,36.9003221205601,6028.9801978486,110.564308,0,1.84551515092,11000,2018-04-12 08:52:31,13,0,16.301,6028.9801978486,110.564308,0.223694,1.90905189836,0,0,-10.961006,47.5, -1.7, -0.4,0,0,1024,1024,1684,1024,47.1,0,99,4.107,4.11,4.113,4.106,0,0,17.454,80.51,6,P-GPS,
0.00655103941815409,36.9003221193075,6032.5891218486,114.173232,0,1.80292328604,11200,2018-04-12 08:52:31,13,0,16.301,6032.5891218486,114.173232,0.223694,1.90905189836,0,0,-10.961006,47.5, -2, -0.5,0,0,1024,1024,1684,1024,47.1,0,99,4.107,4.11,4.113,4.106,0,0,17.454,80.51,6,P-GPS,
0.00655099435422336,36.900322140781,6034.2295418486,115.813652,0,1.78651252436,11300,2018-04-12 08:52:31,13,0,16.301,6034.2295418486,115.813652,0.223694,1.90905189836,0,0,-10.961006,47.5, -2.2, -0.7,0,0,1024,1024,1684,1024,47.1,0,99,4.107,4.11,4.113,4.106,0,0,17.454,80.51,6,P-GPS,
0.00655090955544489,36.9003221439199,6035.8699618486,117.454072,0,1.75558076484,11400,2018-04-12 08:52:31,13,0,16.301,6035.8699618486,117.454072,0.223694,1.90905189836,0,0,-10.961006,47.5, -2.3, -0.4,0,0,1024,1024,1684,1024,47.1,0,99,4.107,4.11,4.113,4.106,0,0,17.454,80.51,6,P-GPS,
0.00655085436829206,36.9003221578983,6037.5103818486,119.094492,0,1.73548890068,11500,2018-04-12 08:52:31,13,0,16.301,6037.5103818486,119.094492,0.223694,1.90905189836,0,0,-11.1847,47.5, -2, -0.3,0,0,1024,1024,1684,1024,47.1,0,99,4.107,4.11,4.113,4.106,0,0,17.454,80.51,6,P-GPS,
0.00655080082016811,36.9003221857696,6039.1508018486,120.734912,0,1.71608601292,11600,2018-04-12 08:52:31,13,0,16.301,6039.1508018486,120.734912,0.223694,1.90905189836,0,0,-10.961006,47.5, -1.9, -0.3,0,0,1024,1024,1684,1024,47.1,0,99,4.107,4.11,4.113,4.106,0,0,17.454,80.51,6,P-GPS,
0.00655078682939151,36.9003222273013,6040.7912218486,122.375332,0,1.71128942484,11700,2018-04-12 08:52:31,13,0,16.301,6040.7912218486,122.375332,0.223694,1.90905189836,0,0,-11.1847,47.5, -2, -0.4,0,0,1024,1024,1684,1024,47.1,0,99,4.107,4.11,4.113,4.106,0,0,17.454,80.51,6,P-GPS,
0.00655074781838712,36.9003222537047,6042.4316418486,124.015752,0,1.69732945064,11800,2018-04-12 08:52:31,13,0,16.301,6042.4316418486,124.015752,0.223694,1.90905189836,0,0,-11.1847,47.5, -1.9, -0.5,0,0,1024,1024,1684,1024,47.1,0,99,4.107,4.11,4.113,4.106,0,0,17.454,80.51,6,P-GPS,
0.0065507349927622,36.9003222800868,6044.4001458486,125.984256,0,1.69297577596,11900,2018-04-12 08:52:31,13,0,16.327,6044.4001458486,125.984256,0.223694,1.90905189836,0,0,-11.1847,47.5, -1.7, -0.3,0,0,1024,1024,1684,1024,47.1,0,99,4.107,4.11,4.113,4.106,0,0,17.374,80.51,6,P-GPS,
0.00655069351385093,36.9003223086164,6046.0405658486,127.624676,0,1.67826777024,12000,2018-04-12 08:52:31,13,0,16.327,6046.0405658486,127.624676,0.223694,1.90905189836,0,0,-10.961006,47.5, -1.7, -0.2,0,0,1024,1024,1684,1024,47.1,0,99,4.107,4.11,4.113,4.106,0,0,17.374,80.51,6,P-GPS,
0.0065506696986717,36.9003223477233,6047.6809858486,129.265096,0,1.67026252064,12100,2018-04-12 08:52:32,13,0,16.327,6047.6809858486,129.265096,0.223694,1.90905189836,0,0,-10.961006,47.5, -1.6, 0,0,0,1024,1024,1684,1024,47.1,0,99,4.107,4.11,4.113,4.106,0,0,17.374,80.51,6,P-GPS,
0.00655056350091777,36.9003224455681,6050.9618258486,132.545936,0,1.63384847748,12300,2018-04-12 08:52:32,13,0,16.327,6050.9618258486,132.545936,0.223694,1.90905189836,0,0,-10.961006,47.5, -1.6, -0.8,0,0,1024,1024,1684,1024,47.1,0,99,4.107,4.11,4.113,4.106,0,0,17.374,80.51,6,P-GPS,
0.00655052158843329,36.9003224892281,6052.6022458486,134.186356,0,1.61987866076,12400,2018-04-12 08:52:32,13,0,16.327,6052.6022458486,134.186356,0.223694,1.90905189836,0,0,-11.1847,47.5, -1.5, -0.8,0,0,1024,1024,1684,1024,47.1,0,99,4.107,4.11,4.113,4.106,0,0,17.374,80.51,6,P-GPS,
0.00655051664814132,36.9003225255429,6054.2426658486,135.826776,0,1.61926514368,12500,2018-04-12 08:52:32,13,0,16.327,6054.2426658486,135.826776,0.223694,1.90905189836,0,0,-10.961006,47.5, -1.6, -0.6,0,0,1024,1024,1684,1024,47.1,0,99,4.107,4.11,4.113,4.106,0,0,17.374,80.51,6,P-GPS,
0.00655051007533423,36.9003225581653,6056.2111698486,137.79528,0,1.61803482868,12600,2018-04-12 08:52:32,13,0,16.327,6056.2111698486,137.79528,0.223694,1.90905189836,0,0,-10.961006,47.5, -1.6, -0.3,0,0,1024,1024,1684,1024,47.1,0,99,4.107,4.11,4.113,4.106,0,0,17.374,80.51,6,P-GPS,
0.00655052439627785,36.9003225873223,6057.8515898486,139.4357,0,1.62433732232,12700,2018-04-12 08:52:32,13,0,16.327,6057.8515898486,139.4357,0.223694,1.90905189836,0,0,-11.1847,47.5, -1.8, -0.1,0,0,1024,1024,1684,1024,47.1,0,99,4.107,4.11,4.113,4.106,0,0,17.374,80.51,6,P-GPS,
0.00655052543603935,36.900322602777,6059.4920098486,141.07612,0,1.62532485516,12800,2018-04-12 08:52:32,13,0,16.327,6059.4920098486,141.07612,0.223694,1.90905189836,0,0,-10.961006,47.5, -1.9, -0.1,0,0,1024,1024,1684,1024,47.1,0,99,4.107,4.11,4.113,4.106,0,0,17.374,80.51,6,P-GPS,
0.00655054406014623,36.9003226215837,6061.1324298486,142.71654,0,1.63284782128,12900,2018-04-12 08:52:33,13,0,16.274,6061.1324298486,142.71654,0.223694,1.90905189836,0,0,-11.1847,47.5, -1.7, -0.4,0,0,1024,1024,1684,1024,47.1,0,99,4.102,4.104,4.109,4.101,0,0,17.374,80.51,6,P-GPS,
0.00655055497072101,36.9003226532319,6062.7728498486,144.35696,0,1.6381562204,13000,2018-04-12 08:52:33,13,0,16.274,6062.7728498486,144.35696,0.223694,1.90905189836,0,0,-11.1847,47.5, -1.5, -0.5,0,0,1024,1024,1684,1024,47.1,0,99,4.102,4.104,4.109,4.101,0,0,17.374,80.51,6,P-GPS,
0.00655058440403203,36.9003226879023,6064.4132698486,145.99738,0,1.65038391108,13100,2018-04-12 08:52:33,13,0,16.274,6064.4132698486,145.99738,0.223694,1.90905189836,0,0,-11.1847,47.5, -1.4, -0.1,0,0,1024,1024,1684,1024,47.1,0,99,4.102,4.104,4.109,4.101,0,0,17.374,80.51,6,P-GPS,
0.00655059288415414,36.9003227319884,6066.3817738486,147.965884,0,1.6555774808,13200,2018-04-12 08:52:33,13,0,16.274,6066.3817738486,147.965884,0.223694,1.90905189836,0,0,-11.1847,47.5, -1.4, -0.1,0,0,1024,1024,1684,1024,47.1,0,99,4.102,4.104,4.109,4.101,0,0,17.374,80.51,6,P-GPS,
0.00655061238192123,36.9003227784383,6068.0221938486,149.606304,0,1.66501645748,13300,2018-04-12 08:52:33,13,0,16.274,6068.0221938486,149.606304,0.223694,1.90905189836,0,0,-11.1847,47.5, -1.2, -0.3,0,0,1024,1024,1684,1024,47.2,0,99,4.102,4.104,4.109,4.101,0,0,17.374,80.51,6,P-GPS,
0.00655063002244794,36.9003228329871,6069.6626138486,151.246724,0,1.67439965988,13400,2018-04-12 08:52:33,13,0,16.274,6069.6626138486,151.246724,0.223694,1.90905189836,0,0,-11.1847,47.5, -1.1, -0.4,0,0,1024,1024,1684,1024,47.2,0,99,4.102,4.104,4.109,4.101,0,0,17.374,80.51,6,P-GPS,
0.00655066509098941,36.9003228766342,6071.3030338486,152.887144,0,1.68959651076,13500,2018-04-12 08:52:33,13,0,16.274,6071.3030338486,152.887144,0.223694,1.90905189836,0,0,-11.1847,47.5, -1.4, -0.5,0,0,1024,1024,1684,1024,47.2,0,99,4.102,4.104,4.109,4.101,0,0,17.374,80.51,6,P-GPS,
0.00655067980560937,36.9003228958231,6073.2715378486,154.855648,0,1.69605976556,13600,2018-04-12 08:52:33,13,0,16.274,6073.2715378486,154.855648,0.223694,1.90905189836,0,0,-11.1847,47.5, -1.5, -0.5,0,0,1024,1024,1684,1024,47.2,0,99,4.102,4.104,4.109,4.101,0,0,17.374,80.51,6,P-GPS,
0.0065507100979246,36.9003229033599,6074.9119578486,156.496068,0,1.7074147528,13700,2018-04-12 08:52:33,13,0,16.274,6074.9119578486,156.496068,0.223694,1.90905189836,0,0,-11.1847,47.5, -1.3, -0.3,0,0,1024,1024,1684,1024,47.2,0,99,4.102,4.104,4.109,4.101,0,0,17.374,80.51,6,P-GPS,
0.00655074276695384,36.9003228913192,6076.5523778486,158.136488,0,1.71843181352,13800,2018-04-12 08:52:33,13,0,16.274,6076.5523778486,158.136488,0.223694,1.90905189836,0,0,-11.1847,47.5, -1.3, 0,0,0,1024,1024,1684,1024,47.2,0,99,4.102,4.104,4.109,4.101,0,0,17.374,80.51,6,P-GPS,
0.00655078969301028,36.900322877404,6078.1927978486,159.776908,0,1.73449152532,13900,2018-04-12 08:52:34,13,0,16.274,6078.1927978486,159.776908,0.223694,1.90905189836,0,0,-10.961006,47.5, -1.3, 0,0,0,1024,1024,1684,1024,47.2,0,99,4.095,4.098,4.103,4.096,0,0,17.304,82.31,6,P-GPS,
0.00655080666302517,36.900322854073,6079.8332178486,161.417328,0,1.739255305,14000,2018-04-12 08:52:34,13,0,16.274,6079.8332178486,161.417328,0.223694,1.90905189836,0,0,-11.1847,47.5, -1.3, 0,0,0,1024,1024,1684,1024,47.2,0,99,4.095,4.098,4.103,4.096,0,0,17.304,82.31,6,P-GPS,
0.00655082863562002,36.9003228390337,6081.4736378486,163.057748,0,1.74633207688,14100,2018-04-12 08:52:34,13,0,16.274,6081.4736378486,163.057748,0.223694,1.90905189836,0,0,-10.961006,47.5, -1.4, 0.1,0,0,1024,1024,1684,1024,47.2,0,99,4.095,4.098,4.103,4.096,0,0,17.304,82.31,6,P-GPS,
0.00655082010583036,36.9003228228274,6083.1140578486,164.698168,0,1.74236554132,14200,2018-04-12 08:52:34,13,0,16.274,6083.1140578486,164.698168,0.223694,1.90905189836,0,0,-10.961006,47.5, -1.5, 0.1,0,0,1024,1024,1684,1024,47.2,0,99,4.095,4.098,4.103,4.096,0,0,17.304,82.31,6,P-GPS,
0.00655082589820566,36.9003228180987,6084.7544778486,166.338588,0,1.74419953088,14300,2018-04-12 08:52:34,13,0,16.274,6084.7544778486,166.338588,0.223694,1.90905189836,0,0,-10.961006,47.5, -1.6, 0,0,0,1024,1024,1684,1024,47.2,0,99,4.095,4.098,4.103,4.096,0,0,17.304,82.31,6,P-GPS,
0.00655080942568041,36.9003228191125,6086.3948978486,167.979008,0,1.73831042308,14400,2018-04-12 08:52:34,13,0,16.274,6086.3948978486,167.979008,0.223694,1.90905189836,0,0,-10.961006,47.5, -1.5, 0,0,0,1024,1024,1684,1024,47.2,0,99,4.095,4.098,4.103,4.096,0,0,17.304,82.31,6,P-GPS,
0.00655082278624918,36.9003228282423,6088.0353178486,169.619428,0,1.74362866472,14500,2018-04-12 08:52:34,13,0,16.274,6088.0353178486,169.619428,0.223694,1.90905189836,0,0,-10.737312,47.5, -1.2, 0.1,0,0,1024,1024,1684,1024,47.2,0,99,4.095,4.098,4.103,4.096,0,0,17.304,82.31,6,P-GPS,
0.00655083905114782,36.9003228398312,6089.6757378486,171.259848,0,1.7501312896,14600,2018-04-12 08:52:34,13,0,16.274,6089.6757378486,171.259848,0.223694,1.90905189836,0,0,-10.961006,47.5, -1.1, 0.1,0,0,1024,1024,1684,1072,47.2,0,99,4.095,4.098,4.103,4.096,0,0,17.304,82.31,6,P-GPS,
0.00655087404070976,36.9003228559829,6091.3161578486,172.900268,0,1.76365163124,14700,2018-04-12 08:52:34,13,0,16.274,6091.3161578486,172.900268,0.223694,1.90905189836,0,0,-10.961006,47.6, -1.1, 0,0,0,1024,1024,1684,1059,47.2,0,99,4.095,4.098,4.103,4.096,0,0,17.304,82.31,6,P-GPS,
0.00655090756385788,36.9003228438416,6092.9565778486,174.540688,0,1.77506239276,14800,2018-04-12 08:52:34,13,0,16.274,6092.9565778486,174.540688,0.223694,1.90905189836,0,0,-10.961006,47.8, -0.9, 0,0,0,1024,1024,1684,1024,47.3,0,99,4.095,4.098,4.103,4.096,0,0,17.304,82.31,6,P-GPS,
0.00655094681994309,36.9003228201252,6094.5969978486,176.181108,0,1.78794953228,14900,2018-04-12 08:52:35,13,0,16.274,6094.5969978486,176.181108,0.223694,1.90905189836,0,0,-10.961006,47.9, -0.9, 0,0,0,1024,1024,1684,1024,47.3,0,98,4.093,4.096,4.1,4.092,0,0,17.228,82.31,6,P-GPS,
0.00655095289892453,36.9003227769149,6096.2374178486,177.821528,0,1.78793640892,15000,2018-04-12 08:52:35,13,0,16.274,6096.2374178486,177.821528,0.223694,1.90905189836,0,0,-11.1847,47.9, -1.2, 0.1,0,0,1024,1024,1684,1024,47.3,0,98,4.093,4.096,4.1,4.092,0,0,17.228,82.31,6,P-GPS,
0.0065509564065929,36.9003227456831,6098.2059218486,179.790032,0,1.78769034592,15100,2018-04-12 08:52:35,13,0,16.274,6098.2059218486,179.790032,0.223694,1.90905189836,0,0,-11.1847,47.9, -1.5, 0,0,0,1024,1024,1684,1024,47.3,-2.3,98,4.093,4.096,4.1,4.092,0,0,17.228,82.31,6,P-GPS,
0.00655096274449694,36.9003227137844,6099.8463418486,181.430452,0,1.7885171176,15200,2018-04-12 08:52:35,13,0,16.274,6099.8463418486,181.430452,0.223694,1.90905189836,0,0,-10.961006,47.9, -1.6, 0,0,0,1024,1024,1684,1024,47.3,-7.9,98,4.093,4.096,4.1,4.092,0,0,17.228,82.31,6,P-GPS,
0.00655098793978246,36.9003226939189,6101.4867618486,183.070872,0,1.7967684302,15300,2018-04-12 08:52:35,13,0,16.274,6101.4867618486,183.070872,0.223694,1.90905189836,0,0,-10.961006,47.9, -1.6, 0,0,0,1024,1024,1684,1024,47.3,-13.6,98,4.093,4.096,4.1,4.092,0,0,17.228,82.31,6,P-GPS,
0.0065509971722457,36.9003226814061,6103.1271818486,184.711292,0,1.79958011008,15400,2018-04-12 08:52:35,13,0,16.274,6103.1271818486,184.711292,0.223694,1.90905189836,0,0,-10.961006,47.9, -1.5, 0.1,0,0,1024,1024,1684,1024,47.3,-13.6,98,4.093,4.096,4.1,4.092,0,0,17.228,82.31,6,P-GPS,
0.00655100275455172,36.9003226767641,6104.7676018486,186.351712,0,1.80140753796,15500,2018-04-12 08:52:35,13,0,16.274,6104.7676018486,186.351712,0.223694,1.90905189836,0,0,-10.961006,47.9, -1.7, 0,0,0,1024,1024,1684,1024,47.3,-19.2,98,4.093,4.096,4.1,4.092,0,0,17.228,82.31,6,P-GPS,
0.00655098946889137,36.900322675458,6106.4080218486,187.992132,0,1.79653549056,15600,2018-04-12 08:52:35,13,0,16.274,6106.4080218486,187.992132,0.223694,1.90905189836,0,0,-10.961006,47.9, -1.8, 0,0,0,1024,1024,1684,1024,47.3,-24.9,98,4.093,4.096,4.1,4.092,0,0,17.228,82.31,6,P-GPS,
0.00655098378887871,36.9003226771763,6108.0484418486,189.632552,0,1.79455058236,15700,2018-04-12 08:52:35,13,0,16.274,6108.0484418486,189.632552,0.223694,1.90905189836,0,0,-11.1847,47.9, -1.9, 0,0,0,1024,1024,1684,1024,47.3,-30.4,98,4.093,4.096,4.1,4.092,0,0,17.228,82.31,6,P-GPS,
0.00655096770473735,36.9003226607205,6109.6888618486,191.272972,0,1.78803811496,15800,2018-04-12 08:52:35,13,0,16.274,6109.6888618486,191.272972,0.223694,1.90905189836,0,0,-11.1847,47.8, -1.9, -0.1,0,0,1024,1024,1684,1024,47.3,-36.1,98,4.093,4.096,4.1,4.092,0,0,17.228,82.31,6,P-GPS,
0.00655096728622725,36.9003226386026,6111.3292818486,192.913392,0,1.78699808868,15900,2018-04-12 08:52:36,13,0,16.22,6111.3292818486,192.913392,0.223694,1.90905189836,0,0,-11.1847,47.8, -2.2, -0.1,0,0,1024,1024,1684,1024,47.3,-41.7,98,4.093,4.096,4.1,4.092,0,0,17.408,82.31,6,P-GPS,
0.00655094628092813,36.9003226235953,6112.9697018486,194.553812,0,1.77879598868,16000,2018-04-12 08:52:36,13,0,16.22,6112.9697018486,194.553812,0.223694,1.90905189836,0,0,-10.961006,47.8, -2.3, 0,0,0,1024,1024,1684,1024,47.4,-45.2,98,4.093,4.096,4.1,4.092,0,0,17.408,82.31,6,P-GPS,
0.00655094064162657,36.9003226318847,6114.6101218486,196.194232,0,1.77707026684,16100,2018-04-12 08:52:36,13,0,16.22,6114.6101218486,196.194232,0.223694,1.90905189836,0,0,-10.961006,47.8, -1.9, 0,0,0,1024,1024,1684,1024,47.4,-45.2,98,4.093,4.096,4.1,4.092,0,0,17.408,82.31,6,P-GPS,
0.00655093158096417,36.9003226247483,6116.2505418486,197.834652,0,1.7735072746,16200,2018-04-12 08:52:36,13,0,16.22,6116.2505418486,197.834652,0.223694,1.90905189836,0,0,-10.961006,47.8, -1.4, 0.1,0,0,1024,1024,1684,1024,47.4,-45.2,98,4.093,4.096,4.1,4.092,0,0,17.408,82.31,6,P-GPS,
0.00655094191262711,36.9003226157405,6117.8909618486,199.475072,0,1.77691278652,16300,2018-04-12 08:52:36,13,0,16.22,6117.8909618486,199.475072,0.223694,1.90905189836,0,0,-10.961006,47.8, -1.3, 0.1,0,0,1024,1024,1684,1024,47.4,-45.2,98,4.093,4.096,4.1,4.092,0,0,17.408,82.31,6,P-GPS,
0.00655093141649133,36.9003225966769,6119.5313818486,201.115492,0,1.77239506984,16400,2018-04-12 08:52:36,13,0,16.22,6119.5313818486,201.115492,0.223694,1.90905189836,0,0,-10.961006,47.8, -1.4, 0.2,0,0,1024,1024,1684,1024,47.4,-45.2,98,4.093,4.096,4.1,4.092,0,0,17.408,82.31,6,P-GPS,
0.00655092934348212,36.9003225888639,6121.1718018486,202.755912,0,1.7713583244,16500,2018-04-12 08:52:36,13,0,16.22,6121.1718018486,202.755912,0.223694,1.90905189836,0,0,-10.961006,47.8, -1.6, 0.1,0,0,1024,1024,1684,1024,47.4,-45.2,98,4.093,4.096,4.1,4.092,0,0,17.408,82.31,6,P-GPS,
0.00655090982576659,36.900322576441,6122.8122218486,204.396332,0,1.7638287966,16600,2018-04-12 08:52:36,13,0,16.22,6122.8122218486,204.396332,0.223694,1.90905189836,0,0,-10.961006,47.8, -1.8, 0.1,0,0,1024,1024,1684,1051,47.4,-45.2,98,4.093,4.096,4.1,4.092,0,0,17.408,82.31,6,P-GPS,
0.00655090744091036,36.900322580734,6124.4526418486,206.036752,0,1.76311685432,16700,2018-04-12 08:52:36,13,0,16.22,6124.4526418486,206.036752,0.223694,1.90905189836,0,0,-10.961006,47.9, -1.9, 0.1,0,0,1024,1024,1684,1053,47.4,-45.2,98,4.093,4.096,4.1,4.092,0,0,17.408,82.31,6,P-GPS,
0.00655088131822598,36.9003225683967,6126.0930618486,207.677172,0,1.75319559416,16800,2018-04-12 08:52:36,13,0,16.22,6126.0930618486,207.677172,0.223694,1.90905189836,0,0,-10.961006,47.9, -1.7, 0,0,0,1024,1024,1684,1037,47.4,-45.2,98,4.093,4.096,4.1,4.092,0,0,17.408,82.31,6,P-GPS,
0.006550857408597,36.9003225522279,6127.7334818486,209.317592,0,1.74396002956,16900,2018-04-12 08:52:37,13,0,16.194,6127.7334818486,209.317592,0.223694,1.90905189836,0,0,-10.961006,48, -1.5, 0.1,0,0,1024,1024,1684,1043,47.4,-45.2,98,4.087,4.09,4.094,4.086,0,0,17.408,82.31,6,P-GPS,
0.00655080932878799,36.9003225212874,6129.3739018486,210.958012,0,1.725475777,17000,2018-04-12 08:52:37,13,0,16.194,6129.3739018486,210.958012,0.223694,1.90905189836,0,0,-11.1847,48, -1.6, 0.1,0,0,1024,1024,1684,1056,47.4,-45.2,98,4.087,4.09,4.094,4.086,0,0,17.408,82.31,6,P-GPS,
0.00655079567835619,36.9003225239038,6131.0143218486,212.598432,0,1.72059716792,17100,2018-04-12 08:52:37,13,0,16.194,6131.0143218486,212.598432,0.223694,1.90905189836,0,0,-10.961006,48, -1.6, 0,0,0,1024,1024,1684,1048,47.4,-45.2,98,4.087,4.09,4.094,4.086,0,0,17.408,82.31,6,P-GPS,
0.00655077542621242,36.9003225232925,6132.6547418486,214.238852,0,1.71321855876,17200,2018-04-12 08:52:37,13,0,16.194,6132.6547418486,214.238852,0.223694,1.90905189836,0,0,-10.961006,48.1, -1.6, -0.2,0,0,1024,1024,1684,1048,47.4,-45.2,98,4.087,4.09,4.094,4.086,0,0,17.408,82.31,6,P-GPS,
0.00655076997906725,36.9003225283499,6134.2951618486,215.879272,0,1.7114009734,17300,2018-04-12 08:52:37,13,0,16.194,6134.2951618486,215.879272,0.223694,1.90905189836,0,0,-10.961006,48.2, -1.5, -0.1,0,0,1024,1024,1684,1043,47.4,-45.2,98,4.087,4.09,4.094,4.086,0,0,17.408,82.31,6,P-GPS,
0.00655073647138935,36.9003225192286,6135.9355818486,217.519692,0,1.69893050056,17400,2018-04-12 08:52:37,13,0,16.194,6135.9355818486,217.519692,0.223694,1.90905189836,0,0,-11.1847,48.3, -1.6, 0,0,0,1024,1024,1684,1024,47.5,-45.2,98,4.087,4.09,4.094,4.086,0,0,17.408,82.31,6,P-GPS,
0.0065507117450957,36.9003225198142,6137.5760018486,219.160112,0,1.68996396484,17500,2018-04-12 08:52:37,13,0,16.194,6137.5760018486,219.160112,0.223694,1.90905189836,0,0,-10.961006,48.3, -1.8, -0.1,0,0,1024,1024,1684,1041,47.5,-45.2,98,4.087,4.09,4.094,4.086,0,0,17.408,82.31,6,P-GPS,
0.00655068455415206,36.9003225134304,6139.2164218486,220.800532,0,1.67987538184,17600,2018-04-12 08:52:37,13,0,16.194,6139.2164218486,220.800532,0.223694,1.90905189836,0,0,-10.961006,48.3, -1.8, -0.1,0,0,1024,1024,1684,1050,47.5,-45.2,98,4.087,4.09,4.094,4.086,0,0,17.408,82.31,6,P-GPS,
0.00655068788920537,36.9003225184,6140.8568418486,222.440952,0,1.68124677296,17700,2018-04-12 08:52:37,13,0,16.194,6140.8568418486,222.440952,0.223694,1.90905189836,0,0,-11.1847,48.3, -1.5, 0,0,0,1024,1024,1684,1048,47.5,-45.2,98,4.087,4.09,4.094,4.086,0,0,17.408,82.31,6,P-GPS,
0.0065506627142754,36.900322489106,6142.8253458486,224.409456,0,1.67118115584,17800,2018-04-12 08:52:37,13,0,16.194,6142.8253458486,224.409456,0.223694,1.90905189836,0,0,-11.1847,48.3, -1.5, 0,0,0,1024,1024,1684,1041,47.5,-45.2,98,4.087,4.09,4.094,4.086,0,0,17.408,82.31,6,P-GPS,
0.00655064985852426,36.9003224609479,6144.4657658486,226.049876,0,1.66568902968,17900,2018-04-12 08:52:38,13,0,16.22,6144.4657658486,226.049876,0.223694,1.90905189836,0,0,-11.1847,48.4, -1.8, 0,0,0,1024,1024,1684,1030,47.5,-45.2,98,4.084,4.087,4.091,4.083,0,0,17.276,82.31,6,P-GPS,
0.00655063342101056,36.9003224279518,6146.1061858486,227.690296,0,1.6588255124,18000,2018-04-12 08:52:38,13,0,16.22,6146.1061858486,227.690296,0.223694,1.90905189836,0,0,-11.1847,48.4, -1.5, 0.3,0,0,1024,1024,1684,1032,47.6,-45.2,98,4.084,4.087,4.091,4.083,0,0,17.276,82.31,6,P-GPS,
0.00655063636442308,36.9003224239811,6147.7466058486,229.330716,0,1.65979664104,18100,2018-04-12 08:52:38,13,0,16.22,6147.7466058486,229.330716,0.223694,1.90905189836,0,0,-11.1847,48.4, -1.2, 0.2,0,0,1024,1024,1684,1024,47.6,-45.2,98,4.084,4.087,4.091,4.083,0,0,17.276,82.31,6,P-GPS,
0.00655061867707861,36.9003224133,6149.3870258486,230.971136,0,1.65309716576,18200,2018-04-12 08:52:38,13,0,16.22,6149.3870258486,230.971136,0.223694,1.90905189836,0,0,-10.961006,48.4, -1.3, 0,0,0,1024,1024,1684,1024,47.6,-45.2,98,4.084,4.087,4.091,4.083,0,0,17.276,82.31,6,P-GPS,
0.00655061537785107,36.9003224165096,6151.0274458486,232.611556,0,1.65197183764,18300,2018-04-12 08:52:38,13,0,16.22,6151.0274458486,232.611556,0.223694,1.90905189836,0,0,-10.961006,48.4, -1.3, 0,0,0,1024,1024,1650,1024,47.6,-45.2,98,4.084,4.087,4.091,4.083,0,0,17.276,82.31,6,P-GPS,
0.00655057705771405,36.9003224098517,6152.6678658486,234.251976,0,1.6378609448,18400,2018-04-12 08:52:38,13,0,16.22,6152.6678658486,234.251976,0.223694,1.90905189836,0,0,-10.961006,48.4, -1.3, 0,0,0,1024,1024,1053,1024,47.6,-45.2,98,4.084,4.087,4.091,4.083,0,0,17.276,82.31,6,P-GPS,
0.00655054609570122,36.9003224093121,6154.3082858486,235.892396,0,1.6265748552,18500,2018-04-12 08:52:38,13,0,16.22,6154.3082858486,235.892396,0.223694,1.90905189836,0,0,-10.961006,48.4, -1.4, -0.1,0,0,1024,1024,1024,1024,47.6,-45.2,98,4.084,4.087,4.091,4.083,0,0,17.276,82.31,6,P-GPS,
0.0065504778398782,36.9003223914925,6155.6206218486,237.204732,0,1.60130254468,18600,2018-04-12 08:52:38,13,0,16.22,6155.6206218486,237.204732,0.223694,1.90905189836,0,0,-10.289924,48.4, -2.8, -0.7,0,0,1024,1024,1024,1024,47.6,-45.2,98,4.084,4.087,4.091,4.083,0,0,17.276,82.31,6,P-GPS,
0.00655043232364716,36.9003223783609,6157.2610418486,238.845152,0,1.58442590372,18700,2018-04-12 08:52:38,13,0,16.22,6157.2610418486,238.845152,0.223694,1.90905189836,0,0,-9.171454,48.4, -4, -0.9,0,0,1024,1024,1024,1024,47.6,-45.2,98,4.084,4.087,4.091,4.083,0,0,17.276,82.31,6,P-GPS,
0.0065504003943386,36.9003223399349,6158.5733778486,240.157488,0,1.57199152012,18800,2018-04-12 08:52:38,13,0,16.22,6158.5733778486,240.157488,0.223694,1.90905189836,0,0,-7.82929,48.4, -3.1, -0.2,0,0,1024,1024,1024,1024,47.7,-45.2,98,4.084,4.087,4.091,4.083,0,0,17.276,82.31,6,P-GPS,
0.0065504061166908,36.9003223092502,6159.5576298486,241.14174,0,1.5735236724,18900,2018-04-12 08:52:39,13,0,16.274,6159.5576298486,241.14174,0.223694,1.90905189836,0,0,-6.263432,48.4, -2.1, 0,0,0,1024,1024,1024,1024,47.7,-45.2,98,4.081,4.085,4.087,4.079,0,0,17.168,82.31,6,P-GPS,
0.00655040094841667,36.9003222748496,6160.2137978486,241.797908,0,1.571112255,19000,2018-04-12 08:52:39,15,0,16.274,6160.2137978486,241.797908,0.223694,1.90905189836,0,0,-4.697574,48.5, -2.3, 0,0,0,1024,1024,1024,1024,47.7,-45.2,98,4.081,4.085,4.087,4.079,0,0,17.168,82.31,6,P-GPS,
0.00655040081447715,36.9003222498796,6160.5418818486,242.125992,0,1.57074480092,19100,2018-04-12 08:52:39,15,0,16.274,6160.5418818486,242.125992,0.223694,1.90905189836,0,0,-2.908022,48.5, -2, 0.4,0,0,1024,1024,1024,1024,47.7,-45.2,98,4.081,4.085,4.087,4.079,0,0,17.168,82.31,6,P-GPS,
0.00655036397948105,36.9003222232738,6160.8699658486,242.454076,0,1.55702432804,19200,2018-04-12 08:52:39,15,0,16.274,6160.8699658486,242.454076,0.223694,1.90905189836,0,0,-1.789552,48.4, -1, 0.8,0,0,1024,1024,1024,1024,47.7,-45.2,98,4.081,4.085,4.087,4.079,0,0,17.168,82.31,6,P-GPS,
0.00655032751047774,36.9003222107321,6161.1980498486,242.78216,0,1.54360897328,19300,2018-04-12 08:52:39,15,0,16.274,6161.1980498486,242.78216,0.223694,1.90905189836,0,0,-1.11847,48.4, -0.8, 0.9,0,0,1024,1024,1024,1024,47.7,-45.2,98,4.081,4.085,4.087,4.079,0,0,17.168,82.31,6,P-GPS,
0.00655026387902856,36.9003222207001,6161.1980498486,242.78216,0,1.52049217464,19400,2018-04-12 08:52:39,15,0,16.274,6161.1980498486,242.78216,0.223694,1.90905189836,0,0,-0.671082,48.4, -0.9, 0.9,0,0,1024,1024,1024,1024,47.7,-45.2,98,4.081,4.085,4.087,4.079,0,0,17.168,82.31,6,P-GPS,
0.00655020907781695,36.9003222413664,6161.1980498486,242.78216,0,1.50072511364,19500,2018-04-12 08:52:39,15,0,16.274,6161.1980498486,242.78216,0.223694,1.90905189836,0,0,-0.223694,48.3, -1, 0.9,0,0,1024,1024,1024,1024,47.7,-45.2,98,4.081,4.085,4.087,4.079,0,0,17.168,82.31,6,P-GPS,
0.00655014336480924,36.900322264055,6161.1980498486,242.78216,0,1.4770505722,19600,2018-04-12 08:52:39,15,0,16.274,6161.1980498486,242.78216,0.223694,1.90905189836,0,0,0,48.3, -1.2, 1,0,0,1024,1024,1024,1024,47.8,-45.2,98,4.081,4.085,4.087,4.079,0,0,17.168,82.31,6,P-GPS,
0.00655008559657267,36.9003222794134,6161.1980498486,242.78216,0,1.45621395736,19700,2018-04-12 08:52:39,15,0,16.274,6161.1980498486,242.78216,0.223694,1.90905189836,0,0,0,48.3, -1.4, 1.2,0,0,1024,1024,1024,1024,47.8,-45.2,98,4.081,4.085,4.087,4.079,0,0,17.168,82.31,6,P-GPS,
0.00654998777757022,36.9003223018783,6161.1980498486,242.78216,0,1.42093836568,19800,2018-04-12 08:52:39,15,0,16.274,6161.1980498486,242.78216,0.223694,1.90905189836,0,0,0,48.3, -1.6, 1.2,0,0,1024,1024,1024,1024,47.8,-45.2,98,4.081,4.085,4.087,4.079,0,0,17.168,82.31,6,P-GPS,
0.00654987676206473,36.9003223312279,6161.1980498486,242.78216,0,1.38106303632,19900,2018-04-12 08:52:39,15,0,16.22,6161.1980498486,242.78216,0.223694,1.90905189836,0,0,0,48.3, -1.7, 1.1,0,0,1024,1024,1024,1024,47.8,-45.2,98,4.081,4.085,4.087,4.079,0,0,17.168,82.31,6,P-GPS,
0.00654971359197624,36.90032234376,6161.1980498486,242.78216,0,1.32192261448,20000,2018-04-12 08:52:39,15,0,16.22,6161.1980498486,242.78216,0.223694,1.90905189836,0,0,0,48.3, -1.7, 0.9,0,0,1024,1024,1024,1024,47.8,-45.2,98,4.081,4.085,4.087,4.079,0,0,17.168,82.31,6,P-GPS,
0.00654955102522625,36.9003223542891,6161.1980498486,242.78216,0,1.26300200892,20100,2018-04-12 08:52:40,15,0,16.22,6161.1980498486,242.78216,0.223694,1.90905189836,0,0,0,48.3, -1.9, 0.6,0,0,1024,1024,1024,1024,47.8,-45.2,98,4.081,4.085,4.087,4.079,0,0,17.168,82.31,6,P-GPS,
0.00654934994658995,36.9003223553425,6161.1980498486,242.78216,0,1.18985896196,20200,2018-04-12 08:52:40,15,0,16.22,6161.1980498486,242.78216,0.223694,1.90905189836,0,0,0,48.3, -1.9, 0.6,0,0,1024,1024,1024,1024,47.8,-45.2,98,4.081,4.085,4.087,4.079,0,0,17.168,82.31,6,P-GPS,
0.00654917726109608,36.9003223735861,6161.1980498486,242.78216,0,1.12758861876,20300,2018-04-12 08:52:40,15,0,16.22,6161.1980498486,242.78216,0.223694,1.90905189836,0,0,0,48.3, -1.9, 0.6,0,0,1024,1024,1024,1024,47.8,-45.2,98,4.081,4.085,4.087,4.079,0,0,17.168,82.31,6,P-GPS,
0.00654898305693612,36.9003223557204,6161.1980498486,242.78216,0,1.05643704168,20400,2018-04-12 08:52:40,15,0,16.22,6161.1980498486,242.78216,0.223694,1.90905189836,0,0,0,48.3, -2, 0.6,0,0,1024,1024,1024,1024,47.8,-45.2,98,4.081,4.085,4.087,4.079,0,0,17.168,82.31,6,P-GPS,
0.00654861149079823,36.9003223232468,6161.1980498486,242.78216,0,0.92035436016,20600,2018-04-12 08:52:40,15,0,16.22,6161.1980498486,242.78216,0.223694,1.90905189836,0,0,0,48.4, -2.1, 0.3,0,0,1024,1024,1024,1024,47.8,-45.2,98,4.081,4.085,4.087,4.079,0,0,17.168,82.31,6,P-GPS,
0.00654842751774479,36.9003223262573,6161.1980498486,242.78216,0,0.85358926616,20700,2018-04-12 08:52:40,15,0,16.22,6161.1980498486,242.78216,0.223694,1.90905189836,0,0,0,48.4, -2.1, 0.3,0,0,1024,1024,1024,1024,47.8,-45.2,98,4.081,4.085,4.087,4.079,0,0,17.168,82.31,6,P-GPS,
0.00654823481785997,36.9003223379276,6161.1980498486,242.78216,0,0.78404530068,20800,2018-04-12 08:52:40,15,0,16.22,6161.1980498486,242.78216,0.223694,1.90905189836,0,0,0,48.4, -2.1, 0,0,0,1024,1024,1024,1024,47.8,-45.2,98,4.081,4.085,4.087,4.079,0,0,17.168,82.31,6,P-GPS,
0.0065480775928134,36.9003223747027,6161.1980498486,242.78216,0,0.72867784484,20900,2018-04-12 08:52:41,15,0,16.461,6161.1980498486,242.78216,0.223694,1.90905189836,0,0,0,48.4, -2.2, 0,0,0,1024,1024,1024,1024,47.8,-45.2,98,4.161,4.16,4.162,4.159,0,0,7.486,82.31,6,P-GPS,
0.00654789638689343,36.9003223931904,6161.1980498486,242.78216,0,0.66421261968,21000,2018-04-12 08:52:41,15,0,16.461,6161.1980498486,242.78216,0.223694,1.90905189836,0,0,0,48.4, -2.2, -0.2,0,0,1024,1024,1024,1024,47.9,-45.2,98,4.161,4.16,4.162,4.159,0,0,7.486,82.31,6,P-GPS,
0.00654773977699158,36.900322414589,6161.1980498486,242.78216,0,0.60919949456,21100,2018-04-12 08:52:41,15,0,16.461,6161.1980498486,242.78216,0.223694,1.90905189836,0,0,0,48.4, -2.2, -0.2,0,0,1024,1024,1024,1024,47.9,-45.2,98,4.161,4.16,4.162,4.159,0,0,7.486,82.31,6,P-GPS,
0.00654755606041807,36.9003224346772,6161.1980498486,242.78216,0,0.5449639282,21200,2018-04-12 08:52:41,15,0,16.461,6161.1980498486,242.78216,0.223694,1.90905189836,0,0,0,48.4, -2.3, -0.4,0,0,1024,1024,1054,1024,47.9,-45.2,98,4.161,4.16,4.162,4.159,0,0,7.486,82.31,6,P-GPS,
0.00654740430124377,36.9003224670416,6161.1980498486,242.78216,0,0.4940288872,21300,2018-04-12 08:52:41,15,0,16.461,6161.1980498486,242.78216,0.223694,1.90905189836,0,0,0,48.4, -2.4, -0.5,0,0,1024,1024,1104,1024,47.9,-45.2,98,4.161,4.16,4.162,4.159,0,0,7.486,82.31,6,P-GPS,
0.00654725026876166,36.9003224762913,6161.5261338486,243.110244,0,0.44106300624,21400,2018-04-12 08:52:41,15,0,16.461,6161.5261338486,243.110244,0.223694,1.90905189836,0,0,0,48.3, -2.4, -0.4,0,0,1024,1024,1131,1024,47.9,-45.2,98,4.161,4.16,4.162,4.159,0,0,7.486,82.31,6,P-GPS,
0.00654714008070928,36.9003224876104,6161.5261338486,243.110244,0,0.40430775572,21500,2018-04-12 08:52:41,15,0,16.461,6161.5261338486,243.110244,0.223694,1.90905189836,0,0,-0.223694,48.3, -2.1, -0.3,0,0,1024,1024,1145,1024,47.9,-45.2,98,4.161,4.16,4.162,4.159,0,0,7.486,82.31,6,P-GPS,
0.00654701325525169,36.9003224997282,6161.5261338486,243.110244,0,0.36283465728,21600,2018-04-12 08:52:41,15,0,16.461,6161.5261338486,243.110244,0.223694,1.90905189836,0,0,-0.223694,48.3, -2.1, -0.4,0,0,1024,1024,1165,1024,47.9,-45.2,98,4.161,4.16,4.162,4.159,0,0,7.486,82.31,6,P-GPS,
0.0065469158032598,36.9003225226984,6161.5261338486,243.110244,0,0.33408137552,21700,2018-04-12 08:52:41,15,0,16.461,6161.5261338486,243.110244,0.223694,1.90905189836,0,0,-0.447388,48.3, -2.3, -0.4,0,0,1024,1024,1176,1024,47.9,-45.2,98,4.161,4.16,4.162,4.159,0,0,7.486,82.31,6,P-GPS,
0.00654679370904269,36.9003225283863,6161.5261338486,243.110244,0,0.296034130208,21800,2018-04-12 08:52:41,15,0,16.461,6161.5261338486,243.110244,0.223694,1.90905189836,0,0,-0.447388,48.3, -2.4, -0.4,0,0,1024,1024,1174,1024,47.9,-45.2,98,4.161,4.16,4.162,4.159,0,0,7.486,82.31,6,P-GPS,
