latitude,longitude,altitude(feet),ascent(feet),speed(mph),distance(feet),time(millisecond),datetime(utc),satellites,gpslevel,voltage(v),max_altitude(feet),max_ascent(feet),max_speed(mph),max_distance(feet), xSpeed(mph), ySpeed(mph), zSpeed(mph), compass_heading(degrees), pitch(degrees), roll(degrees),isPhoto,isVideo,rc_elevator,rc_aileron,rc_throttle,rc_rudder,gimbal_heading(degrees),gimbal_pitch(degrees),battery_percent,voltageCell1,voltageCell2,voltageCell3,voltageCell4,voltageCell5,voltageCell6,current(A),battery_temperature(f),flycStateRaw,flycState,message
0.339537164814267,36.9018892038465,5510.3149574981,0,0,0,0,2018-04-07 06:00:51,13,0,0,5510.3149574981,0,0,0,0,0,0,118.6, 0.2, 2.9,0,0,364,364,364,1684,123.2,0,99,4.261,4.276,4.276,4.264,0,0,0,84.11,41,Motors_Started,
0.339537160005472,36.9018891700542,5510.3149574981,0,0,0.0124531171964,100,2018-04-07 06:00:51,13,0,0,5510.3149574981,0,0,0.0124531171964,0,0,0,118.6, 0.2, 2.9,0,0,364,364,364,1684,123.2,0,99,4.261,4.276,4.276,4.264,0,0,0,84.11,41,Motors_Started,
0.3395371573564,36.9018891296722,5510.3149574981,0,0,0.0271984260672,200,2018-04-07 06:00:51,13,0,0,5510.3149574981,0,0,0.0271984260672,0,0,0,118.6, 0.2, 2.9,0,0,364,364,364,1684,123.1,0,99,4.261,4.276,4.276,4.264,0,0,0,84.11,41,Motors_Started,
0.339537152919705,36.9018890886642,5510.3149574981,0,0,0.042247048596,300,2018-04-07 06:00:52,13,0,0,5510.3149574981,0,0,0.042247048596,0,0,0,118.6, 0.2, 2.9,0,0,364,364,364,1684,123.1,0,99,4.261,4.276,4.276,4.264,0,0,0,84.11,41,Motors_Started,
0.339537150847917,36.9018890653527,5510.3149574981,0,0,0.050784778528,400,2018-04-07 06:00:52,13,0,0,5510.3149574981,0,0,0.050784778528,0,0,0,118.6, 0.2, 2.9,0,0,364,364,364,1684,123.1,0,99,4.261,4.276,4.276,4.264,0,0,0,84.11,41,Motors_Started,
0.339537147578408,36.9018890481898,5510.3149574981,0,0,0.05713746902,500,2018-04-07 06:00:52,13,0,0,5510.3149574981,0,0,0.05713746902,0,0,0,118.6, 0.2, 2.9,0,0,510,473,606,1510,123.1,0,99,4.261,4.276,4.276,4.264,0,0,0,84.11,41,Motors_Started,Setting new Return-To-Home altitude to 30m (98 ft). Setting new Maximum Flight Altitude to 150m (492 ft)
0.339537141376479,36.9018890187416,5510.3149574981,0,0,0.068073492992,700,2018-04-07 06:00:52,13,0,0,5510.3149574981,0,0,0.068073492992,0,0,0,118.6, 0.2, 2.9,0,0,916,868,928,1245,123.1,0,99,4.261,4.276,4.276,4.264,0,0,0,84.11,41,Motors_Started,
0.339537138117149,36.9018889868371,5510.3149574981,0,0,0.079771328012,800,2018-04-07 06:00:52,13,0,0,5510.3149574981,0,0,0.079771328012,0,0,0,118.6, 0.2, 2.9,0,0,1024,1024,1024,1024,122.7,0,99,4.261,4.276,4.276,4.264,0,0,0,84.11,41,Motors_Started,
0.339537150749803,36.9018889596722,5510.3149574981,0,0,0.089232942488,900,2018-04-07 06:00:52,13,0,0,5510.3149574981,0,0,0.089232942488,0,0,0,118.6, 0.3, 2.9,0,0,1024,1024,1024,1024,121.5,0,99,4.261,4.276,4.276,4.264,0,0,0,84.11,41,Motors_Started,
0.339537178011991,36.901888943635,5510.3149574981,0,0,0.095058401992,1000,2018-04-07 06:00:52,13,0,0,5510.3149574981,0,0,0.095058401992,0,0,0,118.6, 0.3, 2.9,0,0,1024,1024,1024,1024,120.5,0,99,4.261,4.276,4.276,4.264,0,0,0,84.11,41,Motors_Started,
0.339537208691469,36.9018889354376,5510.3149574981,0,0,0.099227037296,1100,2018-04-07 06:00:52,13,0,0,5510.3149574981,0,0,0.099227037296,0,0,0,118.5, 0.3, 2.9,0,0,1024,1024,1024,1024,120,0,99,4.261,4.276,4.276,4.264,0,0,0,84.11,41,Motors_Started,
0.339537224297255,36.9018889308933,5510.3149574981,0,0,0.101922247356,1200,2018-04-07 06:00:52,13,0,0,5510.3149574981,0,0,0.101922247356,0,0,0,118.6, 0.2, 2.9,0,0,1024,1024,1024,1024,119.7,0,99,4.261,4.276,4.276,4.264,0,0,0,84.11,41,Motors_Started,
0.339537225098856,36.9018889331357,5510.3149574981,0,0,0.101186354944,1300,2018-04-07 06:00:52,13,0,0,5510.3149574981,0,0,0.101922247356,0,0,0,118.6, 0.3, 2.9,0,0,1024,1024,1024,1024,119.5,0,99,4.261,4.276,4.276,4.264,0,0,0,84.11,41,Motors_Started,
0.339537202719558,36.9018889341062,5510.3149574981,0,0,0.09937992444,1400,2018-04-07 06:00:53,13,0,0,5510.3149574981,0,0,0.101922247356,0,0,0,118.5, 0.3, 2.9,0,0,1024,1024,1024,1024,119.4,0,99,4.261,4.276,4.276,4.264,0,0,0,84.11,41,Motors_Started,
0.339537195414358,36.9018889224177,5510.3149574981,0,0,0.10328248362,1500,2018-04-07 06:00:53,13,0,0,5510.3149574981,0,0,0.10328248362,0,0,0,118.5, 0.3, 2.9,0,0,1024,1024,1024,1024,119.3,0,99,4.261,4.276,4.276,4.264,0,0,0,84.11,10,Assisted_Takeoff,
0.339537206515868,36.9018888973816,5510.3149574981,0,0,0.112841867128,1600,2018-04-07 06:00:53,13,0,16.949,5510.3149574981,0,0,0.112841867128,0,0,0,118.5, 0.2, 2.9,0,0,1024,1024,1024,1024,119.2,0,99,4.261,4.276,4.276,4.264,0,0,3.102,84.11,10,Assisted_Takeoff,
0.339537202655234,36.9018888737184,5510.3149574981,0,0,0.12123359968,1700,2018-04-07 06:00:53,13,0,16.949,5510.3149574981,0,0,0.12123359968,0,0,0,118.5, 0.3, 2.9,0,0,1024,1024,1024,1024,119.1,0,99,4.261,4.276,4.276,4.264,0,0,3.102,84.11,10,Assisted_Takeoff,
0.339537178826213,36.9018888589346,5510.3149574981,0,0,0.125942589332,1800,2018-04-07 06:00:53,13,0,16.949,5510.3149574981,0,0,0.125942589332,0,0,0,118.5, 0.2, 2.9,0,0,1024,1024,1024,1024,119.1,0,99,4.261,4.276,4.276,4.264,0,0,3.102,84.11,10,Assisted_Takeoff,
0.339537169470802,36.9018888498607,5510.3149574981,0,0,0.129160437204,1900,2018-04-07 06:00:53,13,0,16.949,5510.3149574981,0,0,0.129160437204,0,0,0,118.5, 0.3, 2.9,0,0,1024,1024,1024,1024,119.1,0,99,4.261,4.276,4.276,4.264,0,0,3.102,84.11,10,Assisted_Takeoff,
0.339537181429281,36.9018888436381,5510.3149574981,0,0,0.131559387412,2000,2018-04-07 06:00:53,13,0,16.949,5510.3149574981,0,0,0.131559387412,0,0,0,118.5, 0.2, 2.9,0,0,1024,1024,1024,1024,119.1,0,99,4.261,4.276,4.276,4.264,0,0,3.102,84.11,10,Assisted_Takeoff,
0.339537196862045,36.9018888261421,5510.3149574981,0,0,0.138297904688,2100,2018-04-07 06:00:53,13,0,16.949,5510.3149574981,0,0,0.138297904688,0,0,0,118.5, 0.2, 2.9,0,0,1024,1024,1024,1024,119,0,99,4.261,4.276,4.276,4.264,0,0,3.102,84.11,10,Assisted_Takeoff,
0.339537203867611,36.901888796359,5510.3149574981,0,0,0.149350070396,2200,2018-04-07 06:00:53,13,0,16.949,5510.3149574981,0,0,0.149350070396,0,0,0,118.5, 0.2, 2.9,0,0,1024,1024,1024,1024,119,0,99,4.261,4.276,4.276,4.264,0,0,3.102,84.11,10,Assisted_Takeoff,
0.3395372134966,36.9018887697165,5510.3149574981,0,0,0.159382222948,2300,2018-04-07 06:00:54,13,0,16.949,5510.3149574981,0,0,0.159382222948,0,0,0,118.5, 0.2, 2.9,0,0,1024,1024,1024,1024,119,0,99,4.261,4.276,4.276,4.264,0,0,3.102,84.11,10,Assisted_Takeoff,
0.339537218048915,36.901888754478,5510.3149574981,0,0,0.165095477724,2400,2018-04-07 06:00:54,13,0,16.949,5510.3149574981,0,0,0.165095477724,0,0,0,118.5, 0.2, 2.9,0,0,1024,1024,1024,1024,119,0,99,4.261,4.276,4.276,4.264,0,0,3.102,84.11,10,Assisted_Takeoff,
0.339537223779002,36.9018887450421,5510.3149574981,0,0,0.168768378104,2500,2018-04-07 06:00:54,13,0,16.949,5510.3149574981,0,0,0.168768378104,0,0,0,118.5, 0.2, 2.9,0,0,1024,1024,1024,1024,118.9,0,99,4.261,4.276,4.276,4.264,0,0,3.102,84.11,10,Assisted_Takeoff,
0.339537225800716,36.9018887399116,5510.3149574981,0,0,0.170719493652,2600,2018-04-07 06:00:54,13,0,16.842,5510.3149574981,0,0,0.170719493652,0,0,0,118.5, 0.2, 2.9,0,0,1024,1024,1024,1024,118.9,0,99,4.261,4.276,4.276,4.264,0,0,3.102,84.11,10,Assisted_Takeoff,
0.339537228294678,36.9018887417657,5510.3149574981,0,0,0.17017060912,2700,2018-04-07 06:00:54,13,0,16.842,5510.3149574981,0,0,0.170719493652,0,0,0,118.5, 0.2, 2.9,0,0,1024,1024,1024,1024,118.9,0,99,4.261,4.276,4.276,4.264,0,0,3.102,84.11,10,Assisted_Takeoff,
0.339537228353302,36.901888742823,5510.3149574981,0,0,0.169791344016,2800,2018-04-07 06:00:54,13,0,16.842,5510.3149574981,0,0,0.170719493652,0,0,0,118.5, 0.2, 2.9,0,0,1024,1024,1024,1024,118.9,0,99,4.261,4.276,4.276,4.264,0,0,3.102,84.11,10,Assisted_Takeoff,
0.339537228822701,36.9018887511676,5510.3149574981,0,0,0.16679954602,2900,2018-04-07 06:00:54,13,0,16.842,5510.3149574981,0,0,0.170719493652,0,0,0,118.5, 0.2, 2.9,0,0,1024,1024,1024,1024,118.9,0,99,4.261,4.276,4.276,4.264,0,0,3.102,84.11,10,Assisted_Takeoff,
0.339537228161959,36.9018887560999,5510.3149574981,0,0,0.164984257248,3000,2018-04-07 06:00:54,13,0,16.842,5510.3149574981,0,0,0.170719493652,0,0,0,118.5, 0.2, 2.9,0,0,1024,1024,1024,1024,118.9,0,99,4.261,4.276,4.276,4.264,0,0,3.102,84.11,10,Assisted_Takeoff,
0.339537227980388,36.901888765283,5510.3149574981,0,0,0.161658141656,3100,2018-04-07 06:00:54,13,0,16.842,5510.3149574981,0,0,0.170719493652,0,0,0,118.5, 0.2, 2.9,0,0,1024,1024,1024,1024,118.9,0,99,4.261,4.276,4.276,4.264,0,0,3.102,84.11,10,Assisted_Takeoff,
0.339537227797188,36.9018887721442,5510.3149574981,0,0,0.159170936852,3200,2018-04-07 06:00:54,13,0,16.842,5510.3149574981,0,0,0.170719493652,0,0,0,118.5, 0.2, 2.9,0,0,1024,1024,1024,1024,118.9,0,99,4.261,4.276,4.276,4.264,0,0,3.102,84.11,10,Assisted_Takeoff,
0.339537228494162,36.9018887825037,5510.3149574981,0,0,0.155469821248,3300,2018-04-07 06:00:55,13,0,16.842,5510.3149574981,0,0,0.170719493652,0,0,0,118.5, 0.2, 2.9,0,0,1024,1024,1024,1024,118.9,0,99,4.261,4.276,4.276,4.264,0,0,3.102,84.11,10,Assisted_Takeoff,
0.339537246742913,36.9018887969337,5510.3149574981,0,0,0.15143865314,3500,2018-04-07 06:00:55,13,0,16.842,5510.3149574981,0,0,0.170719493652,0,0,0,118.5, 0.2, 2.9,0,0,1024,1024,1024,1024,118.9,0,99,4.261,4.276,4.276,4.264,0,0,3.102,84.11,10,Assisted_Takeoff,
0.33953727589206,36.9018888027707,5510.3149574981,0,0,0.151837931368,3600,2018-04-07 06:00:55,13,0,17.081,5510.3149574981,0,0,0.170719493652,0,0,0,118.5, 0.2, 2.9,0,0,1024,1024,1026,1024,118.9,0,99,4.287,4.279,4.271,4.265,0,0,1.612,84.11,10,Assisted_Takeoff,
0.339537290281806,36.9018887916239,5510.3149574981,0,0,0.157208994532,3700,2018-04-07 06:00:55,13,0,17.081,5510.3149574981,0,0,0.170719493652,0,0,0,118.5, 0.2, 2.9,0,0,1024,1024,1034,1024,118.8,0,99,4.287,4.279,4.271,4.265,0,0,1.612,84.11,10,Assisted_Takeoff,
0.339537278008223,36.9018887670852,5510.3149574981,0,0,0.164614178496,3800,2018-04-07 06:00:55,13,0,17.081,5510.3149574981,0,0,0.170719493652,0,0,0,118.5, 0.2, 2.9,0,0,1024,1024,1031,1024,118.8,0,99,4.287,4.279,4.271,4.265,0,0,1.612,84.11,10,Assisted_Takeoff,
0.339537263442606,36.9018887392117,5510.3149574981,0,0,0.173295937304,3900,2018-04-07 06:00:55,13,0,17.081,5510.3149574981,0,0,0.173295937304,0,0,0,118.5, 0.2, 2.9,0,0,1024,1024,1073,1024,118.8,0,99,4.287,4.279,4.271,4.265,0,0,1.612,84.11,10,Assisted_Takeoff,
0.339537253901959,36.901888724817,5510.3149574981,0,0,0.17776739414,4000,2018-04-07 06:00:55,13,0,17.081,5510.3149574981,0,0,0.17776739414,0,0,0,118.5, 0.2, 2.9,0,0,1024,1024,1065,1024,118.8,0,99,4.287,4.279,4.271,4.265,0,0,1.612,84.11,10,Assisted_Takeoff,
0.339537242611957,36.9018887108656,5510.3149574981,0,0,0.18208662,4100,2018-04-07 06:00:55,13,0,17.081,5510.3149574981,0,0,0.18208662,0,0,0,118.5, 0.2, 2.9,0,0,1024,1024,1066,1024,118.8,0,99,4.287,4.279,4.271,4.265,0,0,1.612,84.11,10,Assisted_Takeoff,
0.339537235329963,36.9018887045348,5510.3149574981,0,0,0.18397802426,4200,2018-04-07 06:00:55,13,0,17.081,5510.3149574981,0,0,0.18397802426,0,0,0,118.5, 0.2, 2.8,0,0,1024,1024,1067,1024,118.8,0,99,4.287,4.279,4.271,4.265,0,0,1.612,84.11,10,Assisted_Takeoff,
0.33953722899613,36.9018887002692,5510.3149574981,0,0,0.185212932436,4300,2018-04-07 06:00:56,13,0,17.081,5510.3149574981,0,0,0.185212932436,0,0,0,118.5, 0.2, 2.8,0,0,1024,1024,1051,1024,118.8,0,99,4.287,4.279,4.271,4.265,0,0,1.612,84.11,10,Assisted_Takeoff,
0.339537226323853,36.9018886990039,5510.3149574981,0,0,0.185550530872,4400,2018-04-07 06:00:56,13,0,17.081,5510.3149574981,0,0,0.185550530872,0,0,0,118.5, 0.2, 2.8,0,0,1024,1024,1038,1024,118.8,0,99,4.287,4.279,4.271,4.265,0,0,1.612,84.11,10,Assisted_Takeoff,
0.339537243068736,36.9018886826407,5510.3149574981,0,0,0.192289704316,4500,2018-04-07 06:00:56,13,0,17.081,5510.3149574981,0,0,0.192289704316,0,0,0,118.5, 0.2, 2.8,0,0,1024,1024,1042,1024,118.8,0,99,4.287,4.279,4.271,4.265,0,0,1.612,84.11,10,Assisted_Takeoff,
0.339537272579805,36.9018886556876,5510.3149574981,0,0,0.203820216496,4600,2018-04-07 06:00:56,13,0,17.081,5510.3149574981,0,0,0.203820216496,0,0,0,118.5, 0.2, 2.8,0,0,1024,1024,1053,1024,118.8,0,99,4.287,4.278,4.271,4.266,0,0,1.89,84.11,10,Assisted_Takeoff,
0.339537305773193,36.9018886282752,5510.3149574981,0,0,0.2161991539,4700,2018-04-07 06:00:56,13,0,17.081,5510.3149574981,0,0,0.2161991539,0,0,0,118.5, 0.2, 2.8,0,0,1024,1024,1061,1024,118.8,0,99,4.287,4.278,4.271,4.266,0,0,1.89,84.11,10,Assisted_Takeoff,
0.339537327418064,36.9018886142003,5510.3149574981,0,0,0.223158471708,4800,2018-04-07 06:00:56,13,0,17.081,5510.3149574981,0,0,0.223158471708,0,0,0,118.5, 0.2, 2.8,0,0,1024,1024,1057,1024,118.8,0,99,4.287,4.278,4.271,4.266,0,0,1.89,84.11,10,Assisted_Takeoff,
0.339537347551738,36.9018886028319,5510.3149574981,0,0,0.229187671376,4900,2018-04-07 06:00:56,13,0,17.081,5510.3149574981,0,0,0.229187671376,0,0,0,118.5, 0.2, 2.8,0,0,1024,1024,1061,1024,118.8,0,99,4.287,4.278,4.271,4.266,0,0,1.89,84.11,10,Assisted_Takeoff,
0.339537361585669,36.9018885978545,5510.3149574981,0,0,0.2324557161,5000,2018-04-07 06:00:56,13,0,17.081,5510.3149574981,0,0,0.2324557161,0,0,0,118.5, 0.2, 2.8,0,0,1024,1024,1067,1024,118.8,0,99,4.287,4.278,4.271,4.266,0,0,1.89,84.11,10,Assisted_Takeoff,
0.339537372563824,36.9018885954989,5510.3149574981,0,0,0.234537080996,5100,2018-04-07 06:00:56,13,0,17.081,5510.3149574981,0,0,0.234537080996,0,0,0,118.5, 0.2, 2.8,0,0,1024,1024,1066,1024,118.8,0,99,4.287,4.278,4.271,4.266,0,0,1.89,84.11,10,Assisted_Takeoff,
0.339537380333537,36.9018885965185,5510.3149574981,0,0,0.235117789676,5200,2018-04-07 06:00:56,13,0,17.081,5510.3149574981,0,0,0.235117789676,0,0,0,118.4, 0.2, 2.8,0,0,1024,1024,1055,1024,118.8,0,99,4.287,4.278,4.271,4.266,0,0,1.89,84.11,10,Assisted_Takeoff,
0.339537384493804,36.9018885835003,5510.3149574981,0,0,0.24010171372,5300,2018-04-07 06:00:57,13,0,17.081,5510.3149574981,0,0,0.24010171372,0,0,0,118.5, 0.2, 2.8,0,0,1024,1024,1053,1024,118.8,0,99,4.287,4.278,4.271,4.266,0,0,1.89,84.11,10,Assisted_Takeoff,
0.339537387799139,36.9018885575879,5510.3149574981,0,0,0.24942422058,5400,2018-04-07 06:00:57,13,0,17.081,5510.3149574981,0,0,0.24942422058,0,0,0,118.5, 0.2, 2.8,0,0,1024,1024,1085,1024,118.8,0,99,4.287,4.278,4.271,4.266,0,0,1.89,84.11,10,Assisted_Takeoff,
0.339537404787474,36.9018885300472,5510.3149574981,0,0,0.260957029348,5500,2018-04-07 06:00:57,13,0,17.081,5510.3149574981,0,0,0.260957029348,0,0,0,118.5, 0.2, 2.8,0,0,1024,1024,1085,1024,118.8,0,99,4.287,4.278,4.271,4.266,0,0,1.89,84.11,10,Assisted_Takeoff,
0.339537435070425,36.9018885174534,5510.3149574981,0,0,0.269138460056,5600,2018-04-07 06:00:57,13,0,17.055,5510.3149574981,0,0,0.269138460056,0,0,0,118.4, 0.2, 2.8,0,0,1024,1024,1080,1024,118.8,0,99,4.287,4.278,4.271,4.266,0,0,2.116,84.11,10,Assisted_Takeoff,
0.339537462344827,36.9018885074195,5510.3149574981,0,0,0.2763041427,5700,2018-04-07 06:00:57,13,0,17.055,5510.3149574981,0,0,0.2763041427,0,0,0,118.5, 0.2, 2.8,0,0,1024,1024,1095,1024,118.8,0,99,4.287,4.278,4.271,4.266,0,0,2.116,84.11,10,Assisted_Takeoff,
0.339537480371295,36.9018885029776,5510.3149574981,0,0,0.280430455168,5800,2018-04-07 06:00:57,13,0,17.055,5510.3149574981,0,0,0.280430455168,0,0,0,118.4, 0.2, 2.8,0,0,1024,1024,1102,1024,118.8,0,99,4.287,4.278,4.271,4.266,0,0,2.116,84.11,10,Assisted_Takeoff,
0.339537492921305,36.9018885008657,5510.3149574981,0,0,0.283039051052,5900,2018-04-07 06:00:57,13,0,17.055,5510.3149574981,0,0,0.283039051052,0,0,0,118.4, 0.2, 2.8,0,0,1024,1024,1131,1024,118.8,0,99,4.287,4.278,4.271,4.266,0,0,2.116,84.11,10,Assisted_Takeoff,
0.339537502213614,36.9018885016339,5510.3149574981,0,0,0.284236885736,6000,2018-04-07 06:00:57,13,0,17.055,5510.3149574981,0,0,0.284236885736,0,0,0,118.4, 0.3, 2.8,0,0,1024,1024,1160,1024,118.8,0,99,4.287,4.278,4.271,4.266,0,0,2.116,84.11,10,Assisted_Takeoff,
0.339537505031229,36.9018885048825,5510.3149574981,0,0,0.283617463144,6100,2018-04-07 06:00:57,13,0,17.055,5510.3149574981,0,0,0.284236885736,0,0,0,118.3, 0.3, 2.8,0,0,1024,1024,1165,1024,118.8,0,99,4.287,4.278,4.271,4.266,0,0,2.116,84.11,10,Assisted_Takeoff,
0.339537508450147,36.9018885083465,5510.3149574981,0,0,0.283032161288,6200,2018-04-07 06:00:57,13,0,17.055,5510.3149574981,0,0,0.284236885736,0,0,0,118.3, 0.3, 2.7,0,0,1024,1024,1171,1024,118.8,0,99,4.287,4.278,4.271,4.266,0,0,2.116,84.11,10,Assisted_Takeoff,
0.339537504040321,36.9018885122173,5510.3149574981,0,0,0.281054470936,6300,2018-04-07 06:00:58,13,0,17.055,5510.3149574981,0,0,0.284236885736,0,0,0,118.5, 0.2, 2.8,0,0,1024,1024,1184,1024,118.8,0,99,4.287,4.278,4.271,4.266,0,0,2.116,84.11,10,Assisted_Takeoff,
0.339537505579608,36.9018885176579,5510.3149574981,0,0,0.279522974824,6400,2018-04-07 06:00:58,13,0,17.055,5510.3149574981,0,0,0.284236885736,0,0,0,118.4, 0.4, 2.8,0,0,1024,1024,1206,1024,118.8,0,99,4.287,4.278,4.271,4.266,0,0,2.116,84.11,10,Assisted_Takeoff,
0.339537514810442,36.9018885186261,5510.3149574981,0,0,0.280722449928,6500,2018-04-07 06:00:58,13,0,17.055,5510.3149574981,0,0,0.284236885736,0,0,0,118.4, 0.6, 2.7,0,0,1024,1024,1215,1024,118.8,0,99,4.287,4.278,4.271,4.266,0,0,2.116,84.11,10,Assisted_Takeoff,
0.339537518450829,36.9018885141536,5510.3149574981,0,0,0.282780192776,6600,2018-04-07 06:00:58,13,0,17.002,5510.3149574981,0,0,0.284236885736,0,0,0,118.2, 2, 1.7,0,0,1024,1024,1225,1024,118.8,0,99,4.284,4.278,4.27,4.265,0,0,2.116,84.11,10,Assisted_Takeoff,
0.339537506059592,36.9018884891954,5510.3149574981,0,0,0.288936032868,6700,2018-04-07 06:00:58,13,0,17.002,5510.3149574981,0,0,0.288936032868,0,0,-0.223694,117.9, 3.4, 0.9,0,0,1024,1024,1225,1024,118.8,0,99,4.284,4.278,4.27,4.265,0,0,2.116,84.11,10,Assisted_Takeoff,Home Point Recorded. RTH Altitude:  30m.
0.339537503340497,36.9018884142872,5510.3149574981,0,0.223694,0.313427175384,6800,2018-04-07 06:00:58,13,0,17.002,5510.3149574981,0,0.223694,0.313427175384,0,-0.223694,-0.671082,117.8, 1.9, 0.2,0,0,1024,1024,1244,1024,118.8,0,99,4.284,4.278,4.27,4.265,0,0,2.116,84.11,6,P-GPS,Obstacle Avoided. Revise Flight Route
0.33953750681519,36.9018883008723,5510.3149574981,0,0.223694,0.35228347584,6900,2018-04-07 06:00:58,13,0,17.002,5510.3149574981,0,0.223694,0.35228347584,0,-0.223694,-0.894776,117.7, 0.3, -0.1,0,0,1024,1024,1232,1024,118.7,0,99,4.284,4.278,4.27,4.265,0,0,2.116,84.11,6,P-GPS,
0.339537511575131,36.9018881977273,5510.3149574981,0,0.223694,0.38826772896,7000,2018-04-07 06:00:58,13,0,17.002,5510.3149574981,0,0.223694,0.38826772896,0,-0.223694,-1.11847,117.7, 0, -0.5,0,0,1024,1024,1235,1024,118.7,0,99,4.284,4.278,4.27,4.265,0,0,2.116,84.11,6,P-GPS,
0.339537545138583,36.9018881179291,5510.6430414981,0.328084,0,0.41978675884,7100,2018-04-07 06:00:58,12,0,17.002,5510.6430414981,0.328084,0.223694,0.41978675884,0,0,-1.342164,117.8, 0, -0.5,0,0,1024,1024,1238,1024,118.7,0,99,4.284,4.278,4.27,4.265,0,0,2.116,84.11,6,P-GPS,
0.339537621300909,36.9018880746125,5510.9711254981,0.656168,0,0.44438321632,7200,2018-04-07 06:00:58,12,0,17.002,5510.9711254981,0.656168,0.223694,0.44438321632,0,0,-1.565858,117.9, -0.2, -0.1,0,0,1024,1024,1247,1024,118.7,0,99,4.284,4.278,4.27,4.265,0,0,2.116,84.11,6,P-GPS,
0.339537724516982,36.9018880627916,5510.9711254981,0.656168,0,0.46369424056,7300,2018-04-07 06:00:59,13,0,17.002,5510.9711254981,0.656168,0.223694,0.46369424056,0,0,-1.565858,117.9, -0.4, 0.5,0,0,1024,1024,1247,1024,118.7,0,99,4.284,4.278,4.27,4.265,0,0,2.116,84.11,6,P-GPS,
0.339537844731161,36.9018880851735,5511.2992094981,0.984252,0,0.47761484468,7400,2018-04-07 06:00:59,13,0,17.002,5511.2992094981,0.984252,0.223694,0.47761484468,0,0,-1.789552,117.9, -0.2, 1.2,0,0,1024,1024,1248,1024,118.7,0,99,4.284,4.278,4.27,4.265,0,0,2.116,84.11,6,P-GPS,
0.339537951472815,36.9018881059305,5511.6272934981,1.312336,0,0.49277888716,7500,2018-04-07 06:00:59,12,0,17.002,5511.6272934981,1.312336,0.223694,0.49277888716,0,0,-1.789552,117.9, 0, 1.9,0,0,1024,1024,1260,1024,118.7,0,99,4.284,4.278,4.27,4.265,0,0,2.116,84.11,6,P-GPS,
0.33953803510746,36.9018881121914,5511.9553774981,1.64042,0,0.50936353336,7600,2018-04-07 06:00:59,12,0,16.55,5511.9553774981,1.64042,0.223694,0.50936353336,0,0,-1.789552,117.9, 0.2, 2,0,0,1024,1024,1281,1024,118.7,0,99,4.202,4.188,4.174,4.173,0,0,8.978,84.11,6,P-GPS,
0.3395381143278,36.9018881097625,5512.2834614981,1.968504,0,0.52853348148,7700,2018-04-07 06:00:59,12,0,16.55,5512.2834614981,1.968504,0.223694,0.52853348148,0,0,-2.013246,118, 0, 2,0,0,1024,1024,1300,1024,118.7,0,99,4.202,4.188,4.174,4.173,0,0,8.978,84.11,6,P-GPS,
0.339538212499156,36.9018881016266,5512.6115454981,2.296588,0,0.5548228524,7800,2018-04-07 06:00:59,12,0,16.55,5512.6115454981,2.296588,0.223694,0.5548228524,0,0,-2.23694,118.1, -0.4, 2.3,0,0,1024,1024,1305,1024,118.7,0,99,4.202,4.188,4.174,4.173,0,0,8.978,84.11,6,P-GPS,
0.339538294420474,36.901888053124,5512.9396294981,2.624672,0,0.58831694796,7900,2018-04-07 06:00:59,12,0,16.55,5512.9396294981,2.624672,0.223694,0.58831694796,0,0,-2.460634,118, -0.7, 1.9,0,0,1024,1024,1316,1024,118.6,0,99,4.202,4.188,4.174,4.173,0,0,8.978,84.11,6,P-GPS,
0.339538375320351,36.9018879731488,5513.2677134981,2.952756,0,0.62981629312,8000,2018-04-07 06:00:59,12,0,16.55,5513.2677134981,2.952756,0.223694,0.62981629312,0,0,-2.684328,118, -1.1, 1.3,0,0,1024,1024,1306,1024,118.6,0,99,4.202,4.188,4.174,4.173,0,0,8.978,84.11,6,P-GPS,
0.339538459674768,36.9018878597562,5513.5957974981,3.28084,0,0.68092849948,8100,2018-04-07 06:00:59,13,0,16.55,5513.5957974981,3.28084,0.223694,0.68092849948,0,0,-2.908022,118, -1.9, 0.9,0,0,1024,1024,1309,1024,118.6,0,99,4.202,4.188,4.174,4.173,0,0,8.978,84.11,6,P-GPS,
0.339538570588495,36.9018877632562,5514.2519654981,3.937008,0.223694,0.73437338308,8200,2018-04-07 06:00:59,13,0,16.55,5514.2519654981,3.937008,0.223694,0.73437338308,0.223694,0,-3.131716,118, -2.6, 1.7,0,0,1024,1024,1312,1023,118.6,0,99,4.202,4.188,4.174,4.173,0,0,8.978,84.11,6,P-GPS,
0.339538686762911,36.9018876945583,5514.5800494981,4.265092,0.223694,0.7820210224,8300,2018-04-07 06:01:00,13,0,16.55,5514.5800494981,4.265092,0.223694,0.7820210224,0.223694,0,-3.131716,117.9, -2.8, 2.8,0,0,1024,1024,1279,1024,118.6,0,99,4.202,4.188,4.174,4.173,0,0,8.978,84.11,6,P-GPS,
0.339538779394506,36.9018876802507,5515.2362174981,4.92126,0,0.80994425164,8400,2018-04-07 06:01:00,13,0,16.55,5515.2362174981,4.92126,0.223694,0.80994425164,0,0,-3.35541,117.8, -2, 2.6,0,0,1024,1024,1258,1024,118.6,0,99,4.202,4.188,4.174,4.173,0,0,8.978,84.11,6,P-GPS,
0.339538844185407,36.9018876764243,5515.5643014981,5.249344,0,0.82823493464,8500,2018-04-07 06:01:00,13,0,16.55,5515.5643014981,5.249344,0.223694,0.82823493464,0,0,-3.131716,117.9, -1.7, 2.1,0,0,1024,1024,1277,1024,118.6,0,99,4.202,4.188,4.174,4.173,0,0,8.978,84.11,6,P-GPS,
0.339538911759319,36.9018876954973,5516.2204694981,5.905512,0,0.84207023692,8600,2018-04-07 06:01:00,13,0,16.55,5516.2204694981,5.905512,0.223694,0.84207023692,0,0,-2.908022,118, -1.5, 2.2,0,0,1024,1024,1316,1024,118.6,0,99,4.202,4.188,4.174,4.173,0,0,8.978,84.11,6,P-GPS,
0.339538985808332,36.9018877294193,5516.5485534981,6.233596,0,0.85485895124,8700,2018-04-07 06:01:00,13,0,16.55,5516.5485534981,6.233596,0.223694,0.85485895124,0,0,-2.908022,118, -0.9, 2.8,0,0,1024,1024,1335,1024,118.6,0,99,4.202,4.188,4.174,4.173,0,0,8.978,84.11,6,P-GPS,
0.339539064247222,36.9018877791818,5516.8766374981,6.56168,0,0.8662729936,8800,2018-04-07 06:01:00,13,0,16.55,5516.8766374981,6.56168,0.223694,0.8662729936,0,0,-2.908022,118, -0.3, 3.2,0,0,1024,1024,1335,1024,118.6,0,99,4.202,4.188,4.174,4.173,0,0,8.978,84.11,6,P-GPS,
0.339539136709927,36.9018878052305,5517.5328054981,7.217848,0,0.88203414896,8900,2018-04-07 06:01:00,13,0,16.55,5517.5328054981,7.217848,0.223694,0.88203414896,0,0,-3.131716,118, -0.3, 3.3,0,0,1024,1024,1325,1024,118.6,0,99,4.202,4.188,4.174,4.173,0,0,8.978,84.11,6,P-GPS,
0.339539198502048,36.901887821279,5517.8608894981,7.545932,0,0.8972113148,9000,2018-04-07 06:01:00,13,0,16.55,5517.8608894981,7.545932,0.223694,0.8972113148,0,0,-3.35541,118, -0.9, 3,0,0,1024,1024,1326,1023,118.6,0,99,4.202,4.188,4.174,4.173,0,0,8.978,84.11,6,P-GPS,
0.339539233292736,36.9018878603416,5518.5170574981,8.2021,0,0.89989504192,9100,2018-04-07 06:01:00,13,0,16.55,5518.5170574981,8.2021,0.223694,0.89989504192,0,0,-3.35541,118.2, -1, 2.5,0,0,1024,1024,1322,1020,118.6,0,99,4.202,4.188,4.174,4.173,0,0,8.978,84.11,6,P-GPS,
0.339539242813231,36.901887949218,5518.8451414981,8.530184,0.223694,0.88562338792,9200,2018-04-07 06:01:00,13,0,16.55,5518.8451414981,8.530184,0.223694,0.89989504192,0,0.223694,-3.579104,118.2, -0.5, 2.2,0,0,1024,1024,1328,1008,118.6,0,99,4.202,4.188,4.174,4.173,0,0,8.978,84.11,6,P-GPS,
0.339539264510211,36.9018880594909,5519.5013094981,9.186352,0.223694,0.872457377,9300,2018-04-07 06:01:00,14,0,16.55,5519.5013094981,9.186352,0.223694,0.89989504192,0,0.223694,-3.579104,118.1, -0.2, 2.7,0,0,1024,1024,1327,1009,118.6,0,99,4.202,4.188,4.174,4.173,0,0,8.978,84.11,6,P-GPS,
0.339539302091646,36.9018881802445,5520.1574774981,9.84252,0.223694,0.8645997652,9400,2018-04-07 06:01:01,14,0,16.55,5520.1574774981,9.84252,0.223694,0.89989504192,0,0.223694,-3.579104,118, 0.3, 3.4,0,0,1024,1024,1307,1016,118.6,0,99,4.202,4.188,4.174,4.173,0,0,8.978,84.11,6,P-GPS,
0.339539331270716,36.9018882915487,5520.4855614981,10.170604,0.223694,0.85765094608,9500,2018-04-07 06:01:01,14,0,16.55,5520.4855614981,10.170604,0.223694,0.89989504192,0,0.223694,-3.579104,118, 0.3, 4,0,0,1024,1024,1303,1017,118.6,-0.4,99,4.202,4.188,4.174,4.173,0,0,8.978,84.11,6,P-GPS,
0.339539343134337,36.9018883924237,5521.1417294981,10.826772,0,0.84810370168,9600,2018-04-07 06:01:01,14,0,16.497,5521.1417294981,10.826772,0.223694,0.89989504192,0,0,-3.35541,117.9, 0.5, 4.2,0,0,1024,1024,1306,1019,118.6,-1,99,4.161,4.159,4.148,4.145,0,0,14.362,84.11,6,P-GPS,
0.339539356698462,36.9018884821897,5521.4698134981,11.154856,0,0.84193572248,9700,2018-04-07 06:01:01,14,0,16.497,5521.4698134981,11.154856,0.223694,0.89989504192,0,0,-3.35541,117.9, 0.9, 3.7,0,0,1024,1024,1308,1019,118.6,-1.6,99,4.161,4.159,4.148,4.145,0,0,14.362,84.11,6,P-GPS,
0.33953938048555,36.9018885679838,5522.1259814981,11.811024,0,0.84101708728,9800,2018-04-07 06:01:01,14,0,16.497,5522.1259814981,11.811024,0.223694,0.89989504192,0,0,-3.131716,118, 1, 3.1,0,0,1024,1024,1305,1020,118.6,-1.6,99,4.161,4.159,4.148,4.145,0,0,14.362,84.11,6,P-GPS,
0.33953940715987,36.9018886409619,5522.4540654981,12.139108,0,0.84350068316,9900,2018-04-07 06:01:01,14,0,16.497,5522.4540654981,12.139108,0.223694,0.89989504192,0,0,-3.131716,117.9, 1, 2.9,0,0,1024,1024,1304,1021,118.5,-3.8,99,4.161,4.159,4.148,4.145,0,0,14.362,84.11,6,P-GPS,
0.339539430480206,36.9018887182782,5523.1102334981,12.795276,0,0.84539700868,10000,2018-04-07 06:01:01,14,0,16.497,5523.1102334981,12.795276,0.223694,0.89989504192,0,0,-3.131716,118, 1.1, 3.5,0,0,1024,1024,1306,1020,118.5,-3.8,99,4.161,4.159,4.148,4.145,0,0,14.362,84.11,6,P-GPS,
0.339539446871105,36.9018887718993,5523.4383174981,13.12336,0,0.8473917594,10100,2018-04-07 06:01:01,14,0,16.497,5523.4383174981,13.12336,0.223694,0.89989504192,0,0,-3.131716,118.1, 1.1, 3.9,0,0,1024,1024,1322,1021,118.5,-6.3,99,4.161,4.159,4.148,4.145,0,0,14.362,84.11,6,P-GPS,
0.339539436065362,36.9018887995658,5524.0944854981,13.779528,0,0.84168965948,10200,2018-04-07 06:01:02,14,0,16.497,5524.0944854981,13.779528,0.223694,0.89989504192,0,0,-3.131716,118.1, 1.3, 3.8,0,0,1024,1024,1315,1022,118.5,-7.5,99,4.161,4.159,4.148,4.145,0,0,14.362,84.11,6,P-GPS,
0.339539398680155,36.9018887091743,5525.0787374981,14.76378,0,0.83476708708,10400,2018-04-07 06:01:02,14,0,16.497,5525.0787374981,14.76378,0.223694,0.89989504192,0,0,-3.35541,118.1, 0.6, 2.5,0,0,1024,1024,1312,1021,118.5,-8.7,99,4.161,4.159,4.148,4.145,0,0,14.362,84.11,6,P-GPS,
0.33953940653353,36.9018886341814,5525.4068214981,15.091864,0,0.84388454144,10500,2018-04-07 06:01:02,14,0,16.497,5525.4068214981,15.091864,0.223694,0.89989504192,0,0,-3.35541,118.2, -0.1, 3.1,0,0,1024,1024,1327,1021,118.5,-10,99,4.161,4.159,4.148,4.145,0,0,14.362,84.11,6,P-GPS,
0.33953943670534,36.9018885885893,5526.0629894981,15.748032,0,0.85875330832,10600,2018-04-07 06:01:02,14,0,16.444,5526.0629894981,15.748032,0.223694,0.89989504192,0,0,-3.35541,118.1, -0.1, 4,0,0,1024,1024,1332,1022,118.5,-11.2,99,4.161,4.159,4.148,4.145,0,0,14.362,84.11,6,P-GPS,
0.339539450897637,36.9018885156083,5526.3910734981,16.076116,0,0.87105317748,10700,2018-04-07 06:01:02,14,0,16.444,5526.3910734981,16.076116,0.223694,0.89989504192,0,0,-3.35541,118.1, 0, 4.1,0,0,1024,1024,1330,1021,118.5,-12.4,99,4.161,4.159,4.148,4.145,0,0,14.362,84.11,6,P-GPS,
0.339539455587352,36.9018884241849,5527.0472414981,16.732284,0,0.88286748232,10800,2018-04-07 06:01:02,14,0,16.444,5527.0472414981,16.732284,0.223694,0.89989504192,0,0,-3.35541,118, -0.6, 3.5,0,0,1024,1024,1330,1021,118.5,-13.7,99,4.161,4.159,4.148,4.145,0,0,14.362,84.11,6,P-GPS,
0.339539454378436,36.9018883189349,5527.3753254981,17.060368,0,0.89556433312,10900,2018-04-07 06:01:02,14,0,16.444,5527.3753254981,17.060368,0.223694,0.89989504192,0,0,-3.579104,117.9, -1, 2.8,0,0,1024,1024,1331,1021,118.5,-15,99,4.161,4.159,4.148,4.145,0,0,14.362,84.11,6,P-GPS,
0.339539465489106,36.9018882346115,5528.0314934981,17.716536,0,0.91084648584,11000,2018-04-07 06:01:02,14,0,16.444,5528.0314934981,17.716536,0.223694,0.91084648584,0,0,-3.579104,117.9, -1, 2.7,0,0,1024,1024,1330,1021,118.5,-16.3,99,4.161,4.159,4.148,4.145,0,0,14.362,84.11,6,P-GPS,
0.339539479584917,36.9018881509002,5528.6876614981,18.372704,0,0.92780842864,11100,2018-04-07 06:01:02,14,0,16.444,5528.6876614981,18.372704,0.223694,0.92780842864,0,0,-3.579104,117.9, -1.4, 3.1,0,0,1024,1024,1329,1023,118.5,-17.6,99,4.161,4.159,4.148,4.145,0,0,14.362,84.11,6,P-GPS,
0.339539489797907,36.9018880790017,5529.0157454981,18.700788,0,0.94232614564,11200,2018-04-07 06:01:02,14,0,16.444,5529.0157454981,18.700788,0.223694,0.94232614564,0,0,-3.579104,118, -1.2, 3.6,0,0,1024,1024,1315,1023,118.5,-18.9,99,4.161,4.159,4.148,4.145,0,0,14.362,84.11,6,P-GPS,
0.339539480459798,36.9018880048689,5529.6719134981,19.356956,0,0.95139110656,11300,2018-04-07 06:01:03,13,0,16.444,5529.6719134981,19.356956,0.223694,0.95139110656,0,0,-3.579104,118, -0.7, 3.4,0,0,1024,1024,1271,1024,118.5,-20,99,4.161,4.159,4.148,4.145,0,0,14.362,84.11,6,P-GPS,
0.339539464808416,36.9018879307155,5530.3280814981,20.013124,0,0.95913060812,11400,2018-04-07 06:01:03,13,0,16.444,5530.3280814981,20.013124,0.223694,0.95913060812,0,0,-3.579104,117.9, -1, 3.6,0,0,1024,1024,1244,1024,118.5,-20.4,99,4.161,4.159,4.148,4.145,0,0,14.362,84.11,6,P-GPS,
0.339539439789002,36.9018878476532,5530.6561654981,20.341208,0,0.96631564772,11500,2018-04-07 06:01:03,14,0,16.444,5530.6561654981,20.341208,0.223694,0.96631564772,0,0,-3.35541,118, -2, 3.4,0,0,1024,1024,1275,1024,118.5,-20.4,99,4.161,4.159,4.148,4.145,0,0,14.362,84.11,6,P-GPS,
0.339539395472731,36.9018877940483,5531.3123334981,20.997376,0,0.96276577884,11600,2018-04-07 06:01:03,14,0,16.497,5531.3123334981,20.997376,0.223694,0.96631564772,0,0,-2.908022,118, -2, 2.8,0,0,1024,1024,1297,1023,118.5,-20.4,99,4.172,4.157,4.141,4.142,0,0,13.898,84.11,6,P-GPS,
0.339539344815095,36.901887770956,5531.6404174981,21.32546,0,0.95179464988,11700,2018-04-07 06:01:03,14,0,16.497,5531.6404174981,21.32546,0.223694,0.96631564772,0,0,-2.684328,118.1, -0.8, 2.7,0,0,1024,1024,1287,1022,118.5,-20.4,99,4.172,4.157,4.141,4.142,0,0,13.898,84.11,6,P-GPS,
0.339539304577872,36.9018877746662,5531.9685014981,21.653544,0,0.93880908516,11800,2018-04-07 06:01:03,14,0,16.497,5531.9685014981,21.653544,0.223694,0.96631564772,0,0,-2.908022,118.1, 0.3, 2.8,0,0,1024,1024,1272,1009,118.5,-20.4,99,4.172,4.157,4.141,4.142,0,0,13.898,84.11,6,P-GPS,
0.339539260563677,36.9018877639708,5532.6246694981,22.309712,0,0.92770344176,11900,2018-04-07 06:01:03,14,0,16.497,5532.6246694981,22.309712,0.223694,0.96631564772,0,0,-2.908022,118.1, 0.4, 2.9,0,0,1024,1024,1331,967,118.5,-20.4,99,4.172,4.157,4.141,4.142,0,0,13.898,84.11,6,P-GPS,
0.339539210269592,36.9018877309995,5532.9527534981,22.637796,0,0.91961617116,12000,2018-04-07 06:01:03,14,0,16.497,5532.9527534981,22.637796,0.223694,0.96631564772,0,0,-2.684328,118, -0.6, 2.5,0,0,1024,1024,1365,976,118.5,-20.4,99,4.172,4.157,4.141,4.142,0,0,13.898,84.11,6,P-GPS,
0.339539164728323,36.9018877022346,5533.2808374981,22.96588,0,0.91244425492,12100,2018-04-07 06:01:03,14,0,16.497,5533.2808374981,22.96588,0.223694,0.96631564772,0,0,-2.684328,117.8, -0.7, 2.3,0,0,1024,1024,1381,971,118.4,-20.4,99,4.172,4.157,4.141,4.142,0,0,13.898,84.11,6,P-GPS,
0.339539142019468,36.901887704363,5533.6089214981,23.293964,0,0.9053642022,12200,2018-04-07 06:01:03,14,0,16.497,5533.6089214981,23.293964,0.223694,0.96631564772,0,0,-3.131716,117.5, -0.1, 2.2,0,0,1024,1024,1372,977,118.3,-20.4,99,4.172,4.157,4.141,4.142,0,0,13.898,84.11,6,P-GPS,
0.339539149486902,36.9018877221916,5534.2650894981,23.950132,0,0.90363191868,12300,2018-04-07 06:01:04,14,0,16.497,5534.2650894981,23.950132,0.223694,0.96631564772,0,0,-3.579104,117.1, -0.1, 3,0,0,1024,1024,1384,968,118.1,-20.4,99,4.172,4.157,4.141,4.142,0,0,13.898,84.11,6,P-GPS,
0.339539190546896,36.9018877503104,5534.9212574981,24.6063,0,0.90965882176,12400,2018-04-07 06:01:04,14,0,16.497,5534.9212574981,24.6063,0.223694,0.96631564772,0,0,-3.802798,116.7, -0.2, 3.4,0,0,1024,1024,1415,961,117.9,-20.4,99,4.172,4.157,4.141,4.142,0,0,13.898,84.11,6,P-GPS,
0.339539232812345,36.9018877768232,5535.5774254981,25.262468,0,0.91670606608,12500,2018-04-07 06:01:04,14,0,16.497,5535.5774254981,25.262468,0.223694,0.96631564772,0,0,-4.026492,116.3, -0.3, 3.8,0,0,1024,1024,1418,959,117.7,-20.4,99,4.172,4.157,4.141,4.142,0,0,13.898,84.11,6,P-GPS,
0.339539274197418,36.9018877993138,5536.2335934981,25.918636,0,0.92459976712,12600,2018-04-07 06:01:04,14,0,16.497,5536.2335934981,25.918636,0.223694,0.96631564772,0,0,-4.47388,115.7, -0.1, 4.4,0,0,1024,1024,1417,942,117.5,-20.4,99,4.154,4.15,4.137,4.137,0,0,13.736,84.11,6,P-GPS,
0.339539321289779,36.9018878208708,5536.8897614981,26.574804,0,0.9346785076,12700,2018-04-07 06:01:04,14,0,16.497,5536.8897614981,26.574804,0.223694,0.96631564772,0,0,-4.697574,115.1, -0.4, 4.5,0,0,1024,1024,1417,939,117.1,-20.4,99,4.154,4.15,4.137,4.137,0,0,13.736,84.11,6,P-GPS,
0.339539370795291,36.9018878472081,5537.5459294981,27.230972,0,0.9448655158,12800,2018-04-07 06:01:04,14,0,16.497,5537.5459294981,27.230972,0.223694,0.96631564772,0,0,-4.921268,114.4, -0.6, 4.1,0,0,1024,1024,1421,945,116.7,-20.4,99,4.154,4.15,4.137,4.137,0,0,13.736,84.11,6,P-GPS,
0.339539394464928,36.901887879893,5538.2020974981,27.88714,0,0.94608926912,12900,2018-04-07 06:01:04,14,0,16.497,5538.2020974981,27.88714,0.223694,0.96631564772,0,0,-5.144962,113.6, 0, 3.5,0,0,1024,1024,1421,940,116.1,-20.4,99,4.154,4.15,4.137,4.137,0,0,13.736,84.11,6,P-GPS,
0.339539394277657,36.9018879073668,5538.8582654981,28.543308,0,0.94095147368,13000,2018-04-07 06:01:04,14,0,16.497,5538.8582654981,28.543308,0.223694,0.96631564772,0,0,-5.144962,112.8, 0.1, 3.6,0,0,1024,1024,1422,935,115.6,-20.4,99,4.154,4.15,4.137,4.137,0,0,13.736,84.11,6,P-GPS,
0.339539393549131,36.9018879295201,5539.8425174981,29.52756,0,0.93668310084,13100,2018-04-07 06:01:04,14,0,16.497,5539.8425174981,29.52756,0.223694,0.96631564772,0,0,-5.368656,111.9, 0.3, 3.6,0,0,1024,1024,1433,936,114.9,-20.4,99,4.154,4.15,4.137,4.137,0,0,13.736,84.11,6,P-GPS,
0.339539398152132,36.9018879445245,5540.4986854981,30.183728,0,0.93543966248,13200,2018-04-07 06:01:04,14,0,16.497,5540.4986854981,30.183728,0.223694,0.96631564772,0,0,-5.368656,111, 0.2, 3.9,0,1,1024,1024,1420,937,114.9,-20.4,99,4.154,4.15,4.137,4.137,0,0,13.736,84.11,6,P-GPS,
0.339539416543779,36.9018879461066,5541.4829374981,31.16798,0,0.9410105288,13300,2018-04-07 06:01:05,14,0,16.497,5541.4829374981,31.16798,0.223694,0.96631564772,0,0,-5.368656,110, 0.2, 4,0,1,1024,1024,1417,943,114.2,-20.4,99,4.154,4.15,4.137,4.137,0,0,13.736,84.11,6,P-GPS,
0.339539455104111,36.9018879522264,5542.1391054981,31.824148,0,0.95224412496,13400,2018-04-07 06:01:05,14,0,16.364,5542.1391054981,31.824148,0.223694,0.96631564772,0,0,-5.368656,109.1, 0.2, 4.1,0,1,1024,1024,1437,942,111.8,-20.4,99,4.136,4.12,4.105,4.126,0,0,13.96,84.11,6,P-GPS,
0.339539559312924,36.9018879331789,5544.7637774981,34.44882,0,0.98901577968,13700,2018-04-07 06:01:05,14,0,16.364,5544.7637774981,34.44882,0.223694,0.98901577968,0,0,-5.368656,106.3, 0.1, 4.2,0,1,1024,1024,1424,970,110.9,-20.4,99,4.136,4.12,4.105,4.126,0,0,13.96,84.11,6,P-GPS,
0.339539598733686,36.9018879340903,5545.4199454981,35.104988,0,1.00158795856,13800,2018-04-07 06:01:05,14,0,16.364,5545.4199454981,35.104988,0.223694,1.00158795856,0,0,-5.368656,105.4, 0, 4.3,0,1,1024,1024,1424,970,110.1,-20.4,99,4.136,4.12,4.105,4.126,0,0,13.96,84.11,6,P-GPS,
0.339539642139962,36.9018879193566,5546.4041974981,36.08924,0,1.01812011132,13900,2018-04-07 06:01:05,14,0,16.364,5546.4041974981,36.08924,0.223694,1.01812011132,0,0,-5.59235,104.5, 0.1, 4.3,0,1,1024,1024,1421,1000,109,-20.4,99,4.136,4.12,4.105,4.126,0,0,13.96,84.11,6,P-GPS,
0.339539719760254,36.9018878797177,5548.0446174981,37.72966,0,1.0499180126,14100,2018-04-07 06:01:05,14,0,16.364,5548.0446174981,37.72966,0.223694,1.0499180126,0,0,-5.59235,104, 0.2, 4.2,0,1,1024,1024,1409,1024,108.6,-20.4,99,4.136,4.12,4.105,4.126,0,0,13.96,84.11,6,P-GPS,
0.339539743415948,36.9018878825712,5548.7007854981,38.385828,0,1.05711289472,14200,2018-04-07 06:01:05,14,0,16.364,5548.7007854981,38.385828,0.223694,1.05711289472,0,0,-5.59235,103.9, 0.2, 4.4,0,1,1024,1024,1329,1024,108.2,-20.4,99,4.136,4.12,4.105,4.126,0,0,13.96,84.11,6,P-GPS,
0.339539768682987,36.9018878762109,5549.6850374981,39.37008,0,1.06637798688,14300,2018-04-07 06:01:06,14,0,16.364,5549.6850374981,39.37008,0.223694,1.06637798688,0,0,-5.368656,104, 0.2, 4.7,0,1,1024,1024,1301,1024,107.9,-20.4,99,4.136,4.12,4.105,4.126,0,0,13.96,84.11,6,P-GPS,
0.339539812159286,36.9018878816507,5550.3412054981,40.026248,0,1.07964570384,14400,2018-04-07 06:01:06,14,0,16.364,5550.3412054981,40.026248,0.223694,1.07964570384,0,0,-4.47388,104, -0.2, 5.4,0,1,1024,1024,1306,1024,107.7,-20.4,99,4.136,4.12,4.105,4.126,0,0,13.96,84.11,6,P-GPS,
0.339539847665981,36.9018878957525,5550.9973734981,40.682416,0,1.08898625532,14500,2018-04-07 06:01:06,14,0,16.364,5550.9973734981,40.682416,0.223694,1.08898625532,0,0,-3.802798,103.9, 0.1, 5.1,0,1,1024,1024,1377,1024,107.5,-20.4,99,4.136,4.12,4.105,4.126,0,0,13.96,84.11,6,P-GPS,
0.339539861469385,36.9018879398687,5551.6535414981,41.338584,0,1.08658468044,14600,2018-04-07 06:01:06,14,0,16.364,5551.6535414981,41.338584,0.223694,1.08898625532,0,0,-3.802798,104, 0.6, 4.5,0,1,1024,1024,1377,1024,107.5,-20.4,99,4.136,4.12,4.105,4.126,0,0,13.96,84.11,6,P-GPS,
0.339539882051797,36.9018879693624,5552.3097094981,41.994752,0,1.0888943918,14700,2018-04-07 06:01:06,14,0,16.364,5552.3097094981,41.994752,0.223694,1.08898625532,0,0,-3.802798,104, 0.9, 4.3,0,1,1024,1024,1387,1024,107.3,-20.4,99,4.136,4.12,4.105,4.126,0,0,13.96,84.11,6,P-GPS,
0.339539924420348,36.9018879804884,5552.6377934981,42.322836,0,1.10133533708,14800,2018-04-07 06:01:06,14,0,16.364,5552.6377934981,42.322836,0.223694,1.10133533708,0,0,-4.026492,104, 0.7, 4.4,0,1,1024,1024,1382,1024,106.9,-20.4,99,4.136,4.12,4.105,4.126,0,0,13.96,84.11,6,P-GPS,
0.339540030328239,36.9018879508148,5553.9501294981,43.635172,0,1.14106302864,15000,2018-04-07 06:01:06,14,0,16.364,5553.9501294981,43.635172,0.223694,1.14106302864,0,0,-4.250186,104, 0.4, 4.7,0,1,1024,1024,1396,1024,106.8,-20.4,99,4.136,4.12,4.105,4.126,0,0,13.96,84.11,6,P-GPS,
0.339540085600885,36.9018879199363,5554.6062974981,44.29134,0,1.16405515536,15100,2018-04-07 06:01:06,14,0,16.364,5554.6062974981,44.29134,0.223694,1.16405515536,0,0,-4.47388,104, 0.4, 4.7,0,1,1024,1024,1425,1024,106.7,-20.4,99,4.136,4.12,4.105,4.126,0,0,13.96,84.11,6,P-GPS,
0.339540131463567,36.9018878941025,5555.5905494981,45.275592,0,1.1831693292,15200,2018-04-07 06:01:06,14,0,16.364,5555.5905494981,45.275592,0.223694,1.1831693292,0,0,-4.697574,104, 0.2, 4.6,0,1,1024,1024,1485,1024,106.5,-20.4,99,4.136,4.12,4.105,4.126,0,0,13.96,84.11,6,P-GPS,
0.339540161414927,36.9018878600233,5556.2467174981,45.93176,0,1.19820869976,15300,2018-04-07 06:01:07,14,0,16.364,5556.2467174981,45.93176,0.223694,1.19820869976,0,0,-4.921268,103.9, 0.3, 4.6,0,1,1024,1024,1500,1024,106.5,-20.4,99,4.136,4.12,4.105,4.126,0,0,13.96,84.11,6,P-GPS,
0.339540167215852,36.9018878399349,5557.2309694981,46.916012,0,1.20315292564,15400,2018-04-07 06:01:07,14,0,16.364,5557.2309694981,46.916012,0.223694,1.20315292564,0,0,-5.59235,103.9, 0.7, 4.3,0,1,1024,1024,1480,1024,106.3,-20.4,99,4.136,4.12,4.105,4.126,0,0,13.96,84.11,6,P-GPS,
0.339540169358884,36.9018877935218,5557.8871374981,47.57218,0,1.21096132484,15500,2018-04-07 06:01:07,14,0,16.364,5557.8871374981,47.57218,0.223694,1.21096132484,0,0,-6.039738,104, 0.4, 4.3,0,1,1024,1024,1469,1024,106.2,-20.4,99,4.136,4.12,4.105,4.126,0,0,13.96,84.11,6,P-GPS,
0.3395401906113,36.9018877350071,5558.8713894981,48.556432,0,1.22715555108,15600,2018-04-07 06:01:07,14,0,16.391,5558.8713894981,48.556432,0.223694,1.22715555108,0,0,-6.263432,103.9, -0.2, 4.7,0,1,1024,1024,1471,1024,106.1,-20.4,99,4.131,4.124,4.113,4.114,0,0,14.904,84.11,6,P-GPS,
0.339540213159549,36.9018876821751,5559.8556414981,49.540684,0,1.24305122088,15700,2018-04-07 06:01:07,14,0,16.391,5559.8556414981,49.540684,0.223694,1.24305122088,0,0,-6.263432,103.9, -0.4, 4.8,0,1,1024,1024,1476,1024,106.1,-20.4,99,4.131,4.124,4.113,4.114,0,0,14.904,84.11,6,P-GPS,
0.339540234113654,36.9018876634911,5560.8398934981,50.524936,0,1.25293967264,15800,2018-04-07 06:01:07,14,0,16.391,5560.8398934981,50.524936,0.223694,1.25293967264,0,0,-6.039738,103.9, -0.1, 5,0,1,1024,1024,1477,1024,106,-20.4,99,4.131,4.124,4.113,4.114,0,0,14.904,84.11,6,P-GPS,
0.339540255338692,36.9018876412168,5561.8241454981,51.509188,0,1.26351053912,15900,2018-04-07 06:01:07,14,0,16.391,5561.8241454981,51.509188,0.223694,1.26351053912,0,0,-6.263432,103.9, 0.1, 4.8,0,1,1024,1024,1480,1024,105.9,-20.4,99,4.131,4.124,4.113,4.114,0,0,14.904,84.11,6,P-GPS,
0.339540264006288,36.9018876153752,5562.8083974981,52.49344,0,1.27060699604,16000,2018-04-07 06:01:07,14,0,16.391,5562.8083974981,52.49344,0.223694,1.27060699604,0,0,-6.487126,103.9, 0.2, 4.4,0,1,1024,1024,1475,1024,105.9,-20.4,99,4.131,4.124,4.113,4.114,0,0,14.904,84.11,6,P-GPS,
0.339540261950174,36.9018875735352,5563.7926494981,53.477692,0,1.27697838732,16100,2018-04-07 06:01:07,14,0,16.391,5563.7926494981,53.477692,0.223694,1.27697838732,0,0,-6.487126,103.9, 0, 4.4,0,1,1024,1024,1476,1024,105.9,-20.4,99,4.131,4.124,4.113,4.114,0,0,14.904,84.11,6,P-GPS,
0.339540235491114,36.9018875284296,5565.1049854981,54.790028,0,1.27624347916,16200,2018-04-07 06:01:07,14,0,16.391,5565.1049854981,54.790028,0.223694,1.27697838732,0,0,-6.487126,103.9, 0, 4.7,0,1,1024,1024,1473,1024,105.8,-20.4,99,4.131,4.124,4.113,4.114,0,0,14.904,84.11,6,P-GPS,
0.339540200738491,36.901887453622,5566.0892374981,55.77428,0,1.27853678632,16300,2018-04-07 06:01:08,14,0,16.391,5566.0892374981,55.77428,0.223694,1.27853678632,0,0,-6.487126,103.9, 0, 5,0,1,1024,1024,1457,1021,105.7,-20.4,99,4.131,4.124,4.113,4.114,0,0,14.904,84.11,6,P-GPS,
0.339540161150509,36.9018873665404,5567.0734894981,56.758532,0,1.28236224576,16400,2018-04-07 06:01:08,14,0,16.391,5567.0734894981,56.758532,0.223694,1.28236224576,0,0,-6.263432,103.9, -0.2, 4.9,0,1,1024,1024,1443,1021,105.7,-20.4,99,4.131,4.124,4.113,4.114,0,0,14.904,84.11,6,P-GPS,
0.339540091968304,36.901887266657,5568.0577414981,57.742784,0,1.2806594898,16500,2018-04-07 06:01:08,13,0,16.391,5568.0577414981,57.742784,0.223694,1.28236224576,0,0,-6.263432,103.9, -0.3, 4.4,0,1,1024,1024,1445,1021,105.6,-20.4,99,4.131,4.124,4.113,4.114,0,0,14.904,84.11,6,P-GPS,
0.339540008703113,36.9018871951809,5568.7139094981,58.398952,0,1.27029859708,16600,2018-04-07 06:01:08,13,0,16.47,5568.7139094981,58.398952,0.223694,1.28236224576,0,0,-6.039738,103.9, -0.4, 4.4,0,1,1024,1024,1439,1022,105.6,-20.4,99,4.136,4.129,4.112,4.109,0,0,13.434,84.11,6,P-GPS,
0.339539915862264,36.9018871257957,5569.6981614981,59.383204,0,1.25788061768,16700,2018-04-07 06:01:08,14,0,16.47,5569.6981614981,59.383204,0.223694,1.28236224576,0,0,-5.816044,103.9, -0.1, 4.1,0,1,1024,1024,1456,1024,105.6,-20.4,99,4.136,4.129,4.112,4.109,0,0,13.434,84.11,6,P-GPS,
0.339539827348903,36.9018870832943,5570.6824134981,60.367456,0,1.2418635568,16800,2018-04-07 06:01:08,14,0,16.47,5570.6824134981,60.367456,0.223694,1.28236224576,0,0,-5.816044,103.9, -0.2, 4,0,1,1024,1024,1487,1023,105.5,-20.4,99,4.136,4.129,4.112,4.109,0,0,13.434,84.11,6,P-GPS,
0.33953972993864,36.9018870274013,5571.6666654981,61.351708,0,1.22735896316,16900,2018-04-07 06:01:08,14,0,16.47,5571.6666654981,61.351708,0.223694,1.28236224576,0,0,-5.816044,103.9, 0, 3.9,0,1,1024,1024,1546,1024,105.4,-20.4,99,4.136,4.129,4.112,4.109,0,0,13.434,84.11,6,P-GPS,
0.33953951869892,36.9018868862207,5573.3070854981,62.992128,0,1.205216574,17100,2018-04-07 06:01:08,14,0,16.47,5573.3070854981,62.992128,0.223694,1.28236224576,0,0,-6.263432,103.8, 0, 3.8,0,1,1024,1024,1547,1023,105.4,-20.4,99,4.136,4.129,4.112,4.109,0,0,13.434,84.11,6,P-GPS,
0.339539413059519,36.9018868262044,5574.6194214981,64.304464,0,1.19387799096,17200,2018-04-07 06:01:08,14,0,16.47,5574.6194214981,64.304464,0.223694,1.28236224576,0,0,-6.934514,103.9, 0.1, 3.6,0,1,1024,1024,1546,1022,105.3,-20.4,99,4.136,4.129,4.112,4.109,0,0,13.434,84.11,6,P-GPS,
0.33953931160359,36.9018867589732,5575.6036734981,65.288716,0,1.1870735288,17300,2018-04-07 06:01:09,14,0,16.47,5575.6036734981,65.288716,0.223694,1.28236224576,0,0,-7.381902,104, 0.1, 3.3,0,1,1024,1024,1546,1022,105.3,-20.4,99,4.136,4.129,4.112,4.109,0,0,13.434,84.11,6,P-GPS,
0.339539237172708,36.9018867055244,5576.9160094981,66.601052,0,1.18427497228,17400,2018-04-07 06:01:09,14,0,16.47,5576.9160094981,66.601052,0.223694,1.28236224576,0,0,-7.605596,104, -0.1, 3.4,0,1,1024,1024,1548,1022,105.3,-20.4,99,4.136,4.129,4.112,4.109,0,0,13.434,84.11,6,P-GPS,
0.339539160901073,36.9018866317919,5577.9002614981,67.585304,0,1.18784124536,17500,2018-04-07 06:01:09,14,0,16.47,5577.9002614981,67.585304,0.223694,1.28236224576,0,0,-7.605596,104, -0.6, 3.8,0,1,1024,1024,1555,1022,105.3,-20.4,99,4.136,4.129,4.112,4.109,0,0,13.434,84.11,6,P-GPS,
0.339539058808626,36.9018865660286,5579.2125974981,68.89764,0,1.18478022164,17600,2018-04-07 06:01:09,14,0,16.364,5579.2125974981,68.89764,0.223694,1.28236224576,0,0,-7.82929,104, -0.7, 3.8,0,1,1024,1024,1555,1022,105.3,-20.4,99,4.112,4.112,4.109,4.109,0,0,14.438,84.11,6,P-GPS,
0.339538960801335,36.9018865201088,5580.5249334981,70.209976,0,1.17817260988,17700,2018-04-07 06:01:09,14,0,16.364,5580.5249334981,70.209976,0.223694,1.28236224576,0,0,-8.052984,104, 0, 4.1,0,1,1024,1024,1546,1023,105.2,-20.4,99,4.112,4.112,4.109,4.109,0,0,14.438,84.11,6,P-GPS,
0.339538882048358,36.9018865189242,5581.8372694981,71.522312,0,1.16280187448,17800,2018-04-07 06:01:09,14,0,16.364,5581.8372694981,71.522312,0.223694,1.28236224576,0,0,-8.052984,104, 0.2, 4.2,0,1,1024,1024,1535,1022,105.2,-20.4,99,4.112,4.112,4.109,4.109,0,0,14.438,84.11,6,P-GPS,
0.339538777820207,36.9018864817558,5582.8215214981,72.506564,0,1.15440620492,17900,2018-04-07 06:01:09,14,0,16.364,5582.8215214981,72.506564,0.223694,1.28236224576,0,0,-8.052984,103.9, 0, 3.7,0,1,1024,1024,1535,1022,105.2,-20.5,99,4.112,4.112,4.109,4.109,0,0,14.438,84.11,6,P-GPS,
0.339538650987625,36.9018864245177,5584.1338574981,73.8189,0,1.14988848824,18000,2018-04-07 06:01:09,14,0,16.364,5584.1338574981,73.8189,0.223694,1.28236224576,0,0,-7.82929,103.9, 0, 3.2,0,1,1024,1024,1536,1022,105.2,-20.6,99,4.112,4.112,4.109,4.109,0,0,14.438,84.11,6,P-GPS,
0.339538528250173,36.9018863492867,5585.1181094981,74.803152,0,1.15416998444,18100,2018-04-07 06:01:09,14,0,16.364,5585.1181094981,74.803152,0.223694,1.28236224576,0,0,-7.605596,103.9, -0.1, 3.5,0,1,1024,1024,1531,1023,105.1,-21.2,99,4.112,4.112,4.109,4.109,0,0,14.438,84.11,6,P-GPS,
0.339538326770939,36.9018862225912,5587.7427814981,77.427824,0,1.1673884888,18300,2018-04-07 06:01:10,14,0,16.364,5587.7427814981,77.427824,0.223694,1.28236224576,0,0,-7.82929,103.8, -0.7, 3.4,0,1,1024,1024,1520,1022,105.1,-21.6,99,4.112,4.112,4.109,4.109,0,0,14.438,84.11,6,P-GPS,
0.339538234873366,36.9018861869964,5589.0551174981,78.74016,0,1.1678642106,18400,2018-04-07 06:01:10,14,0,16.364,5589.0551174981,78.74016,0.223694,1.28236224576,0,0,-7.605596,103.8, -0.6, 3.3,0,1,1024,1024,1517,1022,105.1,-22,99,4.112,4.112,4.109,4.109,0,0,14.438,84.11,6,P-GPS,
0.339538140337511,36.9018861494455,5590.0393694981,79.724412,0,1.16983599544,18500,2018-04-07 06:01:10,14,0,16.364,5590.0393694981,79.724412,0.223694,1.28236224576,0,0,-7.605596,103.9, -0.3, 3.5,0,1,1024,1024,1517,1023,105,-22.4,99,4.112,4.112,4.109,4.109,0,0,14.438,84.11,6,P-GPS,
0.339538057904861,36.901886138096,5591.0236214981,80.708664,0,1.16501316064,18600,2018-04-07 06:01:10,14,0,16.205,5591.0236214981,80.708664,0.223694,1.28236224576,0,0,-7.381902,103.9, -0.1, 3.8,0,1,1024,1024,1519,1023,105,-22.8,99,4.112,4.112,4.109,4.109,0,0,14.438,84.11,6,P-GPS,
0.339537955382302,36.9018861285234,5592.3359574981,82.021,0,1.15849085072,18700,2018-04-07 06:01:10,14,0,16.205,5592.3359574981,82.021,0.223694,1.28236224576,0,0,-7.158208,103.9, 0, 3.9,0,1,1024,1024,1512,1024,105,-23.1,99,4.112,4.112,4.109,4.109,0,0,14.438,84.11,6,P-GPS,
0.339537838795075,36.9018861355097,5593.3202094981,83.005252,0,1.14615161148,18800,2018-04-07 06:01:10,14,0,16.205,5593.3202094981,83.005252,0.223694,1.28236224576,0,0,-7.381902,104, 0.1, 3.8,0,1,1024,1024,1509,1023,105,-23.5,99,4.112,4.112,4.109,4.109,0,0,14.438,84.11,6,P-GPS,
0.339537711845652,36.9018861294053,5594.6325454981,84.317588,0,1.13930777924,18900,2018-04-07 06:01:10,14,0,16.205,5594.6325454981,84.317588,0.223694,1.28236224576,0,0,-7.381902,104, 0.1, 3.7,0,1,1024,1024,1500,1023,105,-23.5,99,4.112,4.112,4.109,4.109,0,0,14.438,84.11,6,P-GPS,
0.339537607547478,36.9018861247214,5595.6167974981,85.30184,0,1.13495082372,19000,2018-04-07 06:01:10,14,0,16.205,5595.6167974981,85.30184,0.223694,1.28236224576,0,0,-7.158208,104, 0, 3.6,0,1,1024,1024,1496,1024,105,-23.7,99,4.112,4.112,4.109,4.109,0,0,14.438,84.11,6,P-GPS,
0.33953749883785,36.9018860983991,5596.6010494981,86.286092,0,1.13953743804,19100,2018-04-07 06:01:10,14,0,16.205,5596.6010494981,86.286092,0.223694,1.28236224576,0,0,-7.158208,104, -0.3, 3.5,0,1,1024,1024,1487,1024,104.9,-23.9,99,4.112,4.112,4.109,4.109,0,0,14.438,84.11,6,P-GPS,
0.339537411392442,36.901886072835,5597.9133854981,87.598428,0,1.1458661784,19200,2018-04-07 06:01:10,14,0,16.205,5597.9133854981,87.598428,0.223694,1.28236224576,0,0,-7.158208,103.9, -0.3, 3.5,0,1,1024,1024,1455,1024,104.9,-24.1,99,4.112,4.112,4.109,4.109,0,0,14.438,84.11,6,P-GPS,
0.33953732286412,36.9018860498758,5598.8976374981,88.58268,0,1.152148987,19300,2018-04-07 06:01:11,14,0,16.205,5598.8976374981,88.58268,0.223694,1.28236224576,0,0,-6.934514,104, -0.1, 3.8,0,1,1024,1024,1433,1024,104.9,-24.1,99,4.112,4.112,4.109,4.109,0,0,14.438,84.11,6,P-GPS,
0.339537241513572,36.9018860552642,5599.8818894981,89.566932,0,1.14907812076,19400,2018-04-07 06:01:11,14,0,16.205,5599.8818894981,89.566932,0.223694,1.28236224576,0,0,-6.934514,104, 0, 3.9,0,1,1024,1024,1434,1024,104.9,-24.1,99,4.112,4.112,4.109,4.109,0,0,14.438,84.11,6,P-GPS,
0.339537159540144,36.9018860497923,5600.8661414981,90.551184,0,1.15073494496,19500,2018-04-07 06:01:11,14,0,16.205,5600.8661414981,90.551184,0.223694,1.28236224576,0,0,-6.487126,104, -0.2, 4,0,1,1024,1024,1469,1024,104.9,-24.1,99,4.112,4.112,4.109,4.109,0,0,14.438,84.11,6,P-GPS,
0.339537094355159,36.9018860614903,5601.8503934981,91.535436,0,1.14675528604,19600,2018-04-07 06:01:11,14,0,16.311,5601.8503934981,91.535436,0.223694,1.28236224576,0,0,-6.039738,104, 0.1, 3.7,0,1,1024,1024,1513,1024,104.9,-24.1,99,4.11,4.101,4.087,4.084,0,0,16.54,84.11,6,P-GPS,
0.339537016084405,36.9018860659874,5602.8346454981,92.519688,0,1.1461122414,19700,2018-04-07 06:01:11,14,0,16.311,5602.8346454981,92.519688,0.223694,1.28236224576,0,0,-5.816044,104, 0.5, 2.8,0,1,1024,1024,1533,1024,104.9,-24.1,99,4.11,4.101,4.087,4.084,0,0,16.54,84.11,6,P-GPS,
0.339536940952478,36.9018860753494,5603.8188974981,93.50394,0,1.14432746444,19800,2018-04-07 06:01:11,14,0,16.311,5603.8188974981,93.50394,0.223694,1.28236224576,0,0,-6.039738,104, 0.8, 2.5,0,1,1024,1024,1535,1024,104.9,-24.1,99,4.11,4.101,4.087,4.084,0,0,16.54,84.11,6,P-GPS,
0.339536889420367,36.9018860813218,5604.4750654981,94.160108,0,1.14365489224,19900,2018-04-07 06:01:11,14,0,16.311,5604.4750654981,94.160108,0.223694,1.28236224576,0,0,-6.487126,103.9, 0.8, 2.9,0,1,1024,1024,1535,1024,104.8,-24.1,99,4.11,4.101,4.087,4.084,0,0,16.54,84.11,6,P-GPS,
0.339536866248831,36.9018861032741,5605.7874014981,95.472444,0,1.13645344844,20000,2018-04-07 06:01:11,14,0,16.311,5605.7874014981,95.472444,0.223694,1.28236224576,0,0,-6.934514,104, 0.6, 3.4,0,1,1024,1024,1529,1024,104.8,-24.1,99,4.11,4.101,4.087,4.084,0,0,16.54,84.11,6,P-GPS,
0.339536840652948,36.9018861095639,5606.7716534981,96.456696,0,1.1351050232,20100,2018-04-07 06:01:11,14,0,16.311,5606.7716534981,96.456696,0.223694,1.28236224576,0,0,-7.158208,104, 0.2, 3.5,0,1,1024,1024,1530,1024,104.8,-24.1,99,4.11,4.101,4.087,4.084,0,0,16.54,84.11,6,P-GPS,
0.339536810212851,36.9018861076941,5607.7559054981,97.440948,0,1.13699478704,20200,2018-04-07 06:01:11,14,0,16.311,5607.7559054981,97.440948,0.223694,1.28236224576,0,0,-7.381902,104, 0.2, 3.3,0,1,1024,1024,1534,1024,104.8,-24.1,99,4.11,4.101,4.087,4.084,0,0,16.54,84.11,6,P-GPS,
0.339536772750904,36.9018860922345,5609.0682414981,98.753284,0,1.1442257584,20300,2018-04-07 06:01:12,14,0,16.311,5609.0682414981,98.753284,0.223694,1.28236224576,0,0,-7.605596,104.1, 0.5, 3.3,0,1,1024,1024,1535,1024,104.8,-24.1,99,4.11,4.101,4.087,4.084,0,0,16.54,84.11,6,P-GPS,
0.339536734107521,36.9018860675221,5610.3805774981,100.06562,0,1.15500659864,20400,2018-04-07 06:01:12,14,0,16.311,5610.3805774981,100.06562,0.223694,1.28236224576,0,0,-7.605596,104.1, 0.6, 2.9,0,1,1024,1024,1542,1024,104.8,-24.1,99,4.11,4.101,4.087,4.084,0,0,16.54,84.11,6,P-GPS,
0.339536709016456,36.9018860457245,5611.3648294981,101.049872,0,1.1641568614,20500,2018-04-07 06:01:12,14,0,16.311,5611.3648294981,101.049872,0.223694,1.28236224576,0,0,-7.605596,104, 0.3, 2.9,0,1,1024,1024,1546,1024,104.8,-24.1,99,4.11,4.101,4.087,4.084,0,0,16.54,84.11,6,P-GPS,
0.339536678404966,36.9018860671437,5612.3490814981,102.034124,0,1.15808402656,20600,2018-04-07 06:01:12,14,0,16.364,5612.3490814981,102.034124,0.223694,1.28236224576,0,0,-7.605596,104, 0.3, 3,0,1,1024,1024,1546,1024,104.8,-24.1,99,4.124,4.12,4.115,4.12,0,0,14.282,84.11,6,P-GPS,
0.339536668280929,36.9018861006741,5613.6614174981,103.34646,0,1.146571559,20700,2018-04-07 06:01:12,14,0,16.364,5613.6614174981,103.34646,0.223694,1.28236224576,0,0,-7.82929,104, 0.4, 3.6,0,1,1024,1024,1548,1024,104.8,-24.1,99,4.124,4.12,4.115,4.12,0,0,14.282,84.11,6,P-GPS,
0.339536675838945,36.9018860835706,5614.9737534981,104.658796,0,1.15230646732,20800,2018-04-07 06:01:12,14,0,16.364,5614.9737534981,104.658796,0.223694,1.28236224576,0,0,-7.82929,104, 0.6, 3.8,0,1,1024,1024,1553,1024,104.8,-24.1,99,4.124,4.12,4.115,4.12,0,0,14.282,84.11,6,P-GPS,
0.339536683953889,36.9018860825508,5615.9580054981,105.643048,0,1.15221788464,20900,2018-04-07 06:01:12,14,0,16.364,5615.9580054981,105.643048,0.223694,1.28236224576,0,0,-7.82929,104, 0.4, 3.7,0,1,1024,1024,1556,1024,104.7,-24.1,99,4.124,4.12,4.115,4.12,0,0,14.282,84.11,6,P-GPS,
0.339536686495075,36.9018861078638,5617.2703414981,106.955384,0,1.14294951164,21000,2018-04-07 06:01:12,14,0,16.364,5617.2703414981,106.955384,0.223694,1.28236224576,0,0,-8.052984,104, 0.4, 3.5,0,1,1024,1024,1564,1023,104.7,-24.1,99,4.124,4.12,4.115,4.12,0,0,14.282,84.11,6,P-GPS,
0.339536677519092,36.9018861337418,5618.5826774981,108.26772,0,1.13412733288,21100,2018-04-07 06:01:12,14,0,16.364,5618.5826774981,108.26772,0.223694,1.28236224576,0,0,-8.052984,104, 0.5, 3.6,0,1,1024,1024,1570,1024,104.7,-24.1,99,4.124,4.12,4.115,4.12,0,0,14.282,84.11,6,P-GPS,
0.339536659527636,36.9018861597667,5619.5669294981,109.251972,0,1.12580712264,21200,2018-04-07 06:01:12,14,0,16.364,5619.5669294981,109.251972,0.223694,1.28236224576,0,0,-8.276678,104, 0.6, 3.8,0,1,1024,1024,1568,1024,104.7,-24.1,99,4.124,4.12,4.115,4.12,0,0,14.282,84.11,6,P-GPS,
0.339536646832286,36.9018861881425,5620.8792654981,110.564308,0,1.1163714268,21300,2018-04-07 06:01:13,14,0,16.364,5620.8792654981,110.564308,0.223694,1.28236224576,0,0,-8.276678,104, 0.4, 4,0,1,1024,1024,1568,1024,104.7,-24.1,99,4.124,4.12,4.115,4.12,0,0,14.282,84.11,6,P-GPS,
0.339536622868919,36.901886145958,5622.1916014981,111.876644,0,1.13303481316,21400,2018-04-07 06:01:13,13,0,16.364,5622.1916014981,111.876644,0.223694,1.28236224576,0,0,-8.276678,103.9, 0, 3.9,0,1,1024,1024,1570,1022,104.7,-24.1,99,4.124,4.12,4.115,4.12,0,0,14.282,84.11,6,P-GPS,
0.339536570962673,36.9018861534662,5624.8162734981,114.501316,0.223694,1.13380581056,21600,2018-04-07 06:01:13,14,0,16.231,5624.8162734981,114.501316,0.223694,1.28236224576,0,0.223694,-8.276678,104, 0.9, 3.9,0,1,1024,1024,1569,1022,104.7,-24.1,99,4.124,4.12,4.115,4.12,0,0,16.052,84.11,6,P-GPS,
0.339536548394882,36.9018862041235,5625.8005254981,115.485568,0,1.11729662368,21700,2018-04-07 06:01:13,14,0,16.231,5625.8005254981,115.485568,0.223694,1.28236224576,0,0,-8.276678,104, 1.7, 4.1,0,1,1024,1024,1564,1022,104.7,-24.1,99,4.124,4.12,4.115,4.12,0,0,16.052,84.11,6,P-GPS,
0.339536524202311,36.9018862217409,5627.1128614981,116.797904,0,1.11282155792,21800,2018-04-07 06:01:13,14,0,16.231,5627.1128614981,116.797904,0.223694,1.28236224576,0,0,-8.500372,104, 1.9, 4.3,0,1,1024,1024,1578,1022,104.6,-24.1,99,4.124,4.12,4.115,4.12,0,0,16.052,84.11,6,P-GPS,
0.339536419437588,36.9018862315838,5629.7375334981,119.422576,0,1.11798888092,22000,2018-04-07 06:01:13,14,0,16.231,5629.7375334981,119.422576,0.223694,1.28236224576,0,0,-8.500372,104.1, 2, 3.6,0,1,1024,1024,1578,1022,104.6,-24.1,99,4.124,4.12,4.115,4.12,0,0,16.052,84.11,6,P-GPS,
0.339536361539483,36.9018862030976,5631.0498694981,120.734912,0,1.1333497738,22100,2018-04-07 06:01:13,14,0,16.231,5631.0498694981,120.734912,0.223694,1.28236224576,0,0,-8.500372,104, 1, 3.3,0,1,1024,1024,1569,1022,104.6,-24.1,99,4.124,4.12,4.115,4.12,0,0,16.052,84.11,6,P-GPS,
0.339536337264268,36.9018860815552,5632.3622054981,122.047248,0,1.17848100884,22200,2018-04-07 06:01:13,14,0,16.231,5632.3622054981,122.047248,0.223694,1.28236224576,0,0,-8.500372,104, 0, 2.9,0,1,1024,1024,1570,1022,104.6,-24.1,99,4.124,4.12,4.115,4.12,0,0,16.052,84.11,6,P-GPS,
0.339536321162621,36.9018860121223,5633.6745414981,123.359584,0,1.20447182332,22300,2018-04-07 06:01:14,14,0,16.231,5633.6745414981,123.359584,0.223694,1.28236224576,0,0,-8.500372,103.9, 0, 3,0,1,1024,1024,1571,1022,104.6,-24.1,99,4.124,4.12,4.115,4.12,0,0,16.052,84.11,6,P-GPS,
0.339536303902336,36.9018859409139,5634.9868774981,124.67192,0,1.2312008268,22400,2018-04-07 06:01:14,14,0,16.231,5634.9868774981,124.67192,0.223694,1.28236224576,0,0,-8.500372,103.9, 0.4, 3.8,0,1,1024,1024,1561,1022,104.6,-24.1,99,4.124,4.12,4.115,4.12,0,0,16.052,84.11,6,P-GPS,
0.339536280417324,36.9018859158627,5636.2992134981,125.984256,0,1.24223757256,22500,2018-04-07 06:01:14,14,0,16.231,5636.2992134981,125.984256,0.223694,1.28236224576,0,0,-8.500372,103.9, 0.6, 3.9,0,1,1024,1024,1556,1022,104.6,-24.1,99,4.124,4.12,4.115,4.12,0,0,16.052,84.11,6,P-GPS,
0.339536217714495,36.9018859241717,5637.2834654981,126.968508,0,1.24546263828,22600,2018-04-07 06:01:14,14,0,16.258,5637.2834654981,126.968508,0.223694,1.28236224576,0,0,-8.276678,104, 0.9, 3.5,0,1,1024,1024,1556,1022,104.6,-24.1,98,4.104,4.094,4.083,4.08,0,0,16.052,84.11,6,P-GPS,
0.3395361528381,36.9018859540016,5638.5958014981,128.280844,0,1.24184059092,22700,2018-04-07 06:01:14,14,0,16.258,5638.5958014981,128.280844,0.223694,1.28236224576,0,0,-8.052984,104, 1, 3.1,0,1,1024,1024,1547,1022,104.6,-24.1,98,4.104,4.094,4.083,4.08,0,0,16.052,84.11,6,P-GPS,
