latitude,longitude,altitude(feet),ascent(feet),speed(mph),distance(feet),time(millisecond),datetime(utc),satellites,voltage(v),max_altitude(feet),max_ascent(feet),max_speed(mph),max_distance(feet),compass_heading(degrees), pitch(degrees), roll(degrees),isPhoto,isVideo,rc_elevator,rc_aileron,rc_throttle,rc_rudder,gimbal_heading(degrees),gimbal_pitch(degrees),battery_percent,voltageCell1,voltageCell2,voltageCell3,voltageCell4,voltageCell5,voltageCell6,battery_temperature(f),flycStateRaw,flycState,message
0.339520694999349,36.910290375771,5398.8985602319,0,0,0,100,2017-11-13 11:35:10,10,0,5398.8985602319,0,0,0,278.3, 5.2, -0.3,0,0,1024,1024,1024,1024,282.8,0,100,4.291,4.292,4.292,4.291,0,0,71.51,41,Motors_Started,
0.339520744973242,36.9102903866664,5398.8985602319,0,0,0.0186612210696,200,2017-11-13 11:35:10,10,0,5398.8985602319,0,0,0.0186612210696,278.2, 5.1, -0.3,0,0,1024,1024,1024,1024,282.8,0,100,4.291,4.292,4.292,4.291,0,0,71.51,41,Motors_Started,
0.339520801709249,36.9102903842947,5398.8985602319,0,0,0.039057087864,300,2017-11-13 11:35:10,10,0,5398.8985602319,0,0,0.039057087864,278.2, 5.2, -0.4,0,0,1024,1024,1024,1024,282.8,0,100,4.291,4.292,4.292,4.291,0,0,71.51,41,Motors_Started,
0.339520856453872,36.9102903891528,5398.8985602319,0,0,0.059108597692,400,2017-11-13 11:35:10,10,0,5398.8985602319,0,0,0.059108597692,278.3, 5.1, -0.3,0,0,1024,1024,1024,1024,282.8,0,100,4.291,4.292,4.292,4.291,0,0,71.51,41,Motors_Started,
0.339520964251572,36.9102903798887,5398.8985602319,0,0,0.09824803464,600,2017-11-13 11:35:10,10,0,5398.8985602319,0,0,0.09824803464,278.3, 5.1, -0.3,0,0,1024,1024,1024,1024,282.8,0,100,4.291,4.292,4.292,4.291,0,0,71.51,41,Motors_Started,
0.339521011793791,36.9102904037032,5398.8985602319,0,0,0.116030515524,700,2017-11-13 11:35:11,12,0,5398.8985602319,0,0,0.116030515524,278.2, 5.2, -0.4,0,0,1024,1024,1024,1024,282.8,0,100,4.291,4.292,4.292,4.291,0,0,71.51,41,Motors_Started,
0.33952106058177,36.9102904285031,5398.8985602319,0,0,0.134762799588,800,2017-11-13 11:35:11,12,0,5398.8985602319,0,0,0.134762799588,278.3, 5.2, -0.4,0,0,754,567,611,1533,282.8,0,100,4.291,4.292,4.292,4.291,0,0,71.51,41,Motors_Started,
0.339521074210625,36.9102904460533,5398.8985602319,0,0,0.140710962508,900,2017-11-13 11:35:11,12,0,5398.8985602319,0,0,0.140710962508,278.2, 5.3, -0.4,0,0,1024,1024,1024,1024,281.7,0,100,4.291,4.292,4.292,4.291,0,0,71.51,41,Motors_Started,
0.339521097513862,36.910290463499,5398.8985602319,0,0,0.150304466752,1000,2017-11-13 11:35:11,12,17.162,5398.8985602319,0,0,0.150304466752,278.3, 5.3, -0.5,0,0,1024,1024,1024,1024,280.3,0,100,4.291,4.292,4.292,4.291,0,0,71.51,41,Motors_Started,
0.33952112432151,36.9102905035673,5398.8985602319,0,0,0.16343012334,1100,2017-11-13 11:35:11,12,17.162,5398.8985602319,0,0,0.16343012334,278.2, 5.3, -0.5,0,0,1024,1024,1024,1024,279.7,0,100,4.291,4.292,4.292,4.291,0,0,71.51,41,Motors_Started,
0.339521159392698,36.9102905388921,5398.8985602319,0,0,0.17958169866,1200,2017-11-13 11:35:11,12,17.162,5398.8985602319,0,0,0.17958169866,278.2, 5.2, -0.4,0,0,1024,1024,1024,1024,279.4,0,100,4.291,4.292,4.292,4.291,0,0,71.51,41,Motors_Started,
0.339521199578625,36.9102906355776,5398.8985602319,0,0,0.20706529534,1300,2017-11-13 11:35:11,12,17.162,5398.8985602319,0,0,0.20706529534,278.2, 5.4, -0.5,0,0,1024,1024,1024,1024,279.2,0,100,4.291,4.292,4.292,4.291,0,0,71.51,41,Motors_Started,
0.33952123982684,36.9102907155786,5398.8985602319,0,0,0.234272645292,1400,2017-11-13 11:35:11,12,17.162,5398.8985602319,0,0,0.234272645292,278.2, 5.3, -0.4,0,0,1024,1024,1024,1024,279.2,0,100,4.291,4.292,4.292,4.291,0,0,71.51,41,Motors_Started,
0.339521285534413,36.9102908070157,5398.8985602319,0,0,0.266788722448,1500,2017-11-13 11:35:11,12,17.162,5398.8985602319,0,0,0.266788722448,278.2, 5.4, -0.5,0,0,1024,1024,1024,1024,279.1,0,100,4.291,4.292,4.292,4.291,0,0,71.51,41,Motors_Started,
0.339521332783512,36.9102908823461,5398.8985602319,0,0,0.297162739168,1600,2017-11-13 11:35:11,12,17.162,5398.8985602319,0,0,0.297162739168,278.2, 5, -0.3,0,0,1024,1024,1024,1024,279,0,100,4.291,4.292,4.292,4.291,0,0,71.51,10,Assisted_Takeoff,
0.339521348368739,36.9102909954662,5398.8985602319,0,0,0.32854659844,1700,2017-11-13 11:35:12,12,17.162,5398.8985602319,0,0,0.32854659844,278.2, 5.2, -0.4,0,0,1024,1024,1024,1024,278.9,0,100,4.291,4.292,4.292,4.291,0,0,71.51,10,Assisted_Takeoff,
0.33952136804767,36.910291096141,5398.8985602319,0,0,0.35968833172,1800,2017-11-13 11:35:12,12,17.162,5398.8985602319,0,0,0.35968833172,278.3, 5, -0.3,0,0,1024,1024,1024,1024,278.8,0,100,4.291,4.292,4.292,4.291,0,0,71.51,10,Assisted_Takeoff,
0.339521395611731,36.9102911933431,5398.8985602319,0,0,0.39282809656,1900,2017-11-13 11:35:12,12,17.162,5398.8985602319,0,0,0.39282809656,278.2, 5.3, -0.4,0,0,1024,1024,1024,1024,278.8,0,100,4.291,4.292,4.292,4.291,0,0,71.51,10,Assisted_Takeoff,
0.339521428024891,36.9102912792023,5398.8985602319,0,0,0.42446523668,2000,2017-11-13 11:35:12,12,16.892,5398.8985602319,0,0,0.42446523668,278.2, 5.1, -0.3,0,0,1024,1024,1024,1024,278.8,0,100,4.284,4.287,4.287,4.288,0,0,71.51,10,Assisted_Takeoff,
0.339521471793598,36.9102913908901,5398.8985602319,0,0,0.46635828264,2100,2017-11-13 11:35:12,12,16.892,5398.8985602319,0,0,0.46635828264,278.2, 5.2, -0.4,0,0,1024,1024,1024,1024,278.7,0,100,4.284,4.287,4.287,4.288,0,0,71.51,10,Assisted_Takeoff,
0.339521515496557,36.9102914911195,5398.8985602319,0,0,0.50517718152,2200,2017-11-13 11:35:12,12,16.892,5398.8985602319,0,0,0.50517718152,278.2, 5.1, -0.3,0,0,1024,1024,1024,1024,278.7,0,100,4.284,4.287,4.287,4.288,0,0,71.51,10,Assisted_Takeoff,
0.339521528754941,36.9102915739688,5398.8985602319,0,0,0.5325787572,2300,2017-11-13 11:35:12,12,16.892,5398.8985602319,0,0,0.5325787572,278.2, 5.2, -0.4,0,0,1024,1024,1024,1024,278.7,0,100,4.284,4.287,4.287,4.288,0,0,71.51,10,Assisted_Takeoff,
0.339521549901507,36.9102916507373,5398.8985602319,0,0,0.56005907304,2400,2017-11-13 11:35:12,12,16.892,5398.8985602319,0,0,0.56005907304,278.2, 5.1, -0.3,0,0,1024,1024,1024,1024,278.7,0,100,4.284,4.287,4.287,4.288,0,0,71.51,10,Assisted_Takeoff,
0.339521580312902,36.9102917107945,5398.8985602319,0,0,0.58444227592,2500,2017-11-13 11:35:12,12,16.892,5398.8985602319,0,0,0.58444227592,278.2, 5.2, -0.4,0,0,1024,1024,1024,1024,278.7,0,100,4.284,4.287,4.287,4.288,0,0,71.51,10,Assisted_Takeoff,
0.339521615190509,36.9102917724156,5398.8985602319,0,0,0.61021655496,2600,2017-11-13 11:35:12,12,16.892,5398.8985602319,0,0,0.61021655496,278.2, 5.1, -0.3,0,0,1024,1024,1024,1024,278.6,0,100,4.284,4.287,4.287,4.288,0,0,71.51,10,Assisted_Takeoff,
0.339521653894755,36.9102918467121,5398.8985602319,0,0,0.64062666092,2700,2017-11-13 11:35:13,12,16.892,5398.8985602319,0,0,0.64062666092,278.2, 5.1, -0.4,0,0,1024,1024,1024,1024,278.6,0,100,4.284,4.287,4.287,4.288,0,0,71.51,10,Assisted_Takeoff,
0.339521694610333,36.9102919198771,5398.8985602319,0,0,0.67110566452,2800,2017-11-13 11:35:13,12,16.892,5398.8985602319,0,0,0.67110566452,278.2, 5.1, -0.4,0,0,1024,1024,1024,1024,278.6,0,100,4.284,4.287,4.287,4.288,0,0,71.51,10,Assisted_Takeoff,
0.339521711601518,36.9102919877228,5398.8985602319,0,0,0.69530185952,2900,2017-11-13 11:35:13,12,16.892,5398.8985602319,0,0,0.69530185952,278.2, 5.1, -0.4,0,0,1024,1024,1024,1024,278.6,0,100,4.284,4.287,4.287,4.288,0,0,71.51,10,Assisted_Takeoff,
0.33952173319326,36.9102920552422,5398.8985602319,0,0,0.72037075796,3000,2017-11-13 11:35:13,12,17.162,5398.8985602319,0,0,0.72037075796,278.2, 5.1, -0.3,0,0,1024,1024,1024,1024,278.6,0,100,4.274,4.287,4.283,4.285,0,0,71.51,10,Assisted_Takeoff,
0.339521765164909,36.9102921434459,5398.8985602319,0,0,0.75390750444,3100,2017-11-13 11:35:13,12,17.162,5398.8985602319,0,0,0.75390750444,278.2, 5.1, -0.4,0,0,1024,1024,1024,1024,278.6,0,100,4.274,4.287,4.283,4.285,0,0,71.51,10,Assisted_Takeoff,
0.339521799994069,36.9102922276868,5398.8985602319,0,0,0.78679792544,3200,2017-11-13 11:35:13,12,17.162,5398.8985602319,0,0,0.78679792544,278.3, 5.1, -0.3,0,0,1024,1024,1024,1024,278.6,0,100,4.274,4.287,4.283,4.285,0,0,71.51,10,Assisted_Takeoff,
0.339521808022705,36.9102922970188,5398.8985602319,0,0,0.8100886086,3300,2017-11-13 11:35:13,12,17.162,5398.8985602319,0,0,0.8100886086,278.3, 5.1, -0.4,0,0,1024,1024,1024,1024,278.6,0,100,4.274,4.287,4.283,4.285,0,0,71.51,10,Assisted_Takeoff,
0.339521823533023,36.9102923648093,5398.8985602319,0,0,0.83436026292,3400,2017-11-13 11:35:13,12,17.162,5398.8985602319,0,0,0.83436026292,278.3, 5, -0.3,0,0,1024,1024,1025,1024,278.6,0,100,4.274,4.287,4.283,4.285,0,0,71.51,10,Assisted_Takeoff,
0.339521852445639,36.9102924549688,5398.8985602319,0,0,0.86820212752,3500,2017-11-13 11:35:13,12,17.162,5398.8985602319,0,0,0.86820212752,278.3, 5.1, -0.4,0,0,1024,1024,1058,1024,278.6,0,100,4.274,4.287,4.283,4.285,0,0,71.51,10,Assisted_Takeoff,
0.339521883511058,36.9102925405388,5398.8985602319,0,0,0.90101052752,3600,2017-11-13 11:35:13,12,17.162,5398.8985602319,0,0,0.90101052752,278.3, 5.1, -0.4,0,0,1024,1024,1024,1024,278.6,0,100,4.274,4.287,4.283,4.285,0,0,71.51,10,Assisted_Takeoff,
0.339521929289469,36.9102926066886,5398.8985602319,0,0,0.93020672268,3700,2017-11-13 11:35:13,12,17.162,5398.8985602319,0,0,0.93020672268,278.3, 5.1, -0.4,0,0,1024,1024,1024,1024,278.6,0,100,4.274,4.287,4.283,4.285,0,0,71.51,10,Assisted_Takeoff,
0.339521972180241,36.9102926733299,5398.8985602319,0,0,0.95906171048,3800,2017-11-13 11:35:14,12,17.162,5398.8985602319,0,0,0.95906171048,278.3, 5.1, -0.3,0,0,1024,1024,1024,1024,278.6,0,100,4.274,4.287,4.283,4.285,0,0,71.51,10,Assisted_Takeoff,
0.339521989683164,36.9102927586279,5398.8985602319,0,0,0.98940948048,3900,2017-11-13 11:35:14,12,17.162,5398.8985602319,0,0,0.98940948048,278.3, 5.1, -0.3,0,0,1024,1024,1024,1024,278.6,0,100,4.274,4.287,4.283,4.285,0,0,71.51,10,Assisted_Takeoff,
0.339522010285627,36.9102928420209,5398.8985602319,0,0,1.01976381216,4000,2017-11-13 11:35:14,12,17.108,5398.8985602319,0,0,1.01976381216,278.3, 5.1, -0.3,0,0,1024,1024,1024,1024,278.6,0,99,4.283,4.286,4.286,4.285,0,0,73.31,10,Assisted_Takeoff,
0.33952200726527,36.910292907209,5398.8985602319,0,0,1.04030187056,4100,2017-11-13 11:35:14,12,17.108,5398.8985602319,0,0,1.04030187056,278.3, 5.1, -0.4,0,0,1024,1024,1024,1024,278.6,0,99,4.283,4.286,4.286,4.285,0,0,73.31,10,Assisted_Takeoff,
0.339522013916039,36.9102929733527,5398.8985602319,0,0,1.06288061144,4200,2017-11-13 11:35:14,12,17.108,5398.8985602319,0,0,1.06288061144,278.3, 5.1, -0.4,0,0,1024,1024,1024,1024,278.6,0,99,4.283,4.286,4.286,4.285,0,0,73.31,10,Assisted_Takeoff,
0.339522038931585,36.9102930196469,5398.8985602319,0,0,1.0820702446,4300,2017-11-13 11:35:14,12,17.108,5398.8985602319,0,0,1.0820702446,278.3, 5.1, -0.4,0,0,1024,1024,1024,1024,278.6,0,99,4.283,4.286,4.286,4.285,0,0,73.31,10,Assisted_Takeoff,
0.339522065937497,36.9102930715121,5398.8985602319,0,0,1.10340554712,4400,2017-11-13 11:35:14,12,17.108,5398.8985602319,0,0,1.10340554712,278.3, 5.1, -0.3,0,0,1024,1024,1024,1024,278.6,0,99,4.283,4.286,4.286,4.285,0,0,73.31,10,Assisted_Takeoff,
0.339522074102108,36.9102931082877,5398.8985602319,0,0,1.11671919584,4500,2017-11-13 11:35:14,12,17.108,5398.8985602319,0,0,1.11671919584,278.3, 5.1, -0.4,0,0,1024,1024,1029,1024,278.6,0,99,4.283,4.286,4.286,4.285,0,0,73.31,10,Assisted_Takeoff,
0.339522085907309,36.9102931532865,5398.8985602319,0,0,1.13332352708,4600,2017-11-13 11:35:14,12,17.108,5398.8985602319,0,0,1.13332352708,278.3, 5.1, -0.3,0,0,1024,1024,1223,1024,278.6,0,99,4.283,4.286,4.286,4.285,0,0,73.31,10,Assisted_Takeoff,
0.339522117411594,36.9102931876115,5398.8985602319,0,0,1.14967523364,4700,2017-11-13 11:35:15,12,17.108,5398.8985602319,0,0,1.14967523364,278.3, 5.1, -0.3,0,0,1024,1024,1331,1024,278.6,0,99,4.283,4.286,4.286,4.285,0,0,73.31,10,Assisted_Takeoff,
0.33952214948787,36.9102932287627,5398.8985602319,0,0,1.16836289828,4800,2017-11-13 11:35:15,12,17.108,5398.8985602319,0,0,1.16836289828,278.3, 5.2, -0.4,0,0,1024,1024,1581,1024,278.6,0,99,4.283,4.286,4.286,4.285,0,0,73.31,10,Assisted_Takeoff,
0.339522162774344,36.9102932652787,5398.8985602319,0,0,1.18243442104,4900,2017-11-13 11:35:15,12,17.108,5398.8985602319,0,0,1.18243442104,278.3, 5.2, -0.4,0,0,1024,1024,1684,1024,278.6,0,99,4.283,4.286,4.286,4.285,0,0,73.31,10,Assisted_Takeoff,
0.339522177708397,36.9102933087315,5398.8985602319,0,0,1.19903875228,5000,2017-11-13 11:35:15,12,17.135,5398.8985602319,0,0,1.19903875228,278.2, 5.3, -0.5,0,0,1024,1024,1684,1024,278.6,0,99,4.283,4.286,4.286,4.285,0,0,73.31,10,Assisted_Takeoff,
0.339522210331423,36.9102933883904,5398.8985602319,0,0,1.2303478084,5100,2017-11-13 11:35:15,12,17.135,5398.8985602319,0,0,1.2303478084,278.5, 5.1, -0.5,0,0,1024,1024,1684,1024,278.6,0,99,4.283,4.286,4.286,4.285,0,0,73.31,10,Assisted_Takeoff,
0.339522222098966,36.9102934993795,5398.8985602319,0,0,1.26853350516,5200,2017-11-13 11:35:15,12,17.135,5398.8985602319,0,0,1.26853350516,278.5, 3.7, -0.1,0,0,1024,1024,1684,1024,278.6,0,99,4.283,4.286,4.286,4.285,0,0,73.31,10,Assisted_Takeoff,
0.339522182359233,36.910293651349,5398.8985602319,0,0,1.31250988452,5300,2017-11-13 11:35:15,12,17.135,5398.8985602319,0,0,1.31250988452,278.5, 2.7, 0,0,0,1024,1024,1684,1024,278.6,0,99,4.283,4.286,4.286,4.285,0,0,73.31,6,GPS_Atti,
0.339522111266661,36.910293824407,5398.8985602319,0,0.31540854,1.36018377056,5400,2017-11-13 11:35:15,12,17.135,5398.8985602319,0,0.31540854,1.36018377056,278.6, 1.7, -0.1,0,0,1024,1024,1684,1024,278.6,0,99,4.283,4.286,4.286,4.285,0,0,73.31,6,GPS_Atti,
0.339521999809236,36.9102940135891,5398.8985602319,0,0.31540854,1.41002629184,5500,2017-11-13 11:35:15,12,17.135,5398.8985602319,0,0.31540854,1.41002629184,278.7, -0.3, 0,0,0,1024,1024,1684,1024,278.6,0,99,4.283,4.286,4.286,4.285,0,0,73.31,6,GPS_Atti,Obstacle Avoided. Revise Flight Route
0.339521853686106,36.9102941616728,5399.2266442319,0.328084,0.447388,1.4445046394,5600,2017-11-13 11:35:16,12,17.135,5399.2266442319,0.328084,0.447388,1.4445046394,278.3, -1.5, -0.2,0,0,1024,1024,1684,1024,278.6,0,99,4.283,4.286,4.286,4.285,0,0,73.31,6,GPS_Atti,
0.339521634053386,36.9102942781295,5399.8828122319,0.984252,0.447388,1.46439309148,5700,2017-11-13 11:35:16,12,17.135,5399.8828122319,0.984252,0.447388,1.46439309148,278.2, -1, 1.2,0,0,1024,1024,1684,1024,278.6,0,99,4.283,4.286,4.286,4.285,0,0,73.31,6,GPS_Atti,
0.339521391190506,36.9102942988481,5400.5389802319,1.64042,0.50107456,1.45367130636,5800,2017-11-13 11:35:16,12,17.135,5400.5389802319,1.64042,0.50107456,1.46439309148,278.3, 0, 3.3,0,0,1024,1024,1684,1024,278.6,0,99,4.283,4.286,4.286,4.285,0,0,73.31,6,GPS_Atti,
0.339521134604931,36.9102941184896,5401.1951482319,2.296588,0.63305402,1.37489177628,5900,2017-11-13 11:35:16,12,17.135,5401.1951482319,2.296588,0.63305402,1.46439309148,278.5, 1.8, 3.5,0,0,1024,1024,1684,1024,278.6,0,99,4.283,4.286,4.286,4.285,0,0,73.31,6,GPS_Atti,
0.339520926066392,36.9102939427877,5402.1794002319,3.28084,0.31540854,1.30412733832,6000,2017-11-13 11:35:16,12,16.595,5402.1794002319,3.28084,0.63305402,1.46439309148,278.4, 2.9, 2.4,0,0,1024,1024,1684,1024,278.6,0,99,4.259,4.263,4.256,4.257,0,0,73.31,6,GPS_Atti,Home Point Recorded. RTH Altitude:  30m.
0.339520723363383,36.910293809109,5403.1636522319,4.265092,0.50107456,1.25267064376,6100,2017-11-13 11:35:16,12,16.595,5403.1636522319,4.265092,0.63305402,1.46439309148,278.4, 1.9, 2.9,0,0,1024,1024,1684,1024,278.6,0,99,4.259,4.263,4.256,4.257,0,0,73.31,6,GPS_Atti,
0.33952052682322,36.9102936884443,5404.4759882319,5.577428,0.50107456,1.21016079988,6200,2017-11-13 11:35:16,12,16.595,5404.4759882319,5.577428,0.63305402,1.46439309148,278.4, 1.8, 2.9,0,0,1024,1024,1684,1049,278.6,0,99,4.259,4.263,4.256,4.257,0,0,73.31,6,GPS_Atti,
0.339520317077394,36.9102935853376,5405.7883242319,6.889764,0.63305402,1.17907812172,6300,2017-11-13 11:35:16,12,16.595,5405.7883242319,6.889764,0.63305402,1.46439309148,278.4, 1.5, 3.6,0,0,1024,1024,1684,1055,278.6,0,99,4.259,4.263,4.256,4.257,0,0,73.31,6,GPS_Atti,
0.339520105095308,36.9102934357496,5407.4287442319,8.530184,0.63305402,1.13696854032,6400,2017-11-13 11:35:16,12,16.595,5407.4287442319,8.530184,0.63305402,1.46439309148,278.5, 2.2, 5,0,0,1024,1024,1684,1050,278.6,0,99,4.259,4.263,4.256,4.257,0,0,73.31,6,GPS_Atti,
0.339519922546532,36.9102932490554,5408.7410802319,9.84252,0.50107456,1.08552168828,6500,2017-11-13 11:35:16,12,16.595,5408.7410802319,9.84252,0.63305402,1.46439309148,278.7, 3.1, 6.3,0,0,1024,1024,1684,1050,278.6,0,99,4.259,4.263,4.256,4.257,0,0,73.31,6,GPS_Atti,
0.33951983031808,36.9102930626792,5410.7095842319,11.811024,0.447388,1.02981302508,6600,2017-11-13 11:35:16,12,16.595,5410.7095842319,11.811024,0.63305402,1.46439309148,278.9, 3.7, 5.3,0,0,1024,1024,1684,1045,278.6,-0.1,99,4.259,4.263,4.256,4.257,0,0,73.31,6,GPS_Atti,
0.339519847905275,36.910292857127,5412.3500042319,13.451444,0.447388,0.95660764216,6700,2017-11-13 11:35:16,12,16.595,5412.3500042319,13.451444,0.63305402,1.46439309148,278.8, 4.9, 1.5,0,0,1024,1024,1684,1024,278.6,-1.4,99,4.259,4.263,4.256,4.257,0,0,73.31,6,GPS_Atti,
0.339519844149676,36.9102926865592,5413.9904242319,15.091864,0.447388,0.89841210224,6800,2017-11-13 11:35:17,12,16.595,5413.9904242319,15.091864,0.63305402,1.46439309148,278.7, 4.5, 0.8,0,0,1024,1024,1684,1023,278.6,-3.6,99,4.259,4.263,4.256,4.257,0,0,73.31,6,GPS_Atti,
0.339519822449438,36.9102925655085,5415.6308442319,16.732284,0.63305402,0.86000330836,6900,2017-11-13 11:35:17,12,16.595,5415.6308442319,16.732284,0.63305402,1.46439309148,278.6, 3.2, 2.7,0,0,1024,1024,1684,889,278.5,-5.7,99,4.259,4.263,4.256,4.257,0,0,73.31,6,GPS_Atti,
0.339519740693611,36.9102924171284,5417.2712642319,18.372704,0.63305402,0.82214241476,7000,2017-11-13 11:35:17,12,16.164,5417.2712642319,18.372704,0.63305402,1.46439309148,278.5, 3.3, 4,0,0,1024,1024,1684,856,277.5,-7.9,99,4.08,4.104,4.083,4.097,0,0,73.31,6,GPS_Atti,
0.339519590459169,36.910292175195,5418.9116842319,20.013124,0.50107456,0.77032810864,7100,2017-11-13 11:35:17,12,16.164,5418.9116842319,20.013124,0.63305402,1.46439309148,276.9, 3.8, 4.3,0,0,1024,1024,1684,986,276.8,-10.1,99,4.08,4.104,4.083,4.097,0,0,73.31,6,GPS_Atti,
0.339519438694143,36.9102919251025,5420.5521042319,21.653544,0.50107456,0.72774936712,7200,2017-11-13 11:35:17,12,16.164,5420.5521042319,21.653544,0.63305402,1.46439309148,275.2, 4.6, 3.7,0,0,1024,1024,1684,1024,276.8,-10.1,99,4.08,4.104,4.083,4.097,0,0,73.31,6,GPS_Atti,
0.339519260107168,36.9102916110308,5422.1925242319,23.293964,0.50107456,0.69078414284,7300,2017-11-13 11:35:17,12,16.164,5422.1925242319,23.293964,0.63305402,1.46439309148,275, 4.7, 2.6,0,0,1024,1024,1684,1007,276.7,-12.2,99,4.08,4.104,4.083,4.097,0,0,73.31,6,GPS_Atti,
0.33951906351922,36.9102913129941,5423.8329442319,24.934384,0.63305402,0.6864665574,7400,2017-11-13 11:35:17,12,16.164,5423.8329442319,24.934384,0.63305402,1.46439309148,275.1, 5.3, 2,0,0,1024,1024,1684,930,276.6,-14.2,99,4.08,4.104,4.083,4.097,0,0,73.31,6,GPS_Atti,
0.339518761880401,36.9102909714788,5425.4733642319,26.574804,0.70687304,0.738024958,7500,2017-11-13 11:35:17,12,16.164,5425.4733642319,26.574804,0.70687304,1.46439309148,275, 4.2, 4.8,0,0,1024,1024,1684,895,276.3,-16.2,99,4.08,4.104,4.083,4.097,0,0,73.31,6,GPS_Atti,
0.339518460644393,36.9102906544767,5426.7857002319,27.88714,0.63305402,0.82151905516,7600,2017-11-13 11:35:17,12,16.164,5426.7857002319,27.88714,0.70687304,1.46439309148,273.9, 3.1, 5.9,0,0,1024,1024,1684,1024,275.6,-18.3,99,4.08,4.104,4.083,4.097,0,0,73.31,6,GPS_Atti,
0.339518196460117,36.9102902677813,5428.4261202319,29.52756,0.63305402,0.91244097408,7700,2017-11-13 11:35:17,12,16.164,5428.4261202319,29.52756,0.70687304,1.46439309148,272.9, 3.6, 5.4,0,0,1024,1024,1684,1024,275.3,-20.2,99,4.08,4.104,4.083,4.097,0,0,73.31,6,GPS_Atti,
0.339517973965102,36.9102898831089,5430.0665402319,31.16798,0.63305402,1.0089075126,7800,2017-11-13 11:35:18,12,16.164,5430.0665402319,31.16798,0.70687304,1.46439309148,272.9, 4.6, 4.6,0,0,1024,1024,1684,1024,275.1,-21.3,99,4.08,4.104,4.083,4.097,0,0,73.31,6,GPS_Atti,
0.339517762008663,36.910289436414,5431.7069602319,32.8084,0.63305402,1.12364176824,7900,2017-11-13 11:35:18,12,16.164,5431.7069602319,32.8084,0.70687304,1.46439309148,273, 5.7, 3.5,0,0,1024,1024,1684,1024,274.9,-21.3,99,4.08,4.104,4.083,4.097,0,0,73.31,6,GPS_Atti,
0.339517510812423,36.91028902189,5433.3473802319,34.44882,0.94846256,1.26239833436,8000,2017-11-13 11:35:18,12,16.514,5433.3473802319,34.44882,0.94846256,1.46439309148,273.1, 6.1, 4.6,0,0,1024,1024,1684,1024,274.8,-21.3,99,4.08,4.104,4.083,4.097,0,0,73.31,6,GPS_Atti,
0.339517182776324,36.9102886059889,5434.9878002319,36.08924,0.94846256,1.43491802492,8100,2017-11-13 11:35:18,12,16.514,5434.9878002319,36.08924,0.94846256,1.46439309148,273, 5.6, 6.2,0,0,1024,1024,1684,1024,274.7,-21.3,99,4.08,4.104,4.083,4.097,0,0,73.31,6,GPS_Atti,
0.339516848427561,36.9102882226203,5436.6282202319,37.72966,0.94846256,1.60832026144,8200,2017-11-13 11:35:18,12,16.514,5436.6282202319,37.72966,0.94846256,1.60832026144,272.9, 5.2, 7.5,0,0,1024,1024,1684,984,274.6,-21.3,99,4.08,4.104,4.083,4.097,0,0,73.31,6,GPS_Atti,
0.339516557939004,36.910287831409,5438.2686402319,39.37008,0.80753534,1.77201121156,8300,2017-11-13 11:35:18,12,16.514,5438.2686402319,39.37008,0.94846256,1.77201121156,273, 6, 7.2,0,0,1024,1024,1684,904,274.5,-21.3,99,4.08,4.104,4.083,4.097,0,0,73.31,6,GPS_Atti,
0.33951631333613,36.910287449729,5439.9090602319,41.0105,0.80753534,1.92232289616,8400,2017-11-13 11:35:18,12,16.514,5439.9090602319,41.0105,0.94846256,1.92232289616,272.9, 6.3, 6.5,0,0,1024,1024,1684,840,273.8,-21.3,99,4.08,4.104,4.083,4.097,0,0,73.31,6,GPS_Atti,
0.339516098516887,36.9102870615747,5441.5494802319,42.65092,0.80753534,2.06748038112,8500,2017-11-13 11:35:18,12,16.514,5441.5494802319,42.65092,0.94846256,2.06748038112,271.9, 6.7, 5.8,0,0,1024,1024,1684,832,272.5,-21.3,99,4.08,4.104,4.083,4.097,0,0,73.31,6,GPS_Atti,
0.33951589706778,36.9102867167489,5443.1899002319,44.29134,0.80753534,2.20146988672,8600,2017-11-13 11:35:19,12,16.514,5443.1899002319,44.29134,0.94846256,2.20146988672,269.6, 5.8, 5,0,0,1024,1024,1684,873,269.1,-21.3,99,4.08,4.104,4.083,4.097,0,0,73.31,6,GPS_Atti,
0.33951550580724,36.9102860887318,5446.7988242319,47.900264,0.99991218,2.45578419932,8800,2017-11-13 11:35:19,12,16.514,5446.7988242319,47.900264,0.99991218,2.45578419932,263.9, 5.5, 4.9,0,0,1024,1024,1684,967,269.1,-21.3,99,4.08,4.104,4.083,4.097,0,0,73.31,6,GPS_Atti,
0.33951531883785,36.9102856740394,5448.4392442319,49.540684,0.99991218,2.60576451908,8900,2017-11-13 11:35:19,12,16.514,5448.4392442319,49.540684,0.99991218,2.60576451908,262, 7.7, 4.3,0,0,1024,1024,1684,975,266,-21.3,99,4.08,4.104,4.083,4.097,0,0,73.31,6,GPS_Atti,
0.339515121872663,36.9102852467362,5450.0796642319,51.181104,0.99991218,2.76337607268,9000,2017-11-13 11:35:19,12,16.514,5450.0796642319,51.181104,0.99991218,2.76337607268,261.2, 9.1, 3.2,0,0,1024,1024,1684,945,266,-21.3,99,4.112,4.13,4.113,4.126,0,0,73.31,6,GPS_Atti,
0.339514881402374,36.9102847877281,5451.7200842319,52.821524,1.11847,2.94203093404,9100,2017-11-13 11:35:19,12,16.514,5451.7200842319,52.821524,1.11847,2.94203093404,260.6, 9.5, 3,0,0,1024,1024,1684,894,265,-21.3,99,4.112,4.13,4.113,4.126,0,0,73.31,6,GPS_Atti,
0.339514572621708,36.9102843696408,5453.6885882319,54.790028,1.11847,3.12912083504,9200,2017-11-13 11:35:19,12,16.514,5453.6885882319,54.790028,1.11847,3.12912083504,259.9, 9.5, 4.5,0,0,1024,1024,1684,892,263.8,-21.3,99,4.112,4.13,4.113,4.126,0,0,73.31,6,GPS_Atti,
0.339514191304448,36.9102839389012,5455.3290082319,56.430448,1.11847,3.3385171672,9300,2017-11-13 11:35:19,12,16.514,5455.3290082319,56.430448,1.11847,3.3385171672,258.6, 9.6, 5.9,0,0,1024,1024,1684,904,262.3,-21.3,99,4.112,4.13,4.113,4.126,0,0,73.31,6,GPS_Atti,
0.339513829405568,36.9102835349703,5457.2975122319,58.398952,1.11847,3.5360565436,9400,2017-11-13 11:35:19,12,16.514,5457.2975122319,58.398952,1.11847,3.5360565436,257.1, 9.7, 6.6,0,0,1024,1024,1684,890,260.9,-21.3,99,4.112,4.13,4.113,4.126,0,0,73.31,6,GPS_Atti,
0.339513519423925,36.9102831298644,5459.2660162319,60.367456,1.11847,3.7205709852,9500,2017-11-13 11:35:19,12,16.514,5459.2660162319,60.367456,1.11847,3.7205709852,255.8, 9.8, 5.9,0,0,1024,1024,1684,878,259.4,-21.3,99,4.112,4.13,4.113,4.126,0,0,73.31,6,GPS_Atti,
0.339513262057715,36.9102827387419,5460.9064362319,62.007876,0.99991218,3.8881891008,9600,2017-11-13 11:35:19,12,16.514,5460.9064362319,62.007876,1.11847,3.8881891008,254.4, 9.8, 4.3,0,0,1024,1024,1684,885,257.8,-21.3,99,4.112,4.13,4.113,4.126,0,0,73.31,6,GPS_Atti,
0.339513040538035,36.9102823030732,5462.5468562319,63.648296,0.99991218,4.0587927808,9700,2017-11-13 11:35:19,12,16.514,5462.5468562319,63.648296,1.11847,4.0587927808,252.6, 10.2, 3.1,0,0,1024,1024,1684,927,256.2,-21.3,99,4.112,4.13,4.113,4.126,0,0,73.31,6,GPS_Atti,
0.339512804415284,36.9102819110353,5464.5153602319,65.6168,0.94846256,4.2220145708,9800,2017-11-13 11:35:20,12,16.514,5464.5153602319,65.6168,1.11847,4.2220145708,250.8, 9.6, 3.4,0,0,1024,1024,1684,951,254.8,-21.3,99,4.112,4.13,4.113,4.126,0,0,73.31,6,GPS_Atti,
0.339512548793137,36.9102815123135,5466.1557802319,67.25722,1.11847,4.3921261248,9900,2017-11-13 11:35:20,12,16.514,5466.1557802319,67.25722,1.11847,4.3921261248,249.3, 9.6, 4.6,0,0,1024,1024,1684,942,253.6,-21.3,99,4.112,4.13,4.113,4.126,0,0,73.31,6,GPS_Atti,
0.339512286868098,36.9102811119628,5468.1242842319,69.225724,1.11847,4.5644358416,10000,2017-11-13 11:35:20,12,16.406,5468.1242842319,69.225724,1.11847,4.5644358416,248.4, 10.1, 5,0,0,1024,1024,1684,938,252.5,-21.3,99,4.1,4.122,4.105,4.119,0,0,73.31,6,GPS_Atti,
0.339512057684147,36.9102806529552,5469.7647042319,70.866144,0.99991218,4.74491485,10100,2017-11-13 11:35:20,12,16.406,5469.7647042319,70.866144,1.11847,4.74491485,247.8, 11.2, 3.8,0,0,1024,1024,1684,942,252.5,-21.3,99,4.1,4.122,4.105,4.119,0,0,73.31,6,GPS_Atti,
0.339511862351068,36.910280216181,5471.4051242319,72.506564,0.99991218,4.9116471388,10200,2017-11-13 11:35:20,12,16.406,5471.4051242319,72.506564,1.11847,4.9116471388,247.2, 11.9, 2.7,0,0,1024,1024,1684,954,251.5,-21.3,99,4.1,4.122,4.105,4.119,0,0,73.31,6,GPS_Atti,
0.339511727384001,36.9102798117829,5473.3736282319,74.475068,0.80753534,5.0556760148,10300,2017-11-13 11:35:20,12,16.406,5473.3736282319,74.475068,1.11847,5.0556760148,246.4, 11.5, 2.4,0,0,1024,1024,1684,1024,250.7,-21.3,99,4.1,4.122,4.105,4.119,0,0,73.31,6,GPS_Atti,
0.339511448894023,36.9102790885137,5476.9825522319,78.083992,0.80753534,5.3233925588,10500,2017-11-13 11:35:20,12,16.406,5476.9825522319,78.083992,1.11847,5.3233925588,244.9, 9.7, 1.9,0,0,1024,1024,1684,1024,249.3,-21.3,99,4.1,4.122,4.105,4.119,0,0,73.31,6,GPS_Atti,
0.339511256526748,36.9102787134407,5478.9510562319,80.052496,0.80753534,5.4738190728,10600,2017-11-13 11:35:20,12,16.406,5478.9510562319,80.052496,1.11847,5.4738190728,244.8, 11.1, 2.4,0,0,1024,1024,1684,1024,248.9,-21.3,99,4.1,4.122,4.105,4.119,0,0,73.31,6,GPS_Atti,
0.339511015876922,36.9102783103123,5480.9195602319,82.021,0.94846256,5.6434385008,10700,2017-11-13 11:35:21,12,16.406,5480.9195602319,82.021,1.11847,5.6434385008,244.7, 12.7, 2.9,0,0,1024,1024,1684,1024,248.6,-21.3,99,4.1,4.122,4.105,4.119,0,0,73.31,6,GPS_Atti,
0.339510762027744,36.9102779333593,5482.8880642319,83.989504,0.94846256,5.8086944116,10800,2017-11-13 11:35:21,12,16.406,5482.8880642319,83.989504,1.11847,5.8086944116,244.8, 13.9, 3.5,0,0,1024,1024,1684,1085,248.3,-21.3,99,4.1,4.122,4.105,4.119,0,0,73.31,6,GPS_Atti,
0.339510530765898,36.910277516329,5484.5284842319,85.629924,0.80753534,5.980315152,10900,2017-11-13 11:35:21,12,16.406,5484.5284842319,85.629924,1.11847,5.980315152,244.9, 13.7, 4.4,0,0,1024,1024,1684,1090,248,-21.3,99,4.1,4.122,4.105,4.119,0,0,73.31,6,GPS_Atti,
0.339510349125998,36.9102771326129,5486.4969882319,87.598428,0.80753534,6.1313322172,11000,2017-11-13 11:35:21,12,16.244,5486.4969882319,87.598428,1.11847,6.1313322172,245.1, 13.9, 3.9,0,0,1024,1024,1684,1083,247.9,-21.3,99,4.087,4.112,4.093,4.102,0,0,73.31,6,GPS_Atti,
0.339510238935706,36.9102767597123,5488.1374082319,89.238848,0.70687304,6.2635172608,11100,2017-11-13 11:35:21,12,16.244,5488.1374082319,89.238848,1.11847,6.2635172608,245.7, 14.8, 3.2,0,0,1024,1024,1684,1024,247.9,-21.3,99,4.087,4.112,4.093,4.102,0,0,73.31,6,GPS_Atti,
0.339510164883844,36.9102764377043,5490.1059122319,91.207352,0.50107456,6.373359784,11200,2017-11-13 11:35:21,12,16.244,5490.1059122319,91.207352,1.11847,6.373359784,246.4, 14.5, 3,0,0,1024,1024,1684,1024,247.8,-21.3,99,4.087,4.112,4.093,4.102,0,0,73.31,6,GPS_Atti,
0.339510197823195,36.9102761091057,5491.7463322319,92.847772,0.447388,6.462270548,11300,2017-11-13 11:35:21,12,16.244,5491.7463322319,92.847772,1.11847,6.462270548,246.8, 13, 2,0,0,1024,1024,1684,1024,247.8,-21.3,99,4.087,4.112,4.093,4.102,0,0,73.31,6,GPS_Atti,
0.339510250537556,36.9102758173995,5493.7148362319,94.816276,0.447388,6.5370737,11400,2017-11-13 11:35:21,12,16.244,5493.7148362319,94.816276,1.11847,6.5370737,246.9, 12.9, 1.8,0,0,1024,1024,1684,1024,247.8,-21.3,99,4.087,4.112,4.093,4.102,0,0,73.31,6,GPS_Atti,
0.339510309196551,36.9102755330676,5495.3552562319,96.456696,0.447388,6.6093506052,11500,2017-11-13 11:35:21,12,16.244,5495.3552562319,96.456696,1.11847,6.6093506052,246.9, 13.2, 1.1,0,0,1024,1024,1684,1024,247.8,-21.3,99,4.087,4.112,4.093,4.102,0,0,73.31,6,GPS_Atti,
0.339510367078779,36.9102752829965,5496.9956762319,98.097116,0.223694,6.6723427332,11600,2017-11-13 11:35:21,12,16.244,5496.9956762319,98.097116,1.11847,6.6723427332,246.9, 12.7, 0.6,0,0,1024,1024,1684,1024,247.7,-21.3,99,4.087,4.112,4.093,4.102,0,0,73.31,6,GPS_Atti,
0.339510454367448,36.9102750501376,5498.9641802319,100.06562,0.223694,6.72490179,11700,2017-11-13 11:35:22,12,16.244,5498.9641802319,100.06562,1.11847,6.72490179,246.8, 12.7, 0.5,0,0,1024,1024,1684,1024,247.7,-21.3,99,4.087,4.112,4.093,4.102,0,0,73.31,6,GPS_Atti,
0.339510528286592,36.9102748246093,5500.6046002319,101.70604,0.223694,6.7786747576,11800,2017-11-13 11:35:22,12,16.244,5500.6046002319,101.70604,1.11847,6.7786747576,246.8, 13.9, 0.3,0,0,1024,1024,1673,1024,247.7,-21.3,99,4.087,4.112,4.093,4.102,0,0,73.31,6,GPS_Atti,
0.339510597401012,36.9102745936304,5502.5731042319,103.674544,0.223694,6.8357285652,11900,2017-11-13 11:35:22,12,16.244,5502.5731042319,103.674544,1.11847,6.8357285652,246.8, 14.8, 0,0,0,1024,1024,1676,1024,247.7,-21.3,99,4.087,4.112,4.093,4.102,0,0,73.31,6,GPS_Atti,
0.339510650320557,36.9102744241456,5504.2135242319,105.314964,0,6.8775920836,12000,2017-11-13 11:35:22,12,16.325,5504.2135242319,105.314964,1.11847,6.8775920836,246.8, 13.5, 0.4,0,0,1024,1024,1682,1024,247.7,-21.3,99,4.087,4.112,4.093,4.102,0,0,73.31,6,GPS_Atti,
0.339510699769887,36.9102742952435,5505.8539442319,106.955384,0,6.9079070452,12100,2017-11-13 11:35:22,12,16.325,5505.8539442319,106.955384,1.11847,6.9079070452,246.8, 12.9, 0.8,0,0,1024,1024,1684,1024,247.7,-21.3,99,4.087,4.112,4.093,4.102,0,0,73.31,6,GPS_Atti,
0.339510744284218,36.9102741657098,5507.4943642319,108.595804,0,6.9395671512,12200,2017-11-13 11:35:22,12,16.325,5507.4943642319,108.595804,1.11847,6.9395671512,246.8, 13.2, 0.1,0,0,1024,1024,1684,1024,247.7,-21.3,99,4.087,4.112,4.093,4.102,0,0,73.31,6,GPS_Atti,
0.339510777183672,36.910274083904,5509.1347842319,110.236224,0,6.9587600652,12300,2017-11-13 11:35:22,12,16.325,5509.1347842319,110.236224,1.11847,6.9587600652,246.9, 12.9, 0.8,0,0,1024,1024,1682,1024,247.7,-21.3,99,4.087,4.112,4.093,4.102,0,0,73.31,6,GPS_Atti,
0.339510794517644,36.9102740121386,5510.7752042319,111.876644,0,6.977854554,12400,2017-11-13 11:35:22,12,16.325,5510.7752042319,111.876644,1.11847,6.977854554,246.8, 13.9, 1.3,0,0,1024,1024,1684,1024,247.6,-21.3,99,4.087,4.112,4.093,4.102,0,0,73.31,6,GPS_Atti,
0.339510836440307,36.9102739460538,5512.4156242319,113.517064,0,6.9906170216,12500,2017-11-13 11:35:22,12,16.325,5512.4156242319,113.517064,1.11847,6.9906170216,246.9, 14.6, 1.1,0,0,1024,1024,1684,1024,247.6,-21.3,99,4.087,4.112,4.093,4.102,0,0,73.31,6,GPS_Atti,
0.339510894514691,36.9102739398356,5514.0560442319,115.157484,0,6.9816931368,12600,2017-11-13 11:35:22,12,16.325,5514.0560442319,115.157484,1.11847,6.9906170216,246.8, 14.1, 0.7,0,0,1024,1024,1684,1024,247.6,-21.3,99,4.087,4.112,4.093,4.102,0,0,73.31,6,GPS_Atti,
0.339510983851128,36.9102740314942,5515.6964642319,116.797904,0.223694,6.9362863112,12700,2017-11-13 11:35:23,12,16.325,5515.6964642319,116.797904,1.11847,6.9906170216,246.9, 12.4, 0.6,0,0,1024,1024,1684,1024,247.6,-21.3,99,4.087,4.112,4.093,4.102,0,0,73.31,6,GPS_Atti,
0.339511064877616,36.91027416782,5517.3368842319,118.438324,0.223694,6.878445102,12800,2017-11-13 11:35:23,12,16.325,5517.3368842319,118.438324,1.11847,6.9906170216,246.9, 11.2, 1,0,0,1024,1024,1681,1024,247.6,-21.3,99,4.087,4.112,4.093,4.102,0,0,73.31,6,GPS_Atti,
0.339511171214195,36.9102743866088,5518.9773042319,120.078744,0.223694,6.7899936556,12900,2017-11-13 11:35:23,12,16.325,5518.9773042319,120.078744,1.11847,6.9906170216,246.9, 10.3, 0.8,0,0,1024,1024,1637,1021,247.6,-21.3,99,4.087,4.112,4.093,4.102,0,0,73.31,6,GPS_Atti,
0.339511228590791,36.9102745967759,5520.9458082319,122.047248,0.223694,6.7134516584,13000,2017-11-13 11:35:23,12,16.298,5520.9458082319,122.047248,1.11847,6.9906170216,246.8, 10, 0.9,0,0,1024,1024,1607,905,247.6,-21.3,99,4.086,4.107,4.083,4.098,0,0,73.31,6,GPS_Atti,
0.339511254166318,36.9102748139267,5522.5862282319,123.687668,0.223694,6.6407810524,13100,2017-11-13 11:35:23,12,16.298,5522.5862282319,123.687668,1.11847,6.9906170216,246.6, 10.8, 1.6,0,0,1024,1024,1583,853,247.2,-21.3,99,4.086,4.107,4.083,4.098,0,0,73.31,6,GPS_Atti,
0.339511219917698,36.9102750041857,5523.8985642319,125.000004,0.31540854,6.588090762,13200,2017-11-13 11:35:23,12,16.298,5523.8985642319,125.000004,1.11847,6.9906170216,245.3, 11.4, 2.7,0,0,1024,1024,1583,853,247.2,-21.3,99,4.086,4.107,4.083,4.098,0,0,73.31,6,GPS_Atti,
0.339511217553197,36.9102752293265,5525.5389842319,126.640424,0.31540854,6.5187666128,13300,2017-11-13 11:35:23,12,16.298,5525.5389842319,126.640424,1.11847,6.9906170216,243, 11.5, 3.5,0,0,1024,1024,1582,876,245.1,-21.3,99,4.086,4.107,4.083,4.098,0,0,73.31,6,GPS_Atti,
0.339511205238904,36.9102754333033,5526.8513202319,127.95276,0.223694,6.4582023064,13400,2017-11-13 11:35:23,12,16.298,5526.8513202319,127.95276,1.11847,6.9906170216,240.8, 11.1, 3.7,0,0,1024,1024,1552,959,243.8,-21.3,99,4.086,4.107,4.083,4.098,0,0,73.31,6,GPS_Atti,
0.33951124658184,36.91027564037,5528.1636562319,129.265096,0.223694,6.3863847188,13500,2017-11-13 11:35:23,12,16.298,5528.1636562319,129.265096,1.11847,6.9906170216,239.2, 10.9, 3.2,0,0,1024,1024,1544,987,243,-21.3,99,4.086,4.107,4.083,4.098,0,0,73.31,6,GPS_Atti,
0.339511285666939,36.9102757996123,5529.4759922319,130.577432,0.223694,6.3298230372,13600,2017-11-13 11:35:23,12,16.298,5529.4759922319,130.577432,1.11847,6.9906170216,238.6, 10.8, 1.7,0,0,1024,1024,1517,1024,242.4,-21.3,99,4.086,4.107,4.083,4.098,0,0,73.31,6,GPS_Atti,
0.339511340026842,36.9102760062271,5530.7883282319,131.889768,0.223694,6.2557744784,13700,2017-11-13 11:35:24,12,16.298,5530.7883282319,131.889768,1.11847,6.9906170216,238.5, 10.4, 1.7,0,0,1024,1024,1494,1024,242,-21.3,99,4.086,4.107,4.083,4.098,0,0,73.31,6,GPS_Atti,
0.339511356347922,36.9102761929681,5532.1006642319,133.202104,0.223694,6.1955054476,13800,2017-11-13 11:35:24,12,16.298,5532.1006642319,133.202104,1.11847,6.9906170216,238.6, 10.2, 2.3,0,0,1024,1024,1479,1024,241.7,-21.3,99,4.086,4.107,4.083,4.098,0,0,73.31,6,GPS_Atti,
0.339511402769975,36.9102763628897,5533.0849162319,134.186356,0.223694,6.1344490152,13900,2017-11-13 11:35:24,12,16.298,5533.0849162319,134.186356,1.11847,6.9906170216,238.6, 10.7, 2.6,0,0,1024,1024,1474,1024,241.4,-21.3,99,4.086,4.107,4.083,4.098,0,0,73.31,6,GPS_Atti,
0.339511432897817,36.9102764951718,5534.0691682319,135.170608,0.223694,6.0881891712,14000,2017-11-13 11:35:24,12,16.298,5534.0691682319,135.170608,1.11847,6.9906170216,238.6, 10.7, 2.9,0,0,1024,1024,1464,1024,241.2,-21.3,99,4.086,4.107,4.083,4.098,0,0,73.31,6,GPS_Atti,
0.33951152700641,36.910276666815,5535.3815042319,136.482944,0.223694,6.0170277516,14100,2017-11-13 11:35:24,12,16.298,5535.3815042319,136.482944,1.11847,6.9906170216,238.6, 9.8, 2.8,0,0,1024,1024,1410,1024,241,-21.3,99,4.086,4.107,4.083,4.098,0,0,73.31,6,GPS_Atti,
0.339511769943385,36.9102769635885,5537.0219242319,138.123364,0.223694,5.877788902,14300,2017-11-13 11:35:24,12,16.298,5537.0219242319,138.123364,1.11847,6.9906170216,238.5, 9.1, 1.9,0,0,1024,1024,1386,1024,241,-21.3,99,4.086,4.107,4.083,4.098,0,0,73.31,6,GPS_Atti,
0.339511877083194,36.9102770663611,5538.0061762319,139.107616,0.223694,5.8249345696,14400,2017-11-13 11:35:24,12,16.298,5538.0061762319,139.107616,1.11847,6.9906170216,238.5, 9.7, 2,0,0,1024,1024,1379,1024,240.8,-21.3,99,4.086,4.107,4.083,4.098,0,0,73.31,6,GPS_Atti,
0.339512007967345,36.910277222368,5538.6623442319,139.763784,0.223694,5.7511156696,14500,2017-11-13 11:35:24,12,16.298,5538.6623442319,139.763784,1.11847,6.9906170216,238.5, 9.5, 2,0,0,1024,1024,1379,1024,240.7,-21.3,99,4.086,4.107,4.083,4.098,0,0,73.31,6,GPS_Atti,
0.33951209131233,36.9102773311382,5539.3185122319,140.419952,0.223694,5.7012469016,14600,2017-11-13 11:35:24,12,16.298,5539.3185122319,140.419952,1.11847,6.9906170216,238.5, 8.7, 2.3,0,0,1024,1024,1374,1024,240.6,-21.3,99,4.086,4.107,4.083,4.098,0,0,73.31,6,GPS_Atti,
0.339512220161333,36.9102773727594,5540.3027642319,141.404204,0.223694,5.6627626484,14700,2017-11-13 11:35:24,13,16.298,5540.3027642319,141.404204,1.11847,6.9906170216,238.5, 8, 2.7,0,0,1024,1024,1355,1019,240.5,-21.3,99,4.086,4.107,4.083,4.098,0,0,73.31,6,GPS_Atti,
0.33951230864528,36.910277353089,5540.9589322319,142.060372,0,5.6512140916,14800,2017-11-13 11:35:25,13,16.298,5540.9589322319,142.060372,1.11847,6.9906170216,238.5, 8.1, 3.3,0,0,1024,1024,1401,936,240.4,-21.3,99,4.086,4.107,4.083,4.098,0,0,73.31,6,GPS_Atti,
0.339512408244579,36.9102772972286,5541.6151002319,142.71654,0,5.6488518868,14900,2017-11-13 11:35:25,13,16.298,5541.6151002319,142.71654,1.11847,6.9906170216,238.5, 9.1, 2.9,0,0,1024,1024,1472,897,240.1,-21.3,99,4.086,4.107,4.083,4.098,0,0,73.31,6,GPS_Atti,
0.33951249373341,36.9102772020562,5542.2712682319,143.372708,0,5.6616471628,15000,2017-11-13 11:35:25,13,16.676,5542.2712682319,143.372708,1.11847,6.9906170216,237.9, 8.2, 2.5,0,0,1024,1024,1536,930,239.3,-21.3,99,4.121,4.131,4.114,4.127,0,0,73.31,6,GPS_Atti,
0.339512656432471,36.9102771094266,5542.9274362319,144.028876,0,5.6593833832,15100,2017-11-13 11:35:25,13,16.676,5542.9274362319,144.028876,1.11847,6.9906170216,236.7, 6.7, 2,0,0,1024,1024,1551,950,238.7,-21.3,99,4.121,4.131,4.114,4.127,0,0,73.31,6,GPS_Atti,
0.339512809362497,36.9102769576744,5543.9116882319,145.013128,0,5.6783466384,15200,2017-11-13 11:35:25,13,16.676,5543.9116882319,145.013128,1.11847,6.9906170216,235.5, 6.3, 0.9,0,0,1024,1024,1555,961,238.1,-21.3,99,4.121,4.131,4.114,4.127,0,0,73.31,6,GPS_Atti,
0.339512997898043,36.9102768192449,5544.8959402319,145.99738,0,5.687664224,15300,2017-11-13 11:35:25,13,16.676,5544.8959402319,145.99738,1.11847,6.9906170216,234.7, 8, 0,0,0,1024,1024,1552,984,237.7,-21.3,99,4.121,4.131,4.114,4.127,0,0,73.31,6,GPS_Atti,
0.339513133310897,36.9102766522942,5545.8801922319,146.981632,0,5.716699658,15400,2017-11-13 11:35:25,13,16.676,5545.8801922319,146.981632,1.11847,6.9906170216,234.1, 10.3, -0.2,0,0,1024,1024,1544,1014,237.4,-21.3,99,4.121,4.131,4.114,4.127,0,0,73.31,6,GPS_Atti,
0.339513330429972,36.9102766293595,5547.1925282319,148.293968,0,5.6896983448,15500,2017-11-13 11:35:25,13,16.676,5547.1925282319,148.293968,1.11847,6.9906170216,233.8, 10.3, -0.4,0,0,1024,1024,1544,1024,237.2,-21.3,99,4.121,4.131,4.114,4.127,0,0,73.31,6,GPS_Atti,
0.339513466157929,36.9102765923911,5548.5048642319,149.606304,0,5.6784450636,15600,2017-11-13 11:35:26,13,16.676,5548.5048642319,149.606304,1.11847,6.9906170216,233.8, 9.5, 0,0,0,1024,1024,1546,1024,237.2,-21.3,99,4.121,4.131,4.114,4.127,0,0,73.31,6,GPS_Atti,
0.339513612684913,36.9102766989473,5549.4891162319,150.590556,0,5.61925871,15700,2017-11-13 11:35:26,13,16.676,5549.4891162319,150.590556,1.11847,6.9906170216,233.8, 9.6, 0.3,0,0,1024,1024,1544,1024,237,-21.3,99,4.121,4.131,4.114,4.127,0,0,73.31,6,GPS_Atti,
0.339513699378386,36.9102767514343,5550.8014522319,151.902892,0,5.5877298376,15800,2017-11-13 11:35:26,13,16.676,5550.8014522319,151.902892,1.11847,6.9906170216,233.9, 9.8, 0.8,0,0,1024,1024,1545,1024,236.9,-21.3,99,4.121,4.131,4.114,4.127,0,0,73.31,6,GPS_Atti,
0.33951383084959,36.9102769195155,5552.1137882319,153.215228,0,5.5112862656,15900,2017-11-13 11:35:26,13,16.676,5552.1137882319,153.215228,1.11847,6.9906170216,233.9, 9.7, 1.3,0,0,1024,1024,1536,1024,236.7,-21.3,99,4.121,4.131,4.114,4.127,0,0,73.31,6,GPS_Atti,
0.339513919952753,36.9102769984177,5553.0980402319,154.19948,0,5.4708991252,16000,2017-11-13 11:35:26,13,16.191,5553.0980402319,154.19948,1.11847,6.9906170216,233.9, 9.4, 1.3,0,0,1024,1024,1531,1024,236.5,-21.3,99,4.121,4.131,4.114,4.127,0,0,73.31,6,GPS_Atti,
0.339514041554773,36.9102771204036,5554.4103762319,155.511816,0,5.4111878372,16100,2017-11-13 11:35:26,13,16.191,5554.4103762319,155.511816,1.11847,6.9906170216,233.9, 9.8, 0.4,0,0,1024,1024,1535,1024,236.4,-21.3,99,4.121,4.131,4.114,4.127,0,0,73.31,6,GPS_Atti,
0.339514116877229,36.9102771704474,5555.7227122319,156.824152,0,5.3825789124,16200,2017-11-13 11:35:26,13,16.191,5555.7227122319,156.824152,1.11847,6.9906170216,233.9, 10.3, 0,0,0,1024,1024,1533,1024,236.3,-21.3,99,4.121,4.131,4.114,4.127,0,0,73.31,6,GPS_Atti,
0.339514214102257,36.9102772854315,5556.7069642319,157.808404,0,5.3291996456,16300,2017-11-13 11:35:26,13,16.191,5556.7069642319,157.808404,1.11847,6.9906170216,233.9, 10.1, 0.1,0,0,1024,1024,1525,1024,236.2,-21.3,99,4.121,4.131,4.114,4.127,0,0,73.31,6,GPS_Atti,
0.339514255868588,36.9102773477563,5558.0193002319,159.12074,0,5.3020670988,16400,2017-11-13 11:35:26,13,16.191,5558.0193002319,159.12074,1.11847,6.9906170216,233.9, 10.1, 0.4,0,0,1024,1024,1527,1024,236.1,-21.3,99,4.121,4.131,4.114,4.127,0,0,73.31,6,GPS_Atti,
0.339514327450101,36.9102774575982,5559.0035522319,160.104992,0.223694,5.254593344,16500,2017-11-13 11:35:26,13,16.191,5559.0035522319,160.104992,1.11847,6.9906170216,233.9, 10.6, 0.4,0,0,1024,1024,1531,1024,236,-21.3,99,4.121,4.131,4.114,4.127,0,0,73.31,6,GPS_Atti,
0.33951436044604,36.9102775202881,5559.9878042319,161.089244,0,5.2287403248,16600,2017-11-13 11:35:26,13,16.191,5559.9878042319,161.089244,1.11847,6.9906170216,233.9, 10.9, 0.5,0,0,1024,1024,1537,1024,236,-21.3,99,4.121,4.131,4.114,4.127,0,0,73.31,6,GPS_Atti,
0.339514426313343,36.9102776356565,5561.3001402319,162.40158,0,5.1803479348,16700,2017-11-13 11:35:27,13,16.191,5561.3001402319,162.40158,1.11847,6.9906170216,233.9, 10.7, 0.6,0,0,1024,1024,1544,1024,235.9,-21.3,99,4.121,4.131,4.114,4.127,0,0,73.31,6,GPS_Atti,
0.339514467214157,36.9102777156005,5562.6124762319,163.713916,0,5.1476051516,16800,2017-11-13 11:35:27,13,16.191,5562.6124762319,163.713916,1.11847,6.9906170216,234, 10.1, 0.6,0,0,1024,1024,1544,1024,235.8,-21.3,99,4.121,4.131,4.114,4.127,0,0,73.31,6,GPS_Atti,
0.339514556050255,36.9102778372341,5563.5967282319,164.698168,0,5.0934712916,16900,2017-11-13 11:35:27,13,16.191,5563.5967282319,164.698168,1.11847,6.9906170216,233.9, 9.7, 0.4,0,0,1024,1024,1545,1024,235.8,-21.3,99,4.121,4.131,4.114,4.127,0,0,73.31,6,GPS_Atti,
0.339514612441235,36.9102779131311,5564.9090642319,166.010504,0,5.0595802144,17000,2017-11-13 11:35:27,13,16.191,5564.9090642319,166.010504,1.11847,6.9906170216,233.9, 9.7, -0.3,0,0,1024,1024,1546,1024,235.8,-21.3,99,4.121,4.131,4.114,4.127,0,0,73.31,6,GPS_Atti,
0.339514649708583,36.9102780502181,5565.8933162319,166.994756,0,5.0086615776,17100,2017-11-13 11:35:27,13,16.191,5565.8933162319,166.994756,1.11847,6.9906170216,233.9, 10, -0.1,0,0,1024,1024,1546,1024,235.7,-21.3,99,4.121,4.131,4.114,4.127,0,0,73.31,6,GPS_Atti,
0.339514632846046,36.9102781521053,5567.2056522319,168.307092,0,4.9780513404,17200,2017-11-13 11:35:27,13,16.191,5567.2056522319,168.307092,1.11847,6.9906170216,233.9, 10.2, 0.5,0,0,1024,1024,1547,1024,235.7,-21.3,99,4.121,4.131,4.114,4.127,0,0,73.31,6,GPS_Atti,
0.339514642750649,36.910278264779,5568.5179882319,169.619428,0,4.939632704,17300,2017-11-13 11:35:27,13,16.191,5568.5179882319,169.619428,1.11847,6.9906170216,233.9, 10.5, 0.6,0,0,1024,1024,1547,1024,235.6,-21.3,99,4.121,4.131,4.114,4.127,0,0,73.31,6,GPS_Atti,
0.339514634317752,36.9102783485654,5569.5022402319,170.60368,0,4.913714068,17400,2017-11-13 11:35:27,13,16.191,5569.5022402319,170.60368,1.11847,6.9906170216,233.9, 10.5, 0.2,0,0,1024,1024,1547,1024,235.5,-21.3,99,4.121,4.131,4.114,4.127,0,0,73.31,6,GPS_Atti,
0.339514644198336,36.910278486542,5570.8145762319,171.916016,0,4.8671589484,17500,2017-11-13 11:35:27,13,16.191,5570.8145762319,171.916016,1.11847,6.9906170216,233.9, 10.1, 0.3,0,0,1024,1024,1545,1024,235.5,-21.3,99,4.121,4.131,4.114,4.127,0,0,73.31,6,GPS_Atti,
0.33951462172703,36.9102786115813,5572.1269122319,173.228352,0.223694,4.8303151152,17600,2017-11-13 11:35:27,13,16.191,5572.1269122319,173.228352,1.11847,6.9906170216,234, 9.5, 0.6,0,0,1024,1024,1544,1024,235.5,-21.3,99,4.121,4.131,4.114,4.127,0,0,73.31,6,GPS_Atti,
0.339514605163312,36.9102787675593,5573.1111642319,174.212604,0.223694,4.7826117016,17700,2017-11-13 11:35:28,13,16.191,5573.1111642319,174.212604,1.11847,6.9906170216,234, 9.6, 1.5,0,0,1024,1024,1544,1024,235.4,-21.3,99,4.121,4.131,4.114,4.127,0,0,73.31,6,GPS_Atti,
0.339514559102773,36.9102788802833,5574.4235002319,175.52494,0.223694,4.7541340104,17800,2017-11-13 11:35:28,13,16.191,5574.4235002319,175.52494,1.11847,6.9906170216,234, 10, 2,0,0,1024,1024,1539,1024,235.4,-21.3,99,4.121,4.131,4.114,4.127,0,0,73.31,6,GPS_Atti,
0.339514524501595,36.9102789929784,5575.4077522319,176.509192,0,4.7238846656,17900,2017-11-13 11:35:28,13,16.191,5575.4077522319,176.509192,1.11847,6.9906170216,234, 10.1, 1.7,0,0,1024,1024,1538,1024,235.3,-21.3,99,4.121,4.131,4.114,4.127,0,0,73.31,6,GPS_Atti,
0.339514479648141,36.9102790743162,5576.7200882319,177.821528,0,4.705708812,18000,2017-11-13 11:35:28,13,16.325,5576.7200882319,177.821528,1.11847,6.9906170216,234, 10, 1.4,0,0,1024,1024,1538,1024,235.3,-21.3,99,4.086,4.108,4.088,4.102,0,0,73.31,6,GPS_Atti,
0.339514486865405,36.9102791742389,5577.7043402319,178.80578,0,4.6725067112,18100,2017-11-13 11:35:28,13,16.325,5577.7043402319,178.80578,1.11847,6.9906170216,234, 9.9, 1.3,0,0,1024,1024,1536,1024,235.2,-21.3,99,4.086,4.108,4.088,4.102,0,0,73.31,6,GPS_Atti,
0.339514475770816,36.9102792571045,5579.0166762319,180.118116,0,4.6480644532,18200,2017-11-13 11:35:28,13,16.325,5579.0166762319,180.118116,1.11847,6.9906170216,234, 9.6, 1.4,0,0,1024,1024,1537,1024,235.2,-21.3,99,4.086,4.108,4.088,4.102,0,0,73.31,6,GPS_Atti,
0.339514469640131,36.9102793672173,5580.3290122319,181.430452,0,4.6141405676,18300,2017-11-13 11:35:28,13,16.325,5580.3290122319,181.430452,1.11847,6.9906170216,234, 9.2, 1.7,0,0,1024,1024,1537,1024,235.2,-21.3,99,4.086,4.108,4.088,4.102,0,0,73.31,6,GPS_Atti,
0.339514446488136,36.9102794461966,5581.3132642319,182.414704,0,4.5932744252,18400,2017-11-13 11:35:28,13,16.325,5581.3132642319,182.414704,1.11847,6.9906170216,233.9, 9.1, 1.6,0,0,1024,1024,1537,1024,235.2,-21.3,99,4.086,4.108,4.088,4.102,0,0,73.31,6,GPS_Atti,
0.339514420083324,36.9102795746962,5582.6256002319,183.72704,0,4.5574476524,18500,2017-11-13 11:35:28,13,16.325,5582.6256002319,183.72704,1.11847,6.9906170216,234, 9.4, 1.8,0,0,1024,1024,1537,1024,235.1,-21.3,99,4.086,4.108,4.088,4.102,0,0,73.31,6,GPS_Atti,
0.339514388747583,36.9102796715323,5583.6098522319,184.711292,0,4.5327429272,18600,2017-11-13 11:35:28,13,16.325,5583.6098522319,184.711292,1.11847,6.9906170216,234, 9.2, 1.9,0,0,1024,1024,1539,1024,235.1,-21.3,99,4.086,4.108,4.088,4.102,0,0,73.31,6,GPS_Atti,
0.339514364262706,36.9102797837873,5584.9221882319,186.023628,0,4.5020670732,18700,2017-11-13 11:35:29,13,16.325,5584.9221882319,186.023628,1.11847,6.9906170216,233.9, 9.1, 1.7,0,0,1024,1024,1545,1024,235.1,-21.3,99,4.086,4.108,4.088,4.102,0,0,73.31,6,GPS_Atti,
0.3395143338564,36.9102798569875,5586.2345242319,187.335964,0,4.48490828,18800,2017-11-13 11:35:29,13,16.325,5586.2345242319,187.335964,1.11847,6.9906170216,233.9, 8.9, 1.6,0,0,1024,1024,1544,1024,235,-21.3,99,4.086,4.108,4.088,4.102,0,0,73.31,6,GPS_Atti,
0.339514292587965,36.9102799493644,5587.2187762319,188.320216,0,4.4639437124,18900,2017-11-13 11:35:29,13,16.325,5587.2187762319,188.320216,1.11847,6.9906170216,233.9, 8.9, 1.9,0,0,1024,1024,1544,1024,235,-21.3,99,4.086,4.108,4.088,4.102,0,0,73.31,6,GPS_Atti,
0.339514245376116,36.9102799981085,5588.5311122319,189.632552,0,4.4578741584,19000,2017-11-13 11:35:29,13,16.271,5588.5311122319,189.632552,1.11847,6.9906170216,234, 9.2, 2,0,0,1024,1024,1544,1024,235,-21.3,99,4.077,4.098,4.074,4.091,0,0,73.31,6,GPS_Atti,
0.339514227560125,36.9102800713718,5589.8434482319,190.944888,0,4.438648436,19100,2017-11-13 11:35:29,13,16.271,5589.8434482319,190.944888,1.11847,6.9906170216,234, 9.3, 1.8,0,0,1024,1024,1545,1024,234.9,-21.3,99,4.077,4.098,4.074,4.091,0,0,73.31,6,GPS_Atti,
0.339514210998442,36.9102801083674,5590.8277002319,191.92914,0,4.430446336,19200,2017-11-13 11:35:29,13,16.271,5590.8277002319,191.92914,1.11847,6.9906170216,234, 9.4, 1.4,0,0,1024,1024,1539,1024,234.9,-21.3,99,4.077,4.098,4.074,4.091,0,0,73.31,6,GPS_Atti,
0.339514186548984,36.9102801666314,5591.8119522319,192.913392,0,4.4172901676,19300,2017-11-13 11:35:29,13,16.271,5591.8119522319,192.913392,1.11847,6.9906170216,233.9, 9.5, 1.8,0,0,1024,1024,1535,1024,234.9,-21.3,99,4.077,4.098,4.074,4.091,0,0,73.31,6,GPS_Atti,
0.339514159902755,36.910280191073,5593.1242882319,194.225728,0,4.4149935796,19400,2017-11-13 11:35:29,13,16.271,5593.1242882319,194.225728,1.11847,6.9906170216,234, 9.3, 1.8,0,0,1024,1024,1534,1024,234.9,-21.4,99,4.077,4.098,4.074,4.091,0,0,73.31,6,GPS_Atti,
0.339514132871806,36.9102802766756,5594.4366242319,195.538064,0,4.3941274372,19500,2017-11-13 11:35:29,13,16.271,5594.4366242319,195.538064,1.11847,6.9906170216,234, 9, 1.6,0,0,1024,1024,1536,1024,234.8,-21.5,99,4.077,4.098,4.074,4.091,0,0,73.31,6,GPS_Atti,
0.339514104932592,36.9102803225402,5595.4208762319,196.522316,0,4.3856956784,19600,2017-11-13 11:35:29,13,16.271,5595.4208762319,196.522316,1.11847,6.9906170216,233.9, 9, 1.6,0,0,1024,1024,1535,1024,234.8,-21.5,99,4.077,4.098,4.074,4.091,0,0,73.31,6,GPS_Atti,
0.339514097883873,36.9102803632531,5596.4051282319,197.506568,0,4.374672056,19700,2017-11-13 11:35:30,13,16.271,5596.4051282319,197.506568,1.11847,6.9906170216,234, 9.1, 1.6,0,0,1024,1024,1523,1024,234.8,-21.7,99,4.077,4.098,4.074,4.091,0,0,73.31,6,GPS_Atti,
0.339514107341875,36.9102804001272,5598.7017162319,199.803156,0,4.361548696,19900,2017-11-13 11:35:30,13,16.271,5598.7017162319,199.803156,1.11847,6.9906170216,234, 9.2, 1.3,0,0,1024,1024,1527,1024,234.8,-21.8,99,4.077,4.098,4.074,4.091,0,0,73.31,6,GPS_Atti,
0.339514117228973,36.9102804157427,5600.0140522319,201.115492,0,4.354822974,20000,2017-11-13 11:35:30,13,16.271,5600.0140522319,201.115492,1.11847,6.9906170216,234, 9, 1.3,0,0,1024,1024,1529,1024,234.8,-21.8,99,4.081,4.101,4.083,4.1,0,0,73.31,6,GPS_Atti,
0.3395141715559,36.9102804787751,5600.9983042319,202.099744,0,4.3247048628,20100,2017-11-13 11:35:30,13,16.271,5600.9983042319,202.099744,1.11847,6.9906170216,234, 8.7, 1.4,0,0,1024,1024,1522,1024,234.7,-21.8,99,4.081,4.101,4.083,4.1,0,0,73.31,6,GPS_Atti,
0.339514220522397,36.9102805056128,5602.3106402319,203.41208,0,4.3066930512,20200,2017-11-13 11:35:30,13,16.271,5602.3106402319,203.41208,1.11847,6.9906170216,234, 8.7, 1.2,0,0,1024,1024,1523,1024,234.7,-21.8,99,4.081,4.101,4.083,4.1,0,0,73.31,6,GPS_Atti,
0.33951427138196,36.9102805756107,5603.2948922319,204.396332,0,4.2751641788,20300,2017-11-13 11:35:30,13,16.271,5603.2948922319,204.396332,1.11847,6.9906170216,233.9, 8.5, 1.4,0,0,1024,1024,1526,1024,234.7,-21.8,99,4.081,4.101,4.083,4.1,0,0,73.31,6,GPS_Atti,
0.33951430767387,36.9102805998607,5604.2791442319,205.380584,0,4.260498824,20400,2017-11-13 11:35:30,13,16.271,5604.2791442319,205.380584,1.11847,6.9906170216,233.9, 8.3, 1.1,0,0,1024,1024,1521,1024,234.7,-21.8,99,4.081,4.101,4.083,4.1,0,0,73.31,6,GPS_Atti,
0.339514361043679,36.9102806525585,5605.5914802319,206.69292,0,4.233759978,20500,2017-11-13 11:35:30,13,16.271,5605.5914802319,206.69292,1.11847,6.9906170216,233.9, 8.2, 0.8,0,0,1024,1024,1522,1024,234.7,-21.8,99,4.081,4.101,4.083,4.1,0,0,73.31,6,GPS_Atti,
0.339514386053322,36.9102806592381,5606.5757322319,207.677172,0,4.2267389804,20600,2017-11-13 11:35:31,13,16.271,5606.5757322319,207.677172,1.11847,6.9906170216,233.9, 8.6, 1,0,0,1024,1024,1523,1024,234.7,-21.8,99,4.081,4.101,4.083,4.1,0,0,73.31,6,GPS_Atti,
0.33951441456127,36.9102806724805,5607.8880682319,208.989508,0,4.217027694,20700,2017-11-13 11:35:31,13,16.271,5607.8880682319,208.989508,1.11847,6.9906170216,233.9, 8.9, 1.3,0,0,1024,1024,1522,1024,234.7,-21.8,99,4.081,4.101,4.083,4.1,0,0,73.31,6,GPS_Atti,
0.339514428010589,36.9102806423277,5608.8723202319,209.97376,0.223694,4.2236221824,20800,2017-11-13 11:35:31,13,16.271,5608.8723202319,209.97376,1.11847,6.9906170216,233.9, 9.1, 1.1,0,0,1024,1024,1520,1024,234.6,-21.8,99,4.081,4.101,4.083,4.1,0,0,73.31,6,GPS_Atti,
0.339514435071929,36.910280634668,5610.1846562319,211.286096,0.223694,4.224573626,20900,2017-11-13 11:35:31,13,16.271,5610.1846562319,211.286096,1.11847,6.9906170216,233.9, 9.4, 1.2,0,0,1024,1024,1512,1024,234.6,-21.8,99,4.081,4.101,4.083,4.1,0,0,73.31,6,GPS_Atti,
0.339514428335871,36.9102805947057,5611.1689082319,212.270348,0.223694,4.238189112,21000,2017-11-13 11:35:31,13,16.244,5611.1689082319,212.270348,1.11847,6.9906170216,233.9, 9.8, 1,0,0,1024,1024,1484,1024,234.6,-21.8,99,4.081,4.101,4.083,4.1,0,0,73.31,6,GPS_Atti,
0.339514477604037,36.9102805771652,5613.4654962319,214.566936,0.223694,4.23392402,21200,2017-11-13 11:35:31,13,16.244,5613.4654962319,214.566936,1.11847,6.9906170216,233.9, 10, 1.2,0,0,1024,1024,1437,1024,234.6,-21.8,99,4.081,4.101,4.083,4.1,0,0,73.31,6,GPS_Atti,
0.339514497926611,36.9102805563621,5614.4497482319,215.551188,0.223694,4.2363518416,21300,2017-11-13 11:35:31,13,16.244,5614.4497482319,215.551188,1.11847,6.9906170216,233.9, 10.1, 1.1,0,0,1024,1024,1420,1024,234.6,-21.8,99,4.081,4.101,4.083,4.1,0,0,73.31,6,GPS_Atti,
0.339514502188656,36.9102804966871,5615.4340002319,216.53544,0.223694,4.2539699524,21400,2017-11-13 11:35:31,13,16.244,5615.4340002319,216.53544,1.11847,6.9906170216,233.9, 10.5, 0.7,0,0,1024,1024,1416,1024,234.6,-21.8,99,4.081,4.101,4.083,4.1,0,0,73.31,6,GPS_Atti,
0.339514535627532,36.9102804331626,5616.4182522319,217.519692,0.223694,4.2671917376,21500,2017-11-13 11:35:31,13,16.244,5616.4182522319,217.519692,1.11847,6.9906170216,233.9, 10.2, 0.6,0,0,1024,1024,1416,1024,234.6,-21.8,99,4.081,4.101,4.083,4.1,0,0,73.31,6,GPS_Atti,
0.339514544199661,36.9102803399099,5617.4025042319,218.503944,0.223694,4.2944883264,21600,2017-11-13 11:35:31,13,16.244,5617.4025042319,218.503944,1.11847,6.9906170216,233.9, 9.9, 0.6,0,0,1024,1024,1379,1024,234.5,-21.8,99,4.081,4.101,4.083,4.1,0,0,73.31,6,GPS_Atti,
0.339514542629434,36.910280247526,5618.0586722319,219.160112,0.223694,4.3235565688,21700,2017-11-13 11:35:31,13,16.244,5618.0586722319,219.160112,1.11847,6.9906170216,233.8, 10.6, 0.5,0,0,1024,1024,1382,1024,234.5,-21.8,99,4.081,4.101,4.083,4.1,0,0,73.31,6,GPS_Atti,
0.339514507100857,36.9102801199953,5619.0429242319,220.144364,0.223694,4.37007888,21800,2017-11-13 11:35:32,13,16.244,5619.0429242319,220.144364,1.11847,6.9906170216,233.9, 11.2, 0.5,0,0,1024,1024,1402,1024,234.5,-21.8,99,4.081,4.101,4.083,4.1,0,0,73.31,6,GPS_Atti,
0.339514477553962,36.9102800054508,5619.6990922319,220.800532,0.223694,4.4114502724,21900,2017-11-13 11:35:32,13,16.244,5619.6990922319,220.800532,1.11847,6.9906170216,233.9, 11, 0.7,0,0,1024,1024,1419,1024,234.5,-21.8,99,4.081,4.101,4.083,4.1,0,0,73.31,6,GPS_Atti,
0.339514434413631,36.9102798821726,5620.3552602319,221.4567,0.223694,4.4581366256,22000,2017-11-13 11:35:32,13,16.244,5620.3552602319,221.4567,1.11847,6.9906170216,233.9, 10.7, 1.3,0,0,1024,1024,1421,1024,234.5,-21.8,99,4.068,4.088,4.066,4.085,0,0,73.31,6,GPS_Atti,
0.339514402902832,36.9102797551998,5621.0114282319,222.112868,0.223694,4.5038387268,22100,2017-11-13 11:35:32,13,16.244,5621.0114282319,222.112868,1.11847,6.9906170216,233.9, 10.5, 1.5,0,0,1024,1024,1419,1024,234.5,-21.8,99,4.068,4.088,4.066,4.085,0,0,73.31,6,GPS_Atti,
0.339514377559765,36.9102796036734,5621.9956802319,223.09712,0.223694,4.5561353164,22200,2017-11-13 11:35:32,13,16.244,5621.9956802319,223.09712,1.11847,6.9906170216,233.9, 10.9, 1.2,0,0,1024,1024,1387,1024,234.5,-21.8,99,4.068,4.088,4.066,4.085,0,0,73.31,6,GPS_Atti,
0.339514436689788,36.9102793565315,5623.6361002319,224.73754,0,4.6234581532,22400,2017-11-13 11:35:32,13,16.244,5623.6361002319,224.73754,1.11847,6.9906170216,233.9, 11.1, 0.3,0,0,1024,1024,1333,1024,234.5,-21.8,99,4.068,4.088,4.066,4.085,0,0,73.31,6,GPS_Atti,
0.339514521794307,36.9102792560232,5624.2922682319,225.393708,0,4.6402232456,22500,2017-11-13 11:35:32,13,16.244,5624.2922682319,225.393708,1.11847,6.9906170216,233.8, 10.6, 0.3,0,0,1024,1024,1322,1024,234.5,-21.8,99,4.068,4.088,4.066,4.085,0,0,73.31,6,GPS_Atti,
0.339514582814139,36.910279137717,5624.9484362319,226.049876,0,4.667322984,22600,2017-11-13 11:35:32,13,16.244,5624.9484362319,226.049876,1.11847,6.9906170216,233.8, 11.4, 0.1,0,0,1024,1024,1302,1024,234.5,-21.8,99,4.068,4.088,4.066,4.085,0,0,73.31,6,GPS_Atti,
0.339514630635433,36.9102790412482,5625.6046042319,226.706044,0,4.6900263968,22700,2017-11-13 11:35:32,13,16.244,5625.6046042319,226.706044,1.11847,6.9906170216,233.8, 11, 0.3,0,0,1024,1024,1297,1024,234.5,-21.8,99,4.068,4.088,4.066,4.085,0,0,73.31,6,GPS_Atti,
0.339514658908477,36.9102789348836,5626.2607722319,227.362212,0,4.7194555316,22800,2017-11-13 11:35:33,13,16.244,5626.2607722319,227.362212,1.11847,6.9906170216,233.8, 10.5, 0.3,0,0,1024,1024,1306,1024,234.4,-21.8,99,4.068,4.088,4.066,4.085,0,0,73.31,6,GPS_Atti,
0.339514740311136,36.9102788644061,5626.5888562319,227.690296,0,4.72851065,22900,2017-11-13 11:35:33,13,16.244,5626.5888562319,227.690296,1.11847,6.9906170216,233.8, 10.6, 0.1,0,0,1024,1024,1324,1024,234.4,-21.8,99,4.068,4.088,4.066,4.085,0,0,73.31,6,GPS_Atti,
0.339514804933086,36.9102787733673,5627.2450242319,228.346464,0,4.7473098632,23000,2017-11-13 11:35:33,13,16.217,5627.2450242319,228.346464,1.11847,6.9906170216,233.8, 10, 0,0,0,1024,1024,1325,1024,234.4,-21.8,98,4.09,4.115,4.092,4.1,0,0,73.31,6,GPS_Atti,
0.339514887576212,36.9102787325887,5627.5731082319,228.674548,0,4.747047396,23100,2017-11-13 11:35:33,13,16.217,5627.5731082319,228.674548,1.11847,6.9906170216,233.9, 9.7, 0.2,0,0,1024,1024,1323,1024,234.4,-21.8,98,4.09,4.115,4.092,4.1,0,0,73.31,6,GPS_Atti,
0.339514938297357,36.9102786564915,5628.2292762319,229.330716,0,4.7637140632,23200,2017-11-13 11:35:33,13,16.217,5628.2292762319,229.330716,1.11847,6.9906170216,233.9, 9.8, 0.3,0,0,1024,1024,1329,1024,234.4,-21.8,98,4.09,4.115,4.092,4.1,0,0,73.31,6,GPS_Atti,
0.339515034256677,36.9102786172117,5628.5573602319,229.6588,0,4.7612862416,23300,2017-11-13 11:35:33,13,16.217,5628.5573602319,229.6588,1.11847,6.9906170216,233.8, 10.3, 0,0,0,1024,1024,1333,1024,234.4,-21.8,98,4.09,4.115,4.092,4.1,0,0,73.31,6,GPS_Atti,
0.339515098840765,36.9102785453477,5629.2135282319,230.314968,0,4.7748033024,23400,2017-11-13 11:35:33,13,16.217,5629.2135282319,230.314968,1.11847,6.9906170216,233.8, 10.3, 0.2,0,0,1024,1024,1335,1024,234.4,-21.8,98,4.09,4.115,4.092,4.1,0,0,73.31,6,GPS_Atti,
0.33951518040749,36.9102784887443,5629.8696962319,230.971136,0,4.7808728564,23500,2017-11-13 11:35:33,13,16.217,5629.8696962319,230.971136,1.11847,6.9906170216,233.8, 10.1, 0.1,0,0,1024,1024,1345,1024,234.4,-21.8,98,4.09,4.115,4.092,4.1,0,0,73.31,6,GPS_Atti,
0.339515229201371,36.9102783901866,5630.1977802319,231.29922,0,4.806102516,23600,2017-11-13 11:35:33,13,16.217,5630.1977802319,231.29922,1.11847,6.9906170216,233.8, 10.3, 0.1,0,0,1024,1024,1347,1024,234.4,-21.8,98,4.09,4.115,4.092,4.1,0,0,73.31,6,GPS_Atti,
