latitude,longitude,altitude(feet),ascent(feet),speed(mph),distance(feet),time(millisecond),datetime(utc),satellites,gpslevel,voltage(v),max_altitude(feet),max_ascent(feet),max_speed(mph),max_distance(feet), xSpeed(mph), ySpeed(mph), zSpeed(mph), compass_heading(degrees), pitch(degrees), roll(degrees),isPhoto,isVideo,rc_elevator,rc_aileron,rc_throttle,rc_rudder,gimbal_heading(degrees),gimbal_pitch(degrees),battery_percent,voltageCell1,voltageCell2,voltageCell3,voltageCell4,voltageCell5,voltageCell6,current(A),battery_temperature(f),flycStateRaw,flycState,message
0.376647462063114,36.9241029267933,5336.4736907803,0,0,0,0,2018-04-16 06:36:20,13,0,0,5336.4736907803,0,0,0,0,0,0,100.4, 0.5, 0,0,0,364,364,364,1684,105,0,99,4.298,4.297,4.299,4.296,0,0,0,84.11,41,Motors_Started,
0.376647492699845,36.9241029195279,5336.4736907803,0,0,0.0114877956432,100,2018-04-16 06:36:20,13,0,0,5336.4736907803,0,0,0.0114877956432,0,0,0,100.4, 0.5, -0.1,0,0,364,364,364,1684,105,0,99,4.298,4.297,4.299,4.296,0,0,0,84.11,41,Motors_Started,
0.376647525834609,36.9241029220026,5336.4736907803,0,0,0.0233325466784,200,2018-04-16 06:36:20,13,0,0,5336.4736907803,0,0,0.0233325466784,0,0,0,100.4, 0.5, -0.1,0,0,364,364,364,1684,105,0,99,4.298,4.297,4.299,4.296,0,0,0,84.11,41,Motors_Started,
0.376647571960285,36.9241029116267,5336.4736907803,0,0,0.040476051164,300,2018-04-16 06:36:20,13,0,0,5336.4736907803,0,0,0.040476051164,0,0,0,100.4, 0.5, -0.1,0,0,364,364,364,1684,105,0,99,4.298,4.297,4.299,4.296,0,0,0,84.11,41,Motors_Started,
0.376647615386001,36.9241029111976,5336.4736907803,0,0,0.056228348256,400,2018-04-16 06:36:20,13,0,17.151,5336.4736907803,0,0,0.056228348256,0,0,0,100.4, 0.5, -0.1,0,0,364,364,364,1684,105,0,99,4.298,4.297,4.299,4.296,0,0,1.488,84.11,41,Motors_Started,Setting new Return-To-Home altitude to 45m (148 ft). Setting new Maximum Flight Altitude to 150m (492 ft)
0.376647635977676,36.9241029345987,5336.4736907803,0,0,0.063516406232,500,2018-04-16 06:36:21,13,0,17.151,5336.4736907803,0,0,0.063516406232,0,0,0,100.4, 0.5, -0.1,0,0,364,364,364,1684,105,0,99,4.298,4.297,4.299,4.296,0,0,1.488,84.11,41,Motors_Started,
0.376647655571114,36.9241029632186,5336.4736907803,0,0,0.071841209648,600,2018-04-16 06:36:21,13,0,17.151,5336.4736907803,0,0,0.071841209648,0,0,0,100.4, 0.5, -0.1,0,0,364,364,364,1684,105,0,99,4.298,4.297,4.299,4.296,0,0,1.488,84.11,41,Motors_Started,
0.376647687679144,36.9241029792123,5336.4736907803,0,0,0.084508204804,700,2018-04-16 06:36:21,13,0,17.151,5336.4736907803,0,0,0.084508204804,0,0,0,100.4, 0.5, -0.1,0,0,364,364,364,1684,105,0,99,4.298,4.297,4.299,4.296,0,0,1.488,84.11,41,Motors_Started,
0.376647721111099,36.924102996709,5336.4736907803,0,0,0.09789534434,800,2018-04-16 06:36:21,13,0,17.151,5336.4736907803,0,0,0.09789534434,0,0,0,100.4, 0.4, -0.1,0,0,364,364,364,1684,105,0,99,4.298,4.297,4.299,4.296,0,0,1.488,84.11,41,Motors_Started,
0.376647733614292,36.9241030005722,5336.4736907803,0,0,0.102666669952,900,2018-04-16 06:36:21,13,0,17.151,5336.4736907803,0,0,0.102666669952,0,0,0,100.4, 0.4, -0.1,0,0,364,364,364,1684,104.9,0,99,4.298,4.297,4.299,4.296,0,0,1.488,84.11,41,Motors_Started,
0.376647746959391,36.9241030099159,5336.4736907803,0,0,0.108277890604,1000,2018-04-16 06:36:21,13,0,17.151,5336.4736907803,0,0,0.108277890604,0,0,0,100.4, 0.4, -0.1,0,0,364,364,364,1684,104.9,0,99,4.298,4.297,4.299,4.296,0,0,1.488,84.11,41,Motors_Started,
0.376647774655152,36.9241030060821,5336.4736907803,0,0,0.117660436836,1100,2018-04-16 06:36:21,13,0,17.151,5336.4736907803,0,0,0.117660436836,0,0,0,100.4, 0.4, -0.1,0,0,364,364,364,1684,104.9,0,99,4.298,4.297,4.299,4.296,0,0,1.488,84.11,41,Motors_Started,
0.376647802280076,36.9241030084091,5336.4736907803,0,0,0.127649610384,1200,2018-04-16 06:36:21,13,0,17.151,5336.4736907803,0,0,0.127649610384,0,0,0,100.4, 0.4, -0.1,0,0,364,364,364,1684,104.9,0,99,4.298,4.297,4.299,4.296,0,0,1.488,84.11,41,Motors_Started,
0.376647814202729,36.9241030001495,5336.4736907803,0,0,0.131235896588,1300,2018-04-16 06:36:21,13,0,17.151,5336.4736907803,0,0,0.131235896588,0,0,0,100.4, 0.5, -0.1,0,0,364,364,364,1684,104.9,0,99,4.298,4.297,4.299,4.296,0,0,1.488,84.11,41,Motors_Started,
0.376647824948831,36.9241029999683,5336.4736907803,0,0,0.135063324532,1400,2018-04-16 06:36:22,13,0,17.151,5336.4736907803,0,0,0.135063324532,0,0,0,100.4, 0.4, -0.2,0,0,766,646,413,1675,104.9,0,99,4.297,4.297,4.299,4.295,0,0,1.482,84.11,41,Motors_Started,
0.376647851957389,36.9241030226197,5336.4736907803,0,0,0.146485897076,1500,2018-04-16 06:36:22,13,0,17.151,5336.4736907803,0,0,0.146485897076,0,0,0,100.5, 0.4, -0.2,0,0,766,646,413,1675,104.9,0,99,4.297,4.297,4.299,4.295,0,0,1.482,84.11,10,Assisted_Takeoff,
0.376647880044791,36.9241030505647,5336.4736907803,0,0,0.159045608764,1600,2018-04-16 06:36:22,13,0,17.151,5336.4736907803,0,0,0.159045608764,0,0,0,100.4, 0.5, -0.1,0,0,1024,1024,1017,1024,104.6,0,99,4.297,4.297,4.299,4.295,0,0,1.482,84.11,10,Assisted_Takeoff,
0.376647892503202,36.9241030686043,5336.4736907803,0,0,0.165348758572,1700,2018-04-16 06:36:22,13,0,17.151,5336.4736907803,0,0,0.165348758572,0,0,0,100.3, 0.4, -0.1,0,0,1024,1024,1024,1024,103.5,0,99,4.297,4.297,4.299,4.295,0,0,1.482,84.11,10,Assisted_Takeoff,
0.376647901541066,36.9241030857198,5336.4736907803,0,0,0.1705052548,1800,2018-04-16 06:36:22,13,0,17.151,5336.4736907803,0,0,0.1705052548,0,0,0,100.4, 0.5, -0.1,0,0,1024,1024,1024,1024,102.3,0,99,4.297,4.297,4.299,4.295,0,0,1.482,84.11,10,Assisted_Takeoff,
0.376647931229228,36.9241030912342,5336.4736907803,0,0,0.181384192156,1900,2018-04-16 06:36:22,13,0,17.151,5336.4736907803,0,0,0.181384192156,0,0,0,100.4, 0.4, -0.1,0,0,1024,1024,1024,1024,101.7,0,99,4.297,4.297,4.299,4.295,0,0,1.482,84.11,10,Assisted_Takeoff,
0.376647961344043,36.9241031013572,5336.4736907803,0,0,0.192974743708,2000,2018-04-16 06:36:22,13,0,17.151,5336.4736907803,0,0,0.192974743708,0,0,0,100.4, 0.4, -0.1,0,0,1024,1024,1024,1024,101.5,0,99,4.297,4.297,4.299,4.295,0,0,1.482,84.11,10,Assisted_Takeoff,
0.376647978067349,36.9241030993086,5336.4736907803,0,0,0.198506568032,2100,2018-04-16 06:36:22,13,0,17.151,5336.4736907803,0,0,0.198506568032,0,0,0,100.3, 0.5, -0.1,0,0,1024,1024,1024,1024,101.3,0,99,4.297,4.297,4.299,4.295,0,0,1.482,84.11,10,Assisted_Takeoff,
0.376647991716966,36.9241031045201,5336.4736907803,0,0,0.203832683688,2200,2018-04-16 06:36:22,13,0,17.151,5336.4736907803,0,0,0.203832683688,0,0,0,100.3, 0.5, 0,0,0,1024,1024,1024,1024,101.1,0,99,4.297,4.297,4.299,4.295,0,0,1.482,84.11,10,Assisted_Takeoff,
0.376648025285711,36.9241031316497,5336.4736907803,0,0,0.21866142432,2300,2018-04-16 06:36:22,13,0,17.151,5336.4736907803,0,0,0.21866142432,0,0,0,100.4, 0.5, 0,0,0,1024,1024,1169,1024,101,0,99,4.297,4.297,4.299,4.295,0,0,1.482,84.11,10,Assisted_Takeoff,
0.376648056909279,36.9241031637221,5336.4736907803,0,0,0.23361057178,2400,2018-04-16 06:36:22,13,0,17.098,5336.4736907803,0,0,0.23361057178,0,0,0,100.3, 0.5, -0.1,0,0,1024,1024,1238,1024,101,0,99,4.297,4.297,4.299,4.295,0,0,1.482,84.11,10,Assisted_Takeoff,
0.376648075266728,36.9241031831544,5336.4736907803,0,0,0.242490821408,2500,2018-04-16 06:36:23,13,0,17.098,5336.4736907803,0,0,0.242490821408,0,0,0,100.3, 0.4, -0.1,0,0,1024,1024,1269,1024,100.9,0,99,4.297,4.297,4.299,4.295,0,0,1.482,84.11,10,Assisted_Takeoff,
0.376648089877942,36.9241032030775,5336.4736907803,0,0,0.250256241604,2600,2018-04-16 06:36:23,13,0,17.098,5336.4736907803,0,0,0.250256241604,0,0,0,100.3, 0.4, -0.1,0,0,1024,1024,1338,1024,100.9,0,99,4.297,4.297,4.299,4.295,0,0,1.482,84.11,10,Assisted_Takeoff,
0.376648092547776,36.9241032077227,5336.4736907803,0,0,0.251833013308,2700,2018-04-16 06:36:23,13,0,17.098,5336.4736907803,0,0,0.251833013308,0,0,0,100.2, 0.4, -0.2,0,0,1024,1024,1389,1024,100.8,0,99,4.297,4.297,4.299,4.295,0,0,1.482,84.11,10,Assisted_Takeoff,
0.376648094998584,36.9241032162473,5336.4736907803,0,0,0.253927829648,2800,2018-04-16 06:36:23,13,0,17.098,5336.4736907803,0,0,0.253927829648,0,0,0,100.5, 0.4, -0.3,0,0,1024,1024,1485,1024,100.8,0,99,4.297,4.297,4.299,4.295,0,0,1.482,84.11,10,Assisted_Takeoff,
0.376648091413565,36.9241032426916,5336.4736907803,0,0,0.256919627644,2900,2018-04-16 06:36:23,13,0,17.098,5336.4736907803,0,0,0.256919627644,0,0,0,100.6, 1.2, -0.5,0,0,1024,1024,1596,1024,100.8,0,99,4.297,4.297,4.299,4.295,0,0,1.482,84.11,10,Assisted_Takeoff,
0.376648105484135,36.9241032609863,5336.4736907803,0,0,0.264527239436,3000,2018-04-16 06:36:23,13,0,17.098,5336.4736907803,0,0,0.264527239436,0,0,-0.223694,100.7, 2.2, -0.6,0,0,1024,1024,1684,1024,100.8,0,99,4.297,4.297,4.299,4.295,0,0,1.482,84.11,10,Assisted_Takeoff,
0.376648170358087,36.9241032284908,5336.4736907803,0,0,0.280886491928,3100,2018-04-16 06:36:23,13,0,17.098,5336.4736907803,0,0,0.280886491928,0,0,-0.894776,100.8, 1.4, -0.4,0,0,1024,1024,1684,1024,100.8,0,99,4.297,4.297,4.299,4.295,0,0,1.482,84.11,6,P-GPS,
0.376648261077074,36.9241031632999,5336.4736907803,0,0.223694,0.304021991356,3200,2018-04-16 06:36:23,13,0,17.098,5336.4736907803,0,0.223694,0.304021991356,0,-0.223694,-1.565858,100.8, 0.2, -0.1,0,0,1024,1024,1684,1024,100.8,0,99,4.297,4.297,4.299,4.295,0,0,1.482,84.11,6,P-GPS,
0.376648343056201,36.9241030936132,5336.8017747803,0.328084,0.223694,0.327141414668,3300,2018-04-16 06:36:23,13,0,17.098,5336.8017747803,0.328084,0.223694,0.327141414668,0,-0.223694,-2.460634,100.8, -0.1, 0.3,0,0,1024,1024,1684,1024,100.8,0,99,4.297,4.297,4.299,4.295,0,0,1.482,84.11,6,P-GPS,
0.376648421995024,36.9241030341722,5337.4579427803,0.984252,0.223694,0.35241470944,3400,2018-04-16 06:36:23,13,0,17.151,5337.4579427803,0.984252,0.223694,0.35241470944,0,-0.223694,-3.35541,100.8, 0, 0.5,0,0,1024,1024,1684,1024,100.8,0,99,4.278,4.275,4.273,4.268,0,0,3.502,84.11,6,P-GPS,Home Point Recorded. RTH Altitude:  45m.
0.376648542257242,36.9241029378791,5337.7860267803,1.312336,0.223694,0.39413059004,3500,2018-04-16 06:36:24,12,0,17.151,5337.7860267803,1.312336,0.223694,0.39413059004,0,-0.223694,-4.47388,100.8, 0, 0.4,0,0,1024,1024,1684,1024,100.8,0,99,4.278,4.275,4.273,4.268,0,0,3.502,84.11,6,P-GPS,
0.376648653751103,36.924102840313,5338.7702787803,2.296588,0.223694,0.43592849164,3600,2018-04-16 06:36:24,12,0,17.151,5338.7702787803,2.296588,0.223694,0.43592849164,0,-0.223694,-5.59235,100.8, -0.6, 0.6,0,0,1024,1024,1684,1024,100.8,0,99,4.278,4.275,4.273,4.268,0,0,3.502,84.11,6,P-GPS,
0.376648828273888,36.9241026825741,5339.4264467803,2.952756,0,0.50636156476,3700,2018-04-16 06:36:24,12,0,17.151,5339.4264467803,2.952756,0.223694,0.50636156476,0,0,-6.71082,100.7, -1, 0.5,0,0,1024,1024,1684,1024,100.8,0,99,4.278,4.275,4.273,4.268,0,0,3.502,84.11,6,P-GPS,
0.376648966377339,36.9241025541226,5340.7387827803,4.265092,0,0.56543965064,3800,2018-04-16 06:36:24,12,0,17.151,5340.7387827803,4.265092,0.223694,0.56543965064,0,0,-7.82929,100.6, -1.5, 0.1,0,0,1024,1024,1684,1024,100.8,0,99,4.278,4.275,4.273,4.268,0,0,3.502,84.11,6,P-GPS,
0.376648998687296,36.9241024052842,5341.7230347803,5.249344,0,0.5920439822,3900,2018-04-16 06:36:24,14,0,17.151,5341.7230347803,5.249344,0.223694,0.5920439822,0,0,-8.94776,100.7, -1.3, -0.1,0,0,1024,1024,1684,1024,100.8,0,99,4.278,4.275,4.273,4.268,0,0,3.502,84.11,6,P-GPS,
0.376649027269745,36.9241023126742,5343.3634547803,6.889764,0,0.61344490152,4000,2018-04-16 06:36:24,14,0,17.151,5343.3634547803,6.889764,0.223694,0.61344490152,0,0,-9.842536,100.6, -1.1, 0,0,0,1024,1024,1684,1024,100.8,0,99,4.278,4.275,4.273,4.268,0,0,3.502,84.11,6,P-GPS,
0.376648947266734,36.9241021943446,5344.6757907803,8.2021,0,0.60418637104,4100,2018-04-16 06:36:24,14,0,17.151,5344.6757907803,8.2021,0.223694,0.61344490152,0,0,-10.513618,100.6, -1.2, 0,0,0,1024,1024,1684,1024,100.8,0,99,4.278,4.275,4.273,4.268,0,0,3.502,84.11,6,P-GPS,
0.376648900650896,36.924102124924,5346.3162107803,9.84252,0,0.60089568852,4200,2018-04-16 06:36:24,14,0,17.151,5346.3162107803,9.84252,0.223694,0.61344490152,0,0,-11.1847,100.6, -1.3, 1.1,0,0,1024,1024,1684,1024,100.8,0,99,4.278,4.275,4.273,4.268,0,0,3.502,84.11,6,P-GPS,
0.376648714565344,36.9241020736598,5347.9566307803,11.48294,0,0.55290684184,4300,2018-04-16 06:36:24,14,0,17.151,5347.9566307803,11.48294,0.223694,0.61344490152,0,0,-11.408394,100.6, -0.9, 1.7,0,0,1024,1024,1684,1024,100.8,0,99,4.278,4.275,4.273,4.268,0,0,3.502,84.11,6,P-GPS,
0.376648546153294,36.9241020570873,5349.5970507803,13.12336,0,0.50707678788,4400,2018-04-16 06:36:24,14,0,17.045,5349.5970507803,13.12336,0.223694,0.61344490152,0,0,-11.408394,100.6, -0.4, 1.3,0,0,1024,1024,1684,1024,100.8,0,99,4.272,4.272,4.271,4.255,0,0,5.144,84.11,6,P-GPS,
0.376648286788576,36.9241020238746,5351.5655547803,15.091864,0,0.4461614316,4500,2018-04-16 06:36:25,14,0,17.045,5351.5655547803,15.091864,0.223694,0.61344490152,0,0,-11.408394,100.6, 0.1, 0.8,0,0,1024,1024,1684,1024,100.8,0,99,4.272,4.272,4.271,4.255,0,0,5.144,84.11,6,P-GPS,
0.376648073330508,36.9241019990086,5353.2059747803,16.732284,0,0.40536090536,4600,2018-04-16 06:36:25,14,0,17.045,5353.2059747803,16.732284,0.223694,0.61344490152,0,0,-11.408394,100.7, 0.5, 0.5,0,0,1024,1024,1684,1024,100.8,0,99,4.272,4.272,4.271,4.255,0,0,5.144,84.11,6,P-GPS,
0.376647864253769,36.9241019922733,5354.8463947803,18.372704,0,0.37118767592,4700,2018-04-16 06:36:25,14,0,17.045,5354.8463947803,18.372704,0.223694,0.61344490152,0,0,-11.1847,100.7, 0.6, 0.5,0,0,1024,1024,1684,1025,100.8,0,99,4.272,4.272,4.271,4.255,0,0,5.144,84.11,6,P-GPS,
0.376647704733838,36.9241019781993,5356.4868147803,20.013124,0,0.35723098256,4800,2018-04-16 06:36:25,14,0,17.045,5356.4868147803,20.013124,0.223694,0.61344490152,0,0,-10.961006,100.7, 0.2, 0.4,0,0,1024,1024,1684,1038,100.8,0,99,4.272,4.272,4.271,4.255,0,0,5.144,84.11,6,P-GPS,
0.376647584133718,36.9241019462082,5357.7991507803,21.32546,0,0.36051838424,4900,2018-04-16 06:36:25,14,0,17.045,5357.7991507803,21.32546,0.223694,0.61344490152,0,0,-10.737312,100.7, -0.1, 0.4,0,0,1024,1024,1684,1024,100.8,0,99,4.272,4.272,4.271,4.255,0,0,5.144,84.11,6,P-GPS,
0.376647479047785,36.9241019075724,5359.4395707803,22.96588,0,0.37190617988,5000,2018-04-16 06:36:25,14,0,17.045,5359.4395707803,22.96588,0.223694,0.61344490152,0,0,-10.513618,100.7, -0.4, 0.4,0,0,1024,1024,1684,1024,100.8,0,99,4.272,4.272,4.271,4.255,0,0,5.144,84.11,6,P-GPS,
0.376647445132182,36.9241018824812,5361.0799907803,24.6063,0,0.38105972348,5100,2018-04-16 06:36:25,14,0,17.045,5361.0799907803,24.6063,0.223694,0.61344490152,0,0,-10.513618,100.7, -0.6, 0.3,0,0,1024,1024,1684,1065,100.8,0,99,4.272,4.272,4.271,4.255,0,0,5.144,84.11,6,P-GPS,
0.376647398794808,36.9241018591329,5362.3923267803,25.918636,0,0.39020998624,5200,2018-04-16 06:36:25,14,0,17.045,5362.3923267803,25.918636,0.223694,0.61344490152,0,0,-10.513618,100.7, -0.6, 0.3,0,0,1024,1024,1684,1029,100.8,0,99,4.272,4.272,4.271,4.255,0,0,5.144,84.11,6,P-GPS,
0.376647444552455,36.9241018250411,5364.0327467803,27.559056,0,0.40201444856,5300,2018-04-16 06:36:25,14,0,17.045,5364.0327467803,27.559056,0.223694,0.61344490152,0,0,-10.513618,100.8, -0.7, 0,0,0,1024,1024,1684,1028,100.8,0,99,4.272,4.272,4.271,4.255,0,0,5.144,84.11,6,P-GPS,
0.376647462585844,36.924101796445,5365.6731667803,29.199476,0,0.41239830716,5400,2018-04-16 06:36:26,14,0,16.408,5365.6731667803,29.199476,0.223694,0.61344490152,0,0,-10.513618,100.8, -0.8, 0,0,0,1024,1024,1684,1029,100.8,0,99,4.163,4.169,4.173,4.163,0,0,22.624,84.11,6,P-GPS,
0.376647535086614,36.924101732313,5366.9855027803,30.511812,0,0.43661090636,5500,2018-04-16 06:36:26,14,0,16.408,5366.9855027803,30.511812,0.223694,0.61344490152,0,0,-10.513618,100.8, -0.9, 0.1,0,0,1024,1024,1684,1032,100.8,0,99,4.163,4.169,4.173,4.163,0,0,22.624,84.11,6,P-GPS,
0.376647567895689,36.9241016860277,5368.6259227803,32.152232,0,0.45432744236,5600,2018-04-16 06:36:26,14,0,16.408,5368.6259227803,32.152232,0.223694,0.61344490152,0,0,-10.513618,100.8, -0.6, 0,0,0,1024,1024,1684,1024,100.8,0,99,4.163,4.169,4.173,4.163,0,0,22.624,84.11,6,P-GPS,
0.376647669946203,36.9241016328936,5370.2663427803,33.792652,0,0.47812337488,5700,2018-04-16 06:36:26,14,0,16.408,5370.2663427803,33.792652,0.223694,0.61344490152,0,0,-10.513618,100.8, -0.6, -0.3,0,0,1024,1024,1684,1024,100.8,0,99,4.163,4.169,4.173,4.163,0,0,22.624,84.11,6,P-GPS,
0.376647744264316,36.9241015968947,5371.9067627803,35.433072,0,0.49600723372,5800,2018-04-16 06:36:26,14,0,16.408,5371.9067627803,35.433072,0.223694,0.61344490152,0,0,-10.513618,100.8, -0.6, -0.2,0,0,1024,1024,1684,1024,100.8,0,99,4.163,4.169,4.173,4.163,0,0,22.624,84.11,6,P-GPS,
0.37664784483946,36.924101581484,5373.2190987803,36.745408,0,0.51030513444,5900,2018-04-16 06:36:26,14,0,16.408,5373.2190987803,36.745408,0.223694,0.61344490152,0,0,-10.513618,100.8, -0.8, -0.1,0,0,1024,1024,1684,1024,100.8,0,99,4.163,4.169,4.173,4.163,0,0,22.624,84.11,6,P-GPS,
0.376647914610143,36.9241015832696,5374.8595187803,38.385828,0,0.51723426852,6000,2018-04-16 06:36:26,14,0,16.408,5374.8595187803,38.385828,0.223694,0.61344490152,0,0,-10.513618,100.8, -0.7, 0,0,0,1024,1024,1684,1024,100.8,0,99,4.163,4.169,4.173,4.163,0,0,22.624,84.11,6,P-GPS,
0.376648055255594,36.9241016015688,5376.4999387803,40.026248,0,0.5297244264,6100,2018-04-16 06:36:26,14,0,16.408,5376.4999387803,40.026248,0.223694,0.61344490152,0,0,-10.737312,100.8, -0.6, 0,0,0,1024,1024,1684,1024,100.8,0,99,4.163,4.169,4.173,4.163,0,0,22.624,84.11,6,P-GPS,
0.376648167704538,36.9241016261819,5378.1403587803,41.666668,0,0.53985894116,6200,2018-04-16 06:36:26,14,0,16.408,5378.1403587803,41.666668,0.223694,0.61344490152,0,0,-10.737312,100.8, -0.3, 0,0,0,1024,1024,1684,1047,100.8,0,99,4.163,4.169,4.173,4.163,0,0,22.624,84.11,6,P-GPS,
0.376648295448641,36.9241016505421,5379.4526947803,42.979004,0,0.55611550336,6300,2018-04-16 06:36:26,14,0,16.408,5379.4526947803,42.979004,0.223694,0.61344490152,0,0,-10.737312,100.8, -0.3, 0,0,0,1024,1024,1684,1064,100.8,0,99,4.163,4.169,4.173,4.163,0,0,22.624,84.11,6,P-GPS,
0.376648400338347,36.9241016774178,5381.0931147803,44.619424,0,0.57005579252,6400,2018-04-16 06:36:26,14,0,16.647,5381.0931147803,44.619424,0.223694,0.61344490152,0,0,-10.737312,100.8, -0.7, 0.2,0,0,1024,1024,1684,1071,100.8,0,99,4.163,4.169,4.173,4.163,0,0,22.624,84.11,6,P-GPS,
0.376648498198061,36.924101699548,5382.7335347803,46.259844,0,0.58599411324,6500,2018-04-16 06:36:27,14,0,16.647,5382.7335347803,46.259844,0.223694,0.61344490152,0,0,-10.737312,101, -0.5, 0.2,0,0,1024,1024,1684,1093,100.9,0,99,4.163,4.169,4.173,4.163,0,0,22.624,84.11,6,P-GPS,
0.376648577600176,36.9241017327145,5384.3739547803,47.900264,0,0.59619096396,6600,2018-04-16 06:36:27,14,0,16.647,5384.3739547803,47.900264,0.223694,0.61344490152,0,0,-10.961006,101.4, -0.3, 0.2,0,0,1024,1024,1684,1094,101.1,0,99,4.163,4.169,4.173,4.163,0,0,22.624,84.11,6,P-GPS,
0.376648681625993,36.9241017536516,5386.0143747803,49.540684,0,0.61739831372,6700,2018-04-16 06:36:27,14,0,16.647,5386.0143747803,49.540684,0.223694,0.61739831372,0,0,-10.961006,102, -0.2, 0.1,0,0,1024,1024,1684,1079,101.4,0,99,4.163,4.169,4.173,4.163,0,0,22.624,84.11,6,P-GPS,
0.376648774029605,36.9241017795203,5387.6547947803,51.181104,0,0.63586944292,6800,2018-04-16 06:36:27,14,0,16.647,5387.6547947803,51.181104,0.223694,0.63586944292,0,0,-11.1847,102.6, -0.1, 0.2,0,0,1024,1024,1684,1102,102,0,99,4.163,4.169,4.173,4.163,0,0,22.624,84.11,6,P-GPS,
0.376648934784711,36.924101788528,5390.9356347803,54.461944,0,0.6791010716,7000,2018-04-16 06:36:27,14,0,16.647,5390.9356347803,54.461944,0.223694,0.6791010716,0,0,-11.1847,103.8, -0.3, 0,0,0,1024,1024,1684,1101,102.4,0,99,4.163,4.169,4.173,4.163,0,0,22.624,84.11,6,P-GPS,
0.376649032825182,36.9241017670701,5392.5760547803,56.102364,0,0.71236222752,7100,2018-04-16 06:36:27,14,0,16.647,5392.5760547803,56.102364,0.223694,0.71236222752,0,0,-11.1847,104.5, -0.6, 0.2,0,0,1024,1024,1684,1097,102.8,0,99,4.163,4.169,4.173,4.163,0,0,22.624,84.11,6,P-GPS,
0.376649125611478,36.9241017640172,5394.5445587803,58.070868,0,0.74050855388,7200,2018-04-16 06:36:27,14,0,16.647,5394.5445587803,58.070868,0.223694,0.74050855388,0,0,-11.1847,105.2, -1, 0.7,0,0,1024,1024,1684,1099,103.3,0,99,4.163,4.169,4.173,4.163,0,0,22.624,84.11,6,P-GPS,
0.376649221828906,36.924101764606,5396.1849787803,59.711288,0,0.76942587764,7300,2018-04-16 06:36:27,14,0,16.647,5396.1849787803,59.711288,0.223694,0.76942587764,0,0,-11.1847,106, -0.8, 0.9,0,0,1024,1024,1684,1095,103.3,0,99,4.163,4.169,4.173,4.163,0,0,22.624,84.11,6,P-GPS,
0.376649288266164,36.9241017947333,5397.8253987803,61.351708,0,0.78391734792,7400,2018-04-16 06:36:27,14,0,16.62,5397.8253987803,61.351708,0.223694,0.78391734792,0,0,-11.1847,106.7, -0.1, 0.5,0,0,1024,1024,1684,1083,103.8,0,99,4.18,4.183,4.184,4.178,0,0,16.386,84.11,6,P-GPS,
0.376649328823376,36.92410180811,5399.4658187803,62.992128,0,0.79401577344,7500,2018-04-16 06:36:28,14,0,16.62,5399.4658187803,62.992128,0.223694,0.79401577344,0,0,-11.408394,107.4, 0, 0.4,0,0,1024,1024,1684,1070,104.3,0,99,4.18,4.183,4.184,4.178,0,0,16.386,84.11,6,P-GPS,
0.376649355107276,36.9241018288735,5401.4343227803,64.960632,0,0.79842850324,7600,2018-04-16 06:36:28,14,0,16.62,5401.4343227803,64.960632,0.223694,0.79842850324,0,0,-11.408394,107.9, -0.1, 0.2,0,0,1024,1024,1684,1074,104.7,0,99,4.18,4.183,4.184,4.178,0,0,16.386,84.11,6,P-GPS,
0.376649343917423,36.9241018489903,5403.0747427803,66.601052,0,0.79122705944,7700,2018-04-16 06:36:28,14,0,16.62,5403.0747427803,66.601052,0.223694,0.79842850324,0,0,-11.632088,108.3, 0, 0.1,0,0,1024,1024,1684,1069,105.1,0,99,4.18,4.183,4.184,4.178,0,0,16.386,84.11,6,P-GPS,
0.37664933473707,36.9241018731887,5405.0432467803,68.569556,0,0.78395343716,7800,2018-04-16 06:36:28,14,0,16.62,5405.0432467803,68.569556,0.223694,0.79842850324,0,0,-11.408394,108.7, 0, 0.2,0,0,1024,1024,1684,1069,105.5,0,99,4.18,4.183,4.184,4.178,0,0,16.386,84.11,6,P-GPS,
0.376649305911169,36.9241018584593,5406.6836667803,70.209976,0,0.77748690152,7900,2018-04-16 06:36:28,14,0,16.62,5406.6836667803,70.209976,0.223694,0.79842850324,0,0,-11.408394,109, -0.1, 0.1,0,0,1024,1024,1684,1070,105.8,0,99,4.18,4.183,4.184,4.178,0,0,16.386,84.11,6,P-GPS,
0.376649277977655,36.9241018464771,5408.6521707803,72.17848,0,0.77090881732,8000,2018-04-16 06:36:28,14,0,16.62,5408.6521707803,72.17848,0.223694,0.79842850324,0,0,-11.632088,109.4, -0.2, 0,0,0,1024,1024,1684,1074,106.2,0,99,4.18,4.183,4.184,4.178,0,0,16.386,84.11,6,P-GPS,
0.37664923850173,36.9241018156398,5410.2925907803,73.8189,0,0.76447509008,8100,2018-04-16 06:36:28,14,0,16.62,5410.2925907803,73.8189,0.223694,0.79842850324,0,0,-11.632088,109.7, -0.3, 0,0,0,1024,1024,1684,1077,106.6,0,99,4.18,4.183,4.184,4.178,0,0,16.386,84.11,6,P-GPS,
0.376649201014949,36.924101804379,5412.2610947803,75.787404,0,0.7551345386,8200,2018-04-16 06:36:28,14,0,16.62,5412.2610947803,75.787404,0.223694,0.79842850324,0,0,-11.632088,110.1, -0.2, -0.3,0,0,1024,1024,1684,1073,107,0,99,4.18,4.183,4.184,4.178,0,0,16.386,84.11,6,P-GPS,
0.376649140613518,36.9241017904623,5413.9015147803,77.427824,0,0.7395505486,8300,2018-04-16 06:36:28,14,0,16.62,5413.9015147803,77.427824,0.223694,0.79842850324,0,0,-11.632088,110.5, -0.3, -0.3,0,0,1024,1024,1684,1075,107.4,0,99,4.18,4.183,4.184,4.178,0,0,16.386,84.11,6,P-GPS,
0.376649092230004,36.9241017909342,5415.8700187803,79.396328,0,0.724901598,8400,2018-04-16 06:36:28,14,0,16.62,5415.8700187803,79.396328,0.223694,0.79842850324,0,0,-11.632088,110.9, -0.4, -0.2,0,0,1024,1024,1684,1069,107.8,0,99,4.176,4.179,4.18,4.173,0,0,16.392,84.11,6,P-GPS,
0.37664906846775,36.9241017862195,5417.8385227803,81.364832,0,0.7187992356,8500,2018-04-16 06:36:29,14,0,16.62,5417.8385227803,81.364832,0.223694,0.79842850324,0,0,-11.855782,111.3, -0.3, 0,0,0,1024,1024,1684,1073,108.2,0,99,4.176,4.179,4.18,4.173,0,0,16.392,84.11,6,P-GPS,
0.376649051357689,36.9241017850046,5419.4789427803,83.005252,0,0.7139764008,8600,2018-04-16 06:36:29,14,0,16.62,5419.4789427803,83.005252,0.223694,0.79842850324,0,0,-11.632088,111.7, -0.3, 0,0,0,1024,1024,1684,1073,108.6,0,99,4.176,4.179,4.18,4.173,0,0,16.392,84.11,6,P-GPS,
0.37664901620284,36.9241017347889,5421.4474467803,84.973756,0,0.7145997604,8700,2018-04-16 06:36:29,14,0,16.62,5421.4474467803,84.973756,0.223694,0.79842850324,0,0,-11.408394,112, -0.6, 0,0,0,1024,1024,1684,1073,109,0,99,4.176,4.179,4.18,4.173,0,0,16.392,84.11,6,P-GPS,
0.376648983079474,36.9241016982971,5423.0878667803,86.614176,0,0.713336637,8800,2018-04-16 06:36:29,14,0,16.62,5423.0878667803,86.614176,0.223694,0.79842850324,0,0,-11.408394,112.4, -0.7, 0,0,0,1024,1024,1684,1070,109,0,99,4.176,4.179,4.18,4.173,0,0,16.392,84.11,6,P-GPS,
0.376648928823792,36.9241016589104,5425.0563707803,88.58268,0,0.70735894652,8900,2018-04-16 06:36:29,14,0,16.62,5425.0563707803,88.58268,0.223694,0.79842850324,0,0,-11.408394,112.7, -0.9, 0.1,0,0,1024,1024,1684,1066,109.4,0,99,4.176,4.179,4.18,4.173,0,0,16.392,84.11,6,P-GPS,
0.376648880004669,36.9241016323714,5426.6967907803,90.2231,0,0.7004757442,9000,2018-04-16 06:36:29,14,0,16.62,5426.6967907803,90.2231,0.223694,0.79842850324,0,0,-11.632088,113.1, -1.4, -0.1,0,0,1024,1024,1684,1066,109.7,0,99,4.176,4.179,4.18,4.173,0,0,16.392,84.11,6,P-GPS,
0.376648842646535,36.9241016260275,5428.6652947803,92.191604,0,0.69205382792,9100,2018-04-16 06:36:29,14,0,16.62,5428.6652947803,92.191604,0.223694,0.79842850324,0,0,-11.632088,113.4, -1.4, -0.1,0,0,1024,1024,1684,1050,110.1,0,99,4.176,4.179,4.18,4.173,0,0,16.392,84.11,6,P-GPS,
0.376648807695242,36.9241016481687,5430.6337987803,94.160108,0,0.67723755448,9200,2018-04-16 06:36:29,14,0,16.62,5430.6337987803,94.160108,0.223694,0.79842850324,0,0,-11.632088,113.6, -0.9, 0,0,0,1024,1024,1684,1050,110.4,0,99,4.176,4.179,4.18,4.173,0,0,16.392,84.11,6,P-GPS,
0.376648785778828,36.9241016519501,5432.2742187803,95.800528,0,0.67050855164,9300,2018-04-16 06:36:29,14,0,16.62,5432.2742187803,95.800528,0.223694,0.79842850324,0,0,-11.408394,113.8, -0.4, 0,0,0,1024,1024,1684,1024,110.6,0,99,4.176,4.179,4.18,4.173,0,0,16.392,84.11,6,P-GPS,
0.376648757477286,36.9241016648814,5434.2427227803,97.769032,0,0.65980645156,9400,2018-04-16 06:36:30,14,0,16.594,5434.2427227803,97.769032,0.223694,0.79842850324,0,0,-11.408394,113.8, -0.2, -0.1,0,0,1024,1024,1684,1024,110.9,0,99,4.169,4.173,4.173,4.166,0,0,16.778,84.11,6,P-GPS,
0.376648721022938,36.9241016592117,5435.8831427803,99.409452,0,0.65181432532,9500,2018-04-16 06:36:30,14,0,16.594,5435.8831427803,99.409452,0.223694,0.79842850324,0,0,-11.408394,113.9, -0.1, -0.2,0,0,1024,1024,1684,1024,111.3,0,99,4.169,4.173,4.173,4.166,0,0,16.778,84.11,6,P-GPS,
0.376648656400581,36.9241016377604,5439.4920667803,103.018376,0,0.64113519112,9700,2018-04-16 06:36:30,14,0,16.594,5439.4920667803,103.018376,0.223694,0.79842850324,0,0,-11.408394,113.8, -0.7, -0.2,0,0,1024,1024,1684,1024,111.4,0,99,4.169,4.173,4.173,4.166,0,0,16.778,84.11,6,P-GPS,
0.376648625031864,36.9241016230568,5441.4605707803,104.98688,0,0.63740815688,9800,2018-04-16 06:36:30,14,0,16.594,5441.4605707803,104.98688,0.223694,0.79842850324,0,0,-11.1847,113.8, -0.9, -0.3,0,0,1024,1024,1684,1024,111.6,0,99,4.169,4.173,4.173,4.166,0,0,16.778,84.11,6,P-GPS,
0.376648582782699,36.9241016008681,5443.1009907803,106.6273,0,0.63341209376,9900,2018-04-16 06:36:30,14,0,16.594,5443.1009907803,106.6273,0.223694,0.79842850324,0,0,-11.1847,113.8, -1, -0.3,0,0,1024,1024,1684,1024,111.7,0,99,4.169,4.173,4.173,4.166,0,0,16.778,84.11,6,P-GPS,
0.376648542674938,36.9241016021233,5445.0694947803,108.595804,0,0.62371064988,10000,2018-04-16 06:36:30,14,0,16.594,5445.0694947803,108.595804,0.223694,0.79842850324,0,0,-11.1847,113.8, -1, -0.3,0,0,1024,1024,1684,1024,111.8,0,99,4.169,4.173,4.173,4.166,0,0,16.778,84.11,6,P-GPS,
0.37664851918789,36.9241016071006,5446.7099147803,110.236224,0,0.6169127494,10100,2018-04-16 06:36:30,14,0,16.594,5446.7099147803,110.236224,0.223694,0.79842850324,0,0,-11.1847,113.8, -0.8, -0.3,0,0,1024,1024,1684,1024,111.9,0,99,4.169,4.173,4.173,4.166,0,0,16.778,84.11,6,P-GPS,
0.376648496842381,36.9241016297225,5448.3503347803,111.876644,0,0.60537403512,10200,2018-04-16 06:36:30,14,0,16.594,5448.3503347803,111.876644,0.223694,0.79842850324,0,0,-10.961006,113.8, -0.7, -0.4,0,0,1024,1024,1684,1024,111.9,0,99,4.169,4.173,4.173,4.166,0,0,16.778,84.11,6,P-GPS,
0.376648495667459,36.924101616141,5450.3188387803,113.845148,0,0.6089895208,10300,2018-04-16 06:36:30,14,0,16.594,5450.3188387803,113.845148,0.223694,0.79842850324,0,0,-10.961006,113.8, -0.7, -0.5,0,0,1024,1024,1684,1024,112,0,99,4.169,4.173,4.173,4.166,0,0,16.778,84.11,6,P-GPS,
0.376648495222894,36.9241016269204,5451.9592587803,115.485568,0,0.605807106,10400,2018-04-16 06:36:30,14,0,16.541,5451.9592587803,115.485568,0.223694,0.79842850324,0,0,-10.961006,113.9, -0.4, -0.4,0,0,1024,1024,1684,1024,112.1,0,99,4.169,4.173,4.173,4.166,0,0,16.778,84.11,6,P-GPS,
0.376648485738022,36.9241016274449,5453.5996787803,117.125988,0,0.60350723716,10500,2018-04-16 06:36:31,14,0,16.541,5453.5996787803,117.125988,0.223694,0.79842850324,0,0,-11.1847,113.9, -0.3, -0.4,0,0,1024,1024,1684,1024,112.1,0,99,4.169,4.173,4.173,4.166,0,0,16.778,84.11,6,P-GPS,
0.376648477849025,36.9241016507409,5455.5681827803,119.094492,0,0.59505907416,10600,2018-04-16 06:36:31,14,0,16.541,5455.5681827803,119.094492,0.223694,0.79842850324,0,0,-10.961006,113.9, -0.2, -0.1,0,0,1024,1024,1684,1024,112.2,0,99,4.169,4.173,4.173,4.166,0,0,16.778,84.11,6,P-GPS,
0.376648484253695,36.9241016816505,5457.2086027803,120.734912,0,0.58775592432,10700,2018-04-16 06:36:31,14,0,16.541,5457.2086027803,120.734912,0.223694,0.79842850324,0,0,-10.961006,113.8, -0.1, 0.1,0,0,1024,1024,1684,1024,112.3,0,99,4.169,4.173,4.173,4.166,0,0,16.778,84.11,6,P-GPS,
0.376648490666508,36.9241017241275,5458.8490227803,122.375332,0,0.57738190824,10800,2018-04-16 06:36:31,14,0,16.541,5458.8490227803,122.375332,0.223694,0.79842850324,0,0,-10.961006,113.8, -0.3, 0.4,0,0,1024,1024,1684,1024,112.3,0,99,4.169,4.173,4.173,4.166,0,0,16.778,84.11,6,P-GPS,
0.376648490429569,36.9241017246331,5460.4894427803,124.015752,0,0.57718505784,10900,2018-04-16 06:36:31,14,0,16.541,5460.4894427803,124.015752,0.223694,0.79842850324,0,0,-10.961006,113.8, -0.4, 0,0,0,1024,1024,1684,1023,112.4,0,99,4.169,4.173,4.173,4.166,0,0,16.778,84.11,6,P-GPS,
0.37664847849796,36.9241017338217,5462.4579467803,125.984256,0,0.57180776108,11000,2018-04-16 06:36:31,14,0,16.541,5462.4579467803,125.984256,0.223694,0.79842850324,0,0,-11.1847,113.9, -0.5, -0.4,0,0,1024,1024,1684,1017,112.4,0,99,4.169,4.173,4.173,4.166,0,0,16.778,84.11,6,P-GPS,
0.376648471905204,36.924101720103,5464.0983667803,127.624676,0,0.5740813832,11100,2018-04-16 06:36:31,14,0,16.541,5464.0983667803,127.624676,0.223694,0.79842850324,0,0,-11.1847,113.8, -0.5, -0.1,0,0,1024,1024,1684,1003,112.5,0,99,4.169,4.173,4.173,4.166,0,0,16.778,84.11,6,P-GPS,
0.376648463408798,36.9241017290117,5465.7387867803,129.265096,0,0.56959975576,11200,2018-04-16 06:36:31,14,0,16.541,5465.7387867803,129.265096,0.223694,0.79842850324,0,0,-11.1847,113.8, -0.5, 0.1,0,0,1024,1024,1684,997,112.5,0,99,4.169,4.173,4.173,4.166,0,0,16.778,84.11,6,P-GPS,
0.376648455945639,36.924101721659,5467.7072907803,131.2336,0,0.56992455892,11300,2018-04-16 06:36:31,14,0,16.541,5467.7072907803,131.2336,0.223694,0.79842850324,0,0,-11.1847,113.8, -0.4, 0,0,0,1024,1024,1684,1002,112.6,0,99,4.169,4.173,4.173,4.166,0,0,16.778,84.11,6,P-GPS,
0.376648440348402,36.9241017302987,5469.3477107803,132.87402,0,0.56387468996,11400,2018-04-16 06:36:32,14,0,16.567,5469.3477107803,132.87402,0.223694,0.79842850324,0,0,-11.1847,113.7, -0.4, -0.3,0,0,1024,1024,1684,1015,112.6,0,99,4.163,4.166,4.167,4.159,0,0,17.024,84.11,6,P-GPS,
0.376648435938576,36.9241017148677,5470.9881307803,134.51444,0,0.56723755096,11500,2018-04-16 06:36:32,14,0,16.567,5470.9881307803,134.51444,0.223694,0.79842850324,0,0,-11.1847,113.7, -0.5, -0.5,0,0,1024,1024,1684,1009,112.6,0,99,4.163,4.166,4.167,4.159,0,0,17.024,84.11,6,P-GPS,
0.376648435004663,36.9241017224474,5472.9566347803,136.482944,0,0.56486878448,11600,2018-04-16 06:36:32,14,0,16.567,5472.9566347803,136.482944,0.223694,0.79842850324,0,0,-11.1847,113.7, -0.5, -0.2,0,0,1024,1024,1684,1012,112.6,0,99,4.163,4.166,4.167,4.159,0,0,17.024,84.11,6,P-GPS,
0.376648452772616,36.9241017105366,5474.5970547803,138.123364,0,0.57232941464,11700,2018-04-16 06:36:32,14,0,16.567,5474.5970547803,138.123364,0.223694,0.79842850324,0,0,-11.1847,113.7, -0.5, 0,0,0,1024,1024,1684,1018,112.7,0,99,4.163,4.166,4.167,4.159,0,0,17.024,84.11,6,P-GPS,
0.376648464521839,36.924101717662,5476.2374747803,139.763784,0,0.57304135692,11800,2018-04-16 06:36:32,14,0,16.567,5476.2374747803,139.763784,0.223694,0.79842850324,0,0,-11.1847,113.7, -0.5, 0,0,0,1024,1024,1684,1023,112.7,0,99,4.163,4.166,4.167,4.159,0,0,17.024,84.11,6,P-GPS,
0.376648494747388,36.9241017615255,5479.8463987803,143.372708,0,0.56806760348,12000,2018-04-16 06:36:32,14,0,16.567,5479.8463987803,143.372708,0.223694,0.79842850324,0,0,-11.1847,113.7, -0.7, 0,0,0,1024,1024,1684,1024,112.7,0,99,4.163,4.166,4.167,4.159,0,0,17.024,84.11,6,P-GPS,
0.376648512810903,36.9241017332618,5481.4868187803,145.013128,0,0.58016077972,12100,2018-04-16 06:36:32,14,0,16.567,5481.4868187803,145.013128,0.223694,0.79842850324,0,0,-10.961006,113.7, -1, 0.2,0,0,1024,1024,1684,1024,112.8,0,99,4.163,4.166,4.167,4.159,0,0,17.024,84.11,6,P-GPS,
0.376648514348969,36.924101720826,5483.1272387803,146.653548,0,0.5839403074,12200,2018-04-16 06:36:32,14,0,16.567,5483.1272387803,146.653548,0.223694,0.79842850324,0,0,-10.961006,113.7, -1.1, 0.1,0,0,1024,1024,1684,1024,112.8,0,99,4.163,4.166,4.167,4.159,0,0,17.024,84.11,6,P-GPS,
0.376648532563115,36.9241017274103,5484.7676587803,148.293968,0,0.58653873268,12300,2018-04-16 06:36:32,14,0,16.567,5484.7676587803,148.293968,0.223694,0.79842850324,0,0,-11.1847,113.7, -1.2, 0,0,0,1024,1024,1684,1024,112.8,0,99,4.163,4.166,4.167,4.159,0,0,17.024,84.11,6,P-GPS,
0.376648539920425,36.9241017687032,5486.4080787803,149.934388,0,0.57721130456,12400,2018-04-16 06:36:32,14,0,16.541,5486.4080787803,149.934388,0.223694,0.79842850324,0,0,-10.961006,113.7, -0.8, 0.5,0,0,1024,1024,1684,1024,112.8,0,99,4.155,4.159,4.159,4.152,0,0,17.38,84.11,6,P-GPS,
0.37664852950164,36.9241017950619,5488.3765827803,151.902892,0,0.56759516252,12500,2018-04-16 06:36:33,14,0,16.541,5488.3765827803,151.902892,0.223694,0.79842850324,0,0,-10.961006,113.7, -0.5, 0.1,0,0,1024,1024,1684,1024,112.8,0,99,4.155,4.159,4.159,4.152,0,0,17.38,84.11,6,P-GPS,
0.376648498493624,36.9241018246189,5490.0170027803,153.543312,0,0.55198820664,12600,2018-04-16 06:36:33,14,0,16.541,5490.0170027803,153.543312,0.223694,0.79842850324,0,0,-10.961006,113.7, -0.6, -0.5,0,0,1024,1024,1684,1024,112.9,0,99,4.155,4.159,4.159,4.152,0,0,17.38,84.11,6,P-GPS,
0.3766485170473,36.9241018284818,5491.6574227803,155.183732,0,0.55562993904,12700,2018-04-16 06:36:33,14,0,16.541,5491.6574227803,155.183732,0.223694,0.79842850324,0,0,-10.961006,113.7, -0.5, -0.4,0,0,1024,1024,1684,1024,112.9,0,99,4.155,4.159,4.159,4.152,0,0,17.38,84.11,6,P-GPS,
0.376648532067253,36.9241018468774,5493.2978427803,156.824152,0,0.55465224872,12800,2018-04-16 06:36:33,14,0,16.541,5493.2978427803,156.824152,0.223694,0.79842850324,0,0,-11.1847,113.7, -0.4, -0.2,0,0,1024,1024,1684,1024,112.9,0,99,4.155,4.159,4.159,4.152,0,0,17.38,84.11,6,P-GPS,
0.37664857249419,36.9241018317486,5494.9382627803,158.464572,0,0.56899280036,12900,2018-04-16 06:36:33,14,0,16.541,5494.9382627803,158.464572,0.223694,0.79842850324,0,0,-11.1847,113.7, -0.7, -0.1,0,0,1024,1024,1684,1024,112.9,0,99,4.155,4.159,4.159,4.152,0,0,17.38,84.11,6,P-GPS,
0.376648596199449,36.9241018333896,5496.9067667803,160.433076,0,0.57476707876,13000,2018-04-16 06:36:33,14,0,16.541,5496.9067667803,160.433076,0.223694,0.79842850324,0,0,-11.1847,113.7, -1, -0.1,0,0,1024,1024,1684,1024,112.9,0,99,4.155,4.159,4.159,4.152,0,0,17.38,84.11,6,P-GPS,
0.376648658936068,36.924101814481,5498.5471867803,162.073496,0,0.59613518968,13100,2018-04-16 06:36:33,14,0,16.541,5498.5471867803,162.073496,0.223694,0.79842850324,0,0,-11.1847,113.7, -1.1, -0.1,0,0,1024,1024,1684,1024,112.9,0,99,4.155,4.159,4.159,4.152,0,0,17.38,84.11,6,P-GPS,
0.376648701519065,36.924101823334,5500.1876067803,163.713916,0,0.60545605612,13200,2018-04-16 06:36:33,14,0,16.541,5500.1876067803,163.713916,0.223694,0.79842850324,0,0,-10.961006,113.7, -0.9, 0,0,0,1024,1024,1684,1024,112.9,0,99,4.155,4.159,4.159,4.152,0,0,17.38,84.11,6,P-GPS,
0.376648736250518,36.9241018200165,5501.8280267803,165.354336,0,0.61577101708,13300,2018-04-16 06:36:33,14,0,16.541,5501.8280267803,165.354336,0.223694,0.79842850324,0,0,-10.961006,113.7, -0.5, 0,0,0,1024,1024,1684,1024,112.9,0,99,4.155,4.159,4.159,4.152,0,0,17.38,84.11,6,P-GPS,
0.376648747791301,36.9241018340285,5503.4684467803,166.994756,0,0.6156332218,13400,2018-04-16 06:36:34,14,0,16.461,5503.4684467803,166.994756,0.223694,0.79842850324,0,0,-10.961006,113.7, -0.4, 0,0,0,1024,1024,1684,1024,113,0,99,4.155,4.159,4.159,4.152,0,0,17.37,84.11,6,P-GPS,
0.376648786453004,36.9241018155781,5505.1088667803,168.635176,0,0.63075133252,13500,2018-04-16 06:36:34,14,0,16.461,5505.1088667803,168.635176,0.223694,0.79842850324,0,0,-10.961006,113.7, -1, 0,0,0,1024,1024,1684,1024,113,0,99,4.155,4.159,4.159,4.152,0,0,17.37,84.11,6,P-GPS,
0.376648805683299,36.924101816628,5506.7492867803,170.275596,0,0.63589897048,13600,2018-04-16 06:36:34,14,0,16.461,5506.7492867803,170.275596,0.223694,0.79842850324,0,0,-10.961006,113.7, -1.3, 0,0,0,1024,1024,1684,1024,113,0,99,4.155,4.159,4.159,4.152,0,0,17.37,84.11,6,P-GPS,
0.376648851733253,36.9241018099302,5508.3897067803,171.916016,0,0.65046590008,13700,2018-04-16 06:36:34,14,0,16.461,5508.3897067803,171.916016,0.223694,0.79842850324,0,0,-10.961006,113.7, -1.1, -0.2,0,0,1024,1024,1684,1024,113,0,99,4.155,4.159,4.159,4.152,0,0,17.37,84.11,6,P-GPS,
0.376648874817261,36.9241018386213,5510.0301267803,173.556436,0,0.65061353788,13800,2018-04-16 06:36:34,14,0,16.461,5510.0301267803,173.556436,0.223694,0.79842850324,0,0,-10.961006,113.7, -0.7, -0.2,0,0,1024,1024,1684,1024,113,0,99,4.155,4.159,4.159,4.152,0,0,17.37,84.11,6,P-GPS,
0.376648900839796,36.9241018558869,5511.9986307803,175.52494,0,0.6543799422,13900,2018-04-16 06:36:34,14,0,16.461,5511.9986307803,175.52494,0.223694,0.79842850324,0,0,-10.961006,113.8, -0.5, 0,0,0,1024,1024,1684,1024,113,0,99,4.155,4.159,4.159,4.152,0,0,17.37,84.11,6,P-GPS,
0.37664890521461,36.9241018922069,5513.6390507803,177.16536,0,0.6478510706,14000,2018-04-16 06:36:34,14,0,16.461,5513.6390507803,177.16536,0.223694,0.79842850324,0,0,-10.961006,113.8, -0.6, -0.1,0,0,1024,1024,1684,1024,113.1,0,99,4.155,4.159,4.159,4.152,0,0,17.37,84.11,6,P-GPS,
0.376648913492805,36.9241019275478,5514.9513867803,178.477696,0,0.64291012556,14100,2018-04-16 06:36:34,14,0,16.461,5514.9513867803,178.477696,0.223694,0.79842850324,0,0,-10.961006,113.7, -0.7, -0.3,0,0,1024,1024,1684,1024,113.1,0,99,4.155,4.159,4.159,4.152,0,0,17.37,84.11,6,P-GPS,
0.376648909685503,36.9241019888914,5516.9198907803,180.4462,0,0.62932416712,14200,2018-04-16 06:36:34,14,0,16.461,5516.9198907803,180.4462,0.223694,0.79842850324,0,0,-10.961006,113.7, -0.3, -0.3,0,0,1024,1024,1684,1024,113.1,0,99,4.155,4.159,4.159,4.152,0,0,17.37,84.11,6,P-GPS,
0.376648920819989,36.9241020473497,5518.5603107803,182.08662,0,0.62146327448,14300,2018-04-16 06:36:34,14,0,16.461,5518.5603107803,182.08662,0.223694,0.79842850324,0,0,-10.961006,113.7, 0, -0.1,0,0,1024,1024,1684,1024,113.1,0,99,4.155,4.159,4.159,4.152,0,0,17.37,84.11,6,P-GPS,
0.376648929231717,36.9241021101372,5520.2007307803,183.72704,0,0.6126312532,14400,2018-04-16 06:36:34,14,0,16.461,5520.2007307803,183.72704,0.223694,0.79842850324,0,0,-10.961006,113.7, -0.2, 0.1,0,0,1024,1024,1684,1024,113.1,0,99,4.155,4.159,4.159,4.152,0,0,17.37,84.11,6,P-GPS,
0.376648941358739,36.9241021557722,5521.8411507803,185.36746,0,0.6086286284,14500,2018-04-16 06:36:35,14,0,16.461,5521.8411507803,185.36746,0.223694,0.79842850324,0,0,-10.961006,113.7, -0.3, 0.3,0,0,1024,1024,1684,1024,113.1,0,99,4.155,4.159,4.159,4.152,0,0,17.37,84.11,6,P-GPS,
0.376648931808729,36.9241022111229,5523.4815707803,187.00788,0,0.59642718444,14600,2018-04-16 06:36:35,14,0,16.461,5523.4815707803,187.00788,0.223694,0.79842850324,0,0,-10.961006,113.7, -0.3, 0.1,0,0,1024,1024,1684,1024,113.1,0,99,4.155,4.159,4.159,4.152,0,0,17.37,84.11,6,P-GPS,
0.376648915945242,36.9241022529472,5525.1219907803,188.6483,0,0.58464896884,14700,2018-04-16 06:36:35,14,0,16.461,5525.1219907803,188.6483,0.223694,0.79842850324,0,0,-10.961006,113.7, 0, 0,0,0,1024,1024,1684,1024,113.1,0,99,4.155,4.159,4.159,4.152,0,0,17.37,84.11,6,P-GPS,
0.376648891277573,36.9241023023138,5526.7624107803,190.28872,0,0.56904857464,14800,2018-04-16 06:36:35,14,0,16.461,5526.7624107803,190.28872,0.223694,0.79842850324,0,0,-10.961006,113.7, 0, -0.2,0,0,1024,1024,1684,1024,113.1,0,99,4.155,4.159,4.159,4.152,0,0,17.37,84.11,6,P-GPS,
0.376648881532149,36.9241023383305,5528.4028307803,191.92914,0,0.5606299392,14900,2018-04-16 06:36:35,14,0,16.461,5528.4028307803,191.92914,0.223694,0.79842850324,0,0,-11.1847,113.7, -0.2, -0.1,0,0,1024,1024,1684,1024,113.1,0,99,4.155,4.159,4.159,4.152,0,0,17.37,84.11,6,P-GPS,
0.37664886274072,36.9241023843305,5530.0432507803,193.56956,0,0.54802167108,15000,2018-04-16 06:36:35,14,0,16.461,5530.0432507803,193.56956,0.223694,0.79842850324,0,0,-11.1847,113.7, -0.4, -0.1,0,0,1024,1024,1684,1024,113.1,0,99,4.155,4.159,4.159,4.152,0,0,17.37,84.11,6,P-GPS,
0.376648860540692,36.9241023893786,5531.6836707803,195.20998,0,0.54661090988,15100,2018-04-16 06:36:35,14,0,16.461,5531.6836707803,195.20998,0.223694,0.79842850324,0,0,-10.961006,113.7, -0.5, -0.1,0,0,1024,1024,1684,1024,113.1,0,99,4.155,4.159,4.159,4.152,0,0,17.37,84.11,6,P-GPS,
0.376648847205364,36.9241024150498,5533.3240907803,196.8504,0,0.53875329808,15200,2018-04-16 06:36:35,14,0,16.461,5533.3240907803,196.8504,0.223694,0.79842850324,0,0,-10.961006,113.7, -0.4, 0,0,0,1024,1024,1684,1024,113.1,0,99,4.155,4.159,4.159,4.152,0,0,17.37,84.11,6,P-GPS,
0.376648845359523,36.9241024426715,5534.9645107803,198.49082,0,0.53470802236,15300,2018-04-16 06:36:35,14,0,16.461,5534.9645107803,198.49082,0.223694,0.79842850324,0,0,-10.961006,113.7, -0.1, 0,0,0,1024,1024,1684,1024,113.2,0,99,4.155,4.159,4.159,4.152,0,0,17.37,84.11,6,P-GPS,
0.376648823611653,36.9241024867724,5536.6049307803,200.13124,0,0.52205710332,15400,2018-04-16 06:36:36,14,0,16.461,5536.6049307803,200.13124,0.223694,0.79842850324,0,0,-10.961006,113.7, -0.2, -0.2,0,0,1024,1024,1684,1024,113.2,0,99,4.145,4.149,4.151,4.142,0,0,17.604,84.11,6,P-GPS,
0.376648814095841,36.9241025257277,5538.2453507803,201.77166,0,0.5145341372,15500,2018-04-16 06:36:36,14,0,16.461,5538.2453507803,201.77166,0.223694,0.79842850324,0,0,-11.1847,113.7, -0.3, -0.4,0,0,1024,1024,1684,1024,113.2,0,99,4.145,4.149,4.151,4.142,0,0,17.604,84.11,6,P-GPS,
0.376648791506066,36.9241025813275,5539.8857707803,203.41208,0,0.50115487168,15600,2018-04-16 06:36:36,14,0,16.461,5539.8857707803,203.41208,0.223694,0.79842850324,0,0,-11.1847,113.7, -0.2, -0.3,0,0,1024,1024,1684,1024,113.2,0,99,4.145,4.149,4.151,4.142,0,0,17.604,84.11,6,P-GPS,
0.376648796169115,36.9241026359831,5541.5261907803,205.0525,0,0.49817586896,15700,2018-04-16 06:36:36,14,0,16.461,5541.5261907803,205.0525,0.223694,0.79842850324,0,0,-11.1847,113.7, 0, -0.1,0,0,1024,1024,1684,1024,113.2,0,99,4.145,4.149,4.151,4.142,0,0,17.604,84.11,6,P-GPS,
0.376648788328157,36.9241027036142,5543.1666107803,206.69292,0,0.49068899208,15800,2018-04-16 06:36:36,14,0,16.461,5543.1666107803,206.69292,0.223694,0.79842850324,0,0,-11.1847,113.7, 0, 0,0,0,1024,1024,1684,1024,113.2,0,99,4.145,4.149,4.151,4.142,0,0,17.604,84.11,6,P-GPS,
0.376648804225842,36.9241027547571,5545.1351147803,208.661424,0,0.49369424152,15900,2018-04-16 06:36:36,14,0,16.461,5545.1351147803,208.661424,0.223694,0.79842850324,0,0,-11.1847,113.7, 0, 0,0,0,1024,1024,1684,1024,113.2,0,99,4.145,4.149,4.151,4.142,0,0,17.604,84.11,6,P-GPS,
0.376648801973704,36.9241028145675,5546.7755347803,210.301844,0,0.49057744352,16000,2018-04-16 06:36:36,14,0,16.461,5546.7755347803,210.301844,0.223694,0.79842850324,0,0,-11.1847,113.7, -0.1, 0,0,0,1024,1024,1684,1024,113.2,0,99,4.145,4.149,4.151,4.142,0,0,17.604,84.11,6,P-GPS,
0.37664881921974,36.9241028580036,5548.0878707803,211.61418,0,0.49579397912,16100,2018-04-16 06:36:36,14,0,16.461,5548.0878707803,211.61418,0.223694,0.79842850324,0,0,-10.961006,113.7, -0.3, 0,0,0,1024,1024,1684,1024,113.2,0,99,4.145,4.149,4.151,4.142,0,0,17.604,84.11,6,P-GPS,
0.376648815234937,36.9241029153919,5550.0563747803,213.582684,0,0.49372048824,16200,2018-04-16 06:36:36,14,0,16.461,5550.0563747803,213.582684,0.223694,0.79842850324,0,0,-11.1847,113.7, -0.1, 0,0,0,1024,1024,1684,1024,113.2,0,99,4.145,4.149,4.151,4.142,0,0,17.604,84.11,6,P-GPS,
0.376648825766899,36.9241029604302,5551.6967947803,215.223104,0,0.49769686632,16300,2018-04-16 06:36:36,14,0,16.461,5551.6967947803,215.223104,0.223694,0.79842850324,0,0,-11.1847,113.7, 0, -0.1,0,0,1024,1024,1684,1024,113.2,0,99,4.145,4.149,4.151,4.142,0,0,17.604,84.11,6,P-GPS,
0.376648816952132,36.9241030172435,5553.3372147803,216.863524,0,0.49542980588,16400,2018-04-16 06:36:36,14,0,16.488,5553.3372147803,216.863524,0.223694,0.79842850324,0,0,-11.1847,113.7, 0, 0,0,0,1024,1024,1684,1024,113.2,0,98,4.141,4.144,4.145,4.137,0,0,17.812,85.91,6,P-GPS,
0.3766488237403,36.9241030218623,5554.9776347803,218.503944,0,0.4980151078,16500,2018-04-16 06:36:36,14,0,16.488,5554.9776347803,218.503944,0.223694,0.79842850324,0,0,-11.1847,113.7, 0.1, 0.1,0,0,1024,1024,1684,1024,113.2,0,98,4.141,4.144,4.145,4.137,0,0,17.812,85.91,6,P-GPS,
0.376648809738939,36.9241030242167,5556.6180547803,220.144364,0,0.49298229924,16600,2018-04-16 06:36:37,14,0,16.488,5556.6180547803,220.144364,0.223694,0.79842850324,0,0,-11.1847,113.7, 0, -0.1,0,0,1024,1024,1684,1024,113.2,0,98,4.141,4.144,4.145,4.137,0,0,17.812,85.91,6,P-GPS,
0.3766488093188,36.924103005623,5558.2584747803,221.784784,0,0.49238518636,16700,2018-04-16 06:36:37,14,0,16.488,5558.2584747803,221.784784,0.223694,0.79842850324,0,0,-11.1847,113.7, -0.1, -0.7,0,0,1024,1024,1684,1024,113.2,0,98,4.141,4.144,4.145,4.137,0,0,17.812,85.91,6,P-GPS,
0.376648800512989,36.9241030031781,5559.8988947803,223.425204,0,0.48912731224,16800,2018-04-16 06:36:37,14,0,16.488,5559.8988947803,223.425204,0.223694,0.79842850324,0,0,-11.1847,113.7, -0.3, -0.7,0,0,1024,1024,1684,1024,113.2,0,98,4.141,4.144,4.145,4.137,0,0,17.812,85.91,6,P-GPS,
0.376648829294109,36.9241029762125,5561.5393147803,225.065624,0,0.49916012096,16900,2018-04-16 06:36:37,14,0,16.488,5561.5393147803,225.065624,0.223694,0.79842850324,0,0,-10.961006,113.7, -0.7, -0.2,0,0,1024,1024,1684,1024,113.2,0,98,4.141,4.144,4.145,4.137,0,0,17.812,85.91,6,P-GPS,
0.376648840078479,36.9241029678013,5563.1797347803,226.706044,0,0.50299214208,17000,2018-04-16 06:36:37,14,0,16.488,5563.1797347803,226.706044,0.223694,0.79842850324,0,0,-10.961006,113.7, -0.8, -0.2,0,0,1024,1024,1684,1024,113.2,0,98,4.141,4.144,4.145,4.137,0,0,17.812,85.91,6,P-GPS,
0.376648890296435,36.9241029514576,5564.8201547803,228.346464,0,0.52116799568,17100,2018-04-16 06:36:37,14,0,16.488,5564.8201547803,228.346464,0.223694,0.79842850324,0,0,-10.961006,113.7, -0.7, -0.3,0,0,1024,1024,1684,1024,113.2,0,98,4.141,4.144,4.145,4.137,0,0,17.812,85.91,6,P-GPS,
0.376648919572601,36.9241029522527,5566.4605747803,229.986884,0,0.53185369156,17200,2018-04-16 06:36:37,14,0,16.488,5566.4605747803,229.986884,0.223694,0.79842850324,0,0,-10.961006,113.7, -0.9, -0.3,0,0,1024,1024,1684,1024,113.2,0,98,4.141,4.144,4.145,4.137,0,0,17.812,85.91,6,P-GPS,
0.376648989833446,36.9241029465354,5568.1009947803,231.627304,0,0.55745408608,17300,2018-04-16 06:36:37,14,0,16.488,5568.1009947803,231.627304,0.223694,0.79842850324,0,0,-10.961006,113.7, -0.9, -0.3,0,0,1024,1024,1684,1024,113.3,0,98,4.141,4.144,4.145,4.137,0,0,17.812,85.91,6,P-GPS,
0.376649027306385,36.9241029690828,5569.7414147803,233.267724,0,0.57128610752,17400,2018-04-16 06:36:38,14,0,16.488,5569.7414147803,233.267724,0.223694,0.79842850324,0,0,-10.961006,113.7, -0.8, -0.4,0,0,1024,1024,1684,1024,113.3,0,98,4.141,4.144,4.145,4.137,0,0,17.812,85.91,6,P-GPS,
0.376649066532344,36.9241029568255,5571.3818347803,234.908144,0,0.58549214472,17500,2018-04-16 06:36:38,14,0,16.488,5571.3818347803,234.908144,0.223694,0.79842850324,0,0,-10.961006,113.7, -0.7, -0.3,0,0,1024,1024,1684,1024,113.3,0,98,4.141,4.144,4.145,4.137,0,0,17.812,85.91,6,P-GPS,
0.376649074842294,36.9241029687082,5573.0222547803,236.548564,0,0.58861878524,17600,2018-04-16 06:36:38,14,0,16.488,5573.0222547803,236.548564,0.223694,0.79842850324,0,0,-10.961006,113.7, -0.5, -0.4,0,0,1024,1024,1684,1024,113.3,0,98,4.141,4.144,4.145,4.137,0,0,17.812,85.91,6,P-GPS,
0.376649089052096,36.9241029959833,5574.6626747803,238.188984,0,0.5941437198,17700,2018-04-16 06:36:38,14,0,16.488,5574.6626747803,238.188984,0.223694,0.79842850324,0,0,-10.961006,113.7, -0.4, -0.2,0,0,1024,1024,1684,1024,113.3,0,98,4.141,4.144,4.145,4.137,0,0,17.812,85.91,6,P-GPS,
0.376649085946653,36.9241030474857,5576.3030947803,239.829404,0,0.59410763056,17800,2018-04-16 06:36:38,14,0,16.488,5576.3030947803,239.829404,0.223694,0.79842850324,0,0,-10.961006,113.7, -0.5, -0.1,0,0,1024,1024,1024,1024,113.3,0,98,4.141,4.144,4.145,4.137,0,0,17.812,85.91,6,P-GPS,
0.376649121036364,36.9241030684564,5577.9435147803,241.469824,0,0.60747705356,17900,2018-04-16 06:36:38,14,0,16.488,5577.9435147803,241.469824,0.223694,0.79842850324,0,0,-10.961006,113.7, -0.5, -0.2,0,0,1024,1024,1024,1024,113.3,0,98,4.141,4.144,4.145,4.137,0,0,17.812,85.91,6,P-GPS,
0.376649161973818,36.9241031088894,5580.8962707803,244.42258,0,0.62375986248,18100,2018-04-16 06:36:38,14,0,16.488,5580.8962707803,244.42258,0.223694,0.79842850324,0,0,-9.395148,113.7, -0.7, -0.6,0,0,1024,1024,1024,1024,113.3,0,98,4.141,4.144,4.145,4.137,0,0,17.812,85.91,6,P-GPS,
0.37664916740305,36.9241031318442,5582.2086067803,245.734916,0,0.6266732484,18200,2018-04-16 06:36:38,14,0,16.488,5582.2086067803,245.734916,0.223694,0.79842850324,0,0,-8.052984,113.7, -0.7, -0.4,0,0,1024,1024,1024,1024,113.3,0,98,4.141,4.144,4.145,4.137,0,0,17.812,85.91,6,P-GPS,
0.376649217247278,36.9241031519003,5583.1928587803,246.719168,0,0.64562338024,18300,2018-04-16 06:36:38,14,0,16.488,5583.1928587803,246.719168,0.223694,0.79842850324,0,0,-6.263432,113.7, -0.5, -0.1,0,0,1024,1024,1024,1024,113.3,0,98,4.141,4.144,4.145,4.137,0,0,17.812,85.91,6,P-GPS,
0.376649246766083,36.924103188594,5584.1771107803,247.70342,0,0.65811681896,18400,2018-04-16 06:36:38,14,0,16.488,5584.1771107803,247.70342,0.223694,0.79842850324,0,0,-4.697574,113.6, -0.5, -0.3,0,0,1024,1024,1024,1024,113.3,0,98,4.139,4.142,4.143,4.136,0,0,17.578,85.91,6,P-GPS,
0.376649283808298,36.9241031808697,5584.5051947803,248.031504,0,0.671095822,18500,2018-04-16 06:36:39,14,0,16.488,5584.5051947803,248.031504,0.223694,0.79842850324,0,0,-2.908022,113.7, -0.5, -0.4,0,0,1024,1024,1024,1024,113.3,0,98,4.139,4.142,4.143,4.136,0,0,17.578,85.91,6,P-GPS,
0.376649301416663,36.9241031898746,5584.8332787803,248.359588,0,0.67791668836,18600,2018-04-16 06:36:39,14,0,16.488,5584.8332787803,248.359588,0.223694,0.79842850324,0,0,-1.789552,113.7, -0.3, -0.4,0,0,1024,1024,1024,1024,113.3,0,98,4.139,4.142,4.143,4.136,0,0,17.578,85.91,6,P-GPS,
0.376649322802204,36.9241031622431,5584.8332787803,248.359588,0,0.684301203,18700,2018-04-16 06:36:39,14,0,16.488,5584.8332787803,248.359588,0.223694,0.79842850324,0,0,-1.11847,113.7, -0.2, -0.5,0,0,1024,1024,1024,1024,113.3,0,98,4.139,4.142,4.143,4.136,0,0,17.578,85.91,6,P-GPS,
0.376649330620364,36.9241031536084,5584.8332787803,248.359588,0,0.6867454288,18800,2018-04-16 06:36:39,14,0,16.488,5584.8332787803,248.359588,0.223694,0.79842850324,0,0,-0.671082,113.7, 0, -0.9,0,0,1024,1024,1024,1024,113.3,0,98,4.139,4.142,4.143,4.136,0,0,17.578,85.91,6,P-GPS,
0.376649351423736,36.9241031488102,5584.8332787803,248.359588,0.223694,0.69407482536,18900,2018-04-16 06:36:39,14,0,16.488,5584.8332787803,248.359588,0.223694,0.79842850324,-0.223694,0,-0.223694,113.7, 0, -1.2,0,0,1024,1024,1024,1024,113.3,0,98,4.139,4.142,4.143,4.136,0,0,17.578,85.91,6,P-GPS,
0.376649376010798,36.9241031629662,5584.8332787803,248.359588,0.223694,0.70359910388,19000,2018-04-16 06:36:39,14,0,16.488,5584.8332787803,248.359588,0.223694,0.79842850324,-0.223694,0,0,113.7, 0.1, -1.5,0,0,1024,1024,1024,1024,113.3,0,98,4.139,4.142,4.143,4.136,0,0,17.578,85.91,6,P-GPS,
0.376649454763978,36.9241031254367,5585.1613627803,248.687672,0.223694,0.73063978716,19100,2018-04-16 06:36:39,13,0,16.488,5585.1613627803,248.687672,0.223694,0.79842850324,-0.223694,0,0,113.7, 0.3, -1.6,0,0,1024,1024,1024,1024,113.3,0,98,4.139,4.142,4.143,4.136,0,0,17.578,85.91,6,P-GPS,
0.376649548314828,36.9241031024198,5585.1613627803,248.687672,0,0.763861573,19200,2018-04-16 06:36:39,13,0,16.488,5585.1613627803,248.687672,0.223694,0.79842850324,0,0,0,113.7, 0.3, -1.5,0,0,1024,1024,1024,1024,113.3,0,98,4.139,4.142,4.143,4.136,0,0,17.578,85.91,6,P-GPS,
0.376649681703119,36.9241030651066,5585.1613627803,248.687672,0,0.81140422544,19300,2018-04-16 06:36:39,14,0,16.488,5585.1613627803,248.687672,0.223694,0.81140422544,0,0,0,113.7, 0.2, -1.3,0,0,1024,1024,1024,1024,113.3,0,98,4.139,4.142,4.143,4.136,0,0,17.578,85.91,6,P-GPS,
0.376649819730032,36.9241030513031,5585.1613627803,248.687672,0,0.86139110368,19400,2018-04-16 06:36:40,14,0,16.461,5585.1613627803,248.687672,0.223694,0.86139110368,0,0,0,113.7, 0.3, -1.2,0,0,1024,1024,1024,1024,113.3,0,98,4.136,4.176,4.185,4.174,0,0,14.61,85.91,6,P-GPS,
0.376650022604842,36.9241030287164,5585.1613627803,248.687672,0,0.93495081732,19500,2018-04-16 06:36:40,14,0,16.461,5585.1613627803,248.687672,0.223694,0.93495081732,0,0,0,113.7, 0.3, -1,0,0,1024,1024,1024,1024,113.3,0,98,4.136,4.176,4.185,4.174,0,0,14.61,85.91,6,P-GPS,
0.376650227445998,36.9241030171107,5585.1613627803,248.687672,0,1.00948494044,19600,2018-04-16 06:36:40,14,0,16.461,5585.1613627803,248.687672,0.223694,1.00948494044,0,0,0,113.7, 0.2, -0.7,0,0,1024,1024,1024,1024,113.3,0,98,4.136,4.176,4.185,4.174,0,0,14.61,85.91,6,P-GPS,
0.376650492287173,36.9241029949122,5585.1613627803,248.687672,0,1.1058563346,19700,2018-04-16 06:36:40,14,0,16.461,5585.1613627803,248.687672,0.223694,1.1058563346,0,0,0,113.7, 0.1, -0.5,0,0,1024,1024,1024,1024,113.3,0,98,4.136,4.176,4.185,4.174,0,0,14.61,85.91,6,P-GPS,
0.376650740234056,36.9241029829325,5585.1613627803,248.687672,0,1.19621394904,19800,2018-04-16 06:36:40,14,0,16.461,5585.1613627803,248.687672,0.223694,1.19621394904,0,0,0,113.8, 0, -0.4,0,0,1024,1024,1024,1024,113.3,0,98,4.136,4.176,4.185,4.174,0,0,14.61,85.91,6,P-GPS,
0.376651010940073,36.9241029328203,5585.1613627803,248.687672,0,1.29480647188,19900,2018-04-16 06:36:40,14,0,16.461,5585.1613627803,248.687672,0.223694,1.29480647188,0,0,0,113.8, 0, -0.2,0,0,1024,1024,1024,1024,113.4,0,98,4.136,4.176,4.185,4.174,0,0,14.61,85.91,6,P-GPS,
0.376651255993211,36.9241028922253,5585.1613627803,248.687672,0,1.38427169784,20000,2018-04-16 06:36:40,14,0,16.461,5585.1613627803,248.687672,0.223694,1.38427169784,0,0,0,113.8, -0.2, -0.1,0,0,1024,1024,1024,1024,113.4,0,98,4.136,4.176,4.185,4.174,0,0,14.61,85.91,6,P-GPS,
0.376651536417781,36.9241028523341,5585.1613627803,248.687672,0,1.48677498196,20100,2018-04-16 06:36:40,14,0,16.461,5585.1613627803,248.687672,0.223694,1.48677498196,0,0,0,113.8, -0.2, 0,0,0,1024,1024,1024,1024,113.4,0,98,4.136,4.176,4.185,4.174,0,0,14.61,85.91,6,P-GPS,
0.376651788927564,36.9241028319448,5585.1613627803,248.687672,0,1.57903220276,20200,2018-04-16 06:36:40,14,0,16.461,5585.1613627803,248.687672,0.223694,1.57903220276,0,0,0,113.8, -0.3, 0.1,0,0,1024,1024,1024,1024,113.4,0,98,4.136,4.176,4.185,4.174,0,0,14.61,85.91,6,P-GPS,
0.376652089717454,36.9241027842099,5585.1613627803,248.687672,0,1.68919952912,20300,2018-04-16 06:36:40,14,0,16.461,5585.1613627803,248.687672,0.223694,1.68919952912,0,0,0,113.8, -0.5, 0.2,0,0,1024,1024,1024,1024,113.4,0,98,4.136,4.176,4.185,4.174,0,0,14.61,85.91,6,P-GPS,
0.376652354313549,36.9241027529334,5585.1613627803,248.687672,0,1.78606304928,20400,2018-04-16 06:36:40,14,0,16.674,5585.1613627803,248.687672,0.223694,1.78606304928,0,0,0,113.8, -0.7, 0.4,0,0,1024,1024,1024,1024,113.4,-0.2,98,4.177,4.18,4.179,4.173,0,0,12.03,85.91,6,P-GPS,
0.376652619181593,36.9241027053232,5585.1613627803,248.687672,0,1.88330714688,20500,2018-04-16 06:36:41,14,0,16.674,5585.1613627803,248.687672,0.223694,1.88330714688,0,0,0,113.7, -0.8, 0.4,0,0,1024,1024,1024,1024,113.4,-0.6,98,4.177,4.18,4.179,4.173,0,0,12.03,85.91,6,P-GPS,
0.376652845838199,36.924102678076,5585.1613627803,248.687672,0,1.96636161148,20600,2018-04-16 06:36:41,14,0,16.674,5585.1613627803,248.687672,0.223694,1.96636161148,0,0,0,113.7, -0.8, 0.5,0,0,1024,1024,1024,1024,113.4,-1,98,4.177,4.18,4.179,4.173,0,0,12.03,85.91,6,P-GPS,
0.37665333988531,36.9241026145133,5585.1613627803,248.687672,0,2.14754271964,20800,2018-04-16 06:36:41,14,0,16.674,5585.1613627803,248.687672,0.223694,2.14754271964,0,0,0,113.7, -0.9, 0.8,0,0,1024,1024,1024,1024,113.4,-1.9,98,4.177,4.18,4.179,4.173,0,0,12.03,85.91,6,P-GPS,
0.376653611094515,36.9241025414307,5585.1613627803,248.687672,0,2.24787080684,20900,2018-04-16 06:36:41,14,0,16.674,5585.1613627803,248.687672,0.223694,2.24787080684,0,0,0,113.7, -1.1, 0.9,0,0,1024,1024,1024,1024,113.4,-2.3,98,4.177,4.18,4.179,4.173,0,0,12.03,85.91,6,P-GPS,
0.376653828265435,36.9241025000921,5585.1613627803,248.687672,0,2.32791674116,21000,2018-04-16 06:36:41,14,0,16.674,5585.1613627803,248.687672,0.223694,2.32791674116,0,0,0,113.7, -1, 0.9,0,0,1024,1024,1024,1024,113.4,-2.9,98,4.177,4.18,4.179,4.173,0,0,12.03,85.91,6,P-GPS,
0.376654068350191,36.924102435581,5585.1613627803,248.687672,0,2.41695217708,21100,2018-04-16 06:36:41,14,0,16.674,5585.1613627803,248.687672,0.223694,2.41695217708,0,0,0,113.7, -0.8, 0.9,0,0,1024,1024,1024,1024,113.4,-3.5,98,4.177,4.18,4.179,4.173,0,0,12.03,85.91,6,P-GPS,
0.376654252605372,36.9241024063706,5585.1613627803,248.687672,0,2.48479010576,21200,2018-04-16 06:36:41,14,0,16.674,5585.1613627803,248.687672,0.223694,2.48479010576,0,0,0,113.7, -0.8, 1,0,0,1024,1024,1024,1024,113.4,-4.2,98,4.177,4.18,4.179,4.173,0,0,12.03,85.91,6,P-GPS,
0.376654479372712,36.924102348059,5585.1613627803,248.687672,0,2.56895349428,21300,2018-04-16 06:36:41,14,0,16.674,5585.1613627803,248.687672,0.223694,2.56895349428,0,0,0,113.7, -0.9, 1.1,0,0,1024,1024,1024,1024,113.4,-4.8,98,4.177,4.18,4.179,4.173,0,0,12.03,85.91,6,P-GPS,
0.37665464843614,36.9241023258789,5585.1613627803,248.687672,0,2.63109260388,21400,2018-04-16 06:36:41,14,0,16.594,5585.1613627803,248.687672,0.223694,2.63109260388,0,0,0,113.7, -0.9, 1.1,0,0,1024,1024,1024,1024,113.4,-5.4,98,4.177,4.18,4.179,4.173,0,0,12.03,85.91,6,P-GPS,
0.376654876020959,36.9241022671688,5585.1613627803,248.687672,0,2.71566281656,21500,2018-04-16 06:36:42,14,0,16.594,5585.1613627803,248.687672,0.223694,2.71566281656,0,0,0,113.7, -0.9, 1,0,0,1024,1024,1024,1024,113.4,-5.4,98,4.177,4.18,4.179,4.173,0,0,12.03,85.91,6,P-GPS,
0.376655033362846,36.9241022505642,5585.1613627803,248.687672,0,2.77337935384,21600,2018-04-16 06:36:42,14,0,16.594,5585.1613627803,248.687672,0.223694,2.77337935384,0,0,0,113.7, -1.2, 1,0,0,1024,1024,1024,1024,113.4,-5.4,98,4.177,4.18,4.179,4.173,0,0,12.03,85.91,6,P-GPS,
0.376655228035184,36.924102169267,5585.1613627803,248.687672,0,2.84685704648,21700,2018-04-16 06:36:42,14,0,16.594,5585.1613627803,248.687672,0.223694,2.84685704648,0,0,0,113.7, -1.1, 0.9,0,0,1024,1024,1024,1024,113.4,-6.7,98,4.177,4.18,4.179,4.173,0,0,12.03,85.91,6,P-GPS,
0.376655355019618,36.9241021337702,5585.1613627803,248.687672,0,2.89423893776,21800,2018-04-16 06:36:42,14,0,16.594,5585.1613627803,248.687672,0.223694,2.89423893776,0,0,0,113.7, -0.8, 0.8,0,0,1024,1024,1024,1024,113.4,-7.3,98,4.177,4.18,4.179,4.173,0,0,12.03,85.91,6,P-GPS,
0.376655511457719,36.9241020908362,5585.1613627803,248.687672,0,2.95261164304,21900,2018-04-16 06:36:42,14,0,16.594,5585.1613627803,248.687672,0.223694,2.95261164304,0,0,0,113.7, -0.9, 0.9,0,0,1024,1024,1024,1024,113.4,-8,98,4.177,4.18,4.179,4.173,0,0,12.03,85.91,6,P-GPS,
