latitude,longitude,altitude(feet),ascent(feet),speed(mph),distance(feet),time(millisecond),datetime(utc),satellites,gpslevel,voltage(v),max_altitude(feet),max_ascent(feet),max_speed(mph),max_distance(feet), xSpeed(mph), ySpeed(mph), zSpeed(mph), compass_heading(degrees), pitch(degrees), roll(degrees),isPhoto,isVideo,rc_elevator,rc_aileron,rc_throttle,rc_rudder,gimbal_heading(degrees),gimbal_pitch(degrees),battery_percent,voltageCell1,voltageCell2,voltageCell3,voltageCell4,voltageCell5,voltageCell6,current(A),battery_temperature(f),flycStateRaw,flycState,message
0.350523544199933,36.8971066819657,5793.8777346167,0,0,0,0,2018-04-17 05:03:21,17,0,0,5793.8777346167,0,0,0,0,0,0,314.1, -0.4, 1,0,0,364,364,364,1684,318.6,0,99,4.277,4.279,4.277,4.276,0,0,0,75.11,41,Motors_Started,
0.350523544211739,36.8971066666883,5793.8777346167,0,0,0.0055738518844,100,2018-04-17 05:03:21,17,0,0,5793.8777346167,0,0,0.0055738518844,0,0,0,314.1, -0.4, 1,0,0,364,364,364,1684,318.6,0,99,4.277,4.279,4.277,4.276,0,0,0,75.11,41,Motors_Started,
0.350523575001748,36.8971066585946,5793.8777346167,0,0,0.0141066933648,200,2018-04-17 05:03:21,17,0,0,5793.8777346167,0,0,0.0141066933648,0,0,0,314.1, -0.4, 1,0,0,381,364,364,1684,318.6,0,99,4.277,4.279,4.277,4.276,0,0,0,75.11,41,Motors_Started,
0.350523605189334,36.8971066500909,5793.8777346167,0,0,0.0251075795436,300,2018-04-17 05:03:21,17,0,0,5793.8777346167,0,0,0.0251075795436,0,0,0,314.1, -0.4, 0.9,0,0,558,464,364,1684,318.6,0,99,4.277,4.279,4.277,4.276,0,0,0,75.11,41,Motors_Started,
0.350523628807471,36.8971066489571,5793.8777346167,0,0,0.03313484358,400,2018-04-17 05:03:21,17,0,0,5793.8777346167,0,0,0.03313484358,0,0,0,314.1, -0.4, 1,0,0,927,895,810,1310,318.6,0,99,4.277,4.279,4.277,4.276,0,0,0,75.11,41,Motors_Started,
0.350523648125906,36.8971066446233,5793.8777346167,0,0,0.040290683704,500,2018-04-17 05:03:21,17,0,17.115,5793.8777346167,0,0,0.040290683704,0,0,0,314.1, -0.4, 0.9,0,0,1024,1024,1024,1024,317,0,99,4.277,4.279,4.277,4.276,0,0,1.514,75.11,41,Motors_Started,Setting new Return-To-Home altitude to 30m (98 ft). Setting new Maximum Flight Altitude to 150m (492 ft)
0.350523658068981,36.8971066467442,5793.8777346167,0,0,0.043486878032,600,2018-04-17 05:03:21,17,0,17.115,5793.8777346167,0,0,0.043486878032,0,0,0,314.1, -0.4, 1,0,0,1024,1024,1024,1024,315.9,0,99,4.277,4.279,4.277,4.276,0,0,1.514,75.11,41,Motors_Started,
0.350523669350434,36.8971066449852,5793.8777346167,0,0,0.047612862416,700,2018-04-17 05:03:21,17,0,17.115,5793.8777346167,0,0,0.047612862416,0,0,0,314.1, -0.4, 0.9,0,0,1024,1024,1024,1024,315.4,0,99,4.277,4.279,4.277,4.276,0,0,1.514,75.11,41,Motors_Started,
0.350523671933045,36.8971066490684,5793.8777346167,0,0,0.048124017288,800,2018-04-17 05:03:21,17,0,17.115,5793.8777346167,0,0,0.048124017288,0,0,0,314.1, -0.4, 1,0,0,1024,1024,1024,1024,315.4,0,99,4.277,4.279,4.277,4.276,0,0,1.514,75.11,41,Motors_Started,
0.350523678962936,36.8971066484528,5793.8777346167,0,0,0.050665684036,900,2018-04-17 05:03:21,17,0,17.115,5793.8777346167,0,0,0.050665684036,0,0,0,314.1, -0.4, 1,0,0,1024,1024,1024,1024,315.2,0,99,4.277,4.279,4.277,4.276,0,0,1.514,75.11,41,Motors_Started,
0.350523677862922,36.8971066536442,5793.8777346167,0,0,0.049849411044,1000,2018-04-17 05:03:22,17,0,17.115,5793.8777346167,0,0,0.050665684036,0,0,0,314.1, -0.4, 1.1,0,0,1024,1024,1024,1024,315,0,99,4.277,4.279,4.277,4.276,0,0,1.514,75.11,41,Motors_Started,
0.350523682574315,36.8971066580657,5793.8777346167,0,0,0.051233269356,1100,2018-04-17 05:03:22,17,0,17.115,5793.8777346167,0,0,0.051233269356,0,0,0,314.1, -0.1, 1.3,0,0,1024,1024,1024,1024,314.9,0,99,4.277,4.279,4.277,4.276,0,0,1.514,75.11,41,Motors_Started,
0.350523676673242,36.8971066639722,5793.8777346167,0,0,0.048776576364,1200,2018-04-17 05:03:22,17,0,17.115,5793.8777346167,0,0,0.051233269356,0,0,0,314.1, -0.4, 1.1,0,0,1024,1024,1024,1024,314.8,0,99,4.277,4.279,4.277,4.276,0,0,1.514,75.11,41,Motors_Started,
0.350523679239873,36.897106655234,5793.8777346167,0,0,0.050225395308,1300,2018-04-17 05:03:22,17,0,17.115,5793.8777346167,0,0,0.051233269356,0,0,0,314.1, -0.6, 0.9,0,0,1024,1024,1024,1024,314.7,0,99,4.277,4.279,4.277,4.276,0,0,1.514,75.11,41,Motors_Started,
0.350523639791326,36.8971066586021,5793.8777346167,0,0,0.035902888288,1400,2018-04-17 05:03:22,17,0,17.115,5793.8777346167,0,0,0.051233269356,0,0,0,314.1, -0.3, 1.2,0,0,1024,1024,1024,1024,314.7,0,99,4.277,4.279,4.277,4.276,0,0,1.514,75.11,41,Motors_Started,
0.350523611439302,36.897106662028,5793.8777346167,0,0,0.0255879601364,1500,2018-04-17 05:03:22,17,0,17.036,5793.8777346167,0,0,0.051233269356,0,0,0,314.1, -0.1, 1.4,0,0,1024,1024,1024,1024,314.6,0,99,4.274,4.274,4.269,4.27,0,0,1.758,75.11,41,Motors_Started,
0.350523578295683,36.8971066691271,5793.8777346167,0,0,0.0132924544936,1600,2018-04-17 05:03:22,17,0,17.036,5793.8777346167,0,0,0.051233269356,0,0,0,314.1, -0.3, 1.1,0,0,1024,1024,1024,1024,314.6,0,99,4.274,4.274,4.269,4.27,0,0,1.758,75.11,10,Assisted_Takeoff,
0.350523560618923,36.897106657858,5793.8777346167,0,0,0.010641732624,1700,2018-04-17 05:03:22,17,0,17.036,5793.8777346167,0,0,0.051233269356,0,0,0,314.1, -0.6, 0.9,0,0,1024,1024,1024,1024,314.6,0,99,4.274,4.274,4.269,4.27,0,0,1.758,75.11,10,Assisted_Takeoff,
0.350523541341607,36.8971066626265,5793.8777346167,0,0,0.0071324477348,1800,2018-04-17 05:03:22,17,0,17.036,5793.8777346167,0,0,0.051233269356,0,0,0,314, -0.2, 1.2,0,0,1024,1024,1024,1024,314.5,0,99,4.274,4.274,4.269,4.27,0,0,1.758,75.11,10,Assisted_Takeoff,
0.350523530794175,36.8971066599403,5793.8777346167,0,0,0.0094072837656,1900,2018-04-17 05:03:23,17,0,17.036,5793.8777346167,0,0,0.051233269356,0,0,0,314, -0.4, 1,0,0,1024,1024,1024,1024,314.5,0,99,4.274,4.274,4.269,4.27,0,0,1.758,75.11,10,Assisted_Takeoff,
0.350523555356606,36.8971066533958,5793.8777346167,0,0,0.01119012503,2000,2018-04-17 05:03:23,17,0,17.036,5793.8777346167,0,0,0.051233269356,0,0,0,314, -0.5, 0.9,0,0,1024,1024,1024,1024,314.5,0,99,4.274,4.274,4.269,4.27,0,0,1.758,75.11,10,Assisted_Takeoff,
0.350523581048771,36.8971066597669,5793.8777346167,0,0,0.0156953417096,2100,2018-04-17 05:03:23,17,0,17.036,5793.8777346167,0,0,0.051233269356,0,0,0,314, -0.2, 1.1,0,0,1024,1024,1024,1024,314.5,0,99,4.274,4.274,4.269,4.27,0,0,1.758,75.11,10,Assisted_Takeoff,
0.350523606312756,36.8971066633684,5793.8777346167,0,0,0.0236557750352,2200,2018-04-17 05:03:23,17,0,17.036,5793.8777346167,0,0,0.051233269356,0,0,0,314, -0.5, 0.9,0,0,1024,1024,1024,1024,314.5,0,99,4.274,4.274,4.269,4.27,0,0,1.758,75.11,10,Assisted_Takeoff,
0.350523626380275,36.8971066573891,5793.8777346167,0,0,0.0312954734424,2300,2018-04-17 05:03:23,17,0,17.036,5793.8777346167,0,0,0.051233269356,0,0,0,314, -0.5, 0.9,0,0,1024,1024,1024,1024,314.4,0,99,4.274,4.274,4.269,4.27,0,0,1.758,75.11,10,Assisted_Takeoff,
0.350523640084649,36.8971066635001,5793.8777346167,0,0,0.035626313476,2400,2018-04-17 05:03:23,17,0,17.036,5793.8777346167,0,0,0.051233269356,0,0,0,314, -0.3, 1,0,0,1024,1024,1024,1024,314.4,0,99,4.274,4.274,4.269,4.27,0,0,1.758,75.11,10,Assisted_Takeoff,
0.35052365331993,36.8971066582638,5793.8777346167,0,0,0.040740814952,2500,2018-04-17 05:03:23,17,0,16.77,5793.8777346167,0,0,0.051233269356,0,0,0,314, -0.5, 0.9,0,0,1024,1024,1024,1024,314.4,0,99,4.254,4.253,4.248,4.258,0,0,3.466,75.11,10,Assisted_Takeoff,
0.350523658657257,36.8971066580133,5793.8777346167,0,0,0.042664371444,2600,2018-04-17 05:03:23,17,0,16.77,5793.8777346167,0,0,0.051233269356,0,0,0,314, -0.4, 1,0,0,1024,1024,1024,1024,314.4,0,99,4.254,4.253,4.248,4.258,0,0,3.466,75.11,10,Assisted_Takeoff,
0.350523665347006,36.897106658798,5793.8777346167,0,0,0.045001313776,2700,2018-04-17 05:03:23,17,0,16.77,5793.8777346167,0,0,0.051233269356,0,0,0,314, -0.4, 1,0,0,1024,1024,1024,1024,314.4,0,99,4.254,4.253,4.248,4.258,0,0,3.466,75.11,10,Assisted_Takeoff,
0.35052366501918,36.8971066590764,5793.8777346167,0,0,0.044864830832,2800,2018-04-17 05:03:23,17,0,16.77,5793.8777346167,0,0,0.051233269356,0,0,0,314, -0.5, 0.9,0,1,1024,1024,1024,1024,314.4,0,99,4.254,4.253,4.248,4.258,0,0,3.466,75.11,10,Assisted_Takeoff,
0.35052366839179,36.8971066585796,5793.8777346167,0,0,0.046107613024,2900,2018-04-17 05:03:23,17,0,16.77,5793.8777346167,0,0,0.051233269356,0,0,0,314, -0.4, 1,0,1,1024,1024,1024,1024,314.4,0,99,4.254,4.253,4.248,4.258,0,0,3.466,75.11,10,Assisted_Takeoff,
0.350523665120755,36.8971066611319,5793.8777346167,0,0,0.044768046052,3000,2018-04-17 05:03:24,17,0,16.77,5793.8777346167,0,0,0.051233269356,0,0,0,314, -0.5, 1,0,1,1024,1024,1024,1024,314.4,0,99,4.254,4.253,4.248,4.258,0,0,3.466,75.11,10,Assisted_Takeoff,
0.350523667035194,36.8971066580433,5793.8777346167,0,0,0.045658466028,3100,2018-04-17 05:03:24,17,0,16.77,5793.8777346167,0,0,0.051233269356,0,0,0,314, -0.5, 1,0,1,1024,1024,1024,1024,314.4,0,99,4.254,4.253,4.248,4.258,0,0,3.466,75.11,10,Assisted_Takeoff,
0.350523663192677,36.8971066609039,5793.8777346167,0,0,0.044089240256,3200,2018-04-17 05:03:24,17,0,16.77,5793.8777346167,0,0,0.051233269356,0,0,0,314, -0.5, 1,0,1,1024,1024,1024,1024,314.4,0,99,4.254,4.253,4.248,4.258,0,0,3.466,75.11,10,Assisted_Takeoff,
0.350523663981861,36.8971066575957,5793.8777346167,0,0,0.044597770456,3300,2018-04-17 05:03:24,17,0,16.77,5793.8777346167,0,0,0.051233269356,0,0,0,314, -0.5, 0.9,0,1,1024,1024,1024,1024,314.4,0,99,4.254,4.253,4.248,4.258,0,0,3.466,75.11,10,Assisted_Takeoff,
0.350523658869667,36.8971066928965,5793.8777346167,0,0,0.042026904232,3400,2018-04-17 05:03:24,17,0,16.77,5793.8777346167,0,0,0.051233269356,0,0,0,314, -0.5, 0.9,0,1,1024,1024,1024,1024,314.4,0,99,4.254,4.253,4.248,4.258,0,0,3.466,75.11,10,Assisted_Takeoff,
0.350523659549033,36.8971067197643,5793.8777346167,0,0,0.044286746824,3500,2018-04-17 05:03:24,17,0,17.062,5793.8777346167,0,0,0.051233269356,0,0,0,314, -0.5, 0.9,0,1,1024,1024,1024,1024,314.4,0,99,4.254,4.253,4.248,4.258,0,0,3.466,75.11,10,Assisted_Takeoff,
0.350523655419198,36.897106748922,5793.8777346167,0,0,0.04736384666,3600,2018-04-17 05:03:24,17,0,17.062,5793.8777346167,0,0,0.051233269356,0,0,0,314, -0.5, 1,0,1,1024,1024,1024,1024,314.4,0,99,4.254,4.253,4.248,4.258,0,0,3.466,75.11,10,Assisted_Takeoff,
0.350523656697017,36.8971067650923,5793.8777346167,0,0,0.051033794284,3700,2018-04-17 05:03:24,17,0,17.062,5793.8777346167,0,0,0.051233269356,0,0,0,314, -0.5, 0.9,0,1,1024,1024,1024,1024,314.4,0,99,4.254,4.253,4.248,4.258,0,0,3.466,75.11,10,Assisted_Takeoff,
0.350523654354195,36.8971068086656,5793.8777346167,0,0,0.061253610884,3800,2018-04-17 05:03:24,17,0,17.062,5793.8777346167,0,0,0.061253610884,0,0,0,314, -0.5, 0.9,0,1,1024,1024,1024,1024,314.4,0,99,4.254,4.253,4.248,4.258,0,0,3.466,75.11,10,Assisted_Takeoff,
0.350523655552425,36.8971068464416,5793.8777346167,0,0,0.07246719392,3900,2018-04-17 05:03:24,17,0,17.062,5793.8777346167,0,0,0.07246719392,0,0,0,314, -0.5, 0.9,0,1,1024,1024,1024,1024,314.4,0,99,4.254,4.253,4.248,4.258,0,0,3.466,75.11,10,Assisted_Takeoff,
0.350523618459931,36.897106882025,5793.8777346167,0,0,0.077856629788,4000,2018-04-17 05:03:25,17,0,17.062,5793.8777346167,0,0,0.077856629788,0,0,0,314, -0.5, 1,0,1,1024,1024,1024,1024,314.4,0,99,4.254,4.253,4.248,4.258,0,0,3.466,75.11,10,Assisted_Takeoff,
0.350523591702255,36.897106902073,5793.8777346167,0,0,0.082153545936,4100,2018-04-17 05:03:25,17,0,17.062,5793.8777346167,0,0,0.082153545936,0,0,0,314, -0.5, 1,0,1,1024,1024,1024,1024,314.4,0,99,4.254,4.253,4.248,4.258,0,0,3.466,75.11,10,Assisted_Takeoff,
0.350523563183519,36.8971069483068,5793.8777346167,0,0,0.097418966372,4200,2018-04-17 05:03:25,17,0,17.062,5793.8777346167,0,0,0.097418966372,0,0,0,314, -0.5, 1,0,1,1024,1024,1024,1024,314.4,0,99,4.254,4.253,4.248,4.258,0,0,3.466,75.11,10,Assisted_Takeoff,
0.35052354607814,36.897106986435,5793.8777346167,0,0,0.111085633476,4300,2018-04-17 05:03:25,17,0,17.062,5793.8777346167,0,0,0.111085633476,0,0,0,314, -0.5, 1,0,1,1024,1024,1024,1024,314.4,0,99,4.254,4.253,4.248,4.258,0,0,3.466,75.11,10,Assisted_Takeoff,
0.350523494821033,36.897107014671,5793.8777346167,0,0,0.122714570856,4400,2018-04-17 05:03:25,17,0,17.062,5793.8777346167,0,0,0.122714570856,0,0,0,314, -0.5, 1,0,1,1024,1024,1024,1024,314.4,0,99,4.254,4.253,4.248,4.258,0,0,3.466,75.11,10,Assisted_Takeoff,
0.350523457200516,36.897107033908,5793.8777346167,0,0,0.13226870502,4500,2018-04-17 05:03:25,17,0,17.062,5793.8777346167,0,0,0.13226870502,0,0,0,314, -0.5, 1,0,1,1024,1024,1024,1024,314.4,0,99,4.269,4.271,4.269,4.269,0,0,1.966,75.11,10,Assisted_Takeoff,
0.350523427056796,36.8971070764225,5793.8777346167,0,0,0.150126973308,4600,2018-04-17 05:03:25,17,0,17.062,5793.8777346167,0,0,0.150126973308,0,0,0,314, -0.5, 1,0,1,1024,1024,1024,1024,314.4,0,99,4.269,4.271,4.269,4.269,0,0,1.966,75.11,10,Assisted_Takeoff,
0.350523407272016,36.8971071127789,5793.8777346167,0,0,0.164927498716,4700,2018-04-17 05:03:25,17,0,17.062,5793.8777346167,0,0,0.164927498716,0,0,0,314, -0.5, 1,0,1,1024,1024,1024,1024,314.3,0,99,4.269,4.271,4.269,4.269,0,0,1.966,75.11,10,Assisted_Takeoff,
0.350523395664467,36.8971071357057,5793.8777346167,0,0,0.174188325784,4800,2018-04-17 05:03:25,17,0,17.062,5793.8777346167,0,0,0.174188325784,0,0,0,314, -0.5, 1,0,1,1024,1024,1031,1024,314.3,0,99,4.269,4.271,4.269,4.269,0,0,1.966,75.11,10,Assisted_Takeoff,
0.350523389204023,36.8971071520933,5793.8777346167,0,0,0.180604336488,4900,2018-04-17 05:03:25,17,0,17.062,5793.8777346167,0,0,0.180604336488,0,0,0,314, -0.5, 1,0,1,1024,1024,1057,1024,314.3,0,99,4.269,4.271,4.269,4.269,0,0,1.966,75.11,10,Assisted_Takeoff,
0.350523389354654,36.8971071545932,5793.8777346167,0,0,0.181453745964,5000,2018-04-17 05:03:26,17,0,17.062,5793.8777346167,0,0,0.181453745964,0,0,0,314, -0.5, 1,0,1,1024,1024,1066,1024,314.3,0,99,4.269,4.271,4.269,4.269,0,0,1.966,75.11,10,Assisted_Takeoff,
0.350523391033987,36.8971071564068,5793.8777346167,0,0,0.181893378524,5100,2018-04-17 05:03:26,17,0,17.062,5793.8777346167,0,0,0.181893378524,0,0,0,314, -0.5, 1,0,1,1024,1024,1115,1024,314.3,0,99,4.269,4.271,4.269,4.269,0,0,1.966,75.11,10,Assisted_Takeoff,
0.35052339700203,36.897107147819,5793.8777346167,0,0,0.178246068696,5200,2018-04-17 05:03:26,17,0,17.062,5793.8777346167,0,0,0.181893378524,0,0,0,314, -0.6, 0.9,0,1,1024,1024,1159,1024,314.3,0,99,4.269,4.271,4.269,4.269,0,0,1.966,75.11,10,Assisted_Takeoff,
0.350523403536162,36.8971071407183,5793.8777346167,0,0,0.17506398198,5300,2018-04-17 05:03:26,17,0,17.062,5793.8777346167,0,0,0.181893378524,0,0,0,314, -0.6, 0.9,0,1,1024,1024,1172,1024,314.3,0,99,4.269,4.271,4.269,4.269,0,0,1.966,75.11,10,Assisted_Takeoff,
0.350523411738634,36.8971071617169,5793.8777346167,0,0,0.18158301106,5400,2018-04-17 05:03:26,17,0,17.062,5793.8777346167,0,0,0.181893378524,0,0,0,314, -0.6, 1,0,1,1024,1024,1157,1024,314.3,0,99,4.269,4.271,4.269,4.269,0,0,1.966,75.11,10,Assisted_Takeoff,
0.350523420389132,36.8971071817837,5793.8777346167,0,0,0.187866475828,5500,2018-04-17 05:03:26,17,0,17.062,5793.8777346167,0,0,0.187866475828,0,0,0,314, -0.6, 1,0,1,1024,1024,1157,1024,314.3,0,99,4.269,4.271,4.269,4.269,0,0,1.976,75.11,10,Assisted_Takeoff,
0.350523427808527,36.8971071983581,5793.8777346167,0,0,0.19312828702,5600,2018-04-17 05:03:26,17,0,17.062,5793.8777346167,0,0,0.19312828702,0,0,0,314, -0.4, 1.2,0,1,1024,1024,1137,1024,314.3,0,99,4.269,4.271,4.269,4.269,0,0,1.976,75.11,10,Assisted_Takeoff,
0.350523436812194,36.8971072111528,5793.8777346167,0,0,0.197005255648,5700,2018-04-17 05:03:26,17,0,17.062,5793.8777346167,0,0,0.197005255648,0,0,0,314, -0.2, 1.3,0,1,1024,1024,1137,1024,314.3,0,99,4.269,4.271,4.269,4.269,0,0,1.976,75.11,10,Assisted_Takeoff,
0.350523443103687,36.8971072162612,5793.8777346167,0,0,0.198392722884,5800,2018-04-17 05:03:26,17,0,17.062,5793.8777346167,0,0,0.198392722884,0,0,0,314, -0.2, 1.5,0,1,1024,1024,1158,1024,314.3,0,99,4.269,4.271,4.269,4.269,0,0,1.976,75.11,10,Assisted_Takeoff,
0.350523451237968,36.8971072189147,5793.8777346167,0,0,0.198816279328,5900,2018-04-17 05:03:26,17,0,17.062,5793.8777346167,0,0,0.198816279328,0,0,0,314, 0, 1.5,0,1,1024,1024,1180,1024,314.3,0,99,4.269,4.271,4.269,4.269,0,0,1.976,75.11,10,Assisted_Takeoff,
0.350523455509988,36.8971072150429,5793.8777346167,0,0,0.197162735968,6000,2018-04-17 05:03:27,17,0,17.062,5793.8777346167,0,0,0.198816279328,0,0,0,314.1, 0, 1.6,0,1,1024,1024,1194,1024,314.3,0,99,4.269,4.271,4.269,4.269,0,0,1.976,75.11,10,Assisted_Takeoff,
0.350523473175145,36.8971072095732,5793.8777346167,0,0,0.194229993092,6100,2018-04-17 05:03:27,17,0,17.062,5793.8777346167,0,0,0.198816279328,0,0,0,314.3, 0.9, 1.9,0,1,1024,1024,1204,1024,314.3,0,99,4.269,4.271,4.269,4.269,0,0,1.976,75.11,10,Assisted_Takeoff,
0.350523515553364,36.8971072071253,5793.8777346167,0,0,0.191885504828,6200,2018-04-17 05:03:27,16,0,17.062,5793.8777346167,0,0,0.198816279328,0,0,-0.223694,314.5, 2.2, 2.5,0,1,1024,1024,1224,1024,314.3,0,99,4.269,4.271,4.269,4.269,0,0,1.976,75.11,10,Assisted_Takeoff,
0.350523590437972,36.89710724476,5793.8777346167,0,0,0.206023300556,6300,2018-04-17 05:03:27,16,0,17.062,5793.8777346167,0,0,0.206023300556,0,0,-0.447388,314.5, 1.8, 1.9,0,1,1024,1024,1242,1024,314.3,0,99,4.269,4.271,4.269,4.269,0,0,1.976,75.11,6,P-GPS,Obstacle Avoided. Revise Flight Route
0.350523672759683,36.8971073535102,5793.8777346167,0,0.223694,0.249457357064,6400,2018-04-17 05:03:27,16,0,17.062,5793.8777346167,0,0.223694,0.249457357064,0.223694,0,-0.894776,314.5, 0.9, 0.8,0,1,1024,1024,1254,1024,314.3,0,99,4.269,4.271,4.269,4.269,0,0,1.976,75.11,6,P-GPS,
0.350523786097045,36.8971074577435,5793.8777346167,0,0.223694,0.296477371692,6500,2018-04-17 05:03:27,16,0,16.956,5793.8777346167,0,0.223694,0.296477371692,0.223694,0,-1.11847,314.5, 0.6, 0,0,1,1024,1024,1266,1024,314.3,0,99,4.269,4.271,4.269,4.269,0,0,7.9,75.11,6,P-GPS,
0.350523944289387,36.8971075868741,5794.2058186167,0.328084,0.223694,0.36098098268,6600,2018-04-17 05:03:27,17,0,16.956,5794.2058186167,0.328084,0.223694,0.36098098268,0.223694,0,-1.342164,314.5, 0.3, -0.9,0,1,1024,1024,1277,1024,314.3,0,99,4.269,4.271,4.269,4.269,0,0,7.9,75.11,6,P-GPS,Home Point Recorded. RTH Altitude:  30m.
0.350524132673183,36.8971076762791,5794.2058186167,0.328084,0.223694,0.42154200824,6700,2018-04-17 05:03:27,17,0,16.956,5794.2058186167,0.328084,0.223694,0.42154200824,0.223694,0,-1.565858,314.5, 0.5, -1.5,0,1,1024,1024,1302,1024,314.3,0,99,4.269,4.271,4.269,4.269,0,0,7.9,75.11,6,P-GPS,
0.350524320600302,36.8971077720194,5794.5339026167,0.656168,0.447388,0.48826773216,6800,2018-04-17 05:03:27,17,0,16.956,5794.5339026167,0.656168,0.447388,0.48826773216,0.447388,0,-1.789552,314.4, 1.4, -1.9,0,1,1024,1024,1330,1024,314.3,0,99,4.269,4.271,4.269,4.269,0,0,7.9,75.11,6,P-GPS,
0.350524513328125,36.8971078167886,5794.8619866167,0.984252,0.223694,0.54446852136,6900,2018-04-17 05:03:27,17,0,16.956,5794.8619866167,0.984252,0.447388,0.54446852136,0.223694,0,-2.013246,314.4, 2.6, -2,0,1,1024,1024,1355,1024,314.3,0,99,4.269,4.271,4.269,4.269,0,0,7.9,75.11,6,P-GPS,
0.350524667721409,36.8971078744558,5795.1900706167,1.312336,0.223694,0.59776248632,7000,2018-04-17 05:03:28,17,0,16.956,5795.1900706167,1.312336,0.447388,0.59776248632,0.223694,0,-2.460634,314.4, 3.1, -1.9,0,1,1024,1024,1349,1024,314.3,0,99,4.269,4.271,4.269,4.269,0,0,7.9,75.11,6,P-GPS,
0.350524806912812,36.8971079108936,5795.5181546167,1.64042,0.223694,0.6428641938,7100,2018-04-17 05:03:28,17,0,16.956,5795.5181546167,1.64042,0.447388,0.6428641938,0.223694,0,-2.908022,314.4, 3.1, -1.9,0,1,1024,1024,1349,1024,314.3,0,99,4.269,4.271,4.269,4.269,0,0,7.9,75.11,6,P-GPS,
0.350524927508301,36.8971080004726,5796.1743226167,2.296588,0.223694,0.6972277126,7200,2018-04-17 05:03:28,17,0,16.956,5796.1743226167,2.296588,0.447388,0.6972277126,0.223694,0,-3.131716,314.4, 3, -1.5,0,1,1024,1024,1383,1024,314.3,0,99,4.269,4.271,4.269,4.269,0,0,7.9,75.11,6,P-GPS,
0.350525043122354,36.8971080731147,5796.5024066167,2.624672,0.223694,0.74611550944,7300,2018-04-17 05:03:28,17,0,16.956,5796.5024066167,2.624672,0.447388,0.74611550944,0.223694,0,-3.579104,314.4, 2.8, -1.3,0,1,1024,1024,1399,1024,314.3,0,99,4.269,4.271,4.269,4.269,0,0,7.9,75.11,6,P-GPS,
0.350525154575949,36.8971081130742,5797.1585746167,3.28084,0.223694,0.78602036636,7400,2018-04-17 05:03:28,17,0,16.956,5797.1585746167,3.28084,0.447388,0.78602036636,0.223694,0,-4.026492,314.4, 2.7, -1.8,0,1,1024,1024,1414,1024,314.3,0,99,4.269,4.271,4.269,4.269,0,0,7.9,75.11,6,P-GPS,
0.350525268768427,36.8971081312819,5797.8147426167,3.937008,0.223694,0.82188979008,7500,2018-04-17 05:03:28,17,0,16.372,5797.8147426167,3.937008,0.447388,0.82188979008,0.223694,0,-4.250186,314.4, 2.9, -2,0,1,1024,1024,1419,1024,314.3,0,99,4.199,4.199,4.192,4.186,0,0,7.9,75.11,6,P-GPS,
0.350525424659569,36.8971082050268,5798.4709106167,4.593176,0.223694,0.88288716736,7600,2018-04-17 05:03:28,17,0,16.372,5798.4709106167,4.593176,0.447388,0.88288716736,0.223694,0,-4.697574,314.3, 3.1, -2.2,0,1,1024,1024,1445,1024,314.3,0,99,4.199,4.199,4.192,4.186,0,0,7.9,75.11,6,P-GPS,
0.350525564146268,36.8971082696105,5799.1270786167,5.249344,0,0.93736551556,7700,2018-04-17 05:03:28,17,0,16.372,5799.1270786167,5.249344,0.447388,0.93736551556,0,0,-4.921268,314.4, 2.9, -2.1,0,1,1024,1024,1452,1024,314.3,0,99,4.199,4.199,4.192,4.186,0,0,7.9,75.11,6,P-GPS,
0.350525674488717,36.8971082787583,5800.1113306167,6.233596,0,0.97133533292,7800,2018-04-17 05:03:29,16,0,16.372,5800.1113306167,6.233596,0.447388,0.97133533292,0,0,-5.368656,314.3, 3, -2,0,1,1024,1024,1468,1024,314.3,0,99,4.199,4.199,4.192,4.186,0,0,7.9,75.11,6,P-GPS,
0.35052577147159,36.8971082784531,5800.7674986167,6.889764,0,0.99980974328,7900,2018-04-17 05:03:29,16,0,16.372,5800.7674986167,6.889764,0.447388,0.99980974328,0,0,-5.59235,314.3, 3.2, -2,0,1,1024,1024,1508,1024,314.3,0,99,4.199,4.199,4.192,4.186,0,0,7.9,75.11,6,P-GPS,
0.350525814956032,36.8971083043851,5801.7517506167,7.874016,0,1.01821525568,8000,2018-04-17 05:03:29,17,0,16.372,5801.7517506167,7.874016,0.447388,1.01821525568,0,0,-5.816044,314.4, 3.1, -2,0,1,1024,1024,1527,1024,314.3,0,99,4.199,4.199,4.192,4.186,0,0,7.9,75.11,6,P-GPS,
0.350525854005152,36.8971083366085,5802.4079186167,8.530184,0,1.03664373396,8100,2018-04-17 05:03:29,17,0,16.372,5802.4079186167,8.530184,0.447388,1.03664373396,0,0,-6.263432,314.4, 2.8, -2.2,0,1,1024,1024,1532,1024,314.3,0,99,4.199,4.199,4.192,4.186,0,0,7.9,75.11,6,P-GPS,
0.350525889368849,36.897108355095,5803.3921706167,9.514436,0,1.05106302576,8200,2018-04-17 05:03:29,17,0,16.372,5803.3921706167,9.514436,0.447388,1.05106302576,0,0,-6.71082,314.3, 2.5, -2.3,0,1,1024,1024,1529,1024,314.3,0,99,4.199,4.199,4.192,4.186,0,0,7.9,75.11,6,P-GPS,
0.350525925307539,36.8971083616685,5804.3764226167,10.498688,0,1.06314307864,8300,2018-04-17 05:03:29,17,0,16.372,5804.3764226167,10.498688,0.447388,1.06314307864,0,0,-6.934514,314.3, 2.4, -2.4,0,1,1024,1024,1527,1024,314.3,0,99,4.199,4.199,4.192,4.186,0,0,7.9,75.11,6,P-GPS,
0.3505259458612,36.897108341257,5805.6887586167,11.811024,0,1.06502956164,8400,2018-04-17 05:03:29,17,0,16.372,5805.6887586167,11.811024,0.447388,1.06502956164,0,0,-7.381902,314.3, 2.6, -2.1,0,1,1024,1024,1547,1024,314.3,0,99,4.199,4.199,4.192,4.186,0,0,7.9,75.11,6,P-GPS,
0.350525960511089,36.8971083166911,5806.6730106167,12.795276,0,1.06438323616,8500,2018-04-17 05:03:29,17,0,16.319,5806.6730106167,12.795276,0.447388,1.06502956164,0,0,-7.381902,314.3, 2.8, -1.8,0,1,1024,1024,1574,1024,314.3,0,99,4.091,4.106,4.093,4.091,0,0,15.99,75.11,6,P-GPS,
0.350525939169872,36.8971083233374,5807.6572626167,13.779528,0,1.05931433836,8600,2018-04-17 05:03:29,17,0,16.319,5807.6572626167,13.779528,0.447388,1.06502956164,0,0,-7.605596,314.3, 2.9, -2.1,0,1,1024,1024,1597,1024,314.3,0,99,4.091,4.106,4.093,4.091,0,0,15.99,75.11,6,P-GPS,
0.350525908121552,36.8971083321934,5808.9695986167,15.091864,0,1.05183402316,8700,2018-04-17 05:03:29,17,0,16.319,5808.9695986167,15.091864,0.447388,1.06502956164,0,0,-7.82929,314.3, 2.3, -1.8,0,1,1024,1024,1629,1024,314.3,0,99,4.091,4.106,4.093,4.091,0,0,15.99,75.11,6,P-GPS,
0.350525856171542,36.8971083102461,5810.2819346167,16.4042,0,1.03171919312,8800,2018-04-17 05:03:29,17,0,16.319,5810.2819346167,16.4042,0.447388,1.06502956164,0,0,-8.276678,314.3, 2, -1.6,0,1,1024,1024,1684,1024,314.3,0,99,4.091,4.106,4.093,4.091,0,0,15.99,75.11,6,P-GPS,
0.350525819250086,36.8971082804348,5811.2661866167,17.388452,0,1.01444228968,8900,2018-04-17 05:03:29,17,0,16.319,5811.2661866167,17.388452,0.447388,1.06502956164,0,0,-8.500372,314.3, 2.1, -1.6,0,1,1024,1024,1684,1024,314.3,0,99,4.091,4.106,4.093,4.091,0,0,15.99,75.11,6,P-GPS,
0.350525788613508,36.8971082561933,5812.5785226167,18.700788,0,1.0002132866,9000,2018-04-17 05:03:30,17,0,16.319,5812.5785226167,18.700788,0.447388,1.06502956164,0,0,-9.171454,314.3, 2.2, -1.3,0,1,1024,1024,1684,1024,314.3,0,99,4.091,4.106,4.093,4.091,0,0,15.99,75.11,6,P-GPS,
0.350525764352338,36.8971082331358,5814.2189426167,20.341208,0,0.98813651456,9100,2018-04-17 05:03:30,17,0,16.319,5814.2189426167,20.341208,0.447388,1.06502956164,0,0,-9.842536,314.3, 1.7, -1.4,0,1,1024,1024,1684,1024,314.3,0,99,4.091,4.106,4.093,4.091,0,0,15.99,75.11,6,P-GPS,
0.350525727690873,36.8971082144486,5815.5312786167,21.653544,0,0.97327102852,9200,2018-04-17 05:03:30,17,0,16.319,5815.5312786167,21.653544,0.447388,1.06502956164,0,0,-10.289924,314.3, 1.5, -1.6,0,1,1024,1024,1684,1024,314.3,0,99,4.091,4.106,4.093,4.091,0,0,15.99,75.11,6,P-GPS,
0.350525708287123,36.897108172767,5817.1716986167,23.293964,0,0.9587762774,9300,2018-04-17 05:03:30,17,0,16.319,5817.1716986167,23.293964,0.447388,1.06502956164,0,0,-10.737312,314.4, 1.8, -1.8,0,1,1024,1024,1684,1024,314.3,0,99,4.091,4.106,4.093,4.091,0,0,15.99,75.11,6,P-GPS,
0.350525707292602,36.8971080925177,5818.8121186167,24.934384,0,0.94217194616,9400,2018-04-17 05:03:30,17,0,16.319,5818.8121186167,24.934384,0.447388,1.06502956164,0,0,-10.961006,314.3, 2.1, -2,0,1,1024,1024,1684,1024,314.3,0,99,4.091,4.106,4.093,4.091,0,0,15.99,75.11,6,P-GPS,
0.350525709173684,36.8971079940088,5820.4525386167,26.574804,0,0.92361551512,9500,2018-04-17 05:03:30,17,0,16.107,5820.4525386167,26.574804,0.447388,1.06502956164,0,0,-11.1847,314.3, 2, -1.9,0,1,1024,1024,1684,1024,314.3,0,99,4.067,4.077,4.061,4.053,0,0,18.54,75.11,6,P-GPS,
0.350525677526045,36.8971079122891,5822.0929586167,28.215224,0,0.89850068492,9600,2018-04-17 05:03:30,17,0,16.107,5822.0929586167,28.215224,0.447388,1.06502956164,0,0,-11.1847,314.3, 2.3, -1.5,0,1,1024,1024,1684,1024,314.3,0,99,4.067,4.077,4.061,4.053,0,0,18.54,75.11,6,P-GPS,
0.350525654757548,36.8971078200047,5823.7333786167,29.855644,0,0.87484254768,9700,2018-04-17 05:03:30,17,0,16.107,5823.7333786167,29.855644,0.447388,1.06502956164,0,0,-11.1847,314.3, 2.5, -1.6,0,1,1024,1024,1684,1024,314.3,0,99,4.067,4.077,4.061,4.053,0,0,18.54,75.11,6,P-GPS,
0.350525606115646,36.8971077141762,5825.3737986167,31.496064,0,0.84128611616,9800,2018-04-17 05:03:30,17,0,16.107,5825.3737986167,31.496064,0.447388,1.06502956164,0,0,-11.1847,314.4, 2.4, -1.3,0,1,1024,1024,1684,1024,314.3,0,99,4.067,4.077,4.061,4.053,0,0,18.54,75.11,6,P-GPS,
0.350525562568458,36.8971075922335,5827.0142186167,33.136484,0,0.807824829,9900,2018-04-17 05:03:31,17,0,16.107,5827.0142186167,33.136484,0.447388,1.06502956164,0,0,-11.1847,314.3, 2.2, -0.9,0,1,1024,1024,1684,1024,314.3,0,99,4.067,4.077,4.061,4.053,0,0,18.54,75.11,6,P-GPS,
0.350525501030552,36.8971074645075,5828.6546386167,34.776904,0,0.76891734744,10000,2018-04-17 05:03:31,17,0,16.107,5828.6546386167,34.776904,0.447388,1.06502956164,0,0,-11.1847,314.3, 2.3, -0.4,0,1,1024,1024,1684,1024,314.3,0,99,4.067,4.077,4.061,4.053,0,0,18.54,75.11,6,P-GPS,
0.350525481327092,36.8971073288816,5830.2950586167,36.417324,0,0.7451279766,10100,2018-04-17 05:03:31,17,0,16.107,5830.2950586167,36.417324,0.447388,1.06502956164,0,0,-11.1847,314.3, 2.9, -0.8,0,1,1024,1024,1684,1024,314.3,0,99,4.067,4.077,4.061,4.053,0,0,18.54,75.11,6,P-GPS,
0.350525481129376,36.8971071770388,5831.9354786167,38.057744,0,0.72940619132,10200,2018-04-17 05:03:31,17,0,16.107,5831.9354786167,38.057744,0.447388,1.06502956164,0,0,-10.961006,314.3, 3.1, -1,0,1,1024,1024,1684,1024,314.3,0,99,4.067,4.077,4.061,4.053,0,0,18.54,75.11,6,P-GPS,
0.350525492034137,36.897106882039,5835.2163186167,41.338584,0,0.71440619084,10400,2018-04-17 05:03:31,17,0,16.107,5835.2163186167,41.338584,0.447388,1.06502956164,0,0,-10.961006,314.4, 3.2, -0.9,0,1,1024,1024,1684,1024,314.3,0,99,4.067,4.077,4.061,4.053,0,0,18.54,75.11,6,P-GPS,
0.350525497960706,36.8971067384462,5836.8567386167,42.979004,0,0.71312666324,10500,2018-04-17 05:03:31,17,0,16.186,5836.8567386167,42.979004,0.447388,1.06502956164,0,0,-10.961006,314.4, 3.2, -0.8,0,1,1024,1024,1684,1024,314.3,0,99,4.067,4.077,4.061,4.053,0,0,18.54,75.11,6,P-GPS,
0.350525488123136,36.8971065903655,5838.4971586167,44.619424,0,0.71002626944,10600,2018-04-17 05:03:31,17,0,16.186,5838.4971586167,44.619424,0.447388,1.06502956164,0,0,-10.961006,314.4, 3.1, -0.2,0,1,1024,1024,1684,1024,314.3,-0.1,99,4.067,4.077,4.061,4.053,0,0,18.54,75.11,6,P-GPS,
0.350525487318367,36.8971064407495,5840.1375786167,46.259844,0,0.7143865058,10700,2018-04-17 05:03:31,17,0,16.186,5840.1375786167,46.259844,0.447388,1.06502956164,0,0,-10.961006,314.3, 3.2, -0.1,0,1,1024,1024,1684,1024,314.3,-0.2,99,4.067,4.077,4.061,4.053,0,0,18.54,75.11,6,P-GPS,
0.350525487528563,36.8971063027195,5841.7779986167,47.900264,0,0.72239831708,10800,2018-04-17 05:03:31,17,0,16.186,5841.7779986167,47.900264,0.447388,1.06502956164,0,0,-10.961006,314.3, 3.4, -0.4,0,1,1024,1024,1684,1024,314.3,-0.3,99,4.067,4.077,4.061,4.053,0,0,18.54,75.11,6,P-GPS,
0.350525496494801,36.8971061694238,5843.4184186167,49.540684,0,0.73643046976,10900,2018-04-17 05:03:31,17,0,16.186,5843.4184186167,49.540684,0.447388,1.06502956164,0,0,-10.961006,314.4, 3.4, -0.3,0,1,1024,1024,1684,1024,314.3,-0.5,99,4.067,4.077,4.061,4.053,0,0,18.54,75.11,6,P-GPS,
0.350525467869822,36.8971060819442,5845.0588386167,51.181104,0,0.73519687392,11000,2018-04-17 05:03:32,17,0,16.186,5845.0588386167,51.181104,0.447388,1.06502956164,0,0,-10.961006,314.4, 3.4, -0.4,0,1,1024,1024,1684,1024,314.3,-0.8,99,4.067,4.077,4.061,4.053,0,0,18.54,75.11,6,P-GPS,
0.350525455588543,36.8971059969013,5846.6992586167,52.821524,0,0.74080711032,11100,2018-04-17 05:03:32,17,0,16.186,5846.6992586167,52.821524,0.447388,1.06502956164,0,0,-10.961006,314.4, 3.5, -0.5,0,1,1024,1024,1684,1024,314.3,-1.2,99,4.067,4.077,4.061,4.053,0,0,18.54,75.11,6,P-GPS,
0.35052541043833,36.897105908971,5848.3396786167,54.461944,0,0.7369914934,11200,2018-04-17 05:03:32,17,0,16.186,5848.3396786167,54.461944,0.447388,1.06502956164,0,0,-10.961006,314.4, 3.9, -0.6,0,1,1024,1024,1684,1024,314.3,-1.6,99,4.067,4.077,4.061,4.053,0,0,18.54,75.11,6,P-GPS,
0.350525381342183,36.8971058260511,5849.9800986167,56.102364,0,0.7394521234,11300,2018-04-17 05:03:32,17,0,16.186,5849.9800986167,56.102364,0.447388,1.06502956164,0,0,-11.1847,314.4, 4, -0.6,0,1,1024,1024,1684,1024,314.3,-2.1,99,4.067,4.077,4.061,4.053,0,0,18.54,75.11,6,P-GPS,
0.350525339133579,36.8971058320936,5851.6205186167,57.742784,0,0.72457679484,11400,2018-04-17 05:03:32,17,0,16.186,5851.6205186167,57.742784,0.447388,1.06502956164,0,0,-11.1847,314.3, 3.9, -0.7,0,1,1024,1024,1684,1024,314.3,-2.9,99,4.067,4.077,4.061,4.053,0,0,18.54,75.11,6,P-GPS,
0.350525313228707,36.8971058423595,5853.2609386167,59.383204,0,0.71443243756,11500,2018-04-17 05:03:32,17,0,16.133,5853.2609386167,59.383204,0.447388,1.06502956164,0,0,-11.1847,314.3, 3.6, -0.9,0,1,1024,1024,1684,1024,314.3,-4.1,99,4.055,4.071,4.061,4.06,0,0,17.246,75.11,6,P-GPS,
0.350525247900065,36.8971058420191,5855.2294426167,61.351708,0,0.6930282374,11600,2018-04-17 05:03:32,17,0,16.133,5855.2294426167,61.351708,0.447388,1.06502956164,0,0,-11.1847,314.3, 3.7, -0.9,0,1,1024,1024,1684,1024,314.3,-4.1,99,4.055,4.071,4.061,4.06,0,0,17.246,75.11,6,P-GPS,
0.350525191916145,36.8971058283368,5856.8698626167,62.992128,0,0.6770505466,11700,2018-04-17 05:03:32,17,0,16.133,5856.8698626167,62.992128,0.447388,1.06502956164,0,0,-11.1847,314.4, 3.6, -0.8,0,1,1024,1024,1684,1024,314.3,-5.3,99,4.055,4.071,4.061,4.06,0,0,17.246,75.11,6,P-GPS,
0.350525137929066,36.8971058461066,5858.5102826167,64.632548,0,0.65658794752,11800,2018-04-17 05:03:32,17,0,16.133,5858.5102826167,64.632548,0.447388,1.06502956164,0,0,-11.1847,314.4, 3.6, -0.7,0,1,1024,1024,1684,1023,314.3,-6.4,99,4.055,4.071,4.061,4.06,0,0,17.246,75.11,6,P-GPS,
0.35052510339767,36.8971058593863,5860.1507026167,66.272968,0,0.64318243528,11900,2018-04-17 05:03:33,17,0,16.133,5860.1507026167,66.272968,0.447388,1.06502956164,0,0,-11.1847,314.4, 3.7, -0.7,0,1,1024,1024,1684,1022,314.3,-7.5,99,4.055,4.071,4.061,4.06,0,0,17.246,75.11,6,P-GPS,
0.350525013782501,36.8971058954761,5861.7911226167,67.913388,0,0.60812994072,12000,2018-04-17 05:03:33,17,0,16.133,5861.7911226167,67.913388,0.447388,1.06502956164,0,0,-11.1847,314.4, 3.5, -0.6,0,1,1024,1024,1663,1022,314.3,-9,99,4.055,4.071,4.061,4.06,0,0,17.246,75.11,6,P-GPS,
0.350524946687224,36.897105923286,5863.4315426167,69.553808,0,0.58176511048,12100,2018-04-17 05:03:33,17,0,16.133,5863.4315426167,69.553808,0.447388,1.06502956164,0,0,-10.961006,314.4, 3.5, -0.6,0,1,1024,1024,1628,1023,314.3,-9.8,99,4.055,4.071,4.061,4.06,0,0,17.246,75.11,6,P-GPS,
0.350524874522525,36.8971059938148,5865.0719626167,71.194228,0,0.5464567104,12200,2018-04-17 05:03:33,17,0,16.133,5865.0719626167,71.194228,0.447388,1.06502956164,0,0,-10.737312,314.4, 3.5, -0.7,0,1,1024,1024,1637,1024,314.3,-9.8,99,4.055,4.071,4.061,4.06,0,0,17.246,75.11,6,P-GPS,
0.35052483291377,36.8971060524332,5866.7123826167,72.834648,0,0.52328741832,12300,2018-04-17 05:03:33,17,0,16.133,5866.7123826167,72.834648,0.447388,1.06502956164,0,0,-10.289924,314.4, 3.8, -0.9,0,1,1024,1024,1684,1023,314.3,-9.8,99,4.055,4.071,4.061,4.06,0,0,17.246,75.11,6,P-GPS,
0.350524747259041,36.8971061346304,5868.3528026167,74.475068,0,0.48222442488,12400,2018-04-17 05:03:33,17,0,16.133,5868.3528026167,74.475068,0.447388,1.06502956164,0,0,-10.289924,314.4, 4, -0.7,0,1,1024,1024,1684,1024,314.3,-9.8,99,4.055,4.071,4.061,4.06,0,0,17.246,75.11,6,P-GPS,
0.350524670233436,36.8971062121481,5869.6651386167,75.787404,0,0.44515749456,12500,2018-04-17 05:03:33,17,0,16.16,5869.6651386167,75.787404,0.447388,1.06502956164,0,0,-10.513618,314.3, 3.6, -0.2,0,1,1024,1024,1684,1024,314.3,-9.8,99,4.046,4.064,4.054,4.051,0,0,17.346,75.11,6,P-GPS,
0.350524577688862,36.8971063204026,5871.3055586167,77.427824,0,0.3994750784,12600,2018-04-17 05:03:33,17,0,16.16,5871.3055586167,77.427824,0.447388,1.06502956164,0,0,-10.737312,314.3, 3.2, -0.9,0,1,1024,1024,1684,1024,314.3,-9.8,99,4.046,4.064,4.054,4.051,0,0,17.346,75.11,6,P-GPS,
0.350524516792996,36.8971064129247,5872.9459786167,79.068244,0,0.3681758648,12700,2018-04-17 05:03:33,17,0,16.16,5872.9459786167,79.068244,0.447388,1.06502956164,0,0,-10.961006,314.3, 3.3, -1.3,0,1,1024,1024,1684,1024,314.3,-9.8,99,4.046,4.064,4.054,4.051,0,0,17.346,75.11,6,P-GPS,
0.350524439621645,36.8971065321956,5874.5863986167,80.708664,0,0.3312336064,12800,2018-04-17 05:03:33,17,0,16.16,5874.5863986167,80.708664,0.447388,1.06502956164,0,0,-10.961006,314.3, 3.3, -1.3,0,1,1024,1024,1684,1024,314.3,-9.8,99,4.046,4.064,4.054,4.051,0,0,17.346,75.11,6,P-GPS,
0.350524372643438,36.8971066324988,5876.2268186167,82.349084,0,0.30279528528,12900,2018-04-17 05:03:33,17,0,16.16,5876.2268186167,82.349084,0.447388,1.06502956164,0,0,-11.1847,314.4, 3.1, -1.2,0,1,1024,1024,1684,1024,314.3,-9.8,99,4.046,4.064,4.054,4.051,0,0,17.346,75.11,6,P-GPS,
0.350524295490204,36.8971067763089,5878.1953226167,84.317588,0,0.276260507528,13000,2018-04-17 05:03:34,17,0,16.16,5878.1953226167,84.317588,0.447388,1.06502956164,0,0,-11.1847,314.4, 2.8, -0.9,0,1,1024,1024,1684,1024,314.3,-9.8,99,4.046,4.064,4.054,4.051,0,0,17.346,75.11,6,P-GPS,
0.350524236645159,36.8971068998344,5879.8357426167,85.958008,0,0.264847777504,13100,2018-04-17 05:03:34,17,0,16.16,5879.8357426167,85.958008,0.447388,1.06502956164,0,0,-11.1847,314.4, 2.8, -0.8,0,1,1024,1024,1684,1024,314.3,-9.8,99,4.046,4.064,4.054,4.051,0,0,17.346,75.11,6,P-GPS,
0.350524157337494,36.8971070359154,5881.4761626167,87.598428,0,0.258300205116,13200,2018-04-17 05:03:34,17,0,16.16,5881.4761626167,87.598428,0.447388,1.06502956164,0,0,-11.1847,314.4, 2.8, -1,0,1,1024,1024,1684,1024,314.3,-9.8,99,4.046,4.064,4.054,4.051,0,0,17.346,75.11,6,P-GPS,
0.350524042480896,36.8971072654589,5884.7570026167,90.879268,0,0.279945547016,13400,2018-04-17 05:03:34,17,0,16.16,5884.7570026167,90.879268,0.447388,1.06502956164,0,0,-11.1847,314.4, 2.5, -0.9,0,1,1024,1024,1684,1024,314.3,-9.8,99,4.046,4.064,4.054,4.051,0,0,17.346,75.11,6,P-GPS,
0.350524018873445,36.8971073563654,5886.3974226167,92.519688,0,0.30088747682,13500,2018-04-17 05:03:34,17,0,16.054,5886.3974226167,92.519688,0.447388,1.06502956164,0,0,-11.1847,314.4, 2.7, -1,0,1,1024,1024,1684,1024,314.3,-9.8,99,4.041,4.057,4.049,4.048,0,0,17.006,75.11,6,P-GPS,
0.350523961815109,36.8971074889605,5888.0378426167,94.160108,0,0.33151575864,13600,2018-04-17 05:03:34,17,0,16.054,5888.0378426167,94.160108,0.447388,1.06502956164,0,0,-11.1847,314.4, 2.9, -1.2,0,1,1024,1024,1684,1024,314.3,-9.8,99,4.041,4.057,4.049,4.048,0,0,17.006,75.11,6,P-GPS,
0.350523924088234,36.8971076018164,5889.6782626167,95.800528,0,0.36309712448,13700,2018-04-17 05:03:34,17,0,16.054,5889.6782626167,95.800528,0.447388,1.06502956164,0,0,-10.961006,314.4, 2.7, -1.3,0,1,1024,1024,1684,1023,314.3,-9.8,99,4.041,4.057,4.049,4.048,0,0,17.006,75.11,6,P-GPS,
0.350523868527964,36.8971077532214,5891.3186826167,97.440948,0,0.40835959312,13800,2018-04-17 05:03:34,17,0,16.054,5891.3186826167,97.440948,0.447388,1.06502956164,0,0,-11.1847,314.4, 2.8, -1.4,0,1,1024,1024,1684,1024,314.3,-9.8,99,4.041,4.057,4.049,4.048,0,0,17.006,75.11,6,P-GPS,
0.350523836563644,36.8971078751228,5892.9591026167,99.081368,0,0.44819227156,13900,2018-04-17 05:03:34,17,0,16.054,5892.9591026167,99.081368,0.447388,1.06502956164,0,0,-11.1847,314.4, 2.9, -1.6,0,1,1024,1024,1684,1021,314.3,-9.8,99,4.041,4.057,4.049,4.048,0,0,17.006,75.11,6,P-GPS,
0.350523804926336,36.8971080109414,5894.5995226167,100.721788,0,0.4941109082,14000,2018-04-17 05:03:35,17,0,16.054,5894.5995226167,100.721788,0.447388,1.06502956164,0,0,-10.961006,314.4, 2.7, -1.6,0,1,1024,1024,1684,1019,314.3,-9.8,99,4.041,4.057,4.049,4.048,0,0,17.006,75.11,6,P-GPS,
0.350523792924805,36.8971081078149,5896.2399426167,102.362208,0,0.5280676022,14100,2018-04-17 05:03:35,17,0,16.054,5896.2399426167,102.362208,0.447388,1.06502956164,0,0,-10.961006,314.4, 2.5, -1.4,0,1,1024,1024,1684,981,314.3,-9.8,99,4.041,4.057,4.049,4.048,0,0,17.006,75.11,6,P-GPS,
0.35052375415247,36.8971082458165,5897.8803626167,104.002628,0,0.57567915228,14200,2018-04-17 05:03:35,17,0,16.054,5897.8803626167,104.002628,0.447388,1.06502956164,0,0,-11.1847,314.4, 2.6, -1.4,0,1,1024,1024,1684,1016,314.3,-9.8,99,4.041,4.057,4.049,4.048,0,0,17.006,75.11,6,P-GPS,
0.350523731958915,36.8971083534977,5899.5207826167,105.643048,0,0.613681122,14300,2018-04-17 05:03:35,17,0,16.054,5899.5207826167,105.643048,0.447388,1.06502956164,0,0,-10.961006,314.3, 2.5, -1.5,0,1,1024,1024,1684,1022,314.3,-9.8,99,4.041,4.057,4.049,4.048,0,0,17.006,75.11,6,P-GPS,
0.350523711483064,36.89710847156,5901.1612026167,107.283468,0,0.65576773752,14400,2018-04-17 05:03:35,17,0,16.054,5901.1612026167,107.283468,0.447388,1.06502956164,0,0,-10.961006,314.2, 2.5, -1.5,0,1,1024,1024,1684,936,314.3,-9.8,99,4.041,4.057,4.049,4.048,0,0,17.006,75.11,6,P-GPS,
0.350523710503453,36.8971085496461,5902.8016226167,108.923888,0,0.6841043526,14500,2018-04-17 05:03:35,17,0,16.16,5902.8016226167,108.923888,0.447388,1.06502956164,0,0,-10.961006,314.2, 2.6, -1.5,0,1,1024,1024,1684,1008,314,-9.8,99,4.041,4.057,4.049,4.048,0,0,17.006,75.11,6,P-GPS,
0.350523673839342,36.8971086734751,5904.4420426167,110.564308,0,0.72812666372,14600,2018-04-17 05:03:35,17,0,16.16,5904.4420426167,110.564308,0.447388,1.06502956164,0,0,-10.961006,313.7, 2.6, -1.2,0,1,1024,1024,1684,947,314,-9.8,99,4.041,4.057,4.049,4.048,0,0,17.006,75.11,6,P-GPS,
0.350523653342117,36.8971087647071,5906.4105466167,112.532812,0,0.76091537868,14700,2018-04-17 05:03:35,17,0,16.16,5906.4105466167,112.532812,0.447388,1.06502956164,0,0,-11.1847,313.6, 2.6, -1.2,0,1,1024,1024,1684,916,313.7,-9.8,99,4.041,4.057,4.049,4.048,0,0,17.006,75.11,6,P-GPS,
0.350523633458104,36.8971088909043,5908.0509666167,114.173232,0,0.80657154812,14800,2018-04-17 05:03:35,17,0,16.16,5908.0509666167,114.173232,0.447388,1.06502956164,0,0,-11.1847,313, 2.6, -1.6,0,1,1024,1024,1684,889,313.7,-9.8,99,4.041,4.057,4.049,4.048,0,0,17.006,75.11,6,P-GPS,
0.350523630827454,36.8971089751164,5909.6913866167,115.813652,0,0.83723427876,14900,2018-04-17 05:03:35,17,0,16.16,5909.6913866167,115.813652,0.447388,1.06502956164,0,0,-10.961006,312, 2.4, -1.7,0,1,1024,1024,1684,919,313.1,-9.8,99,4.041,4.057,4.049,4.048,0,0,17.006,75.11,6,P-GPS,
0.350523622222044,36.897109078057,5911.3318066167,117.454072,0,0.87465882064,15000,2018-04-17 05:03:36,17,0,16.16,5911.3318066167,117.454072,0.447388,1.06502956164,0,0,-10.961006,310.7, 2.5, -1.5,0,1,1024,1024,1684,928,312.3,-9.8,99,4.041,4.057,4.049,4.048,0,0,17.006,75.11,6,P-GPS,
0.350523627277141,36.897109146117,5912.9722266167,119.094492,0,0.89953743036,15100,2018-04-17 05:03:36,17,0,16.16,5912.9722266167,119.094492,0.447388,1.06502956164,0,0,-10.961006,309.4, 2.7, -1.5,0,1,1024,1024,1684,926,311.8,-9.8,99,4.041,4.057,4.049,4.048,0,0,17.006,75.11,6,P-GPS,
0.350523624053025,36.8971092157722,5914.6126466167,120.734912,0,0.92489832356,15200,2018-04-17 05:03:36,17,0,16.16,5914.6126466167,120.734912,0.447388,1.06502956164,0,0,-10.961006,308.3, 2.7, -1.6,0,1,1024,1024,1684,927,311.1,-9.8,99,4.041,4.057,4.049,4.048,0,0,17.006,75.11,6,P-GPS,
0.350523628420003,36.8971092557387,5916.2530666167,122.375332,0,0.93952430828,15300,2018-04-17 05:03:36,17,0,16.16,5916.2530666167,122.375332,0.447388,1.06502956164,0,0,-10.961006,307.3, 2.6, -1.7,0,1,1024,1024,1684,937,310.4,-9.8,99,4.041,4.057,4.049,4.048,0,0,17.006,75.11,6,P-GPS,
0.350523622557401,36.8971093385082,5917.8934866167,124.015752,0,0.96964241948,15400,2018-04-17 05:03:36,17,0,16.16,5917.8934866167,124.015752,0.447388,1.06502956164,0,0,-10.961006,306.3, 2.5, -1.7,0,1,1024,1024,1684,943,309.7,-9.8,99,4.041,4.057,4.049,4.048,0,0,17.006,75.11,6,P-GPS,
0.350523625044341,36.8971093905574,5919.5339066167,125.656172,0,0.9886483256,15500,2018-04-17 05:03:36,17,0,16.107,5919.5339066167,125.656172,0.447388,1.06502956164,0,0,-11.1847,305.4, 2.5, -1.7,0,1,1024,1024,1684,943,309.1,-9.8,99,4.036,4.052,4.042,4.039,0,0,17.062,76.91,6,P-GPS,
0.350523647768971,36.8971095194889,5921.1743266167,127.296592,0,1.03593835336,15600,2018-04-17 05:03:36,17,0,16.107,5921.1743266167,127.296592,0.447388,1.06502956164,0,0,-11.1847,304.6, 2.5, -1.6,0,1,1024,1024,1684,940,308.4,-9.8,99,4.036,4.052,4.042,4.039,0,0,17.062,76.91,6,P-GPS,
0.350523673772983,36.8971096102263,5923.1428306167,129.265096,0,1.06939964052,15700,2018-04-17 05:03:36,17,0,16.107,5923.1428306167,129.265096,0.447388,1.06939964052,0,0,-11.1847,303.8, 2.5, -1.6,0,1,1024,1024,1684,940,307.6,-9.8,99,4.036,4.052,4.042,4.039,0,0,17.062,76.91,6,P-GPS,
0.350523690189937,36.8971097088433,5924.7832506167,130.905516,0,1.10561683328,15800,2018-04-17 05:03:36,17,0,16.107,5924.7832506167,130.905516,0.447388,1.10561683328,0,0,-11.1847,303, 2.4, -1.9,0,1,1024,1024,1684,939,306.8,-9.8,99,4.036,4.052,4.042,4.039,0,0,17.062,76.91,6,P-GPS,
0.350523705079208,36.8971097760163,5926.4236706167,132.545936,0,1.13036749024,15900,2018-04-17 05:03:36,17,0,16.107,5926.4236706167,132.545936,0.447388,1.13036749024,0,0,-11.1847,302.1, 2.3, -2.1,0,1,1024,1024,1684,939,306.1,-9.8,99,4.036,4.052,4.042,4.039,0,0,17.062,76.91,6,P-GPS,
0.350523706343288,36.8971098549605,5928.0640906167,134.186356,0,1.1591535804,16000,2018-04-17 05:03:37,18,0,16.107,5928.0640906167,134.186356,0.447388,1.1591535804,0,0,-11.1847,301.3, 2.2, -2,0,1,1024,1024,1684,939,305.3,-9.8,99,4.036,4.052,4.042,4.039,0,0,17.062,76.91,6,P-GPS,
0.350523709793757,36.8971098930197,5929.7045106167,135.826776,0,1.17308730788,16100,2018-04-17 05:03:37,18,0,16.107,5929.7045106167,135.826776,0.447388,1.17308730788,0,0,-10.961006,300.5, 2.2, -1.7,0,1,1024,1024,1684,939,304.4,-9.8,99,4.036,4.052,4.042,4.039,0,0,17.062,76.91,6,P-GPS,
0.35052373813713,36.8971099189876,5931.3449306167,137.467196,0,1.1831201166,16200,2018-04-17 05:03:37,18,0,16.107,5931.3449306167,137.467196,0.447388,1.1831201166,0,0,-10.961006,299.6, 2.2, -1.8,0,1,1024,1024,1684,959,304.4,-9.8,99,4.036,4.052,4.042,4.039,0,0,17.062,76.91,6,P-GPS,
0.350523774333369,36.8971099150301,5932.9853506167,139.107616,0,1.18254268876,16300,2018-04-17 05:03:37,18,0,16.107,5932.9853506167,139.107616,0.447388,1.1831201166,0,0,-10.961006,298.8, 2.3, -1.9,0,1,1024,1024,1684,1000,303.6,-9.8,99,4.036,4.052,4.042,4.039,0,0,17.062,76.91,6,P-GPS,
0.350523799470234,36.8971099394172,5934.6257706167,140.748036,0,1.19209977568,16400,2018-04-17 05:03:37,18,0,16.107,5934.6257706167,140.748036,0.447388,1.19209977568,0,0,-10.961006,298.1, 2.4, -1.8,0,1,1024,1024,1684,996,302.9,-9.8,99,4.036,4.052,4.042,4.039,0,0,17.062,76.91,6,P-GPS,
0.350523824256984,36.8971099549248,5936.2661906167,142.388456,0,1.19847772864,16500,2018-04-17 05:03:37,18,0,16.027,5936.2661906167,142.388456,0.447388,1.19847772864,0,0,-10.961006,297.8, 2.2, -1.7,0,1,1024,1024,1684,949,302.4,-9.8,99,4.03,4.046,4.035,4.033,0,0,17.242,76.91,6,P-GPS,
0.350523835687643,36.8971099799083,5937.9066106167,144.028876,0,1.20791998616,16600,2018-04-17 05:03:37,18,0,16.027,5937.9066106167,144.028876,0.447388,1.20791998616,0,0,-10.961006,297.7, 1.9, -1.9,0,1,1024,1024,1684,962,302.1,-9.8,99,4.03,4.046,4.035,4.033,0,0,17.242,76.91,6,P-GPS,
0.350523855442297,36.8971099830205,5939.5470306167,145.669296,0,1.20970804396,16700,2018-04-17 05:03:37,18,0,16.027,5939.5470306167,145.669296,0.447388,1.20970804396,0,0,-10.961006,297.4, 1.9, -2.1,0,1,1024,1024,1684,962,301.4,-9.8,99,4.03,4.046,4.035,4.033,0,0,17.242,76.91,6,P-GPS,
0.350523856662917,36.8971100169445,5941.1874506167,147.309716,0,1.22207024908,16800,2018-04-17 05:03:37,18,0,16.027,5941.1874506167,147.309716,0.447388,1.22207024908,0,0,-10.961006,296.7, 2.2, -2.1,0,1,1024,1024,1684,984,300.8,-9.8,99,4.03,4.046,4.035,4.033,0,0,17.242,76.91,6,P-GPS,
0.35052385907963,36.897110032541,5942.8278706167,148.950136,0,1.22781828076,16900,2018-04-17 05:03:38,18,0,16.027,5942.8278706167,148.950136,0.447388,1.22781828076,0,0,-10.961006,296.3, 2, -2,0,1,1024,1024,1684,979,300.5,-9.8,99,4.03,4.046,4.035,4.033,0,0,17.242,76.91,6,P-GPS,
0.350523837869961,36.8971100564694,5944.4682906167,150.590556,0,1.23581696868,17000,2018-04-17 05:03:38,18,0,16.027,5944.4682906167,150.590556,0.447388,1.23581696868,0,0,-10.961006,296.1, 1.9, -1.9,0,1,1024,1024,1684,990,300.1,-9.8,99,4.03,4.046,4.035,4.033,0,0,17.242,76.91,6,P-GPS,
0.350523825241174,36.8971100599627,5946.1087106167,152.230976,0,1.2366962338,17100,2018-04-17 05:03:38,18,0,16.027,5946.1087106167,152.230976,0.447388,1.2366962338,0,0,-10.961006,295.8, 1.7, -1.8,0,1,1024,1024,1684,984,299.8,-9.8,99,4.03,4.046,4.035,4.033,0,0,17.242,76.91,6,P-GPS,
0.350523804258572,36.8971100691089,5947.7491306167,153.871396,0,1.23941276932,17200,2018-04-17 05:03:38,18,0,16.027,5947.7491306167,153.871396,0.447388,1.23941276932,0,0,-10.961006,295.6, 1.7, -1.8,0,1,1024,1024,1684,975,299.4,-9.8,99,4.03,4.046,4.035,4.033,0,0,17.242,76.91,6,P-GPS,
0.350523801360654,36.897110055553,5949.3895506167,155.511816,0,1.2343996458,17300,2018-04-17 05:03:38,18,0,16.027,5949.3895506167,155.511816,0.447388,1.23941276932,0,0,-10.961006,295.3, 1.8, -1.9,0,1,1024,1024,1684,1005,299.1,-9.8,99,4.03,4.046,4.035,4.033,0,0,17.242,76.91,6,P-GPS,
0.350523762903015,36.8971100815733,5951.0299706167,157.152236,0,1.24288717888,17400,2018-04-17 05:03:38,18,0,16.027,5951.0299706167,157.152236,0.447388,1.24288717888,0,0,-10.961006,295, 1.9, -1.8,0,1,1024,1024,1684,1019,298.8,-9.8,99,4.03,4.046,4.035,4.033,0,0,17.242,76.91,6,P-GPS,
0.350523737218891,36.8971100902141,5952.6703906167,158.792656,0,1.24546591912,17500,2018-04-17 05:03:38,18,0,15.974,5952.6703906167,158.792656,0.447388,1.24546591912,0,0,-10.961006,295, 1.9, -1.6,0,1,1024,1024,1684,1019,298.6,-9.8,98,4.02,4.036,4.025,4.022,0,0,17.668,76.91,6,P-GPS,
0.350523714090712,36.8971101109847,5954.3108106167,160.433076,0,1.25258534192,17600,2018-04-17 05:03:38,18,0,15.974,5954.3108106167,160.433076,0.447388,1.25258534192,0,0,-10.961006,295, 1.9, -1.7,0,1,1024,1024,1684,1021,298.4,-9.8,98,4.02,4.036,4.025,4.022,0,0,17.668,76.91,6,P-GPS,
0.350523710058888,36.8971101112615,5955.9512306167,162.073496,0,1.25261486948,17700,2018-04-17 05:03:38,18,0,15.974,5955.9512306167,162.073496,0.447388,1.25261486948,0,0,-10.961006,295.1, 2.1, -1.9,0,1,1024,1024,1684,1024,298.4,-9.8,98,4.02,4.036,4.025,4.022,0,0,17.668,76.91,6,P-GPS,
0.350523705249177,36.8971101258441,5957.9197346167,164.042,0,1.25784780928,17800,2018-04-17 05:03:38,18,0,15.974,5957.9197346167,164.042,0.447388,1.25784780928,0,0,-11.1847,295.1, 2.2, -1.9,0,1,1024,1024,1684,1024,298.2,-9.8,98,4.02,4.036,4.025,4.022,0,0,17.668,76.91,6,P-GPS,
0.350523709369853,36.8971101291062,5959.5601546167,165.68242,0,1.25910765184,17900,2018-04-17 05:03:38,18,0,15.974,5959.5601546167,165.68242,0.447388,1.25910765184,0,0,-11.1847,295, 2.1, -2,0,1,1024,1024,1684,1024,298.1,-9.8,98,4.02,4.036,4.025,4.022,0,0,17.668,76.91,6,P-GPS,
0.350523672510124,36.8971101820558,5961.2005746167,167.32284,0,1.27784124824,18000,2018-04-17 05:03:39,18,0,15.974,5961.2005746167,167.32284,0.447388,1.27784124824,0,0,-11.1847,295, 2.1, -2.1,0,1,1024,1024,1684,1024,297.9,-9.8,98,4.02,4.036,4.025,4.022,0,0,17.668,76.91,6,P-GPS,
0.350523645160509,36.8971102117654,5962.8409946167,168.96326,0,1.28834649792,18100,2018-04-17 05:03:39,18,0,15.974,5962.8409946167,168.96326,0.447388,1.28834649792,0,0,-10.961006,295, 1.9, -2.1,0,1,1024,1024,1684,1024,297.8,-9.8,98,4.02,4.036,4.025,4.022,0,0,17.668,76.91,6,P-GPS,
0.350523611097125,36.8971102770429,5964.4814146167,170.60368,0,1.31186355904,18200,2018-04-17 05:03:39,18,0,15.974,5964.4814146167,170.60368,0.447388,1.31186355904,0,0,-10.961006,295, 2, -2,0,1,1024,1024,1684,1055,297.7,-9.8,98,4.02,4.036,4.025,4.022,0,0,17.668,76.91,6,P-GPS,
0.350523593823405,36.8971103050171,5966.1218346167,172.2441,0,1.32196854624,18300,2018-04-17 05:03:39,18,0,15.974,5966.1218346167,172.2441,0.447388,1.32196854624,0,0,-10.961006,295, 2.3, -1.8,0,1,1024,1024,1684,1055,297.6,-9.8,98,4.02,4.036,4.025,4.022,0,0,17.668,76.91,6,P-GPS,
0.350523542223613,36.8971103719947,5967.7622546167,173.88452,0,1.34627957064,18400,2018-04-17 05:03:39,18,0,15.974,5967.7622546167,173.88452,0.447388,1.34627957064,0,0,-10.961006,295.2, 2.3, -1.6,0,1,1024,1024,1684,1024,297.5,-9.8,98,4.02,4.036,4.025,4.022,0,0,17.668,76.91,6,P-GPS,
0.350523508423018,36.8971104163565,5969.7307586167,175.853024,0,1.36252629032,18500,2018-04-17 05:03:39,18,0,15.974,5969.7307586167,175.853024,0.447388,1.36252629032,0,0,-10.961006,295.3, 2.3, -1.6,0,1,1024,1024,1684,1024,297.4,-9.8,98,4.02,4.036,4.025,4.022,0,0,17.668,76.91,6,P-GPS,
0.350523449282207,36.8971104679047,5971.3711786167,177.493444,0,1.38170608096,18600,2018-04-17 05:03:39,18,0,15.974,5971.3711786167,177.493444,0.447388,1.38170608096,0,0,-11.1847,295.2, 2.4, -1.7,0,1,1024,1024,1684,1024,297.4,-9.8,98,4.02,4.036,4.025,4.022,0,0,17.668,76.91,6,P-GPS,
0.350523410825077,36.8971104953912,5973.0115986167,179.133864,0,1.39215227552,18700,2018-04-17 05:03:39,18,0,15.974,5973.0115986167,179.133864,0.447388,1.39215227552,0,0,-11.1847,295.3, 2.3, -1.9,0,1,1024,1024,1684,1024,297.3,-9.8,98,4.02,4.036,4.025,4.022,0,0,17.668,76.91,6,P-GPS,
0.350523376906421,36.8971105550931,5974.6520186167,180.774284,0,1.41439965156,18800,2018-04-17 05:03:39,18,0,15.974,5974.6520186167,180.774284,0.447388,1.41439965156,0,0,-10.961006,295.3, 2.4, -2,0,1,1024,1024,1684,1024,297.2,-9.8,98,4.02,4.036,4.025,4.022,0,0,17.668,76.91,6,P-GPS,
0.350523357849148,36.8971105906133,5976.2924386167,182.414704,0,1.42766080684,18900,2018-04-17 05:03:40,18,0,15.974,5976.2924386167,182.414704,0.447388,1.42766080684,0,0,-10.961006,295.3, 2.4, -1.9,0,1,1024,1024,1684,1024,297.2,-9.8,98,4.02,4.036,4.025,4.022,0,0,17.668,76.91,6,P-GPS,
0.350523312017813,36.8971106521283,5977.9328586167,184.055124,0,1.45095805168,19000,2018-04-17 05:03:40,18,0,15.974,5977.9328586167,184.055124,0.447388,1.45095805168,0,0,-11.1847,295.2, 2.7, -1.9,0,1,1024,1024,1668,1024,297.1,-9.8,98,4.02,4.036,4.025,4.022,0,0,17.668,76.91,6,P-GPS,
0.350523279934616,36.8971106933987,5979.5732786167,185.695544,0,1.46671264536,19100,2018-04-17 05:03:40,18,0,15.974,5979.5732786167,185.695544,0.447388,1.46671264536,0,0,-11.1847,295.3, 2.7, -1.9,0,1,1024,1024,1671,1024,297.1,-9.8,98,4.02,4.036,4.025,4.022,0,0,17.668,76.91,6,P-GPS,
0.350523253988415,36.8971107675675,5981.2136986167,187.335964,0,1.4943570032,19200,2018-04-17 05:03:40,18,0,15.974,5981.2136986167,187.335964,0.447388,1.4943570032,0,0,-10.961006,295.3, 2.5, -2,0,1,1024,1024,1684,1024,297,-9.8,98,4.02,4.036,4.025,4.022,0,0,17.668,76.91,6,P-GPS,
0.350523241317695,36.8971108216905,5982.8541186167,188.976384,0,1.5143865314,19300,2018-04-17 05:03:40,18,0,15.974,5982.8541186167,188.976384,0.447388,1.5143865314,0,0,-10.961006,295.2, 2.6, -2,0,1,1024,1024,1684,1024,297,-9.8,98,4.02,4.036,4.025,4.022,0,0,17.668,76.91,6,P-GPS,
0.350523195484936,36.8971108642489,5984.4945386167,190.616804,0,1.53117130884,19400,2018-04-17 05:03:40,18,0,15.974,5984.4945386167,190.616804,0.447388,1.53117130884,0,0,-10.961006,295.2, 2.6, -1.6,0,1,1024,1024,1684,1024,297,-9.8,98,4.02,4.036,4.025,4.022,0,0,17.668,76.91,6,P-GPS,
0.350523162522583,36.8971108933354,5986.1349586167,192.257224,0,1.54278548244,19500,2018-04-17 05:03:40,18,0,16.027,5986.1349586167,192.257224,0.447388,1.54278548244,0,0,-10.961006,295.2, 2.4, -1.9,0,1,1024,1024,1684,1024,296.9,-9.8,98,4.02,4.036,4.025,4.022,0,0,17.668,76.91,6,P-GPS,
0.350523138270981,36.8971109798777,5988.1034626167,194.225728,0,1.57503942048,19600,2018-04-17 05:03:40,18,0,16.027,5988.1034626167,194.225728,0.447388,1.57503942048,0,0,-10.961006,295.2, 2.4, -2,0,1,1024,1024,1684,1024,296.9,-9.8,98,4.02,4.036,4.025,4.022,0,0,17.668,76.91,6,P-GPS,
0.350523123255099,36.8971110463286,5989.7438826167,195.866148,0,1.59969493308,19700,2018-04-17 05:03:40,18,0,16.027,5989.7438826167,195.866148,0.447388,1.59969493308,0,0,-10.961006,295.2, 2.4, -2,0,1,1024,1024,1684,1024,296.9,-9.8,98,4.02,4.036,4.025,4.022,0,0,17.668,76.91,6,P-GPS,
0.350523080284736,36.8971111254312,5991.3843026167,197.506568,0,1.62997708628,19800,2018-04-17 05:03:40,18,0,16.027,5991.3843026167,197.506568,0.447388,1.62997708628,0,0,-11.1847,295.3, 2.4, -2.1,0,1,1024,1024,1684,1024,296.8,-9.8,98,4.02,4.036,4.025,4.022,0,0,17.668,76.91,6,P-GPS,
0.350523041821703,36.8971111816885,5993.0247226167,199.146988,0,1.65188981664,19900,2018-04-17 05:03:40,18,0,16.027,5993.0247226167,199.146988,0.447388,1.65188981664,0,0,-11.1847,295.3, 2.3, -2,0,1,1024,1024,1684,1024,296.8,-9.8,98,4.02,4.036,4.025,4.022,0,0,17.668,76.91,6,P-GPS,
0.350523009538819,36.8971112477759,5994.6651426167,200.787408,0,1.67718509304,20000,2018-04-17 05:03:41,18,0,16.027,5994.6651426167,200.787408,0.447388,1.67718509304,0,0,-11.1847,295.3, 2.3, -1.8,0,1,1024,1024,1684,1024,296.7,-9.8,98,4.02,4.036,4.025,4.022,0,0,17.668,76.91,6,P-GPS,
0.350522989185508,36.8971112895939,5996.3055626167,202.427828,0,1.69321199644,20100,2018-04-17 05:03:41,18,0,16.027,5996.3055626167,202.427828,0.447388,1.69321199644,0,0,-10.961006,295.3, 2.4, -1.6,0,1,1024,1024,1684,1024,296.7,-9.8,98,4.02,4.036,4.025,4.022,0,0,17.668,76.91,6,P-GPS,
0.350522988849845,36.8971113806327,5997.9459826167,204.068248,0,1.72620740432,20200,2018-04-17 05:03:41,18,0,16.027,5997.9459826167,204.068248,0.447388,1.72620740432,0,0,-10.961006,295.2, 2.5, -1.7,0,1,1024,1024,1684,1024,296.7,-9.8,98,4.02,4.036,4.025,4.022,0,0,17.668,76.91,6,P-GPS,
0.350522995533183,36.8971114583404,5999.5864026167,205.708668,0,1.7540847018,20300,2018-04-17 05:03:41,18,0,16.027,5999.5864026167,205.708668,0.447388,1.7540847018,0,0,-11.1847,295.3, 2.3, -1.9,0,1,1024,1024,1684,1024,296.7,-9.8,98,4.02,4.036,4.025,4.022,0,0,17.668,76.91,6,P-GPS,
0.350522978388924,36.8971115532534,6001.5549066167,207.677172,0,1.78920281316,20400,2018-04-17 05:03:41,18,0,16.027,6001.5549066167,207.677172,0.447388,1.78920281316,0,0,-11.1847,295.3, 2, -2.1,0,1,1024,1024,1684,1024,296.6,-9.8,98,4.02,4.036,4.025,4.022,0,0,17.668,76.91,6,P-GPS,
0.350522966347395,36.8971116179924,6003.1953266167,209.317592,0,1.8131726302,20500,2018-04-17 05:03:41,18,0,15.948,6003.1953266167,209.317592,0.447388,1.8131726302,0,0,-11.1847,295.2, 2, -2.1,0,1,1024,1024,1684,1024,296.6,-9.8,98,4.015,4.03,4.02,4.019,0,0,17.636,76.91,6,P-GPS,
0.350522958485878,36.8971117139921,6004.8357466167,210.958012,0,1.8482940224,20600,2018-04-17 05:03:41,18,0,15.948,6004.8357466167,210.958012,0.447388,1.8482940224,0,0,-10.961006,295.3, 2.2, -2,0,1,1024,1024,1684,1024,296.6,-9.8,98,4.015,4.03,4.02,4.019,0,0,17.636,76.91,6,P-GPS,
0.350522956977125,36.8971117799018,6006.4761666167,212.598432,0,1.8722441544,20700,2018-04-17 05:03:41,18,0,15.948,6006.4761666167,212.598432,0.447388,1.8722441544,0,0,-10.961006,295.3, 2.3, -1.9,0,1,1024,1024,1684,1024,296.5,-9.8,98,4.015,4.03,4.02,4.019,0,0,17.636,76.91,6,P-GPS,
0.350522957025978,36.8971118478028,6008.1165866167,214.238852,0,1.89685373524,20800,2018-04-17 05:03:41,18,0,15.948,6008.1165866167,214.238852,0.447388,1.89685373524,0,0,-10.961006,295.3, 2.3, -1.9,0,1,1024,1024,1684,1024,296.5,-9.8,98,4.015,4.03,4.02,4.019,0,0,17.636,76.91,6,P-GPS,
0.350522962841762,36.8971118912623,6009.7570066167,215.879272,0,1.91237210844,20900,2018-04-17 05:03:42,18,0,15.948,6009.7570066167,215.879272,0.447388,1.91237210844,0,0,-10.961006,295.3, 2.2, -1.9,0,1,1024,1024,1684,1024,296.5,-9.8,98,4.015,4.03,4.02,4.019,0,0,17.636,76.91,6,P-GPS,
0.350522932380089,36.8971120124066,6011.3974266167,217.519692,0,1.95753943272,21000,2018-04-17 05:03:42,18,0,15.948,6011.3974266167,217.519692,0.447388,1.95753943272,0,0,-10.961006,295.3, 2.3, -1.9,0,1,1024,1024,1684,1024,296.5,-9.8,98,4.015,4.03,4.02,4.019,0,0,17.636,76.91,6,P-GPS,
0.350522909983284,36.8971121032933,6013.0378466167,219.160112,0,1.9914206674,21100,2018-04-17 05:03:42,18,0,15.948,6013.0378466167,219.160112,0.447388,1.9914206674,0,0,-10.961006,295.3, 2.2, -1.8,0,1,1024,1024,1684,1024,296.5,-9.8,98,4.015,4.03,4.02,4.019,0,0,17.636,76.91,6,P-GPS,
0.350522890255296,36.8971122346465,6014.6782666167,220.800532,0,2.03985570832,21200,2018-04-17 05:03:42,18,0,15.948,6014.6782666167,220.800532,0.447388,2.03985570832,0,0,-10.961006,295.2, 2.3, -2,0,1,1024,1024,1684,1024,296.5,-9.8,98,4.015,4.03,4.02,4.019,0,0,17.636,76.91,6,P-GPS,
0.350522884024869,36.8971123239736,6016.3186866167,222.440952,0,2.0724902238,21300,2018-04-17 05:03:42,18,0,15.948,6016.3186866167,222.440952,0.447388,2.0724902238,0,0,-10.961006,295.2, 2.4, -2,0,1,1024,1024,1684,1024,296.4,-9.8,98,4.015,4.03,4.02,4.019,0,0,17.636,76.91,6,P-GPS,
0.350522876945616,36.8971124127585,6017.9591066167,224.081372,0,2.10496397812,21400,2018-04-17 05:03:42,18,0,15.948,6017.9591066167,224.081372,0.447388,2.10496397812,0,0,-10.961006,295.2, 2.4, -2.1,0,1,1024,1024,1684,1024,296.4,-9.8,98,4.015,4.03,4.02,4.019,0,0,17.636,76.91,6,P-GPS,
0.350522873093735,36.8971124697076,6019.5995266167,225.721792,0,2.12576450372,21500,2018-04-17 05:03:42,18,0,16.001,6019.5995266167,225.721792,0.447388,2.12576450372,0,0,-10.961006,295.2, 2.3, -1.9,0,1,1024,1024,1684,1024,296.4,-9.8,98,4.012,4.026,4.014,4.011,0,0,17.738,76.91,6,P-GPS,
0.350522836201337,36.8971125359099,6021.5680306167,227.690296,0,2.15133208984,21600,2018-04-17 05:03:42,18,0,16.001,6021.5680306167,227.690296,0.447388,2.15133208984,0,0,-10.961006,295.2, 2.4, -1.8,0,1,1024,1024,1684,1024,296.4,-9.8,98,4.012,4.026,4.014,4.011,0,0,17.738,76.91,6,P-GPS,
0.350522817847144,36.8971125791805,6023.2084506167,229.330716,0,2.16781503,21700,2018-04-17 05:03:42,18,0,16.001,6023.2084506167,229.330716,0.447388,2.16781503,0,0,-10.961006,295.2, 2.4, -1.9,0,1,1024,1024,1684,1024,296.4,-9.8,98,4.012,4.026,4.014,4.011,0,0,17.738,76.91,6,P-GPS,
