latitude,longitude,altitude(feet),ascent(feet),speed(mph),distance(feet),time(millisecond),datetime(utc),satellites,gpslevel,voltage(v),max_altitude(feet),max_ascent(feet),max_speed(mph),max_distance(feet), xSpeed(mph), ySpeed(mph), zSpeed(mph), compass_heading(degrees), pitch(degrees), roll(degrees),isPhoto,isVideo,rc_elevator,rc_aileron,rc_throttle,rc_rudder,gimbal_heading(degrees),gimbal_pitch(degrees),battery_percent,voltageCell1,voltageCell2,voltageCell3,voltageCell4,voltageCell5,voltageCell6,current(A),battery_temperature(f),flycStateRaw,flycState,message
0.0065432115203173,36.9003265759097,5918.4435237078,0,0,0,0,2018-04-12 09:04:51,10,0,0,5918.4435237078,0,0,0,0,0,0,44.4, -0.7, 1.3,0,0,364,364,364,1684,0,0,99,4.303,4.304,4.304,4.304,0,0,0,76.91,41,Motors_Started,
0.00654324448450202,36.9003265801618,5918.4435237078,0,0,0.0121266079996,100,2018-04-12 09:04:51,10,0,0,5918.4435237078,0,0,0.0121266079996,0,0,0,44.4, -0.7, 1.3,0,0,364,364,364,1684,49,0,99,4.303,4.304,4.304,4.304,0,0,0,76.91,41,Motors_Started,
0.00654327033482914,36.9003265851187,5918.4435237078,0,0,0.0217198825848,200,2018-04-12 09:04:52,10,0,0,5918.4435237078,0,0,0.0217198825848,0,0,0,44.4, -0.7, 1.3,0,0,364,364,364,1684,49,0,99,4.303,4.304,4.304,4.304,0,0,0,76.91,41,Motors_Started,
0.00654328823875667,36.9003265885979,5918.4435237078,0,0,0.028370899858,300,2018-04-12 09:04:52,10,0,0,5918.4435237078,0,0,0.028370899858,0,0,0,44.5, -0.7, 1.3,0,0,364,364,364,1684,49,0,99,4.303,4.304,4.304,4.304,0,0,0,76.91,41,Motors_Started,
0.00654332369568203,36.9003265920823,5918.4435237078,0,0,0.041350395024,400,2018-04-12 09:04:52,10,0,0,5918.4435237078,0,0,0.041350395024,0,0,0,44.4, -0.7, 1.3,0,0,364,364,364,1684,49,0,99,4.303,4.304,4.304,4.304,0,0,0,76.91,41,Motors_Started,
0.00654336085392426,36.9003265947646,5918.4435237078,0,0,0.054916996508,500,2018-04-12 09:04:52,10,0,0,5918.4435237078,0,0,0.054916996508,0,0,0,44.4, -0.7, 1.3,0,0,364,364,364,1684,49,0,99,4.303,4.304,4.304,4.304,0,0,0,76.91,41,Motors_Started,
0.00654338867833262,36.9003265973485,5918.4435237078,0,0,0.065107613632,600,2018-04-12 09:04:52,10,0,0,5918.4435237078,0,0,0.065107613632,0,0,0,44.4, -0.7, 1.3,0,0,364,364,364,1684,49,0,99,4.303,4.304,4.304,4.304,0,0,0,76.91,41,Motors_Started,
0.00654340911734033,36.900326599583,5918.4435237078,0,0,0.072608598124,700,2018-04-12 09:04:52,10,0,0,5918.4435237078,0,0,0.072608598124,0,0,0,44.4, -0.7, 1.3,0,0,364,364,364,1684,49,0,99,4.303,4.304,4.304,4.304,0,0,0,76.91,41,Motors_Started,
0.00654341826105338,36.900326600824,5918.4435237078,0,0,0.075975068048,800,2018-04-12 09:04:52,10,0,17.186,5918.4435237078,0,0,0.075975068048,0,0,0,44.4, -0.7, 1.3,0,0,364,364,364,1684,49,0,99,4.303,4.304,4.304,4.304,0,0,1.494,76.91,41,Motors_Started,Setting new Return-To-Home altitude to 45m (148 ft). Setting new Maximum Flight Altitude to 150m (492 ft)
0.00654342635116315,36.9003266015766,5918.4435237078,0,0,0.078938322736,900,2018-04-12 09:04:52,10,0,17.186,5918.4435237078,0,0,0.078938322736,0,0,0,44.4, -0.7, 1.3,0,0,364,364,364,1684,49,0,99,4.303,4.304,4.304,4.304,0,0,1.494,76.91,41,Motors_Started,
0.0065433972276636,36.9003266279002,5918.4435237078,0,0,0.070360238472,1000,2018-04-12 09:04:52,10,0,17.186,5918.4435237078,0,0,0.078938322736,0,0,0,44.4, -0.7, 1.2,0,0,364,364,364,1684,49,0,99,4.303,4.304,4.304,4.304,0,0,1.494,76.91,41,Motors_Started,
0.00654336810945649,36.9003266572704,5918.4435237078,0,0,0.064382876076,1100,2018-04-12 09:04:52,10,0,17.186,5918.4435237078,0,0,0.078938322736,0,0,0,44.4, -0.7, 1.3,0,0,364,364,377,1676,48.9,0,99,4.303,4.304,4.304,4.304,0,0,1.494,76.91,41,Motors_Started,
0.0065433571874826,36.9003266851568,5918.4435237078,0,0,0.066432416824,1200,2018-04-12 09:04:53,10,0,17.186,5918.4435237078,0,0,0.078938322736,0,0,0,44.4, -0.7, 1.3,0,0,539,509,549,1523,48.9,0,99,4.303,4.304,4.304,4.304,0,0,1.494,76.91,41,Motors_Started,
0.0065433652857346,36.9003267034686,5918.4435237078,0,0,0.072892390784,1300,2018-04-12 09:04:53,10,0,17.186,5918.4435237078,0,0,0.078938322736,0,0,0,44.4, -0.7, 1.3,0,0,813,803,836,1198,48.6,0,99,4.303,4.304,4.304,4.304,0,0,1.494,76.91,41,Motors_Started,
0.00654334201689833,36.9003267175553,5918.4435237078,0,0,0.070268046868,1400,2018-04-12 09:04:53,10,0,17.186,5918.4435237078,0,0,0.078938322736,0,0,0,44.4, -0.7, 1.2,0,0,1024,1024,1024,1024,48.6,0,99,4.303,4.304,4.304,4.304,0,0,1.494,76.91,41,Motors_Started,
0.00654331583274019,36.9003267274284,5918.4435237078,0,0,0.067115487712,1500,2018-04-12 09:04:53,10,0,17.186,5918.4435237078,0,0,0.078938322736,0,0,0,44.5, -0.7, 1.3,0,0,1024,1024,1024,1024,47.4,0,99,4.303,4.304,4.304,4.304,0,0,1.494,76.91,10,Assisted_Takeoff,
0.00654332333661013,36.9003267931939,5918.4435237078,0,0,0.089157155084,1700,2018-04-12 09:04:53,10,0,17.186,5918.4435237078,0,0,0.089157155084,0,0,0,44.4, -0.7, 1.3,0,0,1024,1024,1024,1024,45.8,0,99,4.303,4.304,4.304,4.304,0,0,1.494,76.91,10,Assisted_Takeoff,
0.00654330710468748,36.900326820521,5918.4435237078,0,0,0.095817916452,1800,2018-04-12 09:04:53,10,0,17.186,5918.4435237078,0,0,0.095817916452,0,0,0,44.4, -0.7, 1.3,0,0,1024,1024,1024,1024,45.5,0,99,4.296,4.296,4.294,4.304,0,0,2.492,76.91,10,Assisted_Takeoff,
0.00654328434351862,36.9003268392247,5918.4435237078,0,0,0.09967684046,1900,2018-04-12 09:04:53,10,0,17.186,5918.4435237078,0,0,0.09967684046,0,0,0,44.4, -0.7, 1.3,0,0,1024,1024,1024,1024,45.3,0,99,4.296,4.296,4.294,4.304,0,0,2.492,76.91,10,Assisted_Takeoff,
0.00654328601715194,36.9003268496789,5918.4435237078,0,0,0.103516407512,2000,2018-04-12 09:04:53,10,0,17.186,5918.4435237078,0,0,0.103516407512,0,0,0,44.3, -0.7, 1.3,0,0,1024,1024,1024,1024,45.2,0,99,4.296,4.296,4.294,4.304,0,0,2.492,76.91,10,Assisted_Takeoff,
0.00654330003805476,36.9003268577191,5918.4435237078,0,0,0.10777067274,2100,2018-04-12 09:04:53,10,0,17.186,5918.4435237078,0,0,0.10777067274,0,0,0,44.4, -0.7, 1.3,0,0,1024,1024,1060,1024,45.1,0,99,4.296,4.296,4.294,4.304,0,0,2.492,76.91,10,Assisted_Takeoff,
0.00654331545209141,36.9003268569912,5918.4435237078,0,0,0.109338258092,2200,2018-04-12 09:04:54,10,0,17.186,5918.4435237078,0,0,0.109338258092,0,0,0,44.3, -0.7, 1.3,0,0,1024,1024,1224,1024,45,0,99,4.296,4.296,4.294,4.304,0,0,2.492,76.91,10,Assisted_Takeoff,
0.00654332418787923,36.9003268583854,5918.4435237078,0,0,0.11095636838,2300,2018-04-12 09:04:54,10,0,17.186,5918.4435237078,0,0,0.11095636838,0,0,0,44.3, -0.7, 1.3,0,0,1024,1024,1424,1024,45,0,99,4.296,4.296,4.294,4.304,0,0,2.492,76.91,10,Assisted_Takeoff,
0.00654330515462579,36.9003268517797,5918.4435237078,0,0,0.106290685816,2400,2018-04-12 09:04:54,10,0,17.186,5918.4435237078,0,0,0.11095636838,0,0,0,44.3, -0.6, 1.2,0,0,1024,1024,1606,1024,44.9,0,99,4.296,4.296,4.294,4.304,0,0,2.492,76.91,10,Assisted_Takeoff,
0.00654327974235011,36.9003268487318,5918.4435237078,0,0,0.102604005908,2500,2018-04-12 09:04:54,10,0,17.186,5918.4435237078,0,0,0.11095636838,0,0,0,44.3, -0.6, 1.2,0,0,1024,1024,1684,1036,44.9,0,99,4.296,4.296,4.294,4.304,0,0,2.492,76.91,10,Assisted_Takeoff,
0.00654325294141881,36.9003268431623,5918.4435237078,0,0,0.098671263,2600,2018-04-12 09:04:54,10,0,17.186,5918.4435237078,0,0,0.11095636838,0,0,0,44.2, -0.6, 1.1,0,0,1024,1024,1684,1052,44.9,0,99,4.296,4.296,4.294,4.304,0,0,2.492,76.91,10,Assisted_Takeoff,
0.00654323513356948,36.9003268420403,5918.4435237078,0,0,0.097479005744,2700,2018-04-12 09:04:54,10,0,17.186,5918.4435237078,0,0,0.11095636838,0,0,0,44.2, -0.1, 0.6,0,0,1024,1024,1684,1024,44.9,0,99,4.296,4.296,4.294,4.304,0,0,2.492,76.91,10,Assisted_Takeoff,
0.00654322428446846,36.900326838719,5918.4435237078,0,0,0.09599901882,2800,2018-04-12 09:04:54,10,0,17.186,5918.4435237078,0,0,0.11095636838,0,0,-0.447388,44.3, 0.4, 0.4,0,0,1024,1024,1684,1024,44.8,0,99,4.296,4.296,4.294,4.304,0,0,2.868,78.71,6,P-GPS,
0.00654321436480186,36.9003268349798,5918.4435237078,0,0,0.094527233996,2900,2018-04-12 09:04:54,10,0,17.186,5918.4435237078,0,0,0.11095636838,0,0,-0.894776,44.4, 0.9, -0.1,0,0,1024,1024,1684,1025,44.8,0,99,4.296,4.296,4.294,4.304,0,0,2.868,78.71,6,P-GPS,Home Point Recorded. RTH Altitude:  45m.
0.0065432009272891,36.9003268067623,5918.4435237078,0,0,0.084314963328,3000,2018-04-12 09:04:54,10,0,17.186,5918.4435237078,0,0,0.11095636838,0,0,-1.565858,44.5, 0.4, 0,0,0,1024,1024,1684,1029,44.8,0,99,4.296,4.296,4.294,4.304,0,0,2.868,78.71,6,P-GPS,Obstacle Avoided. Revise Flight Route
0.00654319241378389,36.9003267601377,5918.7716077078,0.328084,0,0.067576117648,3100,2018-04-12 09:04:54,10,0,17.186,5918.7716077078,0.328084,0,0.11095636838,0,0,-2.460634,44.6, 0.3, 0.3,0,0,1024,1024,1684,1030,44.8,0,99,4.296,4.296,4.294,4.304,0,0,2.868,78.71,6,P-GPS,
0.00654316096975164,36.9003267337917,5919.4277757078,0.984252,0,0.060483597736,3200,2018-04-12 09:04:55,10,0,17.186,5919.4277757078,0.984252,0,0.11095636838,0,0,-3.35541,44.6, 0.4, 0.5,0,0,1024,1024,1684,1029,44.8,0,99,4.296,4.296,4.294,4.304,0,0,2.868,78.71,6,P-GPS,
0.00654311101438226,36.9003266988656,5919.7558597078,1.312336,0,0.057940618652,3300,2018-04-12 09:04:55,10,0,17.186,5919.7558597078,1.312336,0,0.11095636838,0,0,-4.250186,44.5, 0.2, 0.2,0,0,1024,1024,1684,1028,44.8,0,99,4.296,4.296,4.294,4.304,0,0,2.868,78.71,6,P-GPS,
0.00654305576168455,36.9003266389709,5920.4120277078,1.968504,0,0.061309385164,3400,2018-04-12 09:04:55,10,0,17.186,5920.4120277078,1.968504,0,0.11095636838,0,0,-5.144962,44.6, -0.1, 0,0,0,1024,1024,1684,1026,44.8,0,99,4.296,4.296,4.294,4.304,0,0,2.868,78.71,6,P-GPS,
0.00654301263641641,36.9003265397425,5921.3962797078,2.952756,0.223694,0.073752627032,3500,2018-04-12 09:04:55,10,0,17.186,5921.3962797078,2.952756,0.223694,0.11095636838,0,-0.223694,-6.487126,44.4, -0.3, 0,0,0,1024,1024,1684,1024,44.8,0,99,4.296,4.296,4.294,4.304,0,0,2.868,78.71,6,P-GPS,
0.00654296923431278,36.9003263795429,5922.3805317078,3.937008,0.223694,0.113785436712,3600,2018-04-12 09:04:55,10,0,17.186,5922.3805317078,3.937008,0.223694,0.113785436712,0,-0.223694,-7.605596,44.5, 0, 0.8,0,0,1024,1024,1684,1024,44.8,0,99,4.296,4.296,4.294,4.304,0,0,2.868,78.71,6,P-GPS,
0.0065428999102305,36.900326173314,5923.6928677078,5.249344,0.223694,0.185745412768,3700,2018-04-12 09:04:55,10,0,17.186,5923.6928677078,5.249344,0.223694,0.185745412768,0,-0.223694,-8.724066,44.3, -1.2, 1.3,0,0,1024,1024,1684,1024,44.8,0,99,4.296,4.296,4.294,4.304,0,0,2.868,78.71,6,P-GPS,
0.00654280937281538,36.9003259389402,5925.0052037078,6.56168,0.223694,0.27483924764,3800,2018-04-12 09:04:55,10,0,16.66,5925.0052037078,6.56168,0.223694,0.27483924764,0,-0.223694,-9.618842,44.4, -2.2, 1.4,0,0,1024,1024,1684,1024,44.8,0,99,4.294,4.294,4.29,4.286,0,0,2.868,78.71,6,P-GPS,
0.00654271971231735,36.9003257157312,5926.6456237078,8.2021,0.223694,0.36150919792,3900,2018-04-12 09:04:55,10,0,16.66,5926.6456237078,8.2021,0.223694,0.36150919792,0,-0.223694,-10.513618,44.3, -3.2, 1.7,0,0,1024,1024,1684,1024,44.8,0,99,4.294,4.294,4.29,4.286,0,0,2.868,78.71,6,P-GPS,
0.00654260363235103,36.9003254841404,5928.2860437078,9.84252,0.223694,0.45591536892,4000,2018-04-12 09:04:55,10,0,16.66,5928.2860437078,9.84252,0.223694,0.45591536892,0,-0.223694,-10.961006,44.2, -3.5, 2.2,0,0,1024,1024,1684,1024,44.8,0,99,4.294,4.294,4.29,4.286,0,0,2.868,78.71,6,P-GPS,
0.00654248829291962,36.9003252867655,5929.9264637078,11.48294,0.223694,0.5393044792,4100,2018-04-12 09:04:55,10,0,16.66,5929.9264637078,11.48294,0.223694,0.5393044792,0,-0.223694,-11.1847,44.2, -3.3, 2.4,0,0,1024,1024,1684,1024,44.8,0,99,4.294,4.294,4.29,4.286,0,0,2.868,78.71,6,P-GPS,
0.00654232360878532,36.9003251124065,5931.5668837078,13.12336,0,0.62454726408,4200,2018-04-12 09:04:56,10,0,16.66,5931.5668837078,13.12336,0.223694,0.62454726408,0,0,-11.408394,44.2, -4, 2.2,0,0,1024,1024,1684,1024,44.8,0,99,4.294,4.294,4.29,4.286,0,0,2.868,78.71,6,P-GPS,
0.00654216414096426,36.9003249813895,5933.2073037078,14.76378,0,0.69604004852,4300,2018-04-12 09:04:56,10,0,16.66,5933.2073037078,14.76378,0.223694,0.69604004852,0,0,-11.408394,44.1, -4.3, 1.5,0,0,1024,1024,1684,1024,44.8,0,99,4.294,4.294,4.29,4.286,0,0,2.868,78.71,6,P-GPS,
0.00654200938341746,36.9003249094419,5934.8477237078,16.4042,0,0.74969818672,4400,2018-04-12 09:04:56,10,0,16.66,5934.8477237078,16.4042,0.223694,0.74969818672,0,0,-11.1847,44.2, -3.9, 0.7,0,0,1024,1024,1684,1024,44.7,0,99,4.294,4.294,4.29,4.286,0,0,2.868,78.71,6,P-GPS,
0.00654190556848421,36.9003248641377,5936.4881437078,18.04462,0,0.78554464456,4500,2018-04-12 09:04:56,10,0,16.66,5936.4881437078,18.04462,0.223694,0.78554464456,0,0,-10.961006,44.3, -3, 0,0,0,1024,1024,1684,1024,44.7,0,99,4.294,4.294,4.29,4.286,0,0,2.868,78.71,6,P-GPS,
0.00654185745488499,36.9003248320188,5937.8004797078,19.356956,0,0.80553808352,4600,2018-04-12 09:04:56,10,0,16.66,5937.8004797078,19.356956,0.223694,0.80553808352,0,0,-10.961006,44.4, -1.9, 0.8,0,0,1024,1024,1684,1025,44.7,0,99,4.294,4.294,4.29,4.286,0,0,2.868,78.71,6,P-GPS,
0.00654183184963869,36.9003247629279,5939.4408997078,20.997376,0.223694,0.8312172182,4700,2018-04-12 09:04:56,10,0,16.66,5939.4408997078,20.997376,0.223694,0.8312172182,0,-0.223694,-10.737312,44.3, -2.4, 1.8,0,0,1024,1024,1684,1025,44.7,0,99,4.294,4.294,4.29,4.286,0,0,2.868,78.71,6,P-GPS,
0.00654183991002937,36.9003247407352,5941.0813197078,22.637796,0,0.8359088194,4800,2018-04-12 09:04:56,10,0,16.424,5941.0813197078,22.637796,0.223694,0.8359088194,0,0,-10.513618,44.2, -3.6, 1.9,0,0,1024,1024,1684,1024,44.7,0,99,4.133,4.138,4.131,4.135,0,0,21.522,78.71,6,P-GPS,
0.00654184573497354,36.9003247237228,5942.7217397078,24.278216,0,0.83962601112,4900,2018-04-12 09:04:56,10,0,16.424,5942.7217397078,24.278216,0.223694,0.83962601112,0,0,-10.513618,44.2, -4.3, 1.8,0,0,1024,1024,1684,1024,44.7,0,99,4.133,4.138,4.131,4.135,0,0,21.522,78.71,6,P-GPS,
0.00654185834523674,36.9003247309323,5944.0340757078,25.590552,0,0.83478021044,5000,2018-04-12 09:04:56,10,0,16.424,5944.0340757078,25.590552,0.223694,0.83962601112,0,0,-10.513618,44.2, -4.1, 1.3,0,0,1024,1024,1684,1024,44.7,0,99,4.133,4.138,4.131,4.135,0,0,21.522,78.71,6,P-GPS,
0.00654185876700374,36.9003247233352,5945.6744957078,27.230972,0,0.83692916064,5100,2018-04-12 09:04:56,10,0,16.424,5945.6744957078,27.230972,0.223694,0.83962601112,0,0,-10.513618,44.2, -3.5, 1.2,0,0,1024,1024,1684,1024,44.7,0,99,4.133,4.138,4.131,4.135,0,0,21.522,78.71,6,P-GPS,
0.00654190897478194,36.9003247535671,5947.3149157078,28.871392,0,0.81726052484,5200,2018-04-12 09:04:57,10,0,16.424,5947.3149157078,28.871392,0.223694,0.83962601112,0,0,-10.513618,44.3, -3.2, 1.4,0,0,1024,1024,1684,1024,44.7,0,99,4.133,4.138,4.131,4.135,0,0,21.522,78.71,6,P-GPS,
0.00654195906694062,36.9003247881746,5948.6272517078,30.183728,0,0.79639438244,5300,2018-04-12 09:04:57,10,0,16.424,5948.6272517078,30.183728,0.223694,0.83962601112,0,0,-10.513618,44.3, -3.5, 1.4,0,0,1024,1024,1684,1024,44.7,0,99,4.133,4.138,4.131,4.135,0,0,21.522,78.71,6,P-GPS,
0.006542018738014,36.9003248226823,5950.2676717078,31.824148,0,0.77366472292,5400,2018-04-12 09:04:57,10,0,16.424,5950.2676717078,31.824148,0.223694,0.83962601112,0,0,-10.513618,44.3, -3.8, 1.6,0,0,1024,1024,1684,1024,44.7,0,99,4.133,4.138,4.131,4.135,0,0,21.522,78.71,6,P-GPS,
0.00654204397441773,36.9003248448983,5951.9080917078,33.464568,0,0.76179136296,5500,2018-04-12 09:04:57,10,0,16.424,5951.9080917078,33.464568,0.223694,0.83962601112,0,0,-10.289924,44.3, -4, 1.4,0,0,1024,1024,1684,1024,44.7,0,99,4.133,4.138,4.131,4.135,0,0,21.522,78.71,6,P-GPS,
0.00654207093900765,36.9003248917507,5953.2204277078,34.776904,0,0.74211944632,5600,2018-04-12 09:04:57,10,0,16.424,5953.2204277078,34.776904,0.223694,0.83962601112,0,0,-10.289924,44.3, -4, 0.9,0,0,1024,1024,1684,1024,44.7,0,99,4.133,4.138,4.131,4.135,0,0,21.522,78.71,6,P-GPS,
0.00654209575079461,36.9003249480501,5954.8608477078,36.417324,0,0.7200459548,5700,2018-04-12 09:04:57,10,0,16.424,5954.8608477078,36.417324,0.223694,0.83962601112,0,0,-10.513618,44.3, -3.6, 0.6,0,0,1024,1024,1684,1024,44.7,0,99,4.133,4.138,4.131,4.135,0,0,21.522,78.71,6,P-GPS,
0.00654211533201945,36.9003249798878,5956.5012677078,38.057744,0,0.70642718796,5800,2018-04-12 09:04:57,10,0,16.555,5956.5012677078,38.057744,0.223694,0.83962601112,0,0,-10.513618,44.3, -3.2, 0.6,0,0,1024,1024,1684,1024,44.7,0,99,4.16,4.164,4.159,4.163,0,0,17.114,78.71,6,P-GPS,
0.00654213306211058,36.9003249956611,5957.8136037078,39.37008,0,0.69802167588,5900,2018-04-12 09:04:57,10,0,16.555,5957.8136037078,39.37008,0.223694,0.83962601112,0,0,-10.513618,44.3, -3, 0.5,0,0,1024,1024,1684,1024,44.7,0,99,4.16,4.164,4.159,4.163,0,0,17.114,78.71,6,P-GPS,
0.0065421527609905,36.9003249808082,5959.4540237078,41.0105,0,0.69850395936,6000,2018-04-12 09:04:57,10,0,16.555,5959.4540237078,41.0105,0.223694,0.83962601112,0,0,-10.513618,44.3, -3, 0.8,0,0,1024,1024,1684,1024,44.7,0,99,4.16,4.164,4.159,4.163,0,0,17.114,78.71,6,P-GPS,
0.00654218655527454,36.9003249690619,5961.0944437078,42.65092,0,0.69537075716,6100,2018-04-12 09:04:57,10,0,16.555,5961.0944437078,42.65092,0.223694,0.83962601112,0,0,-10.513618,44.2, -3, 1,0,0,1024,1024,1684,1024,44.7,0,99,4.16,4.164,4.159,4.163,0,0,17.114,78.71,6,P-GPS,
0.00654225263468216,36.9003249376554,5962.7348637078,44.29134,0,0.69257548148,6200,2018-04-12 09:04:58,10,0,16.555,5962.7348637078,44.29134,0.223694,0.83962601112,0,0,-10.513618,44.2, -3, 1.1,0,0,1024,1024,1684,1024,44.7,0,99,4.16,4.164,4.159,4.163,0,0,17.114,78.71,6,P-GPS,
0.00654234427984631,36.9003249121997,5964.0471997078,45.603676,0,0.68452101928,6300,2018-04-12 09:04:58,10,0,16.555,5964.0471997078,45.603676,0.223694,0.83962601112,0,0,-10.513618,44.2, -2.8, 1.4,0,0,1024,1024,1684,1024,44.7,0,99,4.16,4.164,4.159,4.163,0,0,17.114,78.71,6,P-GPS,
0.00654241571235646,36.9003248564671,5965.6876197078,47.244096,0,0.69126970716,6400,2018-04-12 09:04:58,10,0,16.555,5965.6876197078,47.244096,0.223694,0.83962601112,0,0,-10.737312,44.2, -2.6, 1.6,0,0,1024,1024,1684,1024,44.7,0,99,4.16,4.164,4.159,4.163,0,0,17.114,78.71,6,P-GPS,
0.00654246174602558,36.9003248092504,5967.3280397078,48.884516,0,0.70020999616,6500,2018-04-12 09:04:58,10,0,16.555,5967.3280397078,48.884516,0.223694,0.83962601112,0,0,-10.737312,44.3, -2.5, 1.7,0,0,1024,1024,1684,1024,44.7,0,99,4.16,4.164,4.159,4.163,0,0,17.114,78.71,6,P-GPS,
0.0065424854940315,36.9003247649593,5968.9684597078,50.524936,0,0.7118438548,6600,2018-04-12 09:04:58,10,0,16.555,5968.9684597078,50.524936,0.223694,0.83962601112,0,0,-10.961006,44.2, -2.4, 1.4,0,0,1024,1024,1684,1024,44.7,0,99,4.16,4.164,4.159,4.163,0,0,17.114,78.71,6,P-GPS,
0.0065425008026264,36.9003247451722,5970.6088797078,52.165356,0,0.71650920928,6700,2018-04-12 09:04:58,10,0,16.555,5970.6088797078,52.165356,0.223694,0.83962601112,0,0,-10.961006,44.3, -2.5, 1.2,0,0,1024,1024,1684,1024,44.7,0,99,4.16,4.164,4.159,4.163,0,0,17.114,78.71,6,P-GPS,
0.00654250556012554,36.9003247003629,5972.2492997078,53.805776,0,0.73116144072,6800,2018-04-12 09:04:58,10,0,16.476,5972.2492997078,53.805776,0.223694,0.83962601112,0,0,-10.961006,44.3, -2.9, 0.9,0,0,1024,1024,1684,1024,44.7,0,99,4.16,4.164,4.159,4.163,0,0,18.796,78.71,6,P-GPS,
0.00654251360911711,36.9003246643776,5973.8897197078,55.446196,0,0.74245081116,6900,2018-04-12 09:04:58,10,0,16.476,5973.8897197078,55.446196,0.223694,0.83962601112,0,0,-11.1847,44.2, -2.9, 0.5,0,0,1024,1024,1684,1024,44.7,0,99,4.16,4.164,4.159,4.163,0,0,18.796,78.71,6,P-GPS,
0.00654251753448136,36.900324629583,5975.5301397078,57.086616,0,0.75390750444,7000,2018-04-12 09:04:58,10,0,16.476,5975.5301397078,57.086616,0.223694,0.83962601112,0,0,-11.1847,44.3, -2.6, 0.5,0,0,1024,1024,1684,1024,44.7,0,99,4.16,4.164,4.159,4.163,0,0,18.796,78.71,6,P-GPS,
0.00654252475866604,36.9003246081788,5977.4986437078,59.05512,0,0.76039372512,7100,2018-04-12 09:04:58,10,0,16.476,5977.4986437078,59.05512,0.223694,0.83962601112,0,0,-11.408394,44.2, -2.4, 0.5,0,0,1024,1024,1684,1024,44.7,0,99,4.16,4.164,4.159,4.163,0,0,18.796,78.71,6,P-GPS,
0.00654254205925507,36.9003245793045,5979.1390637078,60.69554,0,0.76832023456,7200,2018-04-12 09:04:59,10,0,16.476,5979.1390637078,60.69554,0.223694,0.83962601112,0,0,-11.408394,44.2, -2.2, 0.8,0,0,1024,1024,1684,1024,44.7,0,99,4.16,4.164,4.159,4.163,0,0,18.796,78.71,6,P-GPS,
0.00654256136201598,36.9003245469012,5980.7794837078,62.33596,0,0.77735894876,7300,2018-04-12 09:04:59,10,0,16.476,5980.7794837078,62.33596,0.223694,0.83962601112,0,0,-11.408394,44.2, -2.5, 1.1,0,0,1024,1024,1684,1024,44.7,0,99,4.16,4.164,4.159,4.163,0,0,18.796,78.71,6,P-GPS,
0.00654255152173602,36.900324496513,5982.7479877078,64.304464,0,0.7959645924,7400,2018-04-12 09:04:59,10,0,16.476,5982.7479877078,64.304464,0.223694,0.83962601112,0,0,-11.632088,44.2, -3, 0.9,0,0,1024,1024,1684,1024,44.7,0,99,4.16,4.164,4.159,4.163,0,0,18.796,78.71,6,P-GPS,
0.00654252708937651,36.9003244453017,5984.3884077078,65.944884,0,0.81647640408,7500,2018-04-12 09:04:59,10,0,16.476,5984.3884077078,65.944884,0.223694,0.83962601112,0,0,-11.632088,44.2, -3, 0.7,0,0,1024,1024,1684,1024,44.7,0,99,4.16,4.164,4.159,4.163,0,0,18.796,78.71,6,P-GPS,
0.00654249477534806,36.900324384174,5986.3569117078,67.913388,0,0.84132548624,7600,2018-04-12 09:04:59,10,0,16.476,5986.3569117078,67.913388,0.223694,0.84132548624,0,0,-11.632088,44.3, -3, 0.4,0,0,1024,1024,1684,1048,44.7,0,99,4.16,4.164,4.159,4.163,0,0,18.796,78.71,6,P-GPS,
0.00654245949877287,36.9003243241934,5987.9973317078,69.553808,0,0.86614504084,7700,2018-04-12 09:04:59,10,0,16.476,5987.9973317078,69.553808,0.223694,0.86614504084,0,0,-11.632088,44.3, -3.3, 0.4,0,0,1024,1024,1684,1067,44.7,0,99,4.16,4.164,4.159,4.163,0,0,18.796,78.71,6,P-GPS,
0.00654243136740282,36.9003242523793,5989.9658357078,71.522312,0,0.89424871628,7800,2018-04-12 09:04:59,10,0,16.503,5989.9658357078,71.522312,0.223694,0.89424871628,0,0,-11.408394,44.3, -3.6, 0.5,0,0,1024,1024,1684,1068,44.7,0,99,4.143,4.147,4.142,4.146,0,0,18.796,78.71,6,P-GPS,
0.00654240787058439,36.9003241902169,5991.6062557078,73.162732,0,0.91847771968,7900,2018-04-12 09:04:59,10,0,16.503,5991.6062557078,73.162732,0.223694,0.91847771968,0,0,-11.632088,44.6, -3.5, 0.6,0,0,1024,1024,1684,1068,44.8,-0.3,99,4.143,4.147,4.142,4.146,0,0,18.796,78.71,6,P-GPS,
0.00654237440361759,36.9003241045474,5993.5747597078,75.131236,0,0.95199806196,8000,2018-04-12 09:04:59,10,0,16.503,5993.5747597078,75.131236,0.223694,0.95199806196,0,0,-11.632088,44.9, -3.6, 0.4,0,0,1024,1024,1684,1066,44.9,-2.5,99,4.143,4.147,4.142,4.146,0,0,18.796,78.71,6,P-GPS,
0.00654233438623481,36.9003240200428,5995.5432637078,77.09974,0,0.98589242,8100,2018-04-12 09:04:59,10,0,16.503,5995.5432637078,77.09974,0.223694,0.98589242,0,0,-11.408394,45.2, -3.7, 0.6,0,0,1024,1024,1684,1072,44.9,-2.5,99,4.143,4.147,4.142,4.146,0,0,18.796,78.71,6,P-GPS,
0.00654228658366839,36.9003239357364,5997.1836837078,78.74016,0,1.02066604316,8200,2018-04-12 09:05:00,10,0,16.503,5997.1836837078,78.74016,0.223694,1.02066604316,0,0,-11.408394,45.5, -3.8, 0.9,0,0,1024,1024,1684,1069,45,-12.9,99,4.143,4.147,4.142,4.146,0,0,18.796,78.71,6,P-GPS,
0.00654223471324887,36.9003238784853,5999.1521877078,80.708664,0,1.04669622772,8300,2018-04-12 09:05:00,10,0,16.503,5999.1521877078,80.708664,0.223694,1.04669622772,0,0,-11.408394,45.8, -3.6, 1.1,0,0,1024,1024,1684,1066,45.1,-18.5,99,4.143,4.147,4.142,4.146,0,0,18.796,78.71,6,P-GPS,
0.00654216753749133,36.9003238149367,6001.1206917078,82.677168,0,1.07694557252,8400,2018-04-12 09:05:00,10,0,16.503,6001.1206917078,82.677168,0.223694,1.07694557252,0,0,-11.632088,46.2, -3.4, 0.8,0,0,1024,1024,1684,1040,45.2,-22.5,99,4.143,4.147,4.142,4.146,0,0,18.796,78.71,6,P-GPS,
0.00654209068959067,36.9003237584652,6003.0891957078,84.645672,0,1.10629596716,8500,2018-04-12 09:05:00,10,0,16.503,6003.0891957078,84.645672,0.223694,1.10629596716,0,0,-11.632088,46.4, -3.7, 0.3,0,0,1024,1024,1684,1034,45.2,-22.5,99,4.143,4.147,4.142,4.146,0,0,18.796,78.71,6,P-GPS,
0.00654198640525844,36.900323692513,6005.0576997078,86.614176,0,1.14302497096,8600,2018-04-12 09:05:00,10,0,16.503,6005.0576997078,86.614176,0.223694,1.14302497096,0,0,-11.632088,46.4, -4, 0.2,0,0,1024,1024,1684,1044,45.3,-22.5,99,4.143,4.147,4.142,4.146,0,0,18.796,78.71,6,P-GPS,
0.00654188603407714,36.9003236455763,6006.6981197078,88.254596,0,1.17341867272,8700,2018-04-12 09:05:00,10,0,16.503,6006.6981197078,88.254596,0.223694,1.17341867272,0,0,-11.632088,46.4, -4.2, 0.3,0,0,1024,1024,1684,1047,45.3,-22.5,99,4.143,4.147,4.142,4.146,0,0,18.796,78.71,6,P-GPS,
0.0065418224376395,36.9003236198242,6008.6666237078,90.2231,0,1.1916667048,8800,2018-04-12 09:05:00,10,0,16.529,6008.6666237078,90.2231,0.223694,1.1916667048,0,0,-11.632088,46.4, -4.3, 0.4,0,0,1024,1024,1684,1051,45.3,-22.5,99,4.143,4.149,4.146,4.15,0,0,17.92,78.71,6,P-GPS,
0.00654178710732566,36.9003236227846,6010.6351277078,92.191604,0,1.19623363408,8900,2018-04-12 09:05:00,10,0,16.529,6010.6351277078,92.191604,0.223694,1.19623363408,0,0,-11.632088,46.4, -4.3, 0.1,0,0,1024,1024,1684,1054,45.4,-22.5,99,4.143,4.149,4.146,4.15,0,0,17.92,78.71,6,P-GPS,
0.0065417495558142,36.9003236052824,6012.6036317078,94.160108,0,1.20797576044,9000,2018-04-12 09:05:00,10,0,16.529,6012.6036317078,94.160108,0.223694,1.20797576044,0,0,-11.632088,46.5, -4, 0,0,0,1024,1024,1684,1053,45.4,-22.5,99,4.143,4.149,4.146,4.15,0,0,17.92,78.71,6,P-GPS,
0.00654171112738565,36.9003235773143,6014.5721357078,96.128612,0,1.22334649584,9100,2018-04-12 09:05:00,10,0,16.529,6014.5721357078,96.128612,0.223694,1.22334649584,0,0,-11.632088,46.6, -3.7, 0.2,0,0,1024,1024,1684,1048,45.4,-22.5,99,4.143,4.149,4.146,4.15,0,0,17.92,78.71,6,P-GPS,
0.00654165801853447,36.9003235245354,6016.5406397078,98.097116,0,1.24926841268,9200,2018-04-12 09:05:01,11,0,16.529,6016.5406397078,98.097116,0.223694,1.24926841268,0,0,-11.632088,46.8, -3.8, 0.6,0,0,1024,1024,1684,1040,45.4,-22.5,99,4.143,4.149,4.146,4.15,0,0,17.92,78.71,6,P-GPS,
0.00654159841992685,36.9003234862299,6018.5091437078,100.06562,0,1.27165686484,9300,2018-04-12 09:05:01,11,0,16.529,6018.5091437078,100.06562,0.223694,1.27165686484,0,0,-11.632088,46.9, -3.8, 0.6,0,0,1024,1024,1684,1033,45.5,-22.5,99,4.143,4.149,4.146,4.15,0,0,17.92,78.71,6,P-GPS,
0.00654151015011999,36.9003234303127,6020.4776477078,102.034124,0,1.30478678716,9400,2018-04-12 09:05:01,11,0,16.529,6020.4776477078,102.034124,0.223694,1.30478678716,0,0,-11.408394,46.9, -4.1, 0.6,0,0,1024,1024,1684,1037,45.5,-22.5,99,4.143,4.149,4.146,4.15,0,0,17.92,78.71,6,P-GPS,
0.00654142522025178,36.9003233968247,6022.4461517078,104.002628,0,1.3304462368,9500,2018-04-12 09:05:01,11,0,16.529,6022.4461517078,104.002628,0.223694,1.3304462368,0,0,-11.408394,46.9, -4.3, 0.4,0,0,1024,1024,1684,1040,45.6,-22.5,99,4.143,4.149,4.146,4.15,0,0,17.92,78.71,6,P-GPS,
0.00654134451945262,36.9003233712512,6024.0865717078,105.643048,0,1.35316933464,9600,2018-04-12 09:05:01,11,0,16.529,6024.0865717078,105.643048,0.223694,1.35316933464,0,0,-11.1847,46.9, -4.1, 0.4,0,0,1024,1024,1684,1033,45.6,-22.5,99,4.143,4.149,4.146,4.15,0,0,17.92,78.71,6,P-GPS,
0.00654129572557092,36.90032337721,6026.0550757078,107.611552,0,1.3603510934,9700,2018-04-12 09:05:01,11,0,16.529,6026.0550757078,107.611552,0.223694,1.3603510934,0,0,-11.1847,46.9, -3.8, 0.7,0,0,1024,1024,1684,1024,45.7,-22.5,99,4.143,4.149,4.146,4.15,0,0,17.92,78.71,6,P-GPS,
0.00654124226782561,36.9003233866401,6028.0235797078,109.580056,0,1.36754925636,9800,2018-04-12 09:05:01,11,0,16.45,6028.0235797078,109.580056,0.223694,1.36754925636,0,0,-11.1847,46.9, -3.6, 0.6,0,0,1024,1024,1684,1024,45.7,-22.5,99,4.145,4.15,4.145,4.147,0,0,17.238,78.71,6,P-GPS,
0.00654120263027739,36.9003234109894,6029.9920837078,111.54856,0,1.36769033248,9900,2018-04-12 09:05:01,11,0,16.45,6029.9920837078,111.54856,0.223694,1.36769033248,0,0,-11.408394,46.9, -3.6, 0.6,0,0,1024,1024,1684,1024,45.7,-22.5,99,4.145,4.15,4.145,4.147,0,0,17.238,78.71,6,P-GPS,
0.00654115542982814,36.9003234279925,6031.6325037078,113.18898,0,1.37179794416,10000,2018-04-12 09:05:01,11,0,16.45,6031.6325037078,113.18898,0.223694,1.37179794416,0,0,-11.408394,46.9, -3.9, 0.6,0,0,1024,1024,1684,961,45.8,-22.5,99,4.145,4.15,4.145,4.147,0,0,17.238,78.71,6,P-GPS,
0.00654111682919164,36.9003234517024,6033.6010077078,115.157484,0,1.3723589678,10100,2018-04-12 09:05:01,11,0,16.45,6033.6010077078,115.157484,0.223694,1.3723589678,0,0,-11.408394,46.9, -3.9, 0.8,0,0,1024,1024,1684,863,45.7,-22.5,99,4.145,4.15,4.145,4.147,0,0,17.238,78.71,6,P-GPS,
0.00654104826030026,36.9003234437424,6035.5695117078,117.125988,0,1.38883534628,10200,2018-04-12 09:05:02,11,0,16.45,6035.5695117078,117.125988,0.223694,1.38883534628,0,0,-11.408394,46.6, -3.6, 1,0,0,1024,1024,1684,776,45.1,-22.5,99,4.145,4.15,4.145,4.147,0,0,17.238,78.71,6,P-GPS,
0.00654097415225663,36.9003234443618,6037.2099317078,118.766408,0,1.40419295832,10300,2018-04-12 09:05:02,11,0,16.45,6037.2099317078,118.766408,0.223694,1.40419295832,0,0,-10.961006,45, -3.6, 0.8,0,0,1024,1024,1684,778,43.8,-22.5,99,4.145,4.15,4.145,4.147,0,0,17.238,78.71,6,P-GPS,
0.00654090616309132,36.9003234290885,6039.1784357078,120.734912,0,1.42324807704,10400,2018-04-12 09:05:02,11,0,16.45,6039.1784357078,120.734912,0.223694,1.42324807704,0,0,-11.1847,41.7, -3.6, 0.6,0,0,1024,1024,1684,811,43.8,-22.5,99,4.145,4.15,4.145,4.147,0,0,17.238,78.71,6,P-GPS,
0.00654087037559182,36.900323433029,6040.8188557078,122.375332,0,1.42984912712,10500,2018-04-12 09:05:02,11,0,16.45,6040.8188557078,122.375332,0.223694,1.42984912712,0,0,-11.1847,37.8, -3.8, 1,0,0,1024,1024,1684,873,40.4,-22.5,99,4.145,4.15,4.145,4.147,0,0,17.238,78.71,6,P-GPS,
0.00654083163898024,36.9003234167191,6042.7873597078,124.343836,0,1.44308403568,10600,2018-04-12 09:05:02,11,0,16.45,6042.7873597078,124.343836,0.223694,1.44308403568,0,0,-11.1847,34.4, -4.1, 1.4,0,0,1024,1024,1684,938,38.3,-22.5,99,4.145,4.15,4.145,4.147,0,0,17.238,78.71,6,P-GPS,
0.00654080706413188,36.9003234283059,6044.7558637078,126.31234,0,1.44513456068,10700,2018-04-12 09:05:02,11,0,16.45,6044.7558637078,126.31234,0.223694,1.44513456068,0,0,-11.1847,32, -4, 1.6,0,0,1024,1024,1684,965,38.3,-22.5,99,4.145,4.15,4.145,4.147,0,0,17.238,78.71,6,P-GPS,
0.00654080502450578,36.9003234322707,6046.3962837078,127.95276,0,1.4444390226,10800,2018-04-12 09:05:02,11,0,16.476,6046.3962837078,127.95276,0.223694,1.44513456068,0,0,-11.1847,30.9, -3.6, 1.6,0,0,1024,1024,1684,858,36.4,-22.5,99,4.145,4.15,4.145,4.147,0,0,17.238,78.71,6,P-GPS,
0.00654082109317692,36.9003234622475,6048.3647877078,129.921264,0,1.43219164688,10900,2018-04-12 09:05:02,11,0,16.476,6048.3647877078,129.921264,0.223694,1.44513456068,0,0,-11.1847,30.4, -3, 1.3,0,0,1024,1024,1684,788,35.8,-22.5,99,4.145,4.15,4.145,4.147,0,0,17.238,78.71,6,P-GPS,
0.0065408427303123,36.9003234650034,6050.3332917078,131.889768,0,1.42659781468,11000,2018-04-12 09:05:02,11,0,16.476,6050.3332917078,131.889768,0.223694,1.44513456068,0,0,-11.1847,29.1, -2.9, 1.3,0,0,1024,1024,1684,843,34.7,-22.6,99,4.145,4.15,4.145,4.147,0,0,17.238,78.71,6,P-GPS,
0.00654090479845525,36.9003234763025,6053.9422157078,135.498692,0,1.40968508448,11200,2018-04-12 09:05:03,11,0,16.476,6053.9422157078,135.498692,0.223694,1.44513456068,0,0,-11.1847,22.3, -3.1, 2.1,0,0,1024,1024,1684,905,32.9,-22.6,99,4.145,4.15,4.145,4.147,0,0,17.238,78.71,6,P-GPS,
0.00654095356302496,36.9003235087394,6055.5826357078,137.139112,0,1.38958665864,11300,2018-04-12 09:05:03,11,0,16.476,6055.5826357078,137.139112,0.223694,1.44513456068,0,0,-11.1847,19.2, -3.1, 2.4,0,0,1024,1024,1684,905,30.7,-22.6,99,4.145,4.15,4.145,4.147,0,0,17.238,78.71,6,P-GPS,
0.00654102942978811,36.9003235505977,6057.5511397078,139.107616,0,1.36094492544,11400,2018-04-12 09:05:03,11,0,16.476,6057.5511397078,139.107616,0.223694,1.44513456068,0,0,-11.1847,17.3, -2.6, 2.5,0,0,1024,1024,1684,836,28.1,-22.7,99,4.145,4.15,4.145,4.147,0,0,17.238,78.71,6,P-GPS,
0.00654110442533372,36.9003236134757,6059.1915597078,140.748036,0,1.326361591,11500,2018-04-12 09:05:03,11,0,16.476,6059.1915597078,140.748036,0.223694,1.44513456068,0,0,-10.961006,16.1, -2.3, 2.2,0,0,1024,1024,1684,897,24.7,-22.6,99,4.145,4.15,4.145,4.147,0,0,17.238,78.71,6,P-GPS,
0.00654118323388095,36.9003236722923,6060.8319797078,142.388456,0,1.29225397836,11600,2018-04-12 09:05:03,11,0,16.476,6060.8319797078,142.388456,0.223694,1.44513456068,0,0,-11.1847,14.2, -2.3, 1.7,0,0,1024,1024,1684,943,20.9,-22.5,99,4.145,4.15,4.145,4.147,0,0,17.238,78.71,6,P-GPS,
0.00654125500103634,36.9003237232413,6062.8004837078,144.35696,0,1.26206696952,11700,2018-04-12 09:05:03,11,0,16.476,6062.8004837078,144.35696,0.223694,1.44513456068,0,0,-10.961006,12, -2.4, 2.2,0,0,1024,1024,1684,1013,16.8,-22.5,99,4.145,4.15,4.145,4.147,0,0,17.238,78.71,6,P-GPS,
0.00654136091259123,36.9003237512788,6064.4409037078,145.99738,0,1.23205056436,11800,2018-04-12 09:05:03,11,0,16.45,6064.4409037078,145.99738,0.223694,1.44513456068,0,0,-10.961006,10.9, -2.1, 3,0,0,1024,1024,1684,1024,13.8,-22.4,99,4.142,4.147,4.141,4.144,0,0,16.838,78.71,6,P-GPS,
0.00654147133493599,36.9003237914947,6066.0813237078,147.6378,0,1.19797247928,11900,2018-04-12 09:05:03,11,0,16.45,6066.0813237078,147.6378,0.223694,1.44513456068,0,0,-10.961006,10.3, -1.7, 3.5,0,0,1024,1024,1684,1024,16.4,-22.5,99,4.142,4.147,4.141,4.144,0,0,16.838,78.71,6,P-GPS,
0.00654157236604423,36.9003238293311,6068.0498277078,149.606304,0,1.1669783838,12000,2018-04-12 09:05:03,11,0,16.45,6068.0498277078,149.606304,0.223694,1.44513456068,0,0,-11.1847,10.3, -1.4, 3.3,0,0,1024,1024,1684,1024,19,-22.7,99,4.142,4.147,4.141,4.144,0,0,16.838,78.71,6,P-GPS,
0.00654163960531108,36.9003238921998,6069.6902477078,151.246724,0.223694,1.13474741164,12100,2018-04-12 09:05:03,11,0,16.45,6069.6902477078,151.246724,0.223694,1.44513456068,0,0.223694,-11.1847,10.4, -1.7, 2.5,0,0,1024,1024,1684,1069,19.7,-22.7,99,4.142,4.147,4.141,4.144,0,0,16.838,78.71,6,P-GPS,
0.00654170538101389,36.9003239751318,6071.6587517078,153.215228,0,1.0965223448,12200,2018-04-12 09:05:04,11,0,16.45,6071.6587517078,153.215228,0.223694,1.44513456068,0,0,-11.1847,10.4, -1.9, 2.1,0,0,1024,1024,1684,1081,18.5,-22.7,99,4.142,4.147,4.141,4.144,0,0,16.838,78.71,6,P-GPS,
0.00654176782247762,36.9003240797512,6073.2991717078,154.855648,0.223694,1.05207352448,12300,2018-04-12 09:05:04,11,0,16.45,6073.2991717078,154.855648,0.223694,1.44513456068,0,0.223694,-11.1847,10.4, -2, 2.1,0,0,1024,1024,1684,1024,18.5,-22.7,99,4.142,4.147,4.141,4.144,0,0,16.838,78.71,6,P-GPS,
0.00654185070132062,36.9003241887002,6074.9395917078,156.496068,0.223694,1.00254596384,12400,2018-04-12 09:05:04,11,0,16.45,6074.9395917078,156.496068,0.223694,1.44513456068,0,0.223694,-11.1847,10.9, -2, 2,0,0,1024,1024,1684,1024,16.8,-22.6,99,4.142,4.147,4.141,4.144,0,0,16.838,78.71,6,P-GPS,
0.0065419320876947,36.9003243003756,6076.9080957078,158.464572,0.223694,0.9524606604,12500,2018-04-12 09:05:04,11,0,16.45,6076.9080957078,158.464572,0.223694,1.44513456068,0,0.223694,-11.1847,11.2, -2, 1.8,0,0,1024,1024,1684,1024,13.8,-22.5,99,4.142,4.147,4.141,4.144,0,0,16.838,78.71,6,P-GPS,
0.00654199760854603,36.9003243836759,6078.5485157078,160.104992,0,0.9142716828,12600,2018-04-12 09:05:04,11,0,16.45,6078.5485157078,160.104992,0.223694,1.44513456068,0,0,-11.1847,11.1, -2.3, 1.7,0,0,1024,1024,1684,1024,13.7,-22.5,99,4.142,4.147,4.141,4.144,0,0,16.838,78.71,6,P-GPS,
0.00654205561819942,36.9003244431758,6080.1889357078,161.745412,0,0.88506236428,12700,2018-04-12 09:05:04,11,0,16.45,6080.1889357078,161.745412,0.223694,1.44513456068,0,0,-10.961006,11.1, -1.8, 1.8,0,0,1024,1024,1684,1024,13.7,-22.5,99,4.142,4.147,4.141,4.144,0,0,16.838,78.71,6,P-GPS,
0.00654211762649704,36.9003244680377,6082.1574397078,163.713916,0,0.86644687812,12800,2018-04-12 09:05:04,11,0,16.45,6082.1574397078,163.713916,0.223694,1.44513456068,0,0,-11.1847,11.1, -1.5, 1.9,0,0,1024,1024,1684,1024,13.6,-22.5,99,4.136,4.139,4.134,4.14,0,0,16.938,78.71,6,P-GPS,
0.00654218431127872,36.9003244846481,6083.7978597078,165.354336,0,0.85006892484,12900,2018-04-12 09:05:04,11,0,16.45,6083.7978597078,165.354336,0.223694,1.44513456068,0,0,-10.961006,11.1, -1.5, 2.6,0,0,1024,1024,1684,1024,13.5,-22.5,99,4.136,4.139,4.134,4.14,0,0,16.938,78.71,6,P-GPS,
0.0065422349106977,36.9003244810593,6085.4382797078,166.994756,0,0.84328086688,13000,2018-04-12 09:05:04,11,0,16.45,6085.4382797078,166.994756,0.223694,1.44513456068,0,0,-10.961006,11.1, -1.8, 2.7,0,0,1024,1024,1684,1024,13.4,-22.5,99,4.136,4.139,4.134,4.14,0,0,16.938,78.71,6,P-GPS,
0.00654228794911868,36.9003244986702,6087.0786997078,168.635176,0,0.8294127562,13100,2018-04-12 09:05:04,11,0,16.45,6087.0786997078,168.635176,0.223694,1.44513456068,0,0,-10.961006,11.1, -1.6, 2.7,0,0,1024,1024,1684,1024,13.3,-22.5,99,4.136,4.139,4.134,4.14,0,0,16.938,78.71,6,P-GPS,
0.0065423315507067,36.9003244977262,6088.7191197078,170.275596,0,0.82339569564,13200,2018-04-12 09:05:04,11,0,16.45,6088.7191197078,170.275596,0.223694,1.44513456068,0,0,-10.961006,11.1, -1.5, 2.7,0,0,1024,1024,1684,1024,13.2,-22.5,99,4.136,4.139,4.134,4.14,0,0,16.938,78.71,6,P-GPS,
0.00654237262087852,36.9003245056562,6090.6876237078,172.2441,0,0.81498690272,13300,2018-04-12 09:05:05,11,0,16.45,6090.6876237078,172.2441,0.223694,1.44513456068,0,0,-10.961006,11.1, -1.6, 2.7,0,0,1024,1024,1684,1024,13.2,-22.5,99,4.136,4.139,4.134,4.14,0,0,16.938,78.71,6,P-GPS,
0.00654238145274454,36.9003244976159,6092.3280437078,173.88452,0,0.81650593164,13400,2018-04-12 09:05:05,11,0,16.45,6092.3280437078,173.88452,0.223694,1.44513456068,0,0,-11.1847,11.1, -1.8, 2.6,0,0,1024,1024,1684,1024,13.1,-22.5,99,4.136,4.139,4.134,4.14,0,0,16.938,78.71,6,P-GPS,
0.00654239406341485,36.9003245057689,6093.9684637078,175.52494,0,0.81204398924,13500,2018-04-12 09:05:05,11,0,16.45,6093.9684637078,175.52494,0.223694,1.44513456068,0,0,-10.961006,11.1, -1.5, 2.7,0,0,1024,1024,1684,1024,13,-22.5,99,4.136,4.139,4.134,4.14,0,0,16.938,78.71,6,P-GPS,
0.00654241072361827,36.9003245511372,6097.2493037078,178.80578,0,0.79441603592,13700,2018-04-12 09:05:05,11,0,16.45,6097.2493037078,178.80578,0.223694,1.44513456068,0,0,-10.961006,11.1, -1.4, 3,0,0,1024,1024,1684,1024,12.9,-22.5,99,4.136,4.139,4.134,4.14,0,0,16.938,78.71,6,P-GPS,
0.00654241220672364,36.9003245990308,6098.8897237078,180.4462,0,0.77798887004,13800,2018-04-12 09:05:05,11,0,16.45,6098.8897237078,180.4462,0.223694,1.44513456068,0,0,-10.961006,11.1, -1.7, 2.9,0,0,1024,1024,1684,1024,12.9,-22.5,98,4.132,4.136,4.131,4.137,0,0,17.11,78.71,6,P-GPS,
0.00654241739901733,36.9003246699274,6100.5301437078,182.08662,0,0.75333991912,13900,2018-04-12 09:05:05,11,0,16.45,6100.5301437078,182.08662,0.223694,1.44513456068,0,0,-10.737312,11.1, -2, 2.4,0,0,1024,1024,1684,1024,12.8,-22.5,98,4.132,4.136,4.131,4.137,0,0,17.11,78.71,6,P-GPS,
0.00654240995906381,36.9003247296535,6102.1705637078,183.72704,0,0.7343504172,14000,2018-04-12 09:05:05,11,0,16.45,6102.1705637078,183.72704,0.223694,1.44513456068,0,0,-10.737312,11.2, -2.2, 1.6,0,0,1024,1024,1684,1024,12.8,-22.5,98,4.132,4.136,4.131,4.137,0,0,17.11,78.71,6,P-GPS,
0.00654241067110095,36.9003247714962,6103.8109837078,185.36746,0,0.72026577108,14100,2018-04-12 09:05:05,11,0,16.45,6103.8109837078,185.36746,0.223694,1.44513456068,0,0,-10.737312,11.1, -2.2, 1.6,0,0,1024,1024,1684,1024,12.8,-22.5,98,4.132,4.136,4.131,4.137,0,0,17.11,78.71,6,P-GPS,
0.00654243957353923,36.9003247627274,6105.4514037078,187.00788,0,0.718996086,14200,2018-04-12 09:05:06,11,0,16.45,6105.4514037078,187.00788,0.223694,1.44513456068,0,0,-10.961006,11.1, -2.2, 2.2,0,0,1024,1024,1684,1024,12.8,-22.5,98,4.132,4.136,4.131,4.137,0,0,17.11,78.71,6,P-GPS,
0.00654249568605537,36.9003247482075,6107.4199077078,188.976384,0,0.7161581594,14300,2018-04-12 09:05:06,11,0,16.45,6107.4199077078,188.976384,0.223694,1.44513456068,0,0,-11.1847,11.1, -2, 2.6,0,0,1024,1024,1684,1024,12.7,-22.5,98,4.132,4.136,4.131,4.137,0,0,17.11,78.71,6,P-GPS,
0.00654253209358492,36.9003247146441,6109.0603277078,190.616804,0,0.72291012812,14400,2018-04-12 09:05:06,11,0,16.45,6109.0603277078,190.616804,0.223694,1.44513456068,0,0,-11.1847,11.1, -1.7, 2.8,0,0,1024,1024,1684,1024,12.7,-22.5,98,4.132,4.136,4.131,4.137,0,0,17.11,78.71,6,P-GPS,
0.00654255649500399,36.9003247070345,6110.7007477078,192.257224,0,0.72252626984,14500,2018-04-12 09:05:06,11,0,16.45,6110.7007477078,192.257224,0.223694,1.44513456068,0,0,-10.961006,11.1, -1.4, 2.9,0,0,1024,1024,1684,1024,12.7,-22.5,98,4.132,4.136,4.131,4.137,0,0,17.11,78.71,6,P-GPS,
0.00654256079409614,36.9003246729237,6112.3411677078,193.897644,0,0.73377298936,14600,2018-04-12 09:05:06,11,0,16.45,6112.3411677078,193.897644,0.223694,1.44513456068,0,0,-10.961006,11.1, -1.3, 2.8,0,0,1024,1024,1684,1025,12.6,-22.5,98,4.132,4.136,4.131,4.137,0,0,17.11,78.71,6,P-GPS,
0.0065425717482318,36.9003246311345,6115.6220077078,197.178484,0,0.74695868532,14800,2018-04-12 09:05:06,11,0,16.45,6115.6220077078,197.178484,0.223694,1.44513456068,0,0,-10.961006,11.1, -1.3, 2.3,0,0,1024,1024,1684,1025,12.6,-22.5,98,4.132,4.136,4.131,4.137,0,0,17.11,78.71,6,P-GPS,
0.00654259019728095,36.9003246277681,6117.2624277078,198.818904,0,0.74605317348,14900,2018-04-12 09:05:06,11,0,16.45,6117.2624277078,198.818904,0.223694,1.44513456068,0,0,-10.961006,11.1, -1.5, 2.3,0,0,1024,1024,1684,1027,12.5,-22.5,98,4.132,4.136,4.131,4.137,0,0,17.11,78.71,6,P-GPS,
0.00654259265175316,36.9003246042605,6118.9028477078,200.459324,0,0.75395999788,15000,2018-04-12 09:05:06,11,0,16.45,6118.9028477078,200.459324,0.223694,1.44513456068,0,0,-10.961006,11.1, -1.4, 2.2,0,0,1024,1024,1684,1030,12.5,-22.5,98,4.132,4.136,4.131,4.137,0,0,17.11,78.71,6,P-GPS,
0.00654255663423595,36.90032455028,6122.1836877078,203.740164,0,0.77671262328,15200,2018-04-12 09:05:07,11,0,16.45,6122.1836877078,203.740164,0.223694,1.44513456068,0,0,-10.737312,11.1, -1.9, 2.5,0,0,1024,1024,1684,1029,12.4,-22.5,98,4.132,4.136,4.131,4.137,0,0,17.11,78.71,6,P-GPS,
0.00654252980684243,36.9003245323597,6123.8241077078,205.380584,0,0.78598099628,15300,2018-04-12 09:05:07,11,0,16.45,6123.8241077078,205.380584,0.223694,1.44513456068,0,0,-10.961006,11.1, -1.9, 2.6,0,0,1024,1024,1684,1029,12.4,-22.5,98,4.132,4.136,4.131,4.137,0,0,17.11,78.71,6,P-GPS,
0.00654245590316852,36.9003244653711,6125.4645277078,207.021004,0,0.81789044612,15400,2018-04-12 09:05:07,11,0,16.45,6125.4645277078,207.021004,0.223694,1.44513456068,0,0,-10.961006,11.1, -1.8, 2.9,0,0,1024,1024,1684,1034,12.4,-22.5,98,4.132,4.136,4.131,4.137,0,0,17.11,78.71,6,P-GPS,
0.0065423363884067,36.9003243617544,6128.7453677078,210.301844,0,0.86864504092,15600,2018-04-12 09:05:07,11,0,16.45,6128.7453677078,210.301844,0.223694,1.44513456068,0,0,-10.961006,11.1, -2, 2.8,0,0,1024,1024,1684,1034,12.3,-22.5,98,4.132,4.136,4.131,4.137,0,0,17.11,78.71,6,P-GPS,
0.00654233918607349,36.9003243742268,6130.3857877078,211.942264,0,0.86403546072,15700,2018-04-12 09:05:07,11,0,16.45,6130.3857877078,211.942264,0.223694,1.44513456068,0,0,-10.961006,11.1, -1.9, 2.7,0,0,1024,1024,1684,1032,12.3,-22.5,98,4.132,4.136,4.131,4.137,0,0,17.11,78.71,6,P-GPS,
0.00654231653360327,36.9003243669525,6132.0262077078,213.582684,0,0.86957351864,15800,2018-04-12 09:05:07,11,0,16.398,6132.0262077078,213.582684,0.223694,1.44513456068,0,0,-10.961006,11.1, -2, 2.7,0,0,1024,1024,1684,1037,12.3,-22.5,98,4.129,4.133,4.126,4.131,0,0,17.19,78.71,6,P-GPS,
0.00654230365953214,36.9003243731742,6133.6666277078,215.223104,0,0.86924871548,15900,2018-04-12 09:05:07,11,0,16.398,6133.6666277078,215.223104,0.223694,1.44513456068,0,0,-10.737312,11.1, -1.8, 2.6,0,0,1024,1024,1684,1040,12.3,-22.5,98,4.129,4.133,4.126,4.131,0,0,17.19,78.71,6,P-GPS,
0.0065422660864438,36.900324380711,6135.3070477078,216.863524,0,0.87204071032,16000,2018-04-12 09:05:07,11,0,16.398,6135.3070477078,216.863524,0.223694,1.44513456068,0,0,-10.737312,11.1, -1.8, 2.3,0,0,1024,1024,1684,1038,12.3,-22.5,98,4.129,4.133,4.126,4.131,0,0,17.19,78.71,6,P-GPS,
0.00654220461064736,36.9003244238571,6138.5878877078,220.144364,0,0.86687010648,16200,2018-04-12 09:05:08,11,0,16.398,6138.5878877078,220.144364,0.223694,1.44513456068,0,0,-10.961006,11.1, -1.6, 2.1,0,0,1024,1024,1684,1045,12.2,-22.5,98,4.129,4.133,4.126,4.131,0,0,17.19,78.71,6,P-GPS,
0.00654218792235328,36.9003244470724,6140.2283077078,221.784784,0,0.86182417456,16300,2018-04-12 09:05:08,11,0,16.398,6140.2283077078,221.784784,0.223694,1.44513456068,0,0,-10.961006,11.2, -1.5, 2.2,0,0,1024,1024,1684,1048,12.2,-22.5,98,4.129,4.133,4.126,4.131,0,0,17.19,78.71,6,P-GPS,
0.00654213726349609,36.900324447794,6141.8687277078,223.425204,0,0.86975724568,16400,2018-04-12 09:05:08,11,0,16.398,6141.8687277078,223.425204,0.223694,1.44513456068,0,0,-11.1847,11.2, -1.4, 1.9,0,0,1024,1024,1684,1032,12.2,-22.5,98,4.129,4.133,4.126,4.131,0,0,17.19,78.71,6,P-GPS,
0.00654204035031561,36.9003244447268,6145.1495677078,226.706044,0,0.88723428036,16600,2018-04-12 09:05:08,11,0,16.398,6145.1495677078,226.706044,0.223694,1.44513456068,0,0,-11.1847,11.2, -1.3, 2.2,0,0,1024,1024,1684,1043,12.2,-22.5,98,4.129,4.133,4.126,4.131,0,0,17.19,78.71,6,P-GPS,
0.00654196683299004,36.9003244415515,6147.1180717078,228.674548,0,0.9014600026,16700,2018-04-12 09:05:08,11,0,16.398,6147.1180717078,228.674548,0.223694,1.44513456068,0,0,-11.1847,11.2, -1.5, 2.1,0,0,1024,1024,1684,1057,12.2,-22.5,98,4.129,4.133,4.126,4.131,0,0,17.19,78.71,6,P-GPS,
0.00654185692930469,36.9003244160773,6148.7584917078,230.314968,0,0.93017391428,16800,2018-04-12 09:05:08,11,0,16.529,6148.7584917078,230.314968,0.223694,1.44513456068,0,0,-11.1847,11.2, -1.7, 2.3,0,0,1024,1024,1684,1048,12.2,-22.5,98,4.124,4.129,4.124,4.128,0,0,17.426,78.71,6,P-GPS,
0.006541725630715,36.9003243962589,6152.0393317078,233.595808,0,0.9624508182,17000,2018-04-12 09:05:08,11,0,16.529,6152.0393317078,233.595808,0.223694,1.44513456068,0,0,-10.961006,11.3, -1.8, 2.4,0,0,1024,1024,1684,1052,12.1,-22.5,98,4.124,4.129,4.124,4.128,0,0,17.426,78.71,6,P-GPS,
0.0065417120214014,36.900324408211,6153.3516677078,234.908144,0,0.96166669744,17100,2018-04-12 09:05:08,11,0,16.529,6153.3516677078,234.908144,0.223694,1.44513456068,0,0,-10.961006,11.4, -1.7, 2.2,0,0,1024,1024,1684,1052,12.1,-22.5,98,4.124,4.129,4.124,4.128,0,0,17.426,78.71,6,P-GPS,
0.00654167964060675,36.9003244036362,6154.9920877078,236.548564,0,0.9697998998,17200,2018-04-12 09:05:09,14,0,16.529,6154.9920877078,236.548564,0.223694,1.44513456068,0,0,-10.737312,11.5, -1.5, 2.1,0,0,1024,1024,1684,1045,12.1,-22.5,98,4.124,4.129,4.124,4.128,0,0,17.426,78.71,6,P-GPS,
0.00654162957816717,36.9003243840661,6156.6325077078,238.188984,0,0.98622378484,17300,2018-04-12 09:05:09,14,0,16.529,6156.6325077078,238.188984,0.223694,1.44513456068,0,0,-10.961006,11.6, -1.4, 2.2,0,0,1024,1024,1684,1045,12.1,-22.5,98,4.124,4.129,4.124,4.128,0,0,17.426,78.71,6,P-GPS,
0.00654151196502083,36.9003243343451,6158.2729277078,239.829404,0,1.026328773,17400,2018-04-12 09:05:09,14,0,16.529,6158.2729277078,239.829404,0.223694,1.44513456068,0,0,-11.1847,11.6, -1.5, 2.3,0,0,1024,1024,1684,1046,12.1,-22.5,98,4.124,4.129,4.124,4.128,0,0,17.426,78.71,6,P-GPS,
0.0065414348260358,36.9003243335617,6159.9133477078,241.469824,0,1.043799246,17500,2018-04-12 09:05:09,14,0,16.529,6159.9133477078,241.469824,0.223694,1.44513456068,0,0,-11.1847,11.6, -1.6, 2.2,0,0,1024,1024,1684,1049,12.1,-22.5,98,4.124,4.129,4.124,4.128,0,0,17.426,78.71,6,P-GPS,
0.00654131173439674,36.9003243026193,6161.5537677078,243.110244,0,1.0809055464,17600,2018-04-12 09:05:09,14,0,16.529,6161.5537677078,243.110244,0.223694,1.44513456068,0,0,-11.1847,11.6, -1.5, 2.3,0,0,1024,1024,1684,1046,12.1,-22.5,98,4.124,4.129,4.124,4.128,0,0,17.426,78.71,6,P-GPS,
0.00654121988974821,36.9003242870864,6163.1941877078,244.750664,0,1.10696197768,17700,2018-04-12 09:05:09,14,0,16.529,6163.1941877078,244.750664,0.223694,1.44513456068,0,0,-10.961006,11.6, -1.6, 2.3,0,0,1024,1024,1684,1049,12.1,-22.5,98,4.124,4.129,4.124,4.128,0,0,17.426,78.71,6,P-GPS,
0.0065411067303962,36.9003243017398,6164.8346077078,246.391084,0,1.1305610598,17800,2018-04-12 09:05:09,14,0,16.398,6164.8346077078,246.391084,0.223694,1.44513456068,0,0,-10.961006,11.7, -1.7, 2,0,0,1024,1024,1684,1049,12.1,-22.5,98,4.122,4.127,4.121,4.126,0,0,17.102,78.71,6,P-GPS,
0.00654105241527512,36.9003243778547,6166.4750277078,248.031504,0.223694,1.12413717508,17900,2018-04-12 09:05:09,14,0,16.398,6166.4750277078,248.031504,0.223694,1.44513456068,0,0.223694,-11.1847,11.7, -1.2, 1.7,0,0,1024,1024,1684,1051,12.1,-22.5,98,4.122,4.127,4.121,4.126,0,0,17.102,78.71,6,P-GPS,
0.00654096461201747,36.900324419912,6168.1154477078,249.671924,0.223694,1.13613520696,18000,2018-04-12 09:05:09,14,0,16.398,6168.1154477078,249.671924,0.223694,1.44513456068,0,0.223694,-10.961006,11.7, -0.8, 1.6,0,0,1024,1024,1684,1052,12.1,-22.5,98,4.122,4.127,4.121,4.126,0,0,17.102,78.71,6,P-GPS,
0.00654089549108358,36.9003244458678,6169.7558677078,251.312344,0.223694,1.14803481364,18100,2018-04-12 09:05:09,14,0,16.398,6169.7558677078,251.312344,0.223694,1.44513456068,0,0.223694,-10.961006,11.8, -1.1, 1.5,0,0,1024,1024,1684,1052,12.1,-22.5,98,4.122,4.127,4.121,4.126,0,0,17.102,78.71,6,P-GPS,
0.00654078123293898,36.9003244413387,6171.3962877078,252.952764,0,1.18014439472,18200,2018-04-12 09:05:10,14,0,16.398,6171.3962877078,252.952764,0.223694,1.44513456068,0,0,-10.961006,11.9, -1.2, 1.4,0,0,1024,1024,1684,1048,12.1,-22.5,98,4.122,4.127,4.121,4.126,0,0,17.102,78.71,6,P-GPS,
0.00654069960392675,36.9003244525141,6173.0367077078,254.593184,0,1.20004597016,18300,2018-04-12 09:05:10,14,0,16.398,6173.0367077078,254.593184,0.223694,1.44513456068,0,0,-10.961006,11.9, -1.1, 1.4,0,0,1024,1024,1684,1040,12.1,-22.5,98,4.122,4.127,4.121,4.126,0,0,17.102,78.71,6,P-GPS,
0.00654057882386394,36.9003244333579,6174.6771277078,256.233604,0,1.23842851732,18400,2018-04-12 09:05:10,14,0,16.398,6174.6771277078,256.233604,0.223694,1.44513456068,0,0,-10.961006,12.1, -1.1, 1.5,0,0,1024,1024,1684,1030,12.1,-22.5,98,4.122,4.127,4.121,4.126,0,0,17.102,78.71,6,P-GPS,
0.00654049371405267,36.9003244356743,6176.3175477078,257.874024,0,1.262139148,18500,2018-04-12 09:05:10,14,0,16.398,6176.3175477078,257.874024,0.223694,1.44513456068,0,0,-11.1847,12.1, -1.1, 1.1,0,0,1024,1024,1684,1024,12.1,-22.5,98,4.122,4.127,4.121,4.126,0,0,17.102,78.71,6,P-GPS,
0.00654037066475315,36.9003244090755,6177.9579677078,259.514444,0,1.30357287636,18600,2018-04-12 09:05:10,14,0,16.398,6177.9579677078,259.514444,0.223694,1.44513456068,0,0,-11.1847,12.1, -0.9, 1.2,0,0,1024,1024,1684,1024,12.1,-22.5,98,4.122,4.127,4.121,4.126,0,0,17.102,78.71,6,P-GPS,
0.00654028216289303,36.9003243986508,6179.5983877078,261.154864,0,1.33165358592,18700,2018-04-12 09:05:10,14,0,16.398,6179.5983877078,261.154864,0.223694,1.44513456068,0,0,-11.1847,12.1, -1, 1.4,0,0,1024,1024,1684,1024,12.1,-22.5,98,4.122,4.127,4.121,4.126,0,0,17.102,78.71,6,P-GPS,
0.00654016607030627,36.9003243577368,6181.2388077078,262.795284,0,1.37461946656,18800,2018-04-12 09:05:10,14,0,16.424,6181.2388077078,262.795284,0.223694,1.44513456068,0,0,-11.1847,12.1, -1.3, 1.7,0,0,1024,1024,1684,1024,12.1,-22.5,98,4.122,4.127,4.121,4.126,0,0,17.102,78.71,6,P-GPS,
0.00654010438403344,36.9003243454301,6182.8792277078,264.435704,0,1.3954888898,18900,2018-04-12 09:05:10,14,0,16.424,6182.8792277078,264.435704,0.223694,1.44513456068,0,0,-10.961006,12.1, -1.4, 1.8,0,0,1024,1024,1684,1024,12.1,-22.5,98,4.122,4.127,4.121,4.126,0,0,17.102,78.71,6,P-GPS,
0.00654000896535744,36.9003243190823,6184.5196477078,266.076124,0,1.4294291796,19000,2018-04-12 09:05:10,14,0,16.424,6184.5196477078,266.076124,0.223694,1.44513456068,0,0,-11.1847,12.1, -1.1, 1.7,0,0,1024,1024,1684,1024,12.1,-22.5,98,4.122,4.127,4.121,4.126,0,0,17.102,78.71,6,P-GPS,
0.0065399421779838,36.9003243220469,6186.1600677078,267.716544,0,1.4488025398,19100,2018-04-12 09:05:10,14,0,16.424,6186.1600677078,267.716544,0.223694,1.4488025398,0,0,-11.1847,12.1, -0.9, 1.6,0,0,1024,1024,1684,1024,12.1,-22.5,98,4.122,4.127,4.121,4.126,0,0,17.102,78.71,6,P-GPS,
0.00653985941557454,36.9003243095884,6188.1285717078,269.685048,0,1.47630254068,19200,2018-04-12 09:05:11,14,0,16.424,6188.1285717078,269.685048,0.223694,1.47630254068,0,0,-11.408394,12.1, -1.2, 1.8,0,0,1024,1024,1684,1024,12.1,-22.5,98,4.122,4.127,4.121,4.126,0,0,17.102,78.71,6,P-GPS,
0.00653980501333172,36.9003243108533,6189.7689917078,271.325468,0,1.49253285616,19300,2018-04-12 09:05:11,14,0,16.424,6189.7689917078,271.325468,0.223694,1.49253285616,0,0,-11.1847,12.1, -1.3, 1.8,0,0,1024,1024,1684,1024,12.1,-22.5,98,4.122,4.127,4.121,4.126,0,0,17.102,78.71,6,P-GPS,
0.00653971172140358,36.9003242974648,6191.4094117078,272.965888,0,1.52365162356,19400,2018-04-12 09:05:11,14,0,16.424,6191.4094117078,272.965888,0.223694,1.52365162356,0,0,-11.1847,12.1, -1.3, 1.8,0,0,1024,1024,1649,1024,12.1,-22.5,98,4.122,4.127,4.121,4.126,0,0,17.102,78.71,6,P-GPS,
0.0065396458581719,36.9003243033149,6193.0498317078,274.606308,0,1.54269689976,19500,2018-04-12 09:05:11,14,0,16.424,6193.0498317078,274.606308,0.223694,1.54269689976,0,0,-11.1847,12.1, -1.2, 1.8,0,0,1024,1024,1414,1024,12.1,-22.5,98,4.122,4.127,4.121,4.126,0,0,17.102,78.71,6,P-GPS,
0.00653956836540742,36.9003242763381,6194.6902517078,276.246728,0,1.57184388232,19600,2018-04-12 09:05:11,14,0,16.424,6194.6902517078,276.246728,0.223694,1.57184388232,0,0,-10.961006,12.1, -1.4, 2,0,0,1024,1024,1024,1024,12.1,-22.5,98,4.122,4.127,4.121,4.126,0,0,17.102,78.71,6,P-GPS,
0.00653952490386559,36.900324247441,6196.3306717078,277.887148,0,1.59088259684,19700,2018-04-12 09:05:11,14,0,16.424,6196.3306717078,277.887148,0.223694,1.59088259684,0,0,-9.842536,12.1, -1.9, 2.2,0,0,1024,1024,1024,1024,12.1,-22.5,98,4.122,4.127,4.121,4.126,0,0,17.102,78.71,6,P-GPS,
0.00653945915706765,36.9003241750675,6197.6430077078,279.199484,0,1.62529204676,19800,2018-04-12 09:05:11,14,0,16.424,6197.6430077078,279.199484,0.223694,1.62529204676,0,0,-8.276678,12, -1.9, 2.3,0,0,1024,1024,1024,1024,12.1,-22.5,98,4.122,4.127,4.121,4.126,0,0,17.102,78.71,6,P-GPS,
0.00653942373841072,36.9003241214258,6198.6272597078,280.183736,0,1.6467520212,19900,2018-04-12 09:05:11,14,0,16.424,6198.6272597078,280.183736,0.223694,1.6467520212,0,0,-6.71082,12.1, -1.6, 2.4,0,0,1024,1024,1024,1024,12.1,-22.5,98,4.122,4.127,4.121,4.126,0,0,17.102,78.71,6,P-GPS,
0.00653936147892561,36.9003240305646,6199.6115117078,281.167988,0,1.68391409588,20000,2018-04-12 09:05:11,14,0,16.424,6199.6115117078,281.167988,0.223694,1.68391409588,0,0,-5.144962,12.1, -1.8, 2.8,0,0,1024,1024,1024,1024,12.1,-22.5,98,4.122,4.127,4.121,4.126,0,0,17.102,78.71,6,P-GPS,
0.00653931036369699,36.9003239546205,6199.9395957078,281.496072,0,1.71479992364,20100,2018-04-12 09:05:11,14,0,16.424,6199.9395957078,281.496072,0.223694,1.71479992364,0,0,-3.579104,12.1, -1.9, 3,0,0,1024,1024,1024,1024,12.1,-22.5,98,4.122,4.127,4.121,4.126,0,0,17.102,78.71,6,P-GPS,
0.0065392314566289,36.9003238501111,6200.2676797078,281.824156,0,1.76002958388,20200,2018-04-12 09:05:12,14,0,16.424,6200.2676797078,281.824156,0.223694,1.76002958388,0,0,-2.013246,12.1, -1.9, 2.9,0,0,1024,1024,1024,1024,12.1,-22.5,98,4.122,4.127,4.121,4.126,0,0,17.102,78.71,6,P-GPS,
0.00653917962488492,36.9003237815759,6200.5957637078,282.15224,0,1.78979008352,20300,2018-04-12 09:05:12,14,0,16.424,6200.5957637078,282.15224,0.223694,1.78979008352,0,0,-1.342164,12.1, -1.6, 3.2,0,0,1024,1024,1024,1024,12.1,-22.5,98,4.122,4.127,4.121,4.126,0,0,17.102,78.71,6,P-GPS,
0.00653911042090038,36.9003237051179,6200.5957637078,282.15224,0,1.82645018968,20400,2018-04-12 09:05:12,14,0,16.424,6200.5957637078,282.15224,0.223694,1.82645018968,0,0,-0.671082,12.1, -1.5, 3.5,0,0,1024,1024,1024,1024,12.1,-22.5,98,4.122,4.127,4.121,4.126,0,0,17.102,78.71,6,P-GPS,
0.00653906480085603,36.9003236746179,6200.5957637078,282.15224,0,1.84646987536,20500,2018-04-12 09:05:12,14,0,16.424,6200.5957637078,282.15224,0.223694,1.84646987536,0,0,-0.447388,12.2, -1.4, 3.4,0,0,1024,1024,1024,1024,12.1,-22.5,98,4.122,4.127,4.121,4.126,0,0,17.102,78.71,6,P-GPS,
0.00653900281250685,36.9003236709209,6200.5957637078,282.15224,0,1.86581042716,20600,2018-04-12 09:05:12,14,0,16.424,6200.5957637078,282.15224,0.223694,1.86581042716,0,0,-0.223694,12.2, -1.4, 3.1,0,0,1024,1024,1024,1024,12.1,-22.5,98,4.122,4.127,4.121,4.126,0,0,17.102,78.71,6,P-GPS,
0.00653890376972873,36.9003237368079,6200.5957637078,282.15224,0,1.88232617572,20800,2018-04-12 09:05:12,14,0,16.424,6200.5957637078,282.15224,0.223694,1.88232617572,0,0,0,12.2, -1.5, 2.8,0,0,1024,1024,1024,1024,12.1,-22.5,98,4.121,4.124,4.121,4.128,0,0,16.792,78.71,6,P-GPS,
0.00653886679916467,36.9003237730038,6200.5957637078,282.15224,0,1.88641082152,20900,2018-04-12 09:05:12,14,0,16.424,6200.5957637078,282.15224,0.223694,1.88641082152,0,0,0,12.2, -1.5, 2.8,0,0,1024,1024,962,1024,12.1,-22.5,98,4.121,4.124,4.121,4.128,0,0,16.792,78.71,6,P-GPS,
0.00653881775531682,36.9003237897596,6200.5957637078,282.15224,0,1.89819231796,21000,2018-04-12 09:05:12,14,0,16.424,6200.5957637078,282.15224,0.223694,1.89819231796,0,0,0,12.1, -1.8, 3.1,0,0,1024,1024,796,1024,12.1,-22.5,98,4.121,4.124,4.121,4.128,0,0,16.792,78.71,6,P-GPS,
0.00653879787934361,36.9003238295284,6200.5957637078,282.15224,0,1.89661423392,21100,2018-04-12 09:05:12,14,0,16.424,6200.5957637078,282.15224,0.223694,1.89819231796,0,0,0,12.1, -2.1, 3.5,0,0,1024,1024,633,1024,12.1,-22.5,98,4.121,4.124,4.121,4.128,0,0,16.792,78.71,6,P-GPS,
0.0065387508173121,36.900323853852,6200.5957637078,282.15224,0,1.906578145,21200,2018-04-12 09:05:13,14,0,16.424,6200.5957637078,282.15224,0.223694,1.906578145,0,0,0.223694,12.1, -2.1, 3.5,0,0,1024,1024,571,1024,12.1,-22.5,98,4.121,4.124,4.121,4.128,0,0,16.792,78.71,6,P-GPS,
0.00653871971321754,36.9003238988994,6200.5957637078,282.15224,0,1.90780846,21300,2018-04-12 09:05:13,14,0,16.424,6200.5957637078,282.15224,0.223694,1.90780846,0,0,1.11847,12.1, -2.2, 3.4,0,0,1024,1024,1062,1024,12.1,-22.5,98,4.121,4.124,4.121,4.128,0,0,16.792,78.71,6,P-GPS,
0.00653863942360049,36.9003239885303,6199.9395957078,281.496072,0,1.91671265976,21500,2018-04-12 09:05:13,14,0,16.424,6200.5957637078,282.15224,0.223694,1.91671265976,0,0,2.460634,12.1, -1.4, 3.1,0,0,1024,1024,1046,1024,12.1,-22.5,98,4.121,4.124,4.121,4.128,0,0,16.792,78.71,6,P-GPS,
0.00653856981250496,36.9003239911898,6199.6115117078,281.167988,0,1.9383858888,21600,2018-04-12 09:05:13,14,0,16.424,6200.5957637078,282.15224,0.223694,1.9383858888,0,0,1.789552,12.3, 0, 2.6,0,0,1024,1024,1024,1024,12.1,-22.5,98,4.121,4.124,4.121,4.128,0,0,16.792,78.71,6,P-GPS,
0.00653850307724152,36.9003239927802,6199.2834277078,280.839904,0,1.95941279236,21700,2018-04-12 09:05:13,14,0,16.687,6200.5957637078,282.15224,0.223694,1.95941279236,0,0,1.11847,12.3, -1.2, 3.4,0,0,1024,1024,1024,1024,12.1,-22.5,98,4.184,4.187,4.184,4.19,0,0,6.828,78.71,6,P-GPS,
0.00653832360072906,36.9003239871637,6198.9553437078,280.51182,0,2.0180282798,21900,2018-04-12 09:05:13,13,0,16.687,6200.5957637078,282.15224,0.223694,2.0180282798,0,0,0.447388,12.2, -2.4, 4,0,0,1024,1024,1024,1024,12.1,-22.5,98,4.184,4.187,4.184,4.19,0,0,6.828,78.71,6,P-GPS,
0.00653822713089247,36.9003240427592,6198.9553437078,280.51182,0.223694,2.0399278868,22000,2018-04-12 09:05:13,14,0,16.687,6200.5957637078,282.15224,0.223694,2.0399278868,0,0.223694,0.223694,12.2, -2.2, 3.2,0,0,1024,1024,1024,1024,12.1,-22.5,98,4.184,4.187,4.184,4.19,0,0,6.828,78.71,6,P-GPS,
0.00653816955074118,36.9003241598007,6198.9553437078,280.51182,0.223694,2.03986555084,22100,2018-04-12 09:05:13,14,0,16.687,6200.5957637078,282.15224,0.223694,2.0399278868,0,0.223694,0.223694,12.2, -2, 2.8,0,0,1024,1024,1024,1024,12.1,-22.5,98,4.184,4.187,4.184,4.19,0,0,6.828,78.71,6,P-GPS,
0.00653807542504971,36.9003242533045,6198.9553437078,280.51182,0.223694,2.05659783484,22200,2018-04-12 09:05:14,14,0,16.687,6200.5957637078,282.15224,0.223694,2.05659783484,0,0.223694,0.223694,12.2, -2, 2.7,0,0,1024,1024,1024,1024,12.1,-22.5,98,4.184,4.187,4.184,4.19,0,0,6.828,78.71,6,P-GPS,
0.00653801383566931,36.9003243679112,6198.9553437078,280.51182,0.223694,2.06038720504,22300,2018-04-12 09:05:14,14,0,16.687,6200.5957637078,282.15224,0.223694,2.06038720504,0,0.223694,0.223694,12.2, -2, 2.2,0,0,1023,1024,1024,1024,12.1,-22.5,98,4.184,4.187,4.184,4.19,0,0,6.828,78.71,6,P-GPS,
0.00653783306291543,36.9003245636385,6198.6272597078,280.183736,0.223694,2.09517067072,22500,2018-04-12 09:05:14,14,0,16.687,6200.5957637078,282.15224,0.223694,2.09517067072,0,0.223694,0,12.2, -2, 1.8,0,0,1114,1024,1024,1024,12.1,-22.5,98,4.184,4.187,4.184,4.19,0,0,6.828,78.71,6,P-GPS,
