latitude,longitude,altitude(feet),ascent(feet),speed(mph),distance(feet),time(millisecond),datetime(utc),satellites,gpslevel,voltage(v),max_altitude(feet),max_ascent(feet),max_speed(mph),max_distance(feet), xSpeed(mph), ySpeed(mph), zSpeed(mph), compass_heading(degrees), pitch(degrees), roll(degrees),isPhoto,isVideo,rc_elevator,rc_aileron,rc_throttle,rc_rudder,gimbal_heading(degrees),gimbal_pitch(degrees),battery_percent,voltageCell1,voltageCell2,voltageCell3,voltageCell4,voltageCell5,voltageCell6,current(A),battery_temperature(f),flycStateRaw,flycState,message
0.339542626219429,36.9018919035098,5510.3926533667,0,0,0,0,2018-04-07 06:07:09,9,0,0,5510.3926533667,0,0,0,0,0,0,112.9, -0.5, 2.5,0,0,364,364,364,1684,117.5,0,99,4.3,4.301,4.3,4.3,0,0,0,80.51,41,Motors_Started,
0.339542625545861,36.9018918731928,5510.3926533667,0,0,0.0110637142648,100,2018-04-07 06:07:09,9,0,0,5510.3926533667,0,0,0.0110637142648,0,0,0,112.9, -0.5, 2.5,0,0,364,364,364,1684,117.5,0,99,4.3,4.301,4.3,4.3,0,0,0,80.51,41,Motors_Started,
0.339542625711386,36.9018918562578,5510.3926533667,0,0,0.0172405845412,200,2018-04-07 06:07:09,9,0,0,5510.3926533667,0,0,0.0172405845412,0,0,0,113, -0.5, 2.5,0,0,364,364,364,1684,117.5,0,99,4.3,4.301,4.3,4.3,0,0,0,80.51,41,Motors_Started,
0.339542626390885,36.9018918390541,5510.3926533667,0,0,0.0235163065268,300,2018-04-07 06:07:09,9,0,0,5510.3926533667,0,0,0.0235163065268,0,0,0,112.9, -0.4, 2.5,0,0,364,364,364,1684,117.5,0,99,4.3,4.301,4.3,4.3,0,0,0,80.51,41,Motors_Started,
0.339542666570185,36.9018918361202,5510.3926533667,0,0,0.0286572843816,400,2018-04-07 06:07:10,9,0,0,5510.3926533667,0,0,0.0286572843816,0,0,0,112.9, -0.4, 2.5,0,0,364,364,364,1684,117.5,0,99,4.3,4.301,4.3,4.3,0,0,0,80.51,41,Motors_Started,
0.339542696295076,36.9018918289404,5510.3926533667,0,0,0.03733431878,500,2018-04-07 06:07:10,9,0,0,5510.3926533667,0,0,0.03733431878,0,0,0,112.9, -0.4, 2.5,0,0,364,364,364,1684,117.5,0,99,4.3,4.301,4.3,4.3,0,0,0,80.51,41,Motors_Started,
0.339542718265776,36.9018918341417,5510.3926533667,0,0,0.042051510532,600,2018-04-07 06:07:10,9,0,0,5510.3926533667,0,0,0.042051510532,0,0,0,112.9, -0.5, 2.5,0,0,364,364,364,1684,117.5,0,99,4.3,4.301,4.3,4.3,0,0,0,80.51,41,Motors_Started,
0.339542736270018,36.9018918336333,5510.3926533667,0,0,0.047561681312,700,2018-04-07 06:07:10,9,0,17.178,5510.3926533667,0,0,0.047561681312,0,0,0,112.9, -0.4, 2.5,0,0,364,364,364,1684,117.5,0,99,4.3,4.301,4.3,4.3,0,0,1.492,80.51,41,Motors_Started,Setting new Return-To-Home altitude to 45m (148 ft). Setting new Maximum Flight Altitude to 150m (492 ft)
0.339542744522896,36.9018918421972,5510.3926533667,0,0,0.048615159036,800,2018-04-07 06:07:10,9,0,17.178,5510.3926533667,0,0,0.048615159036,0,0,0,112.9, -0.4, 2.5,0,0,364,364,364,1684,117.5,0,99,4.3,4.301,4.3,4.3,0,0,1.492,80.51,41,Motors_Started,
0.339542753804174,36.9018918446612,5510.3926533667,0,0,0.051262140748,900,2018-04-07 06:07:10,9,0,17.178,5510.3926533667,0,0,0.051262140748,0,0,0,112.9, -0.4, 2.5,0,0,364,364,364,1684,117.5,0,99,4.3,4.301,4.3,4.3,0,0,1.492,80.51,41,Motors_Started,
0.339542754120296,36.9018918536015,5510.3926533667,0,0,0.050091208952,1000,2018-04-07 06:07:10,9,0,17.178,5510.3926533667,0,0,0.051262140748,0,0,0,112.9, -0.4, 2.5,0,0,364,364,439,1640,117.5,0,99,4.3,4.301,4.3,4.3,0,0,1.492,80.51,41,Motors_Started,
0.339542757000224,36.9018918566408,5510.3926533667,0,0,0.050686681412,1100,2018-04-07 06:07:10,9,0,17.178,5510.3926533667,0,0,0.051262140748,0,0,0,112.9, -0.4, 2.5,0,0,721,631,783,1274,116.9,0,99,4.3,4.301,4.3,4.3,0,0,1.492,80.51,41,Motors_Started,
0.339542752326221,36.9018918225463,5510.3926533667,0,0,0.054676182852,1200,2018-04-07 06:07:10,9,0,17.178,5510.3926533667,0,0,0.054676182852,0,0,0,112.9, -0.4, 2.5,0,0,1024,954,1024,1024,115.8,0,99,4.3,4.301,4.3,4.3,0,0,1.492,80.51,41,Motors_Started,
0.339542751340097,36.9018917962745,5510.3926533667,0,0,0.060121721084,1300,2018-04-07 06:07:11,9,0,17.178,5510.3926533667,0,0,0.060121721084,0,0,0,112.9, -0.4, 2.5,0,0,1024,1024,1024,1024,114.7,0,99,4.3,4.301,4.3,4.3,0,0,1.492,80.51,41,Motors_Started,
0.339542745650173,36.901891778577,5510.3926533667,0,0,0.063058072884,1400,2018-04-07 06:07:11,14,0,17.178,5510.3926533667,0,0,0.063058072884,0,0,0,112.9, -0.4, 2.5,0,0,1024,1024,1024,1024,114.3,0,99,4.3,4.301,4.3,4.3,0,0,1.492,80.51,41,Motors_Started,
0.339542738566226,36.9018917489312,5510.3926533667,0,0,0.069719162336,1500,2018-04-07 06:07:11,14,0,17.178,5510.3926533667,0,0,0.069719162336,0,0,0,112.9, -0.4, 2.5,0,0,1024,1024,1024,1024,114.3,0,99,4.3,4.301,4.3,4.3,0,0,1.492,80.51,10,Assisted_Takeoff,
0.339542733970311,36.901891712128,5510.3926533667,0,0,0.080130579992,1600,2018-04-07 06:07:11,14,0,17.178,5510.3926533667,0,0,0.080130579992,0,0,0,112.9, -0.4, 2.5,0,0,1024,1024,1024,1024,114,0,99,4.3,4.301,4.3,4.3,0,0,1.492,80.51,10,Assisted_Takeoff,
0.339542727751258,36.9018916462563,5510.3926533667,0,0,0.100902890368,1700,2018-04-07 06:07:11,14,0,17.178,5510.3926533667,0,0,0.100902890368,0,0,0,112.9, -0.4, 2.5,0,0,1024,1024,1024,1024,113.8,0,99,4.296,4.298,4.298,4.297,0,0,1.82,80.51,10,Assisted_Takeoff,
0.339542723831797,36.9018915624798,5510.3926533667,0,0,0.129418967396,1800,2018-04-07 06:07:11,14,0,17.178,5510.3926533667,0,0,0.129418967396,0,0,0,112.9, -0.4, 2.5,0,0,1024,1024,1024,1024,113.7,0,99,4.296,4.298,4.298,4.297,0,0,1.82,80.51,10,Assisted_Takeoff,
0.339542718405987,36.9018914484175,5510.3926533667,0,0,0.169409782324,1900,2018-04-07 06:07:11,14,0,17.178,5510.3926533667,0,0,0.169409782324,0,0,0,112.9, -0.5, 2.5,0,0,1024,1024,1024,1024,113.6,0,99,4.296,4.298,4.298,4.297,0,0,1.82,80.51,10,Assisted_Takeoff,
0.339542714666571,36.901891338384,5510.3926533667,0,0,0.208692263896,2000,2018-04-07 06:07:11,14,0,17.178,5510.3926533667,0,0,0.208692263896,0,0,0,112.9, -0.4, 2.5,0,0,1024,1024,1024,1024,113.5,0,99,4.296,4.298,4.298,4.297,0,0,1.82,80.51,10,Assisted_Takeoff,
0.339542723875867,36.9018911873454,5510.3926533667,0,0,0.2637057171,2100,2018-04-07 06:07:11,14,0,17.178,5510.3926533667,0,0,0.2637057171,0,0,0,112.9, -0.4, 2.5,0,0,1024,1024,1024,1024,113.5,0,99,4.296,4.298,4.298,4.297,0,0,1.82,80.51,10,Assisted_Takeoff,
0.339542750656939,36.9018910353242,5510.3926533667,0,0,0.3199885273,2200,2018-04-07 06:07:11,14,0,17.178,5510.3926533667,0,0,0.3199885273,0,0,0,112.9, -0.4, 2.5,0,0,1024,1024,1024,1024,113.5,0,99,4.296,4.298,4.298,4.297,0,0,1.82,80.51,10,Assisted_Takeoff,
0.339542794687749,36.9018908569034,5510.3926533667,0,0,0.3867618234,2300,2018-04-07 06:07:12,14,0,17.178,5510.3926533667,0,0,0.3867618234,0,0,0,112.9, -0.4, 2.5,0,0,1024,1024,1024,1024,113.4,0,99,4.296,4.298,4.298,4.297,0,0,1.82,80.51,10,Assisted_Takeoff,
0.339542840829913,36.9018907117174,5510.3926533667,0,0,0.44181103776,2400,2018-04-07 06:07:12,14,0,17.178,5510.3926533667,0,0,0.44181103776,0,0,0,112.9, -0.4, 2.5,0,0,1024,1024,1024,1024,113.4,0,99,4.296,4.298,4.298,4.297,0,0,1.82,80.51,10,Assisted_Takeoff,
0.339542904497341,36.9018905239126,5510.3926533667,0,0,0.51347442588,2500,2018-04-07 06:07:12,14,0,17.178,5510.3926533667,0,0,0.51347442588,0,0,0,112.9, -0.4, 2.5,0,0,1024,1024,1024,1024,113.4,0,99,4.296,4.298,4.298,4.297,0,0,1.82,80.51,10,Assisted_Takeoff,
0.339542961063888,36.9018903282427,5510.3926533667,0,0,0.5875656356,2600,2018-04-07 06:07:12,14,0,17.178,5510.3926533667,0,0,0.5875656356,0,0,0,112.9, -0.4, 2.5,0,0,1024,1024,1024,1024,113.4,0,99,4.296,4.298,4.298,4.297,0,0,1.82,80.51,10,Assisted_Takeoff,
0.339543019373429,36.9018901167637,5510.3926533667,0,0,0.66747705548,2700,2018-04-07 06:07:12,14,0,17.151,5510.3926533667,0,0,0.66747705548,0,0,0,112.9, -0.4, 2.5,0,0,1024,1024,1024,1024,113.3,0,99,4.295,4.296,4.292,4.29,0,0,3.804,80.51,10,Assisted_Takeoff,
0.339543049874287,36.9018899534114,5510.3926533667,0,0,0.72807745112,2800,2018-04-07 06:07:12,14,0,17.151,5510.3926533667,0,0,0.72807745112,0,0,0,112.9, -0.4, 2.5,0,0,1024,1024,1024,1024,113.3,0,99,4.295,4.296,4.292,4.29,0,0,3.804,80.51,10,Assisted_Takeoff,
0.339543088310909,36.9018898020509,5510.3926533667,0,0,0.78501971016,2900,2018-04-07 06:07:12,14,0,17.151,5510.3926533667,0,0,0.78501971016,0,0,0,112.9, -0.4, 2.5,0,0,1024,1024,1024,1024,113.3,0,99,4.295,4.296,4.292,4.29,0,0,3.804,80.51,10,Assisted_Takeoff,
0.339543129484487,36.9018896947276,5510.3926533667,0,0,0.82651249364,3000,2018-04-07 06:07:12,14,0,17.151,5510.3926533667,0,0,0.82651249364,0,0,0,112.9, -0.4, 2.5,0,0,1024,1024,1024,1024,113.3,0,99,4.295,4.296,4.292,4.29,0,0,3.804,80.51,10,Assisted_Takeoff,
0.339543168619456,36.9018895854579,5510.3926533667,0,0,0.8685695816,3100,2018-04-07 06:07:12,14,0,17.151,5510.3926533667,0,0,0.8685695816,0,0,0,112.9, -0.4, 2.5,0,0,1024,1024,1024,1024,113.3,0,99,4.295,4.296,4.292,4.29,0,0,3.804,80.51,10,Assisted_Takeoff,
0.339543225906539,36.901889499953,5510.3926533667,0,0,0.90380252236,3200,2018-04-07 06:07:12,14,0,17.151,5510.3926533667,0,0,0.90380252236,0,0,0,112.9, -0.4, 2.5,0,0,1024,1024,1065,1024,113.3,0,99,4.295,4.296,4.292,4.29,0,0,3.804,80.51,10,Assisted_Takeoff,
0.339543272525684,36.9018894017575,5510.3926533667,0,0,0.94271328476,3300,2018-04-07 06:07:12,14,0,17.151,5510.3926533667,0,0,0.94271328476,0,0,0,112.9, -0.4, 2.6,0,0,1024,1024,1149,1024,113.3,0,99,4.295,4.296,4.292,4.29,0,0,3.804,80.51,10,Assisted_Takeoff,
0.339543329031978,36.9018893224756,5510.3926533667,0,0,0.97596131732,3400,2018-04-07 06:07:13,14,0,17.151,5510.3926533667,0,0,0.97596131732,0,0,0,112.9, -0.4, 2.5,0,0,1024,1024,1419,1024,113.3,0,99,4.295,4.296,4.292,4.29,0,0,3.804,80.51,10,Assisted_Takeoff,
0.339543391529929,36.9018892456022,5510.3926533667,0,0,1.00911748636,3500,2018-04-07 06:07:13,14,0,17.151,5510.3926533667,0,0,1.00911748636,0,0,0,112.9, -0.5, 2.5,0,0,1024,1024,1562,1024,113.2,0,99,4.295,4.296,4.292,4.29,0,0,3.804,80.51,10,Assisted_Takeoff,
0.339543444991745,36.9018891481186,5510.3926533667,0,0,1.04873034852,3600,2018-04-07 06:07:13,14,0,17.151,5510.3926533667,0,0,1.04873034852,0,0,0,112.9, -0.4, 2.5,0,0,1024,1024,1684,1024,113.2,0,99,4.295,4.296,4.292,4.29,0,0,3.804,80.51,10,Assisted_Takeoff,
0.339543496246867,36.9018890491677,5510.3926533667,0,0,1.08869097972,3700,2018-04-07 06:07:13,14,0,17.151,5510.3926533667,0,0,1.08869097972,0,0,0,112.9, -0.4, 2.5,0,0,1024,1024,1684,1024,113.2,0,99,4.295,4.296,4.292,4.29,0,0,3.804,80.51,10,Assisted_Takeoff,
0.33954355461488,36.9018889626442,5510.3926533667,0,0,1.12515095464,3800,2018-04-07 06:07:13,14,0,17.151,5510.3926533667,0,0,1.12515095464,0,0,0,112.8, -0.4, 2.3,0,0,1024,1024,1684,1024,113.2,0,99,4.295,4.296,4.292,4.29,0,0,3.804,80.51,10,Assisted_Takeoff,
0.339543589299007,36.90188887053,5510.3926533667,0,0,1.16101053584,3900,2018-04-07 06:07:13,14,0,17.151,5510.3926533667,0,0,1.16101053584,0,0,0,112.8, 0.1, 0.9,0,0,1024,1024,1684,1024,113.2,0,99,4.295,4.296,4.292,4.29,0,0,3.804,80.51,10,Assisted_Takeoff,
0.339543577224706,36.9018887494879,5510.3926533667,0,0,1.20189636392,4000,2018-04-07 06:07:13,14,0,17.151,5510.3926533667,0,0,1.20189636392,0,0,-0.447388,112.8, 0.8, 0.2,0,0,1024,1024,1684,1024,113.2,0,99,4.295,4.296,4.292,4.29,0,0,3.804,80.51,6,P-GPS,
0.339543581705166,36.9018886297939,5510.3926533667,0,0,1.2442257616,4100,2018-04-07 06:07:13,14,0,17.151,5510.3926533667,0,0,1.2442257616,0,0,-0.894776,112.8, 0.7, 0,0,0,1024,1024,1684,1024,113.2,0,99,4.295,4.296,4.292,4.29,0,0,3.804,80.51,6,P-GPS,
0.339543620421625,36.9018884712113,5510.3926533667,0,0,1.30372707584,4200,2018-04-07 06:07:13,14,0,17.151,5510.3926533667,0,0,1.30372707584,0,0,-1.789552,112.8, 0.5, -0.2,0,0,1024,1024,1684,1024,113.2,0,99,4.295,4.296,4.292,4.29,0,0,3.804,80.51,6,P-GPS,
0.339543685442646,36.9018883277014,5510.7207373667,0.328084,0,1.36064308816,4300,2018-04-07 06:07:13,14,0,17.151,5510.7207373667,0.328084,0,1.36064308816,0,0,-2.460634,112.8, 0.5, -0.2,0,0,1024,1024,1684,1030,113.2,0,99,4.295,4.296,4.292,4.29,0,0,3.804,80.51,6,P-GPS,
0.339543782117972,36.9018882144795,5511.3769053667,0.984252,0,1.41044295852,4400,2018-04-07 06:07:14,14,0,17.151,5511.3769053667,0.984252,0,1.41044295852,0,0,-3.579104,112.8, 0.7, 0,0,0,1024,1024,1684,1052,113.2,0,99,4.295,4.296,4.292,4.29,0,0,3.804,80.51,6,P-GPS,
0.339543906355323,36.9018880877506,5512.0330733667,1.64042,0.223694,1.46841212048,4500,2018-04-07 06:07:14,14,0,17.151,5512.0330733667,1.64042,0.223694,1.46841212048,0.223694,0,-4.47388,112.7, 0.6, 0.2,0,0,1024,1024,1684,1060,113.2,0,99,4.295,4.296,4.292,4.29,0,0,3.804,80.51,6,P-GPS,
0.339544033367441,36.9018879451812,5512.6892413667,2.296588,0.223694,1.5327100228,4600,2018-04-07 06:07:14,14,0,17.151,5512.6892413667,2.296588,0.223694,1.5327100228,0.223694,0,-5.59235,112.7, 0, 1.1,0,0,1024,1024,1684,1056,113.2,0,99,4.295,4.296,4.292,4.29,0,0,3.804,80.51,6,P-GPS,
0.33954417383814,36.9018877950693,5513.6734933667,3.28084,0.223694,1.60175858144,4700,2018-04-07 06:07:14,14,0,17.151,5513.6734933667,3.28084,0.223694,1.60175858144,0.223694,0,-6.934514,112.8, -0.7, 1.6,0,0,1024,1024,1684,1061,113.2,0,99,4.295,4.296,4.295,4.294,0,0,1.922,80.51,6,P-GPS,Home Point Recorded. RTH Altitude:  45m.
0.339544317859457,36.9018876700841,5514.6577453667,4.265092,0.223694,1.66328417396,4800,2018-04-07 06:07:14,14,0,17.151,5514.6577453667,4.265092,0.223694,1.66328417396,0,0,-8.052984,112.9, -0.7, 1.4,0,0,1024,1024,1684,1061,113.2,0,99,4.295,4.296,4.295,4.294,0,0,1.922,80.51,6,P-GPS,
0.339544440142676,36.9018875694644,5515.9700813667,5.577428,0,1.714156879,4900,2018-04-07 06:07:14,14,0,17.151,5515.9700813667,5.577428,0.223694,1.714156879,0,0,-9.171454,113.1, -0.4, 1.8,0,0,1024,1024,1684,1066,113.3,0,99,4.295,4.296,4.295,4.294,0,0,1.922,80.51,6,P-GPS,
0.339544521188705,36.9018874843573,5517.2824173667,6.889764,0,1.7542815522,5000,2018-04-07 06:07:14,14,0,17.151,5517.2824173667,6.889764,0.223694,1.7542815522,0,0,-9.842536,113.3, 0, 1.9,0,0,1024,1024,1684,1048,113.3,0,99,4.295,4.296,4.295,4.294,0,0,1.922,80.51,6,P-GPS,
0.339544582424916,36.901887392826,5518.9228373667,8.530184,0,1.79379270832,5100,2018-04-07 06:07:14,14,0,17.151,5518.9228373667,8.530184,0.223694,1.79379270832,0,0,-10.737312,113.6, 0, 2.1,0,0,1024,1024,1684,1048,113.4,0,99,4.295,4.296,4.295,4.294,0,0,1.922,80.51,6,P-GPS,
0.339544625340115,36.9018872821217,5520.5632573667,10.170604,0,1.83708011128,5200,2018-04-07 06:07:14,14,0,17.151,5520.5632573667,10.170604,0.223694,1.83708011128,0,0,-11.1847,113.9, -0.2, 1.8,0,0,1024,1024,1684,1064,113.4,0,99,4.295,4.296,4.295,4.294,0,0,1.922,80.51,6,P-GPS,
0.33954464016262,36.9018871745125,5522.2036773667,11.811024,0,1.87529205476,5300,2018-04-07 06:07:14,14,0,17.151,5522.2036773667,11.811024,0.223694,1.87529205476,0,0,-11.408394,113.9, -0.7, 1,0,0,1024,1024,1684,1057,113.4,0,99,4.295,4.296,4.295,4.294,0,0,1.922,80.51,6,P-GPS,
0.339544651798056,36.9018870843939,5523.8440973667,13.451444,0,1.90722447048,5400,2018-04-07 06:07:15,14,0,17.151,5523.8440973667,13.451444,0.223694,1.90722447048,0,0,-11.408394,114.1, -0.7, 0.7,0,0,1024,1024,1684,1067,113.5,0,99,4.295,4.296,4.295,4.294,0,0,1.922,80.51,6,P-GPS,
0.339544671483908,36.9018870075037,5525.4845173667,15.091864,0,1.93587276536,5500,2018-04-07 06:07:15,14,0,17.151,5525.4845173667,15.091864,0.223694,1.93587276536,0,0,-11.408394,114.3, -0.2, 1,0,0,1024,1024,1684,1046,113.6,0,99,4.295,4.296,4.295,4.294,0,0,1.922,80.51,6,P-GPS,
0.339544751611698,36.9018869530675,5527.1249373667,16.732284,0,1.96556436736,5600,2018-04-07 06:07:15,14,0,17.151,5527.1249373667,16.732284,0.223694,1.96556436736,0,0,-11.408394,114.5, 0, 1.1,0,0,1024,1024,1684,1060,113.6,0,99,4.295,4.296,4.295,4.294,0,0,1.922,80.51,6,P-GPS,
0.339544839841812,36.9018868839654,5528.7653573667,18.372704,0,2.0015256546,5700,2018-04-07 06:07:15,14,0,16.344,5528.7653573667,18.372704,0.223694,2.0015256546,0,0,-10.961006,114.5, -0.1, 0.8,0,0,1024,1024,1684,1077,113.7,0,99,4.158,4.161,4.146,4.148,0,0,16.742,80.51,6,P-GPS,
0.339544930615962,36.9018867955245,5530.4057773667,20.013124,0,2.0444882544,5800,2018-04-07 06:07:15,14,0,16.344,5530.4057773667,20.013124,0.223694,2.0444882544,0,0,-10.737312,114.8, -0.6, 0.6,0,0,1024,1024,1684,1074,113.9,0,99,4.158,4.161,4.146,4.148,0,0,16.742,80.51,6,P-GPS,
0.339545053859657,36.9018867198532,5532.0461973667,21.653544,0,2.0883530852,5900,2018-04-07 06:07:15,14,0,16.344,5532.0461973667,21.653544,0.223694,2.0883530852,0,0,-10.737312,115.2, -0.9, 1.3,0,0,1024,1024,1684,1076,113.9,0,99,4.158,4.161,4.146,4.148,0,0,16.742,80.51,6,P-GPS,
0.339545187841719,36.9018866478718,5533.3585333667,22.96588,0,2.13312670868,6000,2018-04-07 06:07:15,14,0,16.344,5533.3585333667,22.96588,0.223694,2.13312670868,0,0,-10.513618,115.6, -0.9, 1.8,0,0,1024,1024,1684,1076,114,0,99,4.158,4.161,4.146,4.148,0,0,16.742,80.51,6,P-GPS,
0.339545309221863,36.9018865866987,5534.9989533667,24.6063,0,2.17279862596,6100,2018-04-07 06:07:15,14,0,16.344,5534.9989533667,24.6063,0.223694,2.17279862596,0,0,-10.289924,116.1, -0.8, 2,0,0,1024,1024,1684,1024,114.3,0,99,4.158,4.161,4.146,4.148,0,0,16.742,80.51,6,P-GPS,
0.339545414541479,36.9018865682392,5536.6393733667,26.24672,0,2.19634521464,6200,2018-04-07 06:07:15,14,0,16.344,5536.6393733667,26.24672,0.223694,2.19634521464,0,0,-10.289924,116.5, -0.8, 1.5,0,0,1024,1024,1684,1109,114.5,0,99,4.158,4.161,4.146,4.148,0,0,16.742,80.51,6,P-GPS,
0.339545489177342,36.9018865593478,5537.9517093667,27.559056,0,2.21194888968,6300,2018-04-07 06:07:15,14,0,16.344,5537.9517093667,27.559056,0.223694,2.21194888968,0,0,-10.289924,116.6, -0.8, 1.2,0,0,1024,1024,1684,1092,114.9,0,99,4.158,4.161,4.146,4.148,0,0,16.742,80.51,6,P-GPS,
0.339545538294266,36.9018865657164,5539.5921293667,29.199476,0,2.21842854868,6400,2018-04-07 06:07:16,14,0,16.344,5539.5921293667,29.199476,0.223694,2.21842854868,0,0,-10.289924,117.3, -0.1, 1.3,0,0,1024,1024,1684,1052,115.3,0,99,4.158,4.161,4.146,4.148,0,0,16.742,80.51,6,P-GPS,
0.339545595239731,36.9018865922177,5540.9044653667,30.511812,0,2.22000991356,6500,2018-04-07 06:07:16,14,0,16.344,5540.9044653667,30.511812,0.223694,2.22000991356,0,0,-10.289924,117.9, -0.2, 1.8,0,0,1024,1024,1684,1024,115.5,0,99,4.158,4.161,4.146,4.148,0,0,16.742,80.51,6,P-GPS,
0.3395456675286,36.9018866197913,5542.5448853667,32.152232,0,2.22427172472,6600,2018-04-07 06:07:16,14,0,16.344,5542.5448853667,32.152232,0.223694,2.22427172472,0,0,-10.513618,118, -0.1, 2,0,0,1024,1024,1684,1024,115.6,0,99,4.158,4.161,4.146,4.148,0,0,16.742,80.51,6,P-GPS,
0.339545728425281,36.901886665145,5544.1853053667,33.792652,0,2.22118773512,6700,2018-04-07 06:07:16,14,0,16.613,5544.1853053667,33.792652,0.223694,2.22427172472,0,0,-10.513618,118, -0.3, 2.1,0,0,1024,1024,1684,1024,115.8,0,99,4.162,4.168,4.157,4.161,0,0,17.16,80.51,6,P-GPS,
0.339545768655175,36.9018867171981,5545.4976413667,35.104988,0,2.21243773484,6800,2018-04-07 06:07:16,14,0,16.613,5545.4976413667,35.104988,0.223694,2.22427172472,0,0,-10.513618,118, -0.3, 2,0,0,1024,1024,1684,1024,115.9,0,99,4.162,4.168,4.157,4.161,0,0,17.16,80.51,6,P-GPS,
0.339545799956312,36.9018867912741,5547.1380613667,36.745408,0,2.19537080516,6900,2018-04-07 06:07:16,14,0,16.613,5547.1380613667,36.745408,0.223694,2.22427172472,0,0,-10.513618,118, 0, 1.7,0,0,1024,1024,1684,1024,116,0,99,4.162,4.168,4.157,4.161,0,0,17.16,80.51,6,P-GPS,
0.339545852056749,36.9018868581241,5548.7784813667,38.385828,0,2.18486883632,7000,2018-04-07 06:07:16,14,0,16.613,5548.7784813667,38.385828,0.223694,2.22427172472,0,0,-10.289924,118, 0.5, 2,0,0,1024,1024,1684,1024,116.1,-0.2,99,4.162,4.168,4.157,4.161,0,0,17.16,80.51,6,P-GPS,
0.339545907846019,36.9018869401543,5550.0908173667,39.698164,0,2.17087277288,7100,2018-04-07 06:07:16,14,0,16.613,5550.0908173667,39.698164,0.223694,2.22427172472,0,0,-10.289924,117.9, 0.8, 2,0,0,1024,1024,1684,1024,116.1,-0.5,99,4.162,4.168,4.157,4.161,0,0,17.16,80.51,6,P-GPS,
0.339545960473868,36.9018870153759,5551.7312373667,41.338584,0,2.15879600084,7200,2018-04-07 06:07:16,14,0,16.613,5551.7312373667,41.338584,0.223694,2.22427172472,0,0,-10.289924,117.9, 0.9, 2.2,0,0,1024,1024,1684,1024,116.2,-2.5,99,4.162,4.168,4.157,4.161,0,0,17.16,80.51,6,P-GPS,
0.339546023139447,36.9018870853981,5553.3716573667,42.979004,0,2.15083012132,7300,2018-04-07 06:07:16,14,0,16.613,5553.3716573667,42.979004,0.223694,2.22427172472,0,0,-10.289924,118, 0.5, 2.6,0,0,1024,1024,1684,1024,116.2,-2.5,99,4.162,4.168,4.157,4.161,0,0,17.16,80.51,6,P-GPS,
0.339546073896214,36.9018871454411,5554.6839933667,44.29134,0,2.14377959616,7400,2018-04-07 06:07:17,14,0,16.613,5554.6839933667,44.29134,0.223694,2.22427172472,0,0,-10.289924,118, 0.4, 2.8,0,0,1024,1024,1684,1024,116.3,-5.9,99,4.162,4.168,4.157,4.161,0,0,17.16,80.51,6,P-GPS,
0.339546112828646,36.9018872233858,5556.3244133667,45.93176,0.223694,2.12927172168,7500,2018-04-07 06:07:17,14,0,16.613,5556.3244133667,45.93176,0.223694,2.22427172472,0,0.223694,-10.289924,117.9, 0.8, 2.5,0,0,1024,1024,1684,1024,116.4,-10.9,99,4.162,4.168,4.157,4.161,0,0,17.16,80.51,6,P-GPS,
0.339546137911162,36.9018873139509,5557.9648333667,47.57218,0,2.1084154218,7600,2018-04-07 06:07:17,14,0,16.613,5557.9648333667,47.57218,0.223694,2.22427172472,0,0,-10.513618,117.9, 1.6, 2.6,0,0,1024,1024,1684,1024,116.4,-16,99,4.162,4.168,4.157,4.161,0,0,17.16,80.51,6,P-GPS,
0.339546172993952,36.9018873941257,5559.2771693667,48.884516,0,2.09314967328,7700,2018-04-07 06:07:17,14,0,16.532,5559.2771693667,48.884516,0.223694,2.22427172472,0,0,-10.513618,118, 1.4, 2.9,0,0,1024,1024,1684,1024,116.5,-17.5,99,4.162,4.168,4.157,4.161,0,0,17.16,80.51,6,P-GPS,
0.339546201339055,36.9018874332217,5560.9175893667,50.524936,0,2.08839901696,7800,2018-04-07 06:07:17,14,0,16.532,5560.9175893667,50.524936,0.223694,2.22427172472,0,0,-10.737312,117.9, 0.9, 2.9,0,0,1024,1024,1684,1024,116.5,-17.5,99,4.162,4.168,4.157,4.161,0,0,17.16,80.51,6,P-GPS,
0.339546217933714,36.9018874676515,5562.5580093667,52.165356,0,2.08241148396,7900,2018-04-07 06:07:17,14,0,16.532,5562.5580093667,52.165356,0.223694,2.22427172472,0,0,-10.961006,117.9, 0.5, 3,0,0,1024,1024,1684,1024,116.6,-17.5,99,4.162,4.168,4.157,4.161,0,0,17.16,80.51,6,P-GPS,
0.339546200723911,36.9018875033478,5564.1984293667,53.805776,0,2.0683399612,8000,2018-04-07 06:07:17,14,0,16.532,5564.1984293667,53.805776,0.223694,2.22427172472,0,0,-10.961006,117.9, 0.7, 2.8,0,0,1024,1024,1684,1024,116.6,-17.5,99,4.162,4.168,4.157,4.161,0,0,17.16,80.51,6,P-GPS,
0.33954617217973,36.9018875512886,5565.8388493667,55.446196,0,2.04819888444,8100,2018-04-07 06:07:17,14,0,16.532,5565.8388493667,55.446196,0.223694,2.22427172472,0,0,-10.961006,117.9, 0.9, 2.5,0,0,1024,1024,1684,1024,116.6,-17.5,99,4.162,4.168,4.157,4.161,0,0,17.16,80.51,6,P-GPS,
0.339546146871268,36.9018876140467,5567.4792693667,57.086616,0,2.02462932988,8200,2018-04-07 06:07:17,14,0,16.532,5567.4792693667,57.086616,0.223694,2.22427172472,0,0,-11.1847,118, 1.4, 2.3,0,0,1024,1024,1684,1024,116.7,-17.5,99,4.162,4.168,4.157,4.161,0,0,17.16,80.51,6,P-GPS,
0.339546117966387,36.901887672023,5569.1196893667,58.727036,0,2.00159455224,8300,2018-04-07 06:07:17,14,0,16.532,5569.1196893667,58.727036,0.223694,2.22427172472,0,0,-11.1847,118, 1.8, 2.2,0,0,1024,1024,1684,1024,116.7,-17.5,99,4.162,4.168,4.157,4.161,0,0,17.16,80.51,6,P-GPS,
0.339546071518686,36.9018877038661,5571.0881933667,60.69554,0,1.9818570188,8400,2018-04-07 06:07:18,14,0,16.532,5571.0881933667,60.69554,0.223694,2.22427172472,0,0,-11.408394,118, 2.1, 2,0,0,1024,1024,1684,1024,116.7,-17.5,99,4.162,4.168,4.157,4.161,0,0,17.16,80.51,6,P-GPS,
0.339546036371979,36.9018877176797,5572.7286133667,62.33596,0,1.96983930188,8500,2018-04-07 06:07:18,14,0,16.532,5572.7286133667,62.33596,0.223694,2.22427172472,0,0,-11.408394,118, 2, 2.3,0,0,1024,1024,1684,1024,116.8,-17.5,99,4.162,4.168,4.157,4.161,0,0,17.16,80.51,6,P-GPS,
0.33954601284992,36.9018877238598,5574.3690333667,63.97638,0,1.96267722816,8600,2018-04-07 06:07:18,14,0,16.532,5574.3690333667,63.97638,0.223694,2.22427172472,0,0,-11.632088,118, 1.6, 3,0,0,1024,1024,1684,1033,116.8,-18,99,4.162,4.168,4.157,4.161,0,0,17.16,80.51,6,P-GPS,
0.339545986668815,36.9018877117308,5576.3375373667,65.944884,0,1.96012801548,8700,2018-04-07 06:07:18,14,0,16.397,5576.3375373667,65.944884,0.223694,2.22427172472,0,0,-11.632088,118, 1.1, 3.1,0,0,1024,1024,1684,1037,116.8,-18,99,4.147,4.152,4.139,4.146,0,0,18.666,80.51,6,P-GPS,
0.339545943742421,36.9018877025562,5577.9779573667,67.585304,0,1.95299546932,8800,2018-04-07 06:07:18,14,0,16.397,5577.9779573667,67.585304,0.223694,2.22427172472,0,0,-11.408394,118, 1.1, 2.5,0,0,1024,1024,1684,1027,116.8,-19.7,99,4.147,4.152,4.139,4.146,0,0,18.666,80.51,6,P-GPS,
0.339545874769268,36.9018876931745,5579.9464613667,69.553808,0,1.94021003584,8900,2018-04-07 06:07:18,14,0,16.397,5579.9464613667,69.553808,0.223694,2.22427172472,0,0,-11.632088,118.1, 1.6, 1.8,0,0,1024,1024,1684,1024,116.9,-22,99,4.147,4.152,4.139,4.146,0,0,18.666,80.51,6,P-GPS,
0.339545790462076,36.9018876749869,5581.5868813667,71.194228,0,1.92688326376,9000,2018-04-07 06:07:18,14,0,16.397,5581.5868813667,71.194228,0.223694,2.22427172472,0,0,-11.632088,118, 1.2, 1.5,0,0,1024,1024,1684,1024,116.9,-23.4,99,4.147,4.152,4.139,4.146,0,0,18.666,80.51,6,P-GPS,
0.339545714176803,36.9018876652519,5583.5553853667,73.162732,0,1.9132054418,9100,2018-04-07 06:07:18,14,0,16.397,5583.5553853667,73.162732,0.223694,2.22427172472,0,0,-11.632088,118, 1.5, 1.5,0,0,1024,1024,1684,1024,116.9,-23.4,99,4.147,4.152,4.139,4.146,0,0,18.666,80.51,6,P-GPS,
0.339545662119519,36.90188767821,5585.1958053667,74.803152,0,1.89824153056,9200,2018-04-07 06:07:18,14,0,16.397,5585.1958053667,74.803152,0.223694,2.22427172472,0,0,-11.632088,118.1, 1.9, 1.8,0,0,1024,1024,1684,1024,117,-23.4,99,4.147,4.152,4.139,4.146,0,0,18.666,80.51,6,P-GPS,
0.339545607300191,36.9018876930091,5587.1643093667,76.771656,0,1.88223103136,9300,2018-04-07 06:07:19,14,0,16.397,5587.1643093667,76.771656,0.223694,2.22427172472,0,0,-11.632088,118.1, 2.4, 1.9,0,0,1024,1024,1684,1048,117,-23.4,99,4.147,4.152,4.139,4.146,0,0,18.666,80.51,6,P-GPS,
0.339545572380042,36.9018877134128,5589.1328133667,78.74016,0,1.86880255324,9400,2018-04-07 06:07:19,14,0,16.397,5589.1328133667,78.74016,0.223694,2.22427172472,0,0,-11.408394,118.1, 2.9, 2.1,0,0,1024,1024,1684,1026,117,-23.4,99,4.147,4.152,4.139,4.146,0,0,18.666,80.51,6,P-GPS,
0.339545542781851,36.9018877103021,5590.7732333667,80.38058,0,1.86354664756,9500,2018-04-07 06:07:19,14,0,16.397,5590.7732333667,80.38058,0.223694,2.22427172472,0,0,-11.408394,118.1, 2.9, 1.9,0,0,1024,1024,1684,1024,117,-23.4,99,4.147,4.152,4.139,4.146,0,0,18.666,80.51,6,P-GPS,
0.339545522068654,36.9018876631417,5592.7417373667,82.349084,0,1.8734252568,9600,2018-04-07 06:07:19,14,0,16.397,5592.7417373667,82.349084,0.223694,2.22427172472,0,0,-11.632088,118.1, 2.1, 1.6,0,0,1024,1024,1684,1024,117.1,-23.4,99,4.147,4.152,4.139,4.146,0,0,18.666,80.51,6,P-GPS,
0.339545500619197,36.9018875990625,5594.7102413667,84.317588,0,1.8884186956,9700,2018-04-07 06:07:19,14,0,16.586,5594.7102413667,84.317588,0.223694,2.22427172472,0,0,-11.632088,118.1, 1.5, 1.3,0,0,1024,1024,1684,1024,117.1,-23.4,99,4.147,4.152,4.139,4.145,0,0,18.234,80.51,6,P-GPS,
0.339545471037697,36.9018875360207,5596.6787453667,86.286092,0,1.90167657004,9800,2018-04-07 06:07:19,14,0,16.586,5596.6787453667,86.286092,0.223694,2.22427172472,0,0,-11.632088,118, 0.9, 1.6,0,0,1024,1024,1684,1024,117.1,-23.4,99,4.147,4.152,4.139,4.145,0,0,18.234,80.51,6,P-GPS,
0.339545451612599,36.901887472959,5598.6472493667,88.254596,0,1.9171752582,9900,2018-04-07 06:07:19,14,0,16.586,5598.6472493667,88.254596,0.223694,2.22427172472,0,0,-11.632088,118, 1, 2.1,0,0,1024,1024,1684,1024,117.1,-23.4,99,4.147,4.152,4.139,4.145,0,0,18.234,80.51,6,P-GPS,
0.339545446625897,36.9018873987941,5600.6157533667,90.2231,0,1.93907814604,10000,2018-04-07 06:07:19,14,0,16.586,5600.6157533667,90.2231,0.223694,2.22427172472,0,0,-11.632088,118, 1.1, 2.2,0,0,1024,1024,1684,1024,117.1,-23.4,99,4.147,4.152,4.139,4.145,0,0,18.234,80.51,6,P-GPS,
0.339545434173796,36.9018873312911,5602.5842573667,92.191604,0,1.95761489204,10100,2018-04-07 06:07:19,14,0,16.586,5602.5842573667,92.191604,0.223694,2.22427172472,0,0,-11.632088,118, 1, 2.1,0,0,1024,1024,1684,1024,117.1,-23.4,99,4.147,4.152,4.139,4.145,0,0,18.234,80.51,6,P-GPS,
0.339545413082597,36.9018872934369,5604.5527613667,94.160108,0,1.96540688704,10200,2018-04-07 06:07:19,14,0,16.586,5604.5527613667,94.160108,0.223694,2.22427172472,0,0,-11.632088,118.1, 1.1, 2,0,0,1024,1024,1684,1024,117.2,-23.4,99,4.147,4.152,4.139,4.145,0,0,18.234,80.51,6,P-GPS,
0.339545372816062,36.9018872675774,5606.5212653667,96.128612,0,1.96595478732,10300,2018-04-07 06:07:19,14,0,16.586,5606.5212653667,96.128612,0.223694,2.22427172472,0,0,-11.632088,118, 1.6, 1.5,0,0,1024,1024,1684,1024,117.2,-23.4,99,4.147,4.152,4.139,4.145,0,0,18.234,80.51,6,P-GPS,
0.339545322621922,36.9018872314122,5608.4897693667,98.097116,0,1.96810045668,10400,2018-04-07 06:07:19,14,0,16.586,5608.4897693667,98.097116,0.223694,2.22427172472,0,0,-11.632088,118, 2, 1.2,0,0,1024,1024,1684,1024,117.2,-23.4,99,4.147,4.152,4.139,4.145,0,0,18.234,80.51,6,P-GPS,
0.339545285888907,36.9018871914319,5610.4582733667,100.06562,0,1.97412735976,10500,2018-04-07 06:07:20,14,0,16.586,5610.4582733667,100.06562,0.223694,2.22427172472,0,0,-11.632088,118, 1.5, 1.1,0,0,1024,1024,1684,1024,117.2,-23.4,99,4.147,4.152,4.139,4.145,0,0,18.234,80.51,6,P-GPS,
0.339545269813722,36.9018871477215,5612.4267773667,102.034124,0,1.98517394804,10600,2018-04-07 06:07:20,14,0,16.586,5612.4267773667,102.034124,0.223694,2.22427172472,0,0,-11.632088,118, 1, 1.4,0,0,1024,1024,1684,1024,117.2,-23.4,99,4.147,4.152,4.139,4.145,0,0,18.234,80.51,6,P-GPS,
0.339545264886458,36.9018871228555,5614.3952813667,104.002628,0,1.99223759656,10700,2018-04-07 06:07:20,14,0,16.586,5614.3952813667,104.002628,0.223694,2.22427172472,0,0,-11.408394,118, 1.4, 1.9,0,0,1024,1024,1684,1024,117.2,-23.4,99,4.147,4.152,4.139,4.145,0,0,16.29,80.51,6,P-GPS,
0.339545277529493,36.9018870969495,5616.3637853667,105.971132,0,2.00274284624,10800,2018-04-07 06:07:20,14,0,16.586,5616.3637853667,105.971132,0.223694,2.22427172472,0,0,-11.632088,118.2, 2.3, 2.6,0,0,1024,1024,1684,1068,117.3,-23.4,99,4.147,4.152,4.139,4.145,0,0,16.29,80.51,6,P-GPS,
0.339545290933216,36.9018870228145,5618.3322893667,107.939636,0,2.0288058392,10900,2018-04-07 06:07:20,14,0,16.586,5618.3322893667,107.939636,0.223694,2.22427172472,0,0,-11.408394,118.2, 2.5, 2.6,0,0,1024,1024,1684,1068,117.3,-23.4,99,4.147,4.152,4.139,4.145,0,0,16.29,80.51,6,P-GPS,
0.339545300958324,36.9018868602696,5620.3007933667,109.90814,0.223694,2.08276253384,11000,2018-04-07 06:07:20,14,0,16.586,5620.3007933667,109.90814,0.223694,2.22427172472,0,-0.223694,-11.408394,118.1, 0.9, 1.7,0,0,1024,1024,1684,1201,117.6,-23.4,99,4.147,4.152,4.139,4.145,0,0,16.29,80.51,6,P-GPS,
0.339545310638203,36.9018866359104,5622.2692973667,111.876644,0.223694,2.1570210664,11100,2018-04-07 06:07:20,14,0,16.586,5622.2692973667,111.876644,0.223694,2.22427172472,0,-0.223694,-11.408394,118.8, -0.7, 1.2,0,0,1024,1024,1684,1264,118.9,-23.4,99,4.147,4.152,4.139,4.145,0,0,16.29,80.51,6,P-GPS,
0.339545311122868,36.9018864061804,5624.2378013667,113.845148,0.223694,2.23209980896,11200,2018-04-07 06:07:20,14,0,16.586,5624.2378013667,113.845148,0.223694,2.23209980896,0,-0.223694,-11.1847,121.2, -1.5, 0.6,0,0,1024,1024,1684,1308,120.7,-23.4,99,4.147,4.152,4.139,4.145,0,0,16.29,80.51,6,P-GPS,
0.339545295884703,36.9018861797822,5625.8782213667,115.485568,0.223694,2.3042487614,11300,2018-04-07 06:07:20,14,0,16.586,5625.8782213667,115.485568,0.223694,2.3042487614,0,-0.223694,-11.1847,124.9, -1.3, 0,0,0,1024,1024,1684,1308,123.3,-23.4,99,4.147,4.152,4.139,4.145,0,0,16.29,80.51,6,P-GPS,
0.339545275206518,36.9018860089583,5627.8467253667,117.454072,0,2.357775666,11400,2018-04-07 06:07:21,14,0,16.586,5627.8467253667,117.454072,0.223694,2.357775666,0,0,-11.408394,129.2, -0.7, 0,0,0,1024,1024,1684,1293,127,-23.4,99,4.147,4.152,4.139,4.145,0,0,16.29,80.51,6,P-GPS,
0.339545255493389,36.9018858473797,5629.8152293667,119.422576,0,2.408792728,11500,2018-04-07 06:07:21,14,0,16.586,5629.8152293667,119.422576,0.223694,2.408792728,0,0,-11.1847,134, -0.2, 0,0,0,1024,1024,1684,1219,127,-23.4,99,4.147,4.152,4.139,4.145,0,0,16.29,80.51,6,P-GPS,
0.339545246281892,36.9018857177122,5631.7837333667,121.39108,0,2.45094824116,11600,2018-04-07 06:07:21,14,0,16.586,5631.7837333667,121.39108,0.223694,2.45094824116,0,0,-10.961006,138.2, 0.1, 0.2,0,0,1024,1024,1684,1090,131.2,-23.4,99,4.147,4.152,4.139,4.145,0,0,16.29,80.51,6,P-GPS,
0.339545250199114,36.9018855879339,5633.4241533667,123.0315,0,2.49516412184,11700,2018-04-07 06:07:21,14,0,16.532,5633.4241533667,123.0315,0.223694,2.49516412184,0,0,-11.1847,140.7, 0.3, 0,0,0,1024,1024,1684,1024,134.6,-23.4,99,4.153,4.157,4.145,4.152,0,0,16.29,80.51,6,P-GPS,
0.339545275311756,36.9018854831752,5635.3926573667,125.000004,0,2.53398302072,11800,2018-04-07 06:07:21,14,0,16.532,5635.3926573667,125.000004,0.223694,2.53398302072,0,0,-11.1847,141.3, -0.3, 0,0,0,1024,1024,1684,1057,136.8,-23.4,99,4.153,4.157,4.145,4.152,0,0,16.29,80.51,6,P-GPS,
0.339545314633183,36.901885387703,5637.3611613667,126.968508,0,2.5716536256,11900,2018-04-07 06:07:21,14,0,16.532,5637.3611613667,126.968508,0.223694,2.5716536256,0,0,-11.408394,141.4, -0.8, 0,0,0,1024,1024,1684,1115,138,-23.4,99,4.153,4.157,4.145,4.152,0,0,16.29,80.51,6,P-GPS,
0.339545356263132,36.9018852704385,5639.3296653667,128.937012,0,2.6169948344,12000,2018-04-07 06:07:21,14,0,16.532,5639.3296653667,128.937012,0.223694,2.6169948344,0,0,-11.408394,141.6, -0.8, 0.7,0,0,1024,1024,1684,1075,139,-23.4,99,4.153,4.157,4.145,4.152,0,0,16.29,80.51,6,P-GPS,
0.339545382119159,36.9018851600789,5640.9700853667,130.577432,0,2.65782816904,12100,2018-04-07 06:07:21,14,0,16.532,5640.9700853667,130.577432,0.223694,2.65782816904,0,0,-11.1847,142.4, -0.5, 1,0,0,1024,1024,1684,1024,139.6,-23.4,99,4.153,4.157,4.145,4.152,0,0,16.29,80.51,6,P-GPS,
0.339545381548186,36.9018850518707,5642.9385893667,132.545936,0,2.69433735656,12200,2018-04-07 06:07:21,14,0,16.532,5642.9385893667,132.545936,0.223694,2.69433735656,0,0,-11.408394,142.7, -0.2, 0.7,0,0,1024,1024,1684,1023,140.1,-23.4,99,4.153,4.157,4.145,4.152,0,0,16.29,80.51,6,P-GPS,
0.339545368729685,36.901884911541,5644.9070933667,134.51444,0,2.74019365724,12300,2018-04-07 06:07:22,14,0,16.532,5644.9070933667,134.51444,0.223694,2.74019365724,0,0,-11.408394,142.8, -0.1, 0.5,0,0,1024,1024,1684,1024,140.4,-23.4,99,4.153,4.157,4.145,4.152,0,0,16.29,80.51,6,P-GPS,
0.339545358977138,36.9018847696171,5646.8755973667,136.482944,0,2.7871884094,12400,2018-04-07 06:07:22,14,0,16.532,5646.8755973667,136.482944,0.223694,2.7871884094,0,0,-11.1847,142.9, -0.5, 0.2,0,0,1024,1024,1684,1024,140.6,-23.4,99,4.153,4.157,4.145,4.152,0,0,16.29,80.51,6,P-GPS,
0.339545354613111,36.9018846129339,5648.5160173667,138.123364,0,2.84008539272,12500,2018-04-07 06:07:22,14,0,16.532,5648.5160173667,138.123364,0.223694,2.84008539272,0,0,-11.1847,142.8, -0.6, 0.2,0,0,1024,1024,1684,1024,140.8,-23.4,99,4.153,4.157,4.145,4.152,0,0,16.29,80.51,6,P-GPS,
0.33954537042632,36.901884494277,5650.4845213667,140.091868,0,2.88266741508,12600,2018-04-07 06:07:22,14,0,16.532,5650.4845213667,140.091868,0.223694,2.88266741508,0,0,-11.1847,142.8, -0.1, 0.5,0,0,1024,1024,1684,1024,141,-23.4,99,4.153,4.157,4.145,4.152,0,0,16.29,80.51,6,P-GPS,
0.339545385448309,36.9018843705279,5652.1249413667,141.732288,0,2.92692922752,12700,2018-04-07 06:07:22,14,0,16.532,5652.1249413667,141.732288,0.223694,2.92692922752,0,0,-11.1847,142.9, -0.1, 0.2,0,0,1024,1024,1684,1024,141,-23.4,99,4.152,4.156,4.145,4.151,0,0,15.53,80.51,6,P-GPS,
0.339545412083546,36.9018840120447,5655.7338653667,145.341212,0,3.05329078012,12900,2018-04-07 06:07:22,14,0,16.532,5655.7338653667,145.341212,0.223694,3.05329078012,0,0,-11.1847,142.8, -0.8, -0.8,0,0,1024,1024,1684,1024,141.1,-23.4,99,4.152,4.156,4.145,4.151,0,0,15.53,80.51,6,P-GPS,
0.339545420762949,36.9018838887843,5657.7023693667,147.309716,0,3.09677503348,13000,2018-04-07 06:07:22,14,0,16.532,5657.7023693667,147.309716,0.223694,3.09677503348,0,0,-11.1847,142.8, -0.9, -1,0,0,1024,1024,1684,1024,141.2,-23.4,99,4.152,4.156,4.145,4.151,0,0,15.53,80.51,6,P-GPS,
0.33954543406123,36.9018837798561,5659.6708733667,149.27822,0,3.135908893,13100,2018-04-07 06:07:22,14,0,16.532,5659.6708733667,149.27822,0.223694,3.135908893,0,0,-11.1847,142.8, -0.9, -0.5,0,0,1024,1024,1684,1024,141.3,-23.4,99,4.152,4.156,4.145,4.151,0,0,15.53,80.51,6,P-GPS,
0.339545443485646,36.901883697319,5661.3112933667,150.91864,0,3.1655020698,13200,2018-04-07 06:07:22,14,0,16.532,5661.3112933667,150.91864,0.223694,3.1655020698,0,0,-11.1847,142.8, -0.9, -0.1,0,0,1024,1024,1684,1024,141.3,-23.4,99,4.152,4.156,4.145,4.151,0,0,15.53,80.51,6,P-GPS,
0.339545444721024,36.9018836287411,5662.9517133667,152.55906,0,3.1893209682,13300,2018-04-07 06:07:22,14,0,16.532,5662.9517133667,152.55906,0.223694,3.1893209682,0,0,-11.1847,142.8, -0.7, -0.2,0,0,1024,1024,1684,1024,141.4,-23.4,99,4.152,4.156,4.145,4.151,0,0,15.53,80.51,6,P-GPS,
0.33954546834995,36.9018835584105,5664.9202173667,154.527564,0,3.21639117904,13400,2018-04-07 06:07:23,14,0,16.532,5664.9202173667,154.527564,0.223694,3.21639117904,0,0,-11.1847,142.8, -0.4, -0.3,0,0,1024,1024,1684,1024,141.4,-23.4,99,4.152,4.156,4.145,4.151,0,0,15.53,80.51,6,P-GPS,
0.339545491056973,36.9018835113412,5666.5606373667,156.167984,0,3.235318345,13500,2018-04-07 06:07:23,14,0,16.532,5666.5606373667,156.167984,0.223694,3.235318345,0,0,-11.1847,142.9, -0.2, -0.3,0,0,1024,1024,1684,1024,141.5,-23.4,99,4.152,4.156,4.145,4.151,0,0,15.53,80.51,6,P-GPS,
0.339545515421752,36.9018834316588,5668.5291413667,158.136488,0,3.26570220424,13600,2018-04-07 06:07:23,14,0,16.505,5668.5291413667,158.136488,0.223694,3.26570220424,0,0,-11.1847,142.9, 0, 0.1,0,0,1024,1024,1684,1024,141.6,-23.4,99,4.152,4.155,4.144,4.149,0,0,15.504,80.51,6,P-GPS,
0.339545599686401,36.9018833209331,5672.1380653667,161.745412,0,3.3139108672,13800,2018-04-07 06:07:23,14,0,16.505,5672.1380653667,161.745412,0.223694,3.3139108672,0,0,-11.1847,142.8, -0.4, 0,0,0,1024,1024,1684,1024,141.6,-23.4,99,4.152,4.155,4.144,4.149,0,0,15.504,80.51,6,P-GPS,
0.339545668642455,36.9018832643674,5673.7784853667,163.385832,0,3.3416667736,13900,2018-04-07 06:07:23,14,0,16.505,5673.7784853667,163.385832,0.223694,3.3416667736,0,0,-11.1847,142.8, -1, -0.2,0,0,1024,1024,1684,1024,141.6,-23.4,99,4.152,4.155,4.144,4.149,0,0,15.504,80.51,6,P-GPS,
0.339545768807842,36.9018831483882,5675.4189053667,165.026252,0,3.3937993212,14000,2018-04-07 06:07:23,14,0,16.505,5675.4189053667,165.026252,0.223694,3.3937993212,0,0,-10.961006,142.8, -2, -0.1,0,0,1024,1024,1684,1024,141.7,-23.4,99,4.152,4.155,4.144,4.149,0,0,15.504,80.51,6,P-GPS,
0.339545883031586,36.9018830543511,5677.3874093667,166.994756,0,3.440288824,14100,2018-04-07 06:07:23,14,0,16.505,5677.3874093667,166.994756,0.223694,3.440288824,0,0,-11.1847,142.8, -2.5, 0.3,0,0,1024,1024,1684,1024,141.7,-23.4,99,4.152,4.155,4.144,4.149,0,0,15.504,80.51,6,P-GPS,
0.339545990728322,36.9018829946828,5679.0278293667,168.635176,0,3.47440956,14200,2018-04-07 06:07:23,14,0,16.505,5679.0278293667,168.635176,0.223694,3.47440956,0,0,-11.1847,142.8, -2.5, 0.3,0,0,1024,1024,1684,1024,141.7,-23.4,99,4.152,4.155,4.144,4.149,0,0,15.504,80.51,6,P-GPS,
0.339546081073581,36.9018829430751,5680.6682493667,170.275596,0,3.5037402696,14300,2018-04-07 06:07:23,14,0,16.505,5680.6682493667,170.275596,0.223694,3.5037402696,0,0,-11.1847,142.8, -2.2, 0,0,0,1024,1024,1684,1024,141.7,-23.4,99,4.152,4.155,4.144,4.149,0,0,15.504,80.51,6,P-GPS,
0.339546120685481,36.9018828648702,5682.6367533667,172.2441,0,3.5355644176,14400,2018-04-07 06:07:23,14,0,16.505,5682.6367533667,172.2441,0.223694,3.5355644176,0,0,-11.1847,142.8, -2.1, 0,0,0,1024,1024,1684,1024,141.8,-23.4,99,4.152,4.155,4.144,4.149,0,0,15.504,80.51,6,P-GPS,
0.339546164345693,36.9018828100893,5684.2771733667,173.88452,0,3.5599738672,14500,2018-04-07 06:07:24,14,0,16.505,5684.2771733667,173.88452,0.223694,3.5599738672,0,0,-10.961006,142.8, -2.1, 0.2,0,0,1024,1024,1684,1024,141.8,-23.4,99,4.152,4.155,4.144,4.149,0,0,15.504,80.51,6,P-GPS,
0.339546222462824,36.9018827600093,5685.9175933667,175.52494,0,3.5847114008,14600,2018-04-07 06:07:24,14,0,16.505,5685.9175933667,175.52494,0.223694,3.5847114008,0,0,-10.961006,142.8, -1.9, 0.2,0,0,1024,1024,1684,1024,141.8,-23.4,99,4.152,4.155,4.144,4.149,0,0,15.504,80.51,6,P-GPS,
0.339546273472204,36.9018827190735,5687.5580133667,177.16536,0,3.6054463096,14700,2018-04-07 06:07:24,14,0,16.505,5687.5580133667,177.16536,0.223694,3.6054463096,0,0,-11.1847,142.8, -2.3, 0,0,0,1024,1024,1684,1024,141.8,-23.4,99,4.152,4.155,4.144,4.149,0,0,15.504,80.51,6,P-GPS,
0.339546311074604,36.9018826727696,5689.1984333667,178.80578,0,3.6262140268,14800,2018-04-07 06:07:24,14,0,16.505,5689.1984333667,178.80578,0.223694,3.6262140268,0,0,-10.961006,142.8, -2.6, 0,0,0,1024,1024,1684,1024,141.9,-23.4,99,4.152,4.155,4.144,4.149,0,0,15.504,80.51,6,P-GPS,
0.339546336523113,36.9018826489817,5690.8388533667,180.4462,0,3.6376969668,14900,2018-04-07 06:07:24,14,0,16.505,5690.8388533667,180.4462,0.223694,3.6376969668,0,0,-10.961006,142.8, -2.4, 0,0,0,1024,1024,1684,1024,141.9,-23.4,99,4.152,4.155,4.144,4.149,0,0,15.504,80.51,6,P-GPS,
0.339546308640894,36.9018826625388,5692.4792733667,182.08662,0,3.6293308248,15000,2018-04-07 06:07:24,14,0,16.505,5692.4792733667,182.08662,0.223694,3.6376969668,0,0,-10.961006,142.7, -1.9, -0.2,0,0,1024,1024,1684,1024,141.9,-23.4,99,4.152,4.155,4.144,4.149,0,0,15.504,80.51,6,P-GPS,
0.339546286724481,36.9018826865815,5694.4477773667,184.055124,0,3.6182415856,15100,2018-04-07 06:07:24,14,0,16.505,5694.4477773667,184.055124,0.223694,3.6376969668,0,0,-11.1847,142.7, -2, -0.4,0,0,1024,1024,1684,1024,141.9,-23.4,99,4.152,4.155,4.144,4.149,0,0,15.504,80.51,6,P-GPS,
0.339546289160633,36.9018827028248,5696.0881973667,185.695544,0,3.6130578584,15200,2018-04-07 06:07:24,14,0,16.505,5696.0881973667,185.695544,0.223694,3.6376969668,0,0,-11.1847,142.7, -1.6, -0.1,0,0,1024,1024,1684,1024,141.9,-23.4,99,4.152,4.155,4.144,4.149,0,0,15.504,80.51,6,P-GPS,
0.339546290185332,36.9018827562108,5697.7286173667,187.335964,0.223694,3.5951116636,15300,2018-04-07 06:07:25,14,0,16.505,5697.7286173667,187.335964,0.223694,3.6376969668,0,0.223694,-11.1847,142.7, -1.1, 0.2,0,0,1024,1024,1684,1024,141.9,-23.4,99,4.152,4.155,4.144,4.149,0,0,15.504,80.51,6,P-GPS,
0.339546297375726,36.9018828416359,5699.6971213667,189.304468,0.223694,3.5671917152,15400,2018-04-07 06:07:25,14,0,16.505,5699.6971213667,189.304468,0.223694,3.6376969668,0,0.223694,-11.1847,142.7, -0.9, 0.8,0,0,1024,1024,1684,1024,142,-23.4,99,4.152,4.155,4.144,4.149,0,0,15.504,80.51,6,P-GPS,
0.339546311056691,36.901882922529,5701.3375413667,190.944888,0.223694,3.5417323968,15500,2018-04-07 06:07:25,14,0,16.505,5701.3375413667,190.944888,0.223694,3.6376969668,0,0.223694,-10.961006,142.7, -0.9, 1.5,0,0,1024,1024,1684,1024,142,-23.4,99,4.152,4.155,4.144,4.149,0,0,15.504,80.51,6,P-GPS,
0.33954632311369,36.9018829792189,5702.9779613667,192.585308,0,3.524278328,15600,2018-04-07 06:07:25,14,0,16.505,5702.9779613667,192.585308,0.223694,3.6376969668,0,0,-11.1847,142.7, -1.3, 1.4,0,0,1024,1024,1684,1024,142,-23.4,99,4.152,4.155,4.144,4.149,0,0,15.504,80.51,6,P-GPS,
0.339546336113966,36.9018830171592,5704.9464653667,194.553812,0,3.5133203224,15700,2018-04-07 06:07:25,14,0,16.478,5704.9464653667,194.553812,0.223694,3.6376969668,0,0,-11.408394,142.7, -1.3, 1,0,0,1024,1024,1684,1024,142,-23.4,99,4.152,4.156,4.144,4.15,0,0,14.928,80.51,6,P-GPS,
0.339546357030108,36.9018830473301,5706.5868853667,196.194232,0,3.5061352828,15800,2018-04-07 06:07:25,14,0,16.478,5706.5868853667,196.194232,0.223694,3.6376969668,0,0,-11.408394,142.7, -1.2, 0.8,0,0,1024,1024,1684,1024,142,-23.4,99,4.152,4.156,4.144,4.15,0,0,14.928,80.51,6,P-GPS,
0.339546381256469,36.9018830936832,5708.2273053667,197.834652,0,3.4939961748,15900,2018-04-07 06:07:25,14,0,16.478,5708.2273053667,197.834652,0.223694,3.6376969668,0,0,-11.408394,142.7, -1.4, 1.1,0,0,1024,1024,1684,1024,142,-23.4,99,4.152,4.156,4.144,4.15,0,0,14.928,80.51,6,P-GPS,
0.33954637997407,36.901883230883,5711.8362293667,201.443576,0,3.447834756,16100,2018-04-07 06:07:25,14,0,16.478,5711.8362293667,201.443576,0.223694,3.6376969668,0,0,-10.961006,142.7, -1, 0.9,0,0,1024,1024,1684,1024,142,-23.4,99,4.152,4.156,4.144,4.15,0,0,14.928,80.51,6,P-GPS,
0.339546368487433,36.9018832848985,5713.4766493667,203.083996,0,3.4280840992,16200,2018-04-07 06:07:25,14,0,16.478,5713.4766493667,203.083996,0.223694,3.6376969668,0,0,-10.961006,142.7, -0.8, 1,0,0,1024,1024,1684,1024,142,-23.4,99,4.152,4.156,4.144,4.15,0,0,14.928,80.51,6,P-GPS,
0.339546361426092,36.9018833297389,5715.1170693667,204.724416,0,3.4120407916,16300,2018-04-07 06:07:25,14,0,16.478,5715.1170693667,204.724416,0.223694,3.6376969668,0,0,-10.961006,142.8, -1.3, 0.6,0,0,1024,1024,1684,1024,142.1,-23.4,99,4.152,4.156,4.144,4.15,0,0,14.928,80.51,6,P-GPS,
0.339546357387144,36.9018833655765,5716.7574893667,206.364836,0,3.3994751744,16400,2018-04-07 06:07:25,14,0,16.478,5716.7574893667,206.364836,0.223694,3.6376969668,0,0,-10.961006,142.7, -1.6, 0.4,0,0,1024,1024,1684,1024,142.1,-23.4,99,4.152,4.156,4.144,4.15,0,0,14.928,80.51,6,P-GPS,
0.339546352129306,36.9018834217139,5718.3979093667,208.005256,0,3.3799541764,16500,2018-04-07 06:07:26,14,0,16.478,5718.3979093667,208.005256,0.223694,3.6376969668,0,0,-10.961006,142.8, -1.5, 0.6,0,0,1024,1024,1684,1024,142.1,-23.4,99,4.152,4.156,4.144,4.15,0,0,14.928,80.51,6,P-GPS,
0.339546345069594,36.9018834899043,5720.0383293667,209.645676,0,3.356135278,16600,2018-04-07 06:07:26,14,0,16.478,5720.0383293667,209.645676,0.223694,3.6376969668,0,0,-10.961006,142.8, -1.1, 0.9,0,0,1024,1024,1684,1027,142.1,-23.4,99,4.152,4.156,4.144,4.15,0,0,14.928,80.51,6,P-GPS,
0.33954633985898,36.9018835640527,5721.6787493667,211.286096,0,3.3306431512,16700,2018-04-07 06:07:26,14,0,16.424,5721.6787493667,211.286096,0.223694,3.6376969668,0,0,-10.961006,142.7, -0.9, 1.2,0,0,1024,1024,1684,1024,142.1,-23.4,99,4.145,4.149,4.138,4.144,0,0,15.508,80.51,6,P-GPS,
0.339546333454717,36.9018836309133,5723.6472533667,213.2546,0,3.307414804,16800,2018-04-07 06:07:26,14,0,16.424,5723.6472533667,213.2546,0.223694,3.6376969668,0,0,-11.1847,142.7, -0.8, 1.2,0,0,1024,1024,1684,1024,142.1,-23.4,99,4.145,4.149,4.138,4.144,0,0,15.508,80.51,6,P-GPS,
0.33954632942269,36.9018837055445,5725.2876733667,214.89502,0,3.281988294,16900,2018-04-07 06:07:26,14,0,16.424,5725.2876733667,214.89502,0.223694,3.6376969668,0,0,-10.961006,142.7, -0.8, 1.2,0,0,1024,1024,1684,1024,142.1,-23.4,99,4.145,4.149,4.138,4.144,0,0,15.508,80.51,6,P-GPS,
0.339546322907285,36.901883788823,5726.9280933667,216.53544,0,3.2533301566,17000,2018-04-07 06:07:26,14,0,16.424,5726.9280933667,216.53544,0.223694,3.6376969668,0,0,-10.961006,142.7, -0.7, 1.4,0,0,1024,1024,1684,1024,142.1,-23.4,99,4.145,4.149,4.138,4.144,0,0,15.508,80.51,6,P-GPS,
0.339546302179636,36.9018838694758,5728.5685133667,218.17586,0,3.22342201916,17100,2018-04-07 06:07:26,14,0,16.424,5728.5685133667,218.17586,0.223694,3.6376969668,0,0,-11.1847,142.7, -0.3, 1.3,0,0,1024,1024,1684,1024,142.1,-23.4,99,4.145,4.149,4.138,4.144,0,0,15.508,80.51,6,P-GPS,
0.339546265523769,36.9018839187566,5730.2089333667,219.81628,0,3.20151256964,17200,2018-04-07 06:07:26,14,0,16.424,5730.2089333667,219.81628,0.223694,3.6376969668,0,0,-11.1847,142.7, 0, 0.8,0,0,1024,1024,1684,1024,142.1,-23.4,99,4.145,4.149,4.138,4.144,0,0,15.508,80.51,6,P-GPS,
0.339546247083676,36.9018839413887,5731.8493533667,221.4567,0,3.1912074512,17300,2018-04-07 06:07:26,14,0,16.424,5731.8493533667,221.4567,0.223694,3.6376969668,0,0,-11.1847,142.8, -0.3, 1,0,0,1024,1024,1684,1024,142.1,-23.4,99,4.145,4.149,4.138,4.144,0,0,15.508,80.51,6,P-GPS,
0.339546260529738,36.9018839264799,5733.8178573667,223.425204,0,3.19819235956,17400,2018-04-07 06:07:27,14,0,16.424,5733.8178573667,223.425204,0.223694,3.6376969668,0,0,-11.1847,142.8, -1.1, 1.2,0,0,1024,1024,1684,1024,142.2,-23.4,99,4.145,4.149,4.138,4.144,0,0,15.508,80.51,6,P-GPS,
0.339546274435021,36.9018838974685,5735.1301933667,224.73754,0,3.20992792424,17500,2018-04-07 06:07:27,14,0,16.424,5735.1301933667,224.73754,0.223694,3.6376969668,0,0,-10.961006,142.8, -1.2, 0.7,0,0,1024,1024,1684,1024,142.2,-23.4,99,4.145,4.149,4.138,4.144,0,0,15.508,80.51,6,P-GPS,
0.339546287479265,36.9018838847026,5737.0986973667,226.706044,0,3.21613855436,17600,2018-04-07 06:07:27,14,0,16.424,5737.0986973667,226.706044,0.223694,3.6376969668,0,0,-11.1847,142.7, -1.3, 0.2,0,0,1024,1024,1684,1024,142.2,-23.4,99,4.145,4.149,4.138,4.144,0,0,15.508,80.51,6,P-GPS,
0.33954630628535,36.901883876339,5738.7391173667,228.346464,0,3.2217684758,17700,2018-04-07 06:07:27,14,0,16.451,5738.7391173667,228.346464,0.223694,3.6376969668,0,0,-10.961006,142.8, -1.5, 0.6,0,0,1024,1024,1684,1024,142.2,-23.4,99,4.144,4.148,4.137,4.144,0,0,15.372,80.51,6,P-GPS,
0.339546324460414,36.9018838714051,5741.6918733667,231.29922,0,3.22617464392,17900,2018-04-07 06:07:27,14,0,16.451,5741.6918733667,231.29922,0.223694,3.6376969668,0,0,-10.737312,142.8, -1.2, 0.6,0,0,1024,1024,1684,1024,142.2,-23.4,99,4.144,4.148,4.137,4.144,0,0,15.372,80.51,6,P-GPS,
0.339546330507233,36.901883871593,5743.3322933667,232.93964,0,3.227034224,18000,2018-04-07 06:07:27,14,0,16.451,5743.3322933667,232.93964,0.223694,3.6376969668,0,0,-10.961006,142.7, -1.3, 0.8,0,0,1024,1024,1684,1024,142.2,-23.4,99,4.144,4.148,4.137,4.144,0,0,15.372,80.51,6,P-GPS,
0.339546333794248,36.9018838723017,5745.3007973667,234.908144,0,3.22730325288,18100,2018-04-07 06:07:27,14,0,16.451,5745.3007973667,234.908144,0.223694,3.6376969668,0,0,-11.1847,142.7, -1.8, 0.7,0,0,1024,1024,1684,1024,142.2,-23.4,99,4.144,4.148,4.137,4.144,0,0,15.372,80.51,6,P-GPS,
0.339546330891953,36.9018838800444,5746.9412173667,236.548564,0,3.2242947226,18200,2018-04-07 06:07:27,14,0,16.451,5746.9412173667,236.548564,0.223694,3.6376969668,0,0,-11.1847,142.7, -2, 1,0,0,1024,1024,1684,1024,142.2,-23.4,99,4.144,4.148,4.137,4.144,0,0,15.372,80.51,6,P-GPS,
0.339546303270286,36.9018839227135,5748.5816373667,238.188984,0,3.20593514196,18300,2018-04-07 06:07:27,14,0,16.451,5748.5816373667,238.188984,0.223694,3.6376969668,0,0,-11.408394,142.7, -0.9, 1.2,0,0,1024,1024,1684,1024,142.2,-23.4,99,4.144,4.148,4.137,4.144,0,0,15.372,80.51,6,P-GPS,
0.339546274163478,36.9018839771027,5750.2220573667,239.829404,0,3.18347123048,18400,2018-04-07 06:07:28,14,0,16.451,5750.2220573667,239.829404,0.223694,3.6376969668,0,0,-11.1847,142.8, -0.4, 1.3,0,0,1024,1024,1684,1024,142.2,-23.4,99,4.144,4.148,4.137,4.144,0,0,15.372,80.51,6,P-GPS,
0.339546260790289,36.9018840187387,5751.8624773667,241.469824,0,3.16763133496,18500,2018-04-07 06:07:28,14,0,16.451,5751.8624773667,241.469824,0.223694,3.6376969668,0,0,-11.1847,142.7, -0.8, 1.3,0,0,1024,1024,1684,1024,142.2,-23.4,99,4.144,4.148,4.137,4.144,0,0,15.372,80.51,6,P-GPS,
0.339546261812545,36.9018840288089,5753.5028973667,243.110244,0,3.164452201,18600,2018-04-07 06:07:28,14,0,16.451,5753.5028973667,243.110244,0.223694,3.6376969668,0,0,-11.1847,142.7, -1.1, 1.2,0,0,1024,1024,1684,1024,142.2,-23.4,99,4.144,4.148,4.137,4.144,0,0,15.372,80.51,6,P-GPS,
0.339546262443974,36.901884033943,5755.1433173667,244.750664,0,3.16284787024,18700,2018-04-07 06:07:28,14,0,16.532,5755.1433173667,244.750664,0.223694,3.6376969668,0,0,-10.961006,142.7, -1.5, 0.9,0,0,1024,1024,1684,1024,142.3,-23.4,99,4.144,4.148,4.137,4.144,0,0,15.372,80.51,6,P-GPS,
0.339546267944858,36.9018840336844,5756.7837373667,246.391084,0,3.16377634796,18800,2018-04-07 06:07:28,14,0,16.532,5756.7837373667,246.391084,0.223694,3.6376969668,0,0,-10.961006,142.7, -1.5, 0.7,0,0,1024,1024,1684,1024,142.3,-23.4,99,4.144,4.148,4.137,4.144,0,0,15.372,80.51,6,P-GPS,
0.339546265667479,36.9018840578909,5758.7522413667,248.359588,0,3.1554134868,18900,2018-04-07 06:07:28,14,0,16.532,5758.7522413667,248.359588,0.223694,3.6376969668,0,0,-11.1847,142.7, -1.3, 1.1,0,0,1024,1024,1684,1024,142.3,-23.4,99,4.144,4.148,4.137,4.144,0,0,15.372,80.51,6,P-GPS,
0.339546220900332,36.9018840950454,5760.3926613667,250.000008,0,3.13625666204,19000,2018-04-07 06:07:28,14,0,16.532,5760.3926613667,250.000008,0.223694,3.6376969668,0,0,-11.1847,142.7, -0.8, 1.6,0,0,1024,1024,1684,1024,142.3,-23.4,99,4.144,4.148,4.137,4.144,0,0,15.372,80.51,6,P-GPS,
0.339546183819034,36.901884133362,5762.0330813667,251.640428,0,3.11790692392,19100,2018-04-07 06:07:28,14,0,16.532,5762.0330813667,251.640428,0.223694,3.6376969668,0,0,-11.408394,142.7, -0.5, 1.7,0,0,1024,1024,1684,1024,142.3,-23.4,99,4.144,4.148,4.137,4.144,0,0,15.372,80.51,6,P-GPS,
0.339546136201703,36.9018842276432,5765.3139213667,254.921268,0,3.07939970484,19300,2018-04-07 06:07:28,14,0,16.532,5765.3139213667,254.921268,0.223694,3.6376969668,0,0,-11.1847,142.7, -0.5, 2,0,0,1024,1024,1684,1024,142.3,-23.4,99,4.144,4.148,4.137,4.144,0,0,15.372,80.51,6,P-GPS,
0.339546130026643,36.9018842518973,5766.9543413667,256.561688,0,3.07041348408,19400,2018-04-07 06:07:29,14,0,16.532,5766.9543413667,256.561688,0.223694,3.6376969668,0,0,-10.961006,142.8, -0.4, 1.7,0,0,1024,1024,1684,1024,142.3,-23.4,99,4.144,4.148,4.137,4.144,0,0,15.372,80.51,6,P-GPS,
0.339546132621162,36.9018842456969,5768.5947613667,258.202108,0,3.0728675524,19500,2018-04-07 06:07:29,14,0,16.532,5768.5947613667,258.202108,0.223694,3.6376969668,0,0,-10.961006,142.8, -0.8, 1.2,0,0,1024,1024,1682,1024,142.3,-23.4,99,4.144,4.148,4.137,4.144,0,0,15.372,80.51,6,P-GPS,
0.339546141123268,36.9018842182063,5770.2351813667,259.842528,0,3.08327765772,19600,2018-04-07 06:07:29,14,0,16.532,5770.2351813667,259.842528,0.223694,3.6376969668,0,0,-10.961006,142.8, -1.3, 0.9,0,0,1024,1024,1665,1024,142.3,-23.4,99,4.144,4.148,4.137,4.144,0,0,15.372,80.51,6,P-GPS,
0.339546149621303,36.901884203192,5771.8756013667,261.482948,0,3.08954734296,19700,2018-04-07 06:07:29,14,0,16.505,5771.8756013667,261.482948,0.223694,3.6376969668,0,0,-10.961006,142.9, -1.3, 1.2,0,0,1024,1024,1642,1024,142.3,-23.4,99,4.143,4.147,4.135,4.142,0,0,15.156,82.31,6,P-GPS,
0.339546157775736,36.901884196149,5773.5160213667,263.123368,0,3.09312345856,19800,2018-04-07 06:07:29,14,0,16.505,5773.5160213667,263.123368,0.223694,3.6376969668,0,0,-10.737312,142.8, -1.2, 1.3,0,0,1024,1024,1649,1024,142.3,-23.4,99,4.143,4.147,4.135,4.142,0,0,15.156,82.31,6,P-GPS,
0.33954616319479,36.9018841920411,5775.1564413667,264.763788,0,3.095308498,19900,2018-04-07 06:07:29,14,0,16.505,5775.1564413667,264.763788,0.223694,3.6376969668,0,0,-10.513618,142.8, -0.9, 1.3,0,0,1024,1024,1621,1024,142.3,-23.4,99,4.143,4.147,4.135,4.142,0,0,15.156,82.31,6,P-GPS,
0.339546175569743,36.9018841953584,5776.7968613667,266.404208,0,3.0960958996,20000,2018-04-07 06:07:29,14,0,16.505,5776.7968613667,266.404208,0.223694,3.6376969668,0,0,-10.513618,142.8, -1, 1.5,0,0,1024,1024,1578,1024,142.3,-23.4,99,4.143,4.147,4.135,4.142,0,0,15.156,82.31,6,P-GPS,
0.339546193395506,36.9018841959129,5778.4372813667,268.044628,0,3.0986385506,20100,2018-04-07 06:07:29,14,0,16.505,5778.4372813667,268.044628,0.223694,3.6376969668,0,0,-10.06623,142.7, -1.4, 2.1,0,0,1024,1024,1545,1024,142.3,-23.4,99,4.143,4.147,4.135,4.142,0,0,15.156,82.31,6,P-GPS,
0.339546208392661,36.901884193359,5779.7496173667,269.356964,0,3.10178487616,20200,2018-04-07 06:07:29,14,0,16.505,5779.7496173667,269.356964,0.223694,3.6376969668,0,0,-9.618842,142.7, -1.8, 2.1,0,0,1024,1024,1512,1024,142.3,-23.4,99,4.143,4.147,4.135,4.142,0,0,15.156,82.31,6,P-GPS,
0.339546206009026,36.9018841863947,5781.0619533667,270.6693,0,3.1037238526,20300,2018-04-07 06:07:29,14,0,16.505,5781.0619533667,270.6693,0.223694,3.6376969668,0,0,-8.724066,142.7, -1.8, 1.4,0,0,1024,1024,1462,1024,142.3,-23.4,99,4.143,4.147,4.135,4.142,0,0,15.156,82.31,6,P-GPS,
0.339546182313944,36.9018841902644,5782.3742893667,271.981636,0,3.09881243512,20400,2018-04-07 06:07:29,14,0,16.505,5782.3742893667,271.981636,0.223694,3.6376969668,0,0,-8.276678,142.7, -1.3, 1.1,0,0,1024,1024,1348,1024,142.3,-23.4,99,4.143,4.147,4.135,4.142,0,0,15.156,82.31,6,P-GPS,
0.339546164231702,36.9018842014175,5783.3585413667,272.965888,0,3.09235902284,20500,2018-04-07 06:07:30,14,0,16.505,5783.3585413667,272.965888,0.223694,3.6376969668,0,0,-7.381902,142.7, -1.1, 1.4,0,0,1024,1024,1284,1024,142.3,-23.4,99,4.143,4.147,4.135,4.142,0,0,15.156,82.31,6,P-GPS,
0.339546156115537,36.9018842204396,5784.3427933667,273.95014,0,3.08481637168,20600,2018-04-07 06:07:30,14,0,16.505,5784.3427933667,273.95014,0.223694,3.6376969668,0,0,-6.039738,142.7, -1, 1.8,0,0,1024,1024,1230,1024,142.3,-23.4,99,4.143,4.147,4.135,4.142,0,0,15.156,82.31,6,P-GPS,
0.339546152054605,36.901884235753,5784.9989613667,274.606308,0,3.07912083344,20700,2018-04-07 06:07:30,14,0,16.613,5784.9989613667,274.606308,0.223694,3.6376969668,0,0,-4.921268,142.7, -0.8, 1.8,0,0,1024,1024,1150,1024,142.3,-23.4,98,4.15,4.156,4.149,4.143,0,0,14.278,82.31,6,P-GPS,
0.339546122190164,36.9018842422024,5785.6551293667,275.262476,0,3.07244432404,20800,2018-04-07 06:07:30,14,0,16.613,5785.6551293667,275.262476,0.223694,3.6376969668,0,0,-3.802798,142.8, -0.4, 2,0,0,1024,1024,1078,1024,142.3,-23.4,98,4.15,4.156,4.149,4.143,0,0,14.278,82.31,6,P-GPS,
0.339546104206035,36.9018842541038,5786.3112973667,275.918644,0,3.06577109548,20900,2018-04-07 06:07:30,14,0,16.613,5786.3112973667,275.918644,0.223694,3.6376969668,0,0,-2.684328,142.8, -0.2, 2,0,0,1024,1024,1109,1024,142.4,-23.4,98,4.15,4.156,4.149,4.143,0,0,14.278,82.31,6,P-GPS,
0.33954610488876,36.9018842705789,5786.6393813667,276.246728,0,3.06040364124,21000,2018-04-07 06:07:30,14,0,16.613,5786.6393813667,276.246728,0.223694,3.6376969668,0,0,-1.789552,142.9, 0.2, 1.6,0,0,1024,1024,1241,1024,142.4,-23.4,98,4.15,4.156,4.149,4.143,0,0,14.278,82.31,6,P-GPS,
0.339546116535799,36.9018842775459,5786.6393813667,276.246728,0,3.0598590218,21100,2018-04-07 06:07:30,14,0,16.613,5786.6393813667,276.246728,0.223694,3.6376969668,0,0,-1.342164,143, 0.6, 1.4,0,0,1024,1024,1255,1024,142.4,-23.4,98,4.15,4.156,4.149,4.143,0,0,14.278,82.31,6,P-GPS,
0.339546191471092,36.9018842595522,5786.9674653667,276.574812,0,3.07728356304,21200,2018-04-07 06:07:30,14,0,16.613,5786.9674653667,276.574812,0.223694,3.6376969668,0,0,-1.342164,143.2, 0.8, 1.3,0,0,1024,1024,1250,1024,142.4,-23.4,98,4.15,4.156,4.149,4.143,0,0,14.278,82.31,6,P-GPS,
0.339546289064555,36.9018842104647,5787.2955493667,276.902896,0,3.10866479764,21300,2018-04-07 06:07:30,14,0,16.613,5787.2955493667,276.902896,0.223694,3.6376969668,0,0,-1.789552,143.2, 0.1, 1.3,0,0,1024,1024,1161,1024,142.4,-23.4,98,4.15,4.156,4.149,4.143,0,0,14.278,82.31,6,P-GPS,
0.339546399048034,36.9018841824361,5787.2955493667,276.902896,0,3.13530849928,21400,2018-04-07 06:07:31,15,0,16.613,5787.2955493667,276.902896,0.223694,3.6376969668,0,0,-2.013246,143.2, -0.8, 1.8,0,0,1024,1024,1024,1024,142.4,-23.4,98,4.15,4.156,4.149,4.143,0,0,14.278,82.31,6,P-GPS,
0.339546516223943,36.9018841222437,5787.6236333667,277.23098,0,3.17394039028,21500,2018-04-07 06:07:31,15,0,16.613,5787.6236333667,277.23098,0.223694,3.6376969668,0,0,-1.789552,142.9, -1.7, 2,0,0,1024,1024,1024,1024,142.4,-23.4,98,4.15,4.156,4.149,4.143,0,0,14.278,82.31,6,P-GPS,
0.339546613969666,36.9018839885957,5787.9517173667,277.559064,0,3.23351716384,21600,2018-04-07 06:07:31,15,0,16.613,5787.9517173667,277.559064,0.223694,3.6376969668,0,0,-0.894776,143, -2.4, 1.5,0,0,1024,1024,1024,1024,142.4,-23.4,98,4.15,4.156,4.149,4.143,0,0,14.278,82.31,6,P-GPS,
0.339546702736962,36.9018838585187,5787.9517173667,277.559064,0,3.2904856696,21700,2018-04-07 06:07:31,15,0,16.828,5787.9517173667,277.559064,0.223694,3.6376969668,0,0,-0.671082,143, -1.8, 1.3,0,0,1024,1024,1024,1024,142.4,-23.4,98,4.179,4.176,4.162,4.164,0,0,9.076,82.31,6,P-GPS,
0.33954677587771,36.9018837573974,5788.2798013667,277.887148,0,3.335465986,21800,2018-04-07 06:07:31,15,0,16.828,5788.2798013667,277.887148,0.223694,3.6376969668,0,0,-0.671082,143, -1.4, 1.2,0,0,1024,1024,1024,1024,142.5,-23.4,98,4.179,4.176,4.162,4.164,0,0,9.076,82.31,6,P-GPS,
0.339546857468047,36.9018836411869,5788.2798013667,277.887148,0,3.3867455152,21900,2018-04-07 06:07:31,15,0,16.828,5788.2798013667,277.887148,0.223694,3.6376969668,0,0,-0.447388,143, -1.1, 0.7,0,0,1024,1024,1024,1024,142.5,-23.4,98,4.179,4.176,4.162,4.164,0,0,9.076,82.31,6,P-GPS,
