latitude,longitude,altitude(feet),ascent(feet),speed(mph),distance(feet),time(millisecond),datetime(utc),satellites,gpslevel,voltage(v),max_altitude(feet),max_ascent(feet),max_speed(mph),max_distance(feet), xSpeed(mph), ySpeed(mph), zSpeed(mph), compass_heading(degrees), pitch(degrees), roll(degrees),isPhoto,isVideo,rc_elevator,rc_aileron,rc_throttle,rc_rudder,gimbal_heading(degrees),gimbal_pitch(degrees),battery_percent,voltageCell1,voltageCell2,voltageCell3,voltageCell4,voltageCell5,voltageCell6,current(A),battery_temperature(f),flycStateRaw,flycState,message
0.35443669083866,36.9190213639004,5497.5752700825,0,0,0,0,2018-04-16 05:20:01,15,0,0,5497.5752700825,0,0,0,0,0,0,332.9, 1.9, -1.1,0,0,364,364,364,1684,337.4,0,99,4.267,4.27,4.262,4.263,0,0,0,80.51,41,Motors_Started,
0.354436725940585,36.9190213608928,5497.5752700825,0,0,0.012853838994,100,2018-04-16 05:20:01,15,0,0,5497.5752700825,0,0,0.012853838994,0,0,0,332.9, 1.9, -1.1,0,0,364,364,364,1684,337.4,0,99,4.267,4.27,4.262,4.263,0,0,0,80.51,41,Motors_Started,
0.354436745249452,36.9190213509583,5497.5752700825,0,0,0.0204055780808,200,2018-04-16 05:20:01,15,0,0,5497.5752700825,0,0,0.0204055780808,0,0,0,332.9, 1.9, -1.1,0,0,364,364,364,1684,337.4,0,99,4.267,4.27,4.262,4.263,0,0,0,80.51,41,Motors_Started,
0.354436762680724,36.9190213459558,5497.5752700825,0,0,0.0270167987648,300,2018-04-16 05:20:01,15,0,0,5497.5752700825,0,0,0.0270167987648,0,0,0,332.9, 1.9, -1.1,0,0,364,364,364,1684,337.4,0,99,4.267,4.27,4.262,4.263,0,0,0,80.51,41,Motors_Started,
0.354436765156366,36.9190213361769,5497.5752700825,0,0,0.0289398959392,400,2018-04-16 05:20:01,15,0,0,5497.5752700825,0,0,0.0289398959392,0,0,0,332.9, 1.9, -1.1,0,0,364,364,364,1684,337.4,0,99,4.267,4.27,4.262,4.263,0,0,0,80.51,41,Motors_Started,
0.354436771202779,36.9190213306544,5497.5752700825,0,0,0.0317306768684,500,2018-04-16 05:20:01,15,0,0,5497.5752700825,0,0,0.0317306768684,0,0,0,332.8, 1.9, -1.1,0,0,364,364,364,1684,337.4,0,99,4.267,4.27,4.262,4.263,0,0,0,80.51,41,Motors_Started,
0.354436764187035,36.9190213227302,5497.5752700825,0,0,0.0306883868088,600,2018-04-16 05:20:01,15,0,0,5497.5752700825,0,0,0.0317306768684,0,0,0,332.9, 1.9, -1.1,0,0,364,364,364,1684,337.4,0,99,4.267,4.27,4.262,4.263,0,0,0,80.51,41,Motors_Started,Setting new Return-To-Home altitude to 30m (98 ft). Setting new Maximum Flight Altitude to 150m (492 ft)
0.354436763160708,36.9190213172757,5497.5752700825,0,0,0.0313945548104,700,2018-04-16 05:20:02,15,0,0,5497.5752700825,0,0,0.0317306768684,0,0,0,332.8, 1.9, -1.1,0,0,364,364,364,1684,337.4,0,99,4.267,4.27,4.262,4.263,0,0,0,80.51,41,Motors_Started,
0.354436787275928,36.9190213467152,5497.5752700825,0,0,0.035739502456,800,2018-04-16 05:20:02,15,0,0,5497.5752700825,0,0,0.035739502456,0,0,0,332.8, 1.9, -1.1,0,0,364,364,364,1684,337.4,0,99,4.267,4.27,4.262,4.263,0,0,0,80.51,41,Motors_Started,
0.35443681256607,36.9190213720823,5497.5752700825,0,0,0.044512468616,900,2018-04-16 05:20:02,15,0,0,5497.5752700825,0,0,0.044512468616,0,0,0,332.9, 1.9, -1.1,0,0,364,364,364,1684,337.4,0,99,4.267,4.27,4.262,4.263,0,0,0,80.51,41,Motors_Started,
0.354436827531878,36.9190213936458,5497.5752700825,0,0,0.051039699796,1000,2018-04-16 05:20:02,15,0,0,5497.5752700825,0,0,0.051039699796,0,0,0,332.8, 1.9, -1.1,0,0,364,364,364,1684,337.4,0,99,4.267,4.27,4.262,4.263,0,0,0,80.51,41,Motors_Started,
0.354436842216779,36.919021409107,5497.5752700825,0,0,0.057640421792,1100,2018-04-16 05:20:02,15,0,0,5497.5752700825,0,0,0.057640421792,0,0,0,332.9, 1.9, -1.1,0,0,364,364,364,1684,337.4,0,99,4.267,4.27,4.262,4.263,0,0,0,80.51,41,Motors_Started,
0.354436846581823,36.9190214204502,5497.5752700825,0,0,0.060452429756,1200,2018-04-16 05:20:02,15,0,0,5497.5752700825,0,0,0.060452429756,0,0,0,332.9, 1.9, -1.1,0,0,364,364,364,1684,337.4,0,99,4.267,4.27,4.262,4.263,0,0,0,80.51,41,Motors_Started,
0.354436854194798,36.919021426448,5497.5752700825,0,0,0.063819883932,1300,2018-04-16 05:20:02,15,0,0,5497.5752700825,0,0,0.063819883932,0,0,0,332.9, 1.9, -1.1,0,0,985,1243,1024,1024,337.3,0,99,4.267,4.27,4.262,4.263,0,0,0,80.51,41,Motors_Started,
0.354436886641545,36.9190214275585,5497.5752700825,0,0,0.075119096892,1400,2018-04-16 05:20:02,15,0,0,5497.5752700825,0,0,0.075119096892,0,0,0,332.9, 1.9, -1.1,0,0,1024,1024,1024,1024,335.9,0,99,4.267,4.27,4.262,4.263,0,0,0,80.51,41,Motors_Started,
0.354436917419544,36.9190214305228,5497.5752700825,0,0,0.086167325592,1500,2018-04-16 05:20:02,15,0,0,5497.5752700825,0,0,0.086167325592,0,0,0,332.9, 1.9, -1.1,0,0,1024,1024,1024,1024,334.7,0,99,4.267,4.27,4.262,4.263,0,0,0,80.51,41,Motors_Started,
0.354436936651874,36.9190214263712,5497.5752700825,0,0,0.092535764116,1600,2018-04-16 05:20:02,15,0,16.828,5497.5752700825,0,0,0.092535764116,0,0,0,332.8, 1.9, -1,0,0,1024,1024,1024,1024,334.2,0,99,4.267,4.27,4.262,4.263,0,0,1.812,80.51,10,Assisted_Takeoff,
0.35443695396142,36.919021425394,5497.5752700825,0,0,0.098586945412,1700,2018-04-16 05:20:02,15,0,16.828,5497.5752700825,0,0,0.098586945412,0,0,0,332.9, 1.9, -1.1,0,0,1024,1024,1024,1024,334,0,99,4.267,4.27,4.262,4.263,0,0,1.812,80.51,10,Assisted_Takeoff,
0.354436958012174,36.9190214230247,5497.5752700825,0,0,0.099836289284,1800,2018-04-16 05:20:03,15,0,16.828,5497.5752700825,0,0,0.099836289284,0,0,0,332.8, 1.9, -1.1,0,0,1024,1024,1159,1024,333.8,0,99,4.267,4.27,4.262,4.263,0,0,1.812,80.51,10,Assisted_Takeoff,
0.354436966112462,36.9190214219499,5497.5752700825,0,0,0.102642391736,1900,2018-04-16 05:20:03,15,0,16.828,5497.5752700825,0,0,0.102642391736,0,0,0,332.9, 1.9, -1.1,0,0,1024,1024,1578,1081,333.7,0,99,4.267,4.27,4.262,4.263,0,0,1.812,80.51,10,Assisted_Takeoff,
0.35443699731182,36.9190214174546,5497.5752700825,0,0,0.113510830404,2000,2018-04-16 05:20:03,15,0,16.828,5497.5752700825,0,0,0.113510830404,0,0,0,332.8, 1.9, -1.1,0,0,1024,1024,1684,1193,333.7,0,99,4.267,4.27,4.262,4.263,0,0,1.812,80.51,10,Assisted_Takeoff,
0.354437028944752,36.9190214135664,5497.5752700825,0,0,0.124681434436,2100,2018-04-16 05:20:03,15,0,16.828,5497.5752700825,0,0,0.124681434436,0,0,0,332.9, 1.9, -1.1,0,0,1024,1024,1684,1256,333.7,0,99,4.267,4.27,4.262,4.263,0,0,1.812,80.51,10,Assisted_Takeoff,
0.354437046612555,36.9190214093051,5497.5752700825,0,0,0.130856631484,2200,2018-04-16 05:20:03,15,0,16.828,5497.5752700825,0,0,0.130856631484,0,0,0,333.1, 1.9, -1.1,0,0,1024,1024,1684,1163,334.5,0,99,4.267,4.27,4.262,4.263,0,0,1.812,80.51,10,Assisted_Takeoff,
0.354437064522997,36.9190214029304,5497.5752700825,0,0,0.13708005688,2300,2018-04-16 05:20:03,15,0,16.828,5497.5752700825,0,0,0.13708005688,0,0,0,333.8, 1.8, -1.1,0,0,1024,1024,1684,1142,335.4,0,99,4.267,4.27,4.262,4.263,0,0,1.812,80.51,10,Assisted_Takeoff,
0.354437087511333,36.9190213889538,5497.5752700825,0,0,0.145014112252,2400,2018-04-16 05:20:03,15,0,16.828,5497.5752700825,0,0,0.145014112252,0,0,0,335.3, 1.6, -1.1,0,0,1024,1024,1684,1133,335.9,0,99,4.267,4.27,4.262,4.263,0,0,1.812,80.51,10,Assisted_Takeoff,
0.354437088540917,36.9190213542965,5497.5752700825,0,0,0.145143705432,2500,2018-04-16 05:20:03,15,0,16.828,5497.5752700825,0,0,0.145143705432,0,0,-0.223694,336.7, 1.6, -1.4,0,0,1024,1024,1684,1193,336.5,0,99,4.267,4.27,4.262,4.263,0,0,1.812,80.51,10,Assisted_Takeoff,
0.354437051181562,36.9190212926294,5497.5752700825,0,0,0.134017720824,2600,2018-04-16 05:20:03,15,0,16.828,5497.5752700825,0,0,0.145143705432,0,0,-0.671082,337.9, 1.2, -0.5,0,0,1024,1024,1684,1181,337.2,0,99,4.267,4.27,4.262,4.263,0,0,1.812,80.51,6,P-GPS,
0.354436998995224,36.9190212016064,5497.5752700825,0,0,0.127069557872,2700,2018-04-16 05:20:04,15,0,16.828,5497.5752700825,0,0,0.145143705432,0,0,-1.342164,339.4, 0.4, 0.6,0,0,1024,1024,1684,1156,338.4,0,99,4.267,4.27,4.262,4.263,0,0,1.812,80.51,6,P-GPS,Home Point Recorded. RTH Altitude:  30m.
0.354436937270683,36.9190210970605,5497.9033540825,0.328084,0.223694,0.132521001616,2800,2018-04-16 05:20:04,15,0,16.828,5497.9033540825,0.328084,0.223694,0.145143705432,0,-0.223694,-2.23694,341.5, 0, 0.2,0,0,1024,1024,1684,1162,339.7,0,99,4.267,4.27,4.262,4.263,0,0,1.812,80.51,6,P-GPS,
0.354436915273254,36.9190209749629,5498.2314380825,0.656168,0.223694,0.163832354324,2900,2018-04-16 05:20:04,15,0,16.828,5498.2314380825,0.656168,0.223694,0.163832354324,0,-0.223694,-3.131716,343.1, 0.2, 0.1,0,0,1024,1024,1684,1134,341.1,0,99,4.267,4.27,4.262,4.263,0,0,1.812,80.51,6,P-GPS,
0.354436944329988,36.9190208475926,5498.8876060825,1.312336,0.223694,0.2098507285,3000,2018-04-16 05:20:04,15,0,16.828,5498.8876060825,1.312336,0.223694,0.2098507285,0,-0.223694,-4.026492,344.6, 0.2, 0.8,0,0,1024,1024,1684,1161,342.5,0,99,4.267,4.27,4.262,4.263,0,0,1.812,80.51,6,P-GPS,
0.354436999575765,36.919020703169,5499.5437740825,1.968504,0.223694,0.266082029512,3100,2018-04-16 05:20:04,15,0,16.828,5499.5437740825,1.968504,0.223694,0.266082029512,0,-0.223694,-4.921268,345.9, 1.2, 1.7,0,0,1024,1024,1684,1138,343.9,0,99,4.267,4.27,4.262,4.263,0,0,1.812,80.51,6,P-GPS,
0.354437027900105,36.9190205451765,5500.1999420825,2.624672,0.223694,0.323029537896,3200,2018-04-16 05:20:04,14,0,16.828,5500.1999420825,2.624672,0.223694,0.323029537896,0,-0.223694,-6.039738,347, 1.9, 2.1,0,0,1024,1024,1684,1149,345.2,0,99,4.267,4.27,4.262,4.263,0,0,1.812,80.51,6,P-GPS,
0.354437046130943,36.9190204213783,5501.1841940825,3.608924,0.223694,0.36749345008,3300,2018-04-16 05:20:04,14,0,16.828,5501.1841940825,3.608924,0.223694,0.36749345008,0,0,-7.158208,348.2, 1.6, 1.8,0,0,1024,1024,1684,1123,346.3,0,99,4.267,4.27,4.262,4.263,0,0,1.812,80.51,6,P-GPS,
0.354437058884102,36.9190203283644,5502.4965300825,4.92126,0,0.40096129892,3400,2018-04-16 05:20:04,15,0,16.828,5502.4965300825,4.92126,0.223694,0.40096129892,0,0,-8.276678,349.2, 1, 1,0,0,1024,1024,1684,1147,347.4,0,99,4.267,4.27,4.262,4.263,0,0,1.812,80.51,6,P-GPS,
0.35443707016067,36.9190202392236,5503.8088660825,6.233596,0,0.43304135244,3500,2018-04-16 05:20:04,15,0,16.828,5503.8088660825,6.233596,0.223694,0.43304135244,0,0,-9.395148,350.3, 0.6, 1,0,0,1024,1024,1684,1147,347.4,0,99,4.267,4.27,4.262,4.263,0,0,1.812,80.51,6,P-GPS,
0.35443709851188,36.9190202182363,5505.1212020825,7.545932,0.223694,0.44366143152,3600,2018-04-16 05:20:04,16,0,16.695,5505.1212020825,7.545932,0.223694,0.44366143152,0,-0.223694,-10.289924,351.3, 0.4, 1.8,0,0,1024,1024,1684,1127,348.5,0,99,4.26,4.259,4.242,4.226,0,0,3.668,80.51,6,P-GPS,
0.354437143049416,36.9190201969884,5506.7616220825,9.186352,0,0.45659122196,3700,2018-04-16 05:20:04,16,0,16.695,5506.7616220825,9.186352,0.223694,0.45659122196,0,0,-10.961006,352.5, 0.5, 2.6,0,0,1024,1024,1684,1111,349.6,0,99,4.26,4.259,4.242,4.226,0,0,3.668,80.51,6,P-GPS,
0.354437291901411,36.9190202892228,5508.4020420825,10.826772,0,0.44924870204,3800,2018-04-16 05:20:05,16,0,16.695,5508.4020420825,10.826772,0.223694,0.45659122196,0,0,-11.408394,353.6, 0.9, 2.3,0,0,1024,1024,1684,1024,350.5,0,99,4.26,4.259,4.242,4.226,0,0,3.668,80.51,6,P-GPS,
0.354437435041231,36.9190203696837,5510.0424620825,12.467192,0,0.4531004082,3900,2018-04-16 05:20:05,16,0,16.695,5510.0424620825,12.467192,0.223694,0.45659122196,0,0,-11.632088,354.1, 1.1, 2.3,0,0,1024,1024,1684,1016,351.1,0,99,4.26,4.259,4.242,4.226,0,0,3.668,80.51,6,P-GPS,
0.354437671173345,36.9190205974518,5511.6828820825,14.107612,0,0.45400920088,4000,2018-04-16 05:20:05,16,0,16.695,5511.6828820825,14.107612,0.223694,0.45659122196,0,0,-11.632088,354.1, 0.9, 2.3,0,0,1024,1024,1684,937,351.6,0,99,4.26,4.259,4.242,4.226,0,0,3.668,80.51,6,P-GPS,
0.354437883796021,36.9190208084612,5513.6513860825,16.076116,0,0.48011156392,4100,2018-04-16 05:20:05,16,0,16.695,5513.6513860825,16.076116,0.223694,0.48011156392,0,0,-11.632088,353.9, 0.8, 1.7,0,0,1024,1024,1684,869,351.6,0,99,4.26,4.259,4.242,4.226,0,0,3.668,80.51,6,P-GPS,
0.35443814460924,36.9190210898007,5515.2918060825,17.716536,0,0.53975395428,4200,2018-04-16 05:20:05,16,0,16.695,5515.2918060825,17.716536,0.223694,0.53975395428,0,0,-11.632088,353, 1.1, 1.1,0,0,1024,1024,1684,902,351,0,99,4.26,4.259,4.242,4.226,0,0,3.668,80.51,6,P-GPS,
0.35443836289198,36.9190213098438,5516.9322260825,19.356956,0,0.6103674736,4300,2018-04-16 05:20:05,16,0,16.695,5516.9322260825,19.356956,0.223694,0.6103674736,0,0,-11.408394,351.3, 1.1, 0.7,0,0,1024,1024,1684,903,350.4,0,99,4.26,4.259,4.242,4.226,0,0,3.668,80.51,6,P-GPS,
0.354438552862593,36.9190215568632,5518.5726460825,20.997376,0,0.68299542868,4400,2018-04-16 05:20:05,16,0,16.695,5518.5726460825,20.997376,0.223694,0.68299542868,0,0,-11.408394,349.9, 1.1, 0.8,0,0,1024,1024,1684,871,349.8,0,99,4.26,4.259,4.242,4.226,0,0,3.668,80.51,6,P-GPS,
0.354438712391888,36.9190217562737,5520.2130660825,22.637796,0,0.75132548336,4500,2018-04-16 05:20:05,16,0,16.695,5520.2130660825,22.637796,0.223694,0.75132548336,0,0,-11.1847,348.4, 0.8, 0.9,0,0,1024,1024,1684,897,348.9,0,99,4.26,4.259,4.242,4.226,0,0,3.668,80.51,6,P-GPS,
0.354438802368304,36.919021863092,5521.8534860825,24.278216,0,0.79162732192,4600,2018-04-16 05:20:05,16,0,16.079,5521.8534860825,24.278216,0.223694,0.79162732192,0,0,-11.1847,346.7, 0.7, 0.7,0,0,1024,1024,1684,903,348.2,0,99,4.064,4.066,4.242,4.226,0,0,21.772,80.51,6,P-GPS,
0.354438895249457,36.9190219463269,5523.4939060825,25.918636,0,0.83187666704,4700,2018-04-16 05:20:06,16,0,16.079,5523.4939060825,25.918636,0.223694,0.83187666704,0,0,-11.1847,345.3, 0.5, 0.9,0,0,1024,1024,1684,903,347.4,0,99,4.064,4.066,4.242,4.226,0,0,21.772,80.51,6,P-GPS,
0.354438934289366,36.9190219705706,5525.1343260825,27.559056,0,0.84791997464,4800,2018-04-16 05:20:06,16,0,16.079,5525.1343260825,27.559056,0.223694,0.84791997464,0,0,-11.1847,343.9, 0.5, 0.9,0,0,1024,1024,1684,903,346.5,0,99,4.064,4.066,4.242,4.226,0,0,21.772,80.51,6,P-GPS,
0.354438995060861,36.9190219995553,5526.7747460825,29.199476,0,0.8720964846,4900,2018-04-16 05:20:06,16,0,16.079,5526.7747460825,29.199476,0.223694,0.8720964846,0,0,-11.1847,342.5, 0.7, 0.7,0,0,1024,1024,1684,915,345.5,0,99,4.064,4.066,4.242,4.226,0,0,21.772,80.51,6,P-GPS,
0.354439014201591,36.9190219496923,5528.4151660825,30.839896,0,0.87420606472,5000,2018-04-16 05:20:06,16,0,16.079,5528.4151660825,30.839896,0.223694,0.87420606472,0,0,-11.1847,341.3, 0.8, 1,0,0,1024,1024,1684,954,343.6,0,99,4.064,4.066,4.242,4.226,0,0,21.772,80.51,6,P-GPS,
0.354439026756895,36.9190218216911,5531.6960060825,34.120736,0,0.8684711564,5200,2018-04-16 05:20:06,16,0,16.079,5531.6960060825,34.120736,0.223694,0.87420606472,0,0,-10.961006,339.1, 1.1, 1.2,0,0,1024,1024,1684,933,343.6,0,99,4.064,4.066,4.242,4.226,0,0,21.772,80.51,6,P-GPS,
0.354439021028029,36.9190217664411,5533.3364260825,35.761156,0,0.86275921396,5300,2018-04-16 05:20:06,16,0,16.079,5533.3364260825,35.761156,0.223694,0.87420606472,0,0,-10.961006,338.3, 0.7, 1.2,0,0,1024,1024,1684,931,342.9,0,99,4.064,4.066,4.242,4.226,0,0,21.772,80.51,6,P-GPS,
0.354438994026799,36.9190216627586,5534.9768460825,37.401576,0,0.84736223184,5400,2018-04-16 05:20:06,16,0,16.079,5534.9768460825,37.401576,0.223694,0.87420606472,0,0,-10.961006,337.4, 0.6, 1.4,0,0,1024,1024,1684,931,341.9,0,99,4.064,4.066,4.242,4.226,0,0,21.772,80.51,6,P-GPS,
0.354439008459698,36.9190215766904,5536.6172660825,39.041996,0,0.84914044712,5500,2018-04-16 05:20:06,16,0,16.079,5536.6172660825,39.041996,0.223694,0.87420606472,0,0,-10.961006,336.5, 0.6, 1.1,0,0,1024,1024,1684,943,341,0,99,4.064,4.066,4.242,4.226,0,0,21.772,80.51,6,P-GPS,
0.354439037235118,36.9190214291543,5538.2576860825,40.682416,0,0.85641078856,5600,2018-04-16 05:20:06,16,0,16.213,5538.2576860825,40.682416,0.223694,0.87420606472,0,0,-10.961006,335.5, 1.6, 1,0,0,1024,1024,1684,977,340.1,0,99,4.064,4.066,4.242,4.226,0,0,21.772,80.51,6,P-GPS,
0.354439076693944,36.9190212944307,5539.8981060825,42.322836,0,0.87084648456,5700,2018-04-16 05:20:06,16,0,16.213,5539.8981060825,42.322836,0.223694,0.87420606472,0,0,-10.961006,334.7, 1.9, 1.1,0,0,1024,1024,1684,1009,339.3,0,99,4.064,4.066,4.242,4.226,0,0,21.772,80.51,6,P-GPS,
0.35443908432809,36.9190211152175,5541.5385260825,43.963256,0,0.87796262652,5800,2018-04-16 05:20:07,16,0,16.213,5541.5385260825,43.963256,0.223694,0.87796262652,0,0,-10.961006,334.1, 1.5, 1.4,0,0,1024,1024,1684,1015,338.8,0,99,4.064,4.066,4.242,4.226,0,0,21.772,80.51,6,P-GPS,
0.354439106565307,36.91902097764,5543.1789460825,45.603676,0,0.89257220704,5900,2018-04-16 05:20:07,16,0,16.213,5543.1789460825,45.603676,0.223694,0.89257220704,0,0,-10.961006,334.1, 1.3, 1.3,0,0,1024,1024,1684,1019,338.5,0,99,4.064,4.066,4.242,4.226,0,0,21.772,80.51,6,P-GPS,
0.35443912284649,36.9190208238491,5544.8193660825,47.244096,0,0.90893047528,6000,2018-04-16 05:20:07,16,0,16.213,5544.8193660825,47.244096,0.223694,0.90893047528,0,0,-10.961006,334.1, 1.5, 1.3,0,0,1024,1024,1684,1021,338.2,0,99,4.064,4.066,4.242,4.226,0,0,21.772,80.51,6,P-GPS,
0.354439149336388,36.9190206883148,5546.4597860825,48.884516,0,0.93022968856,6100,2018-04-16 05:20:07,16,0,16.213,5546.4597860825,48.884516,0.223694,0.93022968856,0,0,-10.961006,334, 1.7, 1.5,0,0,1024,1024,1684,1021,337.9,0,99,4.064,4.066,4.242,4.226,0,0,21.772,80.51,6,P-GPS,
0.354439187902013,36.9190205421798,5548.1002060825,50.524936,0,0.95911092308,6200,2018-04-16 05:20:07,16,0,16.213,5548.1002060825,50.524936,0.223694,0.95911092308,0,0,-11.1847,334, 2, 1.6,0,0,1024,1024,1684,1021,337.7,0,99,4.064,4.066,4.242,4.226,0,0,21.772,80.51,6,P-GPS,
0.354439234813413,36.9190204147993,5549.7406260825,52.165356,0,0.99065619968,6300,2018-04-16 05:20:07,16,0,16.213,5549.7406260825,52.165356,0.223694,0.99065619968,0,0,-11.1847,334, 2.3, 1.7,0,0,1024,1024,1684,1021,337.4,0,99,4.064,4.066,4.242,4.226,0,0,21.772,80.51,6,P-GPS,
0.354439281036796,36.919020256969,5551.3810460825,53.805776,0,1.02771000664,6400,2018-04-16 05:20:07,16,0,16.213,5551.3810460825,53.805776,0.223694,1.02771000664,0,0,-10.961006,334, 2.3, 2.1,0,0,1024,1024,1684,1021,337.2,0,99,4.064,4.066,4.242,4.226,0,0,21.772,80.51,6,P-GPS,
0.354439324442971,36.9190201302748,5553.0214660825,55.446196,0,1.0610564644,6500,2018-04-16 05:20:07,16,0,16.213,5553.0214660825,55.446196,0.223694,1.0610564644,0,0,-10.961006,334.1, 2.6, 2.1,0,0,1024,1024,1684,1018,337.1,0,99,4.064,4.066,4.242,4.226,0,0,21.772,80.51,6,P-GPS,
0.354439361404579,36.9190200313924,5554.6618860825,57.086616,0,1.08890423432,6600,2018-04-16 05:20:07,16,0,16.24,5554.6618860825,57.086616,0.223694,1.08890423432,0,0,-10.961006,334.1, 2.8, 1.8,0,0,1024,1024,1684,1019,336.9,0,99,4.087,4.092,4.047,4.073,0,0,17.13,80.51,6,P-GPS,
0.354439380424805,36.9190199639368,5556.3023060825,58.727036,0,1.10626315876,6700,2018-04-16 05:20:08,16,0,16.24,5556.3023060825,58.727036,0.223694,1.10626315876,0,0,-10.961006,334, 2.6, 1.6,0,0,1024,1024,1684,1019,336.8,0,99,4.087,4.092,4.047,4.073,0,0,17.13,80.51,6,P-GPS,
0.354439385456697,36.9190199030628,5557.9427260825,60.367456,0,1.1183071224,6800,2018-04-16 05:20:08,16,0,16.24,5557.9427260825,60.367456,0.223694,1.1183071224,0,0,-10.961006,334, 2.1, 1.6,0,0,1024,1024,1684,1022,336.7,0,99,4.087,4.092,4.047,4.073,0,0,17.13,80.51,6,P-GPS,
0.35443937980681,36.9190198559622,5559.5831460825,62.007876,0,1.12479662392,6900,2018-04-16 05:20:08,16,0,16.24,5559.5831460825,62.007876,0.223694,1.12479662392,0,0,-10.961006,334, 1.8, 1.7,0,0,1024,1024,1684,1021,336.7,0,99,4.087,4.092,4.047,4.073,0,0,17.13,80.51,6,P-GPS,
0.354439393957174,36.9190197878091,5561.2235660825,63.648296,0,1.14162405228,7000,2018-04-16 05:20:08,16,0,16.24,5561.2235660825,63.648296,0.223694,1.14162405228,0,0,-10.961006,334.1, 2, 1.8,0,0,1024,1024,1684,1019,336.5,0,99,4.087,4.092,4.047,4.073,0,0,17.13,80.51,6,P-GPS,
0.354439404381658,36.9190197333519,5562.8639860825,65.288716,0,1.15501644116,7100,2018-04-16 05:20:08,16,0,16.24,5562.8639860825,65.288716,0.223694,1.15501644116,0,0,-10.961006,334.1, 2.3, 2,0,0,1024,1024,1684,1022,336.4,0,99,4.087,4.092,4.047,4.073,0,0,17.13,80.51,6,P-GPS,
0.354439410756202,36.9190196532159,5564.5044060825,66.929136,0,1.17231302964,7200,2018-04-16 05:20:08,16,0,16.24,5564.5044060825,66.929136,0.223694,1.17231302964,0,0,-11.1847,334.1, 2.2, 2.3,0,0,1024,1024,1684,1020,336.3,0,99,4.087,4.092,4.047,4.073,0,0,17.13,80.51,6,P-GPS,
0.354439409318286,36.9190196036562,5566.1448260825,68.569556,0,1.18159780684,7300,2018-04-16 05:20:08,16,0,16.24,5566.1448260825,68.569556,0.223694,1.18159780684,0,0,-11.1847,334.2, 2.4, 2,0,0,1024,1024,1684,1019,336.3,0,99,4.087,4.092,4.047,4.073,0,0,17.13,80.51,6,P-GPS,
0.354439396555357,36.9190195610977,5568.1133300825,70.53806,0,1.18623035292,7400,2018-04-16 05:20:08,16,0,16.24,5568.1133300825,70.53806,0.223694,1.18623035292,0,0,-11.1847,334.1, 2.2, 1.8,0,0,1024,1024,1684,1022,336.2,0,99,4.087,4.092,4.047,4.073,0,0,17.13,80.51,6,P-GPS,
0.354439360746687,36.9190195522908,5569.7537500825,72.17848,0,1.1771817962,7500,2018-04-16 05:20:08,16,0,16.24,5569.7537500825,72.17848,0.223694,1.18623035292,0,0,-11.1847,334.1, 1.6, 1.7,0,0,1024,1024,1684,1017,336.1,0,99,4.087,4.092,4.047,4.073,0,0,17.13,80.51,6,P-GPS,
0.35443929178127,36.9190195278712,5571.3941700825,73.8189,0,1.16156171696,7600,2018-04-16 05:20:08,16,0,16.186,5571.3941700825,73.8189,0.223694,1.18623035292,0,0,-11.1847,334, 0.8, 1.8,0,0,1024,1024,1684,1010,336,0,99,4.086,4.089,4.044,4.07,0,0,16.762,80.51,6,P-GPS,
0.35443922850075,36.9190195110797,5573.0345900825,75.45932,0,1.14637798944,7700,2018-04-16 05:20:08,16,0,16.186,5573.0345900825,75.45932,0.223694,1.18623035292,0,0,-11.1847,334, 0.9, 2,0,0,1024,1024,1684,1018,336,0,99,4.086,4.089,4.044,4.07,0,0,16.762,80.51,6,P-GPS,
0.354439136965099,36.9190194485703,5574.6750100825,77.09974,0,1.13349413076,7800,2018-04-16 05:20:09,16,0,16.186,5574.6750100825,77.09974,0.223694,1.18623035292,0,0,-10.961006,334, 1.1, 2.1,0,0,1024,1024,1684,1007,335.8,0,99,4.086,4.089,4.044,4.07,0,0,16.762,80.51,6,P-GPS,
0.354438999123014,36.9190193689397,5577.9558500825,80.38058,0,1.11311355268,8000,2018-04-16 05:20:09,16,0,16.186,5577.9558500825,80.38058,0.223694,1.18623035292,0,0,-10.961006,334, 1.5, 2.3,0,0,1024,1024,1684,1017,335.7,0,99,4.086,4.089,4.044,4.07,0,0,16.762,80.51,6,P-GPS,
0.35443891309761,36.9190193498823,5581.2366900825,83.66142,0,1.09421591428,8200,2018-04-16 05:20:09,16,0,16.186,5581.2366900825,83.66142,0.223694,1.18623035292,0,0,-11.1847,334.1, 1.9, 2,0,0,1024,1024,1684,1019,335.7,0,99,4.086,4.089,4.044,4.07,0,0,16.762,80.51,6,P-GPS,
0.354438867294366,36.9190193631418,5582.8771100825,85.30184,0,1.07861223924,8300,2018-04-16 05:20:09,16,0,16.186,5582.8771100825,85.30184,0.223694,1.18623035292,0,0,-10.961006,334.1, 1.6, 2.1,0,0,1024,1024,1684,1020,335.6,0,99,4.086,4.089,4.044,4.07,0,0,16.762,80.51,6,P-GPS,
0.354438805187955,36.9190193782503,5584.5175300825,86.94226,0,1.05826118872,8400,2018-04-16 05:20:09,16,0,16.186,5584.5175300825,86.94226,0.223694,1.18623035292,0,0,-11.1847,334.1, 1.1, 2.3,0,0,1024,1024,1684,1019,335.6,0,99,4.086,4.089,4.044,4.07,0,0,16.762,80.51,6,P-GPS,
0.35443875765001,36.9190194039766,5586.1579500825,88.58268,0,1.03920278916,8500,2018-04-16 05:20:09,16,0,16.186,5586.1579500825,88.58268,0.223694,1.18623035292,0,0,-11.1847,334, 1.1, 2.1,0,0,1024,1024,1684,1016,335.6,0,99,4.086,4.089,4.044,4.07,0,0,16.762,80.51,6,P-GPS,
0.354438680732087,36.9190194168861,5587.7983700825,90.2231,0,1.01572509812,8600,2018-04-16 05:20:09,16,0,16.213,5587.7983700825,90.2231,0.223694,1.18623035292,0,0,-11.1847,334, 1.3, 2,0,0,1024,1024,1684,1020,335.6,0,98,4.08,4.086,4.041,4.066,0,0,16.542,80.51,6,P-GPS,
0.354438617942136,36.9190194360072,5589.4387900825,91.86352,0,0.99453087172,8700,2018-04-16 05:20:10,16,0,16.213,5589.4387900825,91.86352,0.223694,1.18623035292,0,0,-10.961006,334.1, 1.4, 1.9,0,0,1024,1024,1684,1021,335.5,0,98,4.08,4.086,4.041,4.066,0,0,16.542,80.51,6,P-GPS,
0.354438547163446,36.9190194683708,5591.0792100825,93.50394,0,0.96797575276,8800,2018-04-16 05:20:10,16,0,16.213,5591.0792100825,93.50394,0.223694,1.18623035292,0,0,-11.1847,334, 1.4, 2,0,0,1024,1024,1684,1021,335.5,0,98,4.08,4.086,4.041,4.066,0,0,16.542,80.51,6,P-GPS,
0.35443848743782,36.9190195042428,5592.7196300825,95.14436,0,0.94339898032,8900,2018-04-16 05:20:10,16,0,16.213,5592.7196300825,95.14436,0.223694,1.18623035292,0,0,-11.1847,334, 1.2, 2,0,0,1024,1024,1684,1021,335.4,0,98,4.08,4.086,4.041,4.066,0,0,16.542,80.51,6,P-GPS,
0.354438420478238,36.9190195510628,5594.3600500825,96.78478,0,0.9141568534,9000,2018-04-16 05:20:10,16,0,16.213,5594.3600500825,96.78478,0.223694,1.18623035292,0,0,-11.1847,334, 1, 2,0,0,1024,1024,1684,1022,335.4,0,98,4.08,4.086,4.041,4.066,0,0,16.542,80.51,6,P-GPS,
0.354438313457713,36.9190196521378,5597.6408900825,100.06562,0,0.86052824276,9200,2018-04-16 05:20:10,16,0,16.213,5597.6408900825,100.06562,0.223694,1.18623035292,0,0,-11.1847,334.1, 1.1, 2,0,0,1024,1024,1684,1024,335.3,0,98,4.08,4.086,4.041,4.066,0,0,16.542,80.51,6,P-GPS,
0.354438268663697,36.9190197085559,5599.2813100825,101.70604,0,0.83434713956,9300,2018-04-16 05:20:10,16,0,16.213,5599.2813100825,101.70604,0.223694,1.18623035292,0,0,-10.961006,334, 0.9, 2.1,0,0,1024,1024,1684,1024,335.3,0,98,4.08,4.086,4.041,4.066,0,0,16.542,80.51,6,P-GPS,
0.354438221014204,36.9190197744736,5600.9217300825,103.34646,0,0.804954094,9400,2018-04-16 05:20:10,16,0,16.213,5600.9217300825,103.34646,0.223694,1.18623035292,0,0,-10.961006,334, 0.7, 1.9,0,0,1024,1024,1684,1024,335.3,0,98,4.08,4.086,4.041,4.066,0,0,16.542,80.51,6,P-GPS,
0.354438191597585,36.9190198326668,5602.5621500825,104.98688,0,0.78224740036,9500,2018-04-16 05:20:10,16,0,16.213,5602.5621500825,104.98688,0.223694,1.18623035292,0,0,-10.961006,334, 0.9, 1.9,0,0,1024,1024,1684,1024,335.3,0,98,4.08,4.086,4.041,4.066,0,0,16.542,80.51,6,P-GPS,
0.35443816378539,36.9190199204811,5604.2025700825,106.6273,0,0.75241800308,9600,2018-04-16 05:20:10,16,0,16.16,5604.2025700825,106.6273,0.223694,1.18623035292,0,0,-11.1847,334, 0.9, 1.6,0,0,1024,1024,1684,1024,335.2,0,98,4.08,4.086,4.041,4.066,0,0,16.542,80.51,6,P-GPS,
0.354438143810896,36.9190199997531,5605.8429900825,108.26772,0,0.72713585004,9700,2018-04-16 05:20:10,16,0,16.16,5605.8429900825,108.26772,0.223694,1.18623035292,0,0,-10.961006,334, 0.9, 1.5,0,0,1024,1024,1684,1024,335.2,0,98,4.08,4.086,4.041,4.066,0,0,16.542,80.51,6,P-GPS,
0.354438139258173,36.9190201026315,5607.4834100825,109.90814,0,0.70072508804,9800,2018-04-16 05:20:11,16,0,16.16,5607.4834100825,109.90814,0.223694,1.18623035292,0,0,-11.1847,334, 1.4, 1.8,0,0,1024,1024,1684,1024,335.2,0,98,4.08,4.086,4.041,4.066,0,0,16.542,80.51,6,P-GPS,
0.354438137706673,36.9190201855098,5609.4519140825,111.876644,0,0.68081038924,9900,2018-04-16 05:20:11,16,0,16.16,5609.4519140825,111.876644,0.223694,1.18623035292,0,0,-11.1847,334, 1.4, 2.1,0,0,1024,1024,1684,1022,335.2,0,98,4.08,4.086,4.041,4.066,0,0,16.542,80.51,6,P-GPS,
0.354438135746027,36.9190203115965,5611.0923340825,113.517064,0,0.65215881352,10000,2018-04-16 05:20:11,16,0,16.16,5611.0923340825,113.517064,0.223694,1.18623035292,0,0,-11.1847,334, 1.2, 1.9,0,0,1024,1024,1684,1023,335.1,0,98,4.08,4.086,4.041,4.066,0,0,16.542,80.51,6,P-GPS,
0.354438126955279,36.9190204200957,5612.7327540825,115.157484,0,0.6269849282,10100,2018-04-16 05:20:11,16,0,16.16,5612.7327540825,115.157484,0.223694,1.18623035292,0,0,-11.1847,334.1, 0.9, 1.5,0,0,1024,1024,1684,1024,335.1,0,98,4.08,4.086,4.041,4.066,0,0,16.542,80.51,6,P-GPS,
0.35443807684765,36.9190205106877,5614.3731740825,116.797904,0,0.5938156358,10200,2018-04-16 05:20:11,16,0,16.16,5614.3731740825,116.797904,0.223694,1.18623035292,0,0,-11.1847,334.1, 0.3, 1.8,0,0,1024,1024,1684,1024,335.1,0,98,4.08,4.086,4.041,4.066,0,0,16.542,80.51,6,P-GPS,
0.354438032821852,36.9190205795153,5616.0135940825,118.438324,0,0.56712272156,10300,2018-04-16 05:20:11,16,0,16.16,5616.0135940825,118.438324,0.223694,1.18623035292,0,0,-10.961006,334, 0, 2.1,0,0,1024,1024,1684,1024,335.1,0,98,4.08,4.086,4.041,4.066,0,0,16.542,80.51,6,P-GPS,
0.354437984701332,36.9190206607899,5617.6540140825,120.078744,0,0.53726051588,10400,2018-04-16 05:20:11,16,0,16.16,5617.6540140825,120.078744,0.223694,1.18623035292,0,0,-10.961006,334, 0, 2.1,0,0,1024,1024,1684,1024,335.1,0,98,4.08,4.086,4.041,4.066,0,0,16.542,80.51,6,P-GPS,
0.35443797527427,36.9190207261342,5619.2944340825,121.719164,0,0.523211959,10500,2018-04-16 05:20:11,16,0,16.16,5619.2944340825,121.719164,0.223694,1.18623035292,0,0,-10.961006,334, 0.7, 2,0,0,1024,1024,1684,1024,335.1,0,98,4.08,4.086,4.041,4.066,0,0,16.542,80.51,6,P-GPS,
0.354437956946947,36.9190207841636,5620.9348540825,123.359584,0,0.50806103988,10600,2018-04-16 05:20:11,16,0,16.133,5620.9348540825,123.359584,0.223694,1.18623035292,0,0,-10.961006,334.1, 1.2, 1.8,0,0,1024,1024,1684,1024,335,0,98,4.077,4.084,4.037,4.063,0,0,16.302,80.51,6,P-GPS,
0.354437939174923,36.9190208387418,5622.5752740825,125.000004,0,0.49411418904,10700,2018-04-16 05:20:12,16,0,16.133,5622.5752740825,125.000004,0.223694,1.18623035292,0,0,-10.961006,334.1, 1, 1.6,0,0,1024,1024,1684,1024,335,0,98,4.077,4.084,4.037,4.063,0,0,16.302,80.51,6,P-GPS,
0.354437874861563,36.9190208915809,5624.2156940825,126.640424,0,0.4650918784,10800,2018-04-16 05:20:12,16,0,16.133,5624.2156940825,126.640424,0.223694,1.18623035292,0,0,-11.1847,334.1, 0.5, 1.5,0,0,1024,1024,1684,1024,335,0,98,4.077,4.084,4.037,4.063,0,0,16.302,80.51,6,P-GPS,
0.354437822935777,36.9190209297959,5625.8561140825,128.280844,0,0.44236878056,10900,2018-04-16 05:20:12,16,0,16.133,5625.8561140825,128.280844,0.223694,1.18623035292,0,0,-10.961006,334.1, 0.5, 1.6,0,0,1024,1024,1684,1024,335,-0.2,98,4.077,4.084,4.037,4.063,0,0,16.302,80.51,6,P-GPS,
0.354437739265917,36.9190209583588,5627.4965340825,129.921264,0,0.4101378084,11000,2018-04-16 05:20:12,16,0,16.133,5627.4965340825,129.921264,0.223694,1.18623035292,0,0,-10.961006,334.1, 0.6, 1.9,0,0,1024,1024,1684,1024,335,-0.9,98,4.077,4.084,4.037,4.063,0,0,16.302,80.51,6,P-GPS,
0.354437676559017,36.9190209786217,5629.1369540825,131.561684,0,0.38613518296,11100,2018-04-16 05:20:12,16,0,16.133,5629.1369540825,131.561684,0.223694,1.18623035292,0,0,-10.961006,334.1, 0.4, 2.2,0,0,1024,1024,1684,1024,335,-1.8,98,4.077,4.084,4.037,4.063,0,0,16.302,80.51,6,P-GPS,
0.354437636556697,36.9190209737146,5630.7773740825,133.202104,0,0.37325788596,11200,2018-04-16 05:20:12,16,0,16.133,5630.7773740825,133.202104,0.223694,1.18623035292,0,0,-10.961006,334.1, 0.2, 2.3,0,0,1024,1024,1684,1024,335,-2.7,98,4.077,4.084,4.037,4.063,0,0,16.302,80.51,6,P-GPS,
0.354437618262757,36.919020971871,5632.4177940825,134.842524,0,0.36735893564,11300,2018-04-16 05:20:12,16,0,16.133,5632.4177940825,134.842524,0.223694,1.18623035292,0,0,-10.961006,334, 0.1, 2.2,0,0,1024,1024,1684,1024,334.9,-3.7,98,4.077,4.084,4.037,4.063,0,0,16.302,80.51,6,P-GPS,
0.35443760055465,36.9190209917646,5634.0582140825,136.482944,0,0.35860565452,11400,2018-04-16 05:20:12,16,0,16.133,5634.0582140825,136.482944,0.223694,1.18623035292,0,0,-10.961006,334, 0.3, 2.1,0,0,1024,1024,1684,1024,334.9,-4.6,98,4.077,4.084,4.037,4.063,0,0,16.302,80.51,6,P-GPS,
0.354437608791727,36.9190210120982,5635.6986340825,138.123364,0,0.35866799048,11500,2018-04-16 05:20:12,16,0,16.133,5635.6986340825,138.123364,0.223694,1.18623035292,0,0,-10.961006,334.1, 0.8, 1.9,0,0,1024,1024,1684,1024,334.9,-5.5,98,4.077,4.084,4.037,4.063,0,0,16.302,80.51,6,P-GPS,
0.354437635105346,36.9190210572048,5637.3390540825,139.763784,0,0.36223098272,11600,2018-04-16 05:20:12,16,0,16.16,5637.3390540825,139.763784,0.223694,1.18623035292,0,0,-10.961006,334.1, 1.3, 1.3,0,0,1024,1024,1684,1024,334.9,-6.5,98,4.07,4.076,4.03,4.058,0,0,16.292,80.51,6,P-GPS,
0.354437652321256,36.9190210931399,5638.9794740825,141.404204,0,0.36443898804,11700,2018-04-16 05:20:12,16,0,16.16,5638.9794740825,141.404204,0.223694,1.18623035292,0,0,-10.961006,334.1, 1.3, 1.8,0,0,1024,1024,1684,1024,334.9,-6.5,98,4.07,4.076,4.03,4.058,0,0,16.292,80.51,6,P-GPS,
0.354437640733249,36.9190211170451,5640.6198940825,143.044624,0,0.35808072012,11800,2018-04-16 05:20:13,16,0,16.16,5640.6198940825,143.044624,0.223694,1.18623035292,0,0,-10.961006,334.1, 1, 1.9,0,0,1024,1024,1684,1024,334.9,-7.4,98,4.07,4.076,4.03,4.058,0,0,16.292,80.51,6,P-GPS,
0.354437627732973,36.9190211360094,5642.2603140825,144.685044,0,0.35179134984,11900,2018-04-16 05:20:13,16,0,16.16,5642.2603140825,144.685044,0.223694,1.18623035292,0,0,-10.961006,334, 0.7, 1.9,0,0,1024,1024,1684,1024,334.9,-8.3,98,4.07,4.076,4.03,4.058,0,0,16.292,80.51,6,P-GPS,
0.354437598974652,36.9190211713675,5643.9007340825,146.325464,0,0.3386975174,12000,2018-04-16 05:20:13,16,0,16.16,5643.9007340825,146.325464,0.223694,1.18623035292,0,0,-10.961006,334, 0.6, 1.9,0,0,1024,1024,1684,1024,334.9,-9.3,98,4.07,4.076,4.03,4.058,0,0,16.292,80.51,6,P-GPS,
0.354437575096778,36.9190211989347,5645.5411540825,147.965884,0,0.32818570604,12100,2018-04-16 05:20:13,16,0,16.16,5645.5411540825,147.965884,0.223694,1.18623035292,0,0,-10.961006,334.1, 0.3, 1.9,0,0,1024,1024,1684,1024,334.9,-10.2,98,4.07,4.076,4.03,4.058,0,0,16.292,80.51,6,P-GPS,
0.354437523835397,36.9190212114271,5647.1815740825,149.606304,0,0.308967529572,12200,2018-04-16 05:20:13,16,0,16.16,5647.1815740825,149.606304,0.223694,1.18623035292,0,0,-10.961006,334, 0.4, 2.2,0,0,1024,1024,1684,1024,334.8,-11.2,98,4.07,4.076,4.03,4.058,0,0,16.292,80.51,6,P-GPS,
0.354437493093224,36.9190212230486,5648.8219940825,151.246724,0,0.297178815284,12300,2018-04-16 05:20:13,16,0,16.16,5648.8219940825,151.246724,0.223694,1.18623035292,0,0,-10.961006,334.1, 0.8, 2.1,0,0,1024,1024,1684,1024,334.8,-12.1,98,4.07,4.076,4.03,4.058,0,0,16.292,80.51,6,P-GPS,
0.354437468530996,36.919021277902,5650.4624140825,152.887144,0,0.285470153492,12400,2018-04-16 05:20:13,16,0,16.16,5650.4624140825,152.887144,0.223694,1.18623035292,0,0,-10.961006,334.1, 0.5, 1.8,0,0,1024,1024,1684,1024,334.8,-13,98,4.07,4.076,4.03,4.058,0,0,16.292,80.51,6,P-GPS,
0.354437452150478,36.9190213345327,5652.1028340825,154.527564,0,0.27797080942,12500,2018-04-16 05:20:13,16,0,16.16,5652.1028340825,154.527564,0.223694,1.18623035292,0,0,-10.961006,334.1, 0.3, 1.5,0,0,1024,1024,1684,1024,334.8,-14,98,4.07,4.076,4.03,4.058,0,0,16.292,80.51,6,P-GPS,
0.354437439161194,36.9190213763332,5653.7432540825,156.167984,0,0.27306267278,12600,2018-04-16 05:20:13,16,0,16.16,5653.7432540825,156.167984,0.223694,1.18623035292,0,0,-10.961006,334.1, 0, 1.5,0,0,1024,1024,1684,1024,334.8,-14.9,98,4.07,4.076,4.03,4.058,0,0,15.958,80.51,6,P-GPS,
0.354437436102976,36.9190214092818,5655.3836740825,157.808404,0,0.272412738376,12700,2018-04-16 05:20:14,16,0,16.16,5655.3836740825,157.808404,0.223694,1.18623035292,0,0,-10.961006,334.1, 0.3, 1.3,0,0,1024,1024,1684,1024,334.8,-16.8,98,4.07,4.076,4.03,4.058,0,0,15.958,80.51,6,P-GPS,
0.35443738803823,36.9190214669579,5658.6645140825,161.089244,0,0.257136819252,12900,2018-04-16 05:20:14,16,0,16.16,5658.6645140825,161.089244,0.223694,1.18623035292,0,0,-10.961006,334.1, 0.7, 1.5,0,0,1024,1024,1684,1024,334.8,-17.7,98,4.07,4.076,4.03,4.058,0,0,15.958,80.51,6,P-GPS,
0.354437363241914,36.9190214672023,5660.3049340825,162.729664,0,0.248204076184,13000,2018-04-16 05:20:14,16,0,16.16,5660.3049340825,162.729664,0.223694,1.18623035292,0,0,-11.1847,334.1, 0.7, 1.8,0,0,1024,1024,1684,1024,334.8,-18.7,98,4.07,4.076,4.03,4.058,0,0,15.958,80.51,6,P-GPS,
0.354437337580079,36.9190214755022,5661.9453540825,164.370084,0,0.23945046698,13100,2018-04-16 05:20:14,16,0,16.16,5661.9453540825,164.370084,0.223694,1.18623035292,0,0,-11.1847,334.1, 0.3, 1.9,0,0,1024,1024,1684,1024,334.8,-19.6,98,4.07,4.076,4.03,4.058,0,0,15.958,80.51,6,P-GPS,
0.354437317568945,36.9190214833332,5663.5857740825,166.010504,0,0.232776910336,13200,2018-04-16 05:20:14,16,0,16.16,5663.5857740825,166.010504,0.223694,1.18623035292,0,0,-10.961006,334, -0.1, 1.6,0,0,1024,1024,1684,1024,334.8,-20.5,98,4.07,4.076,4.03,4.058,0,0,15.958,80.51,6,P-GPS,
0.354437308106057,36.9190215002837,5665.2261940825,167.650924,0,0.230641083496,13300,2018-04-16 05:20:14,16,0,16.16,5665.2261940825,167.650924,0.223694,1.18623035292,0,0,-10.961006,334, -0.1, 1.3,0,0,1024,1024,1684,1024,334.8,-20.5,98,4.07,4.076,4.03,4.058,0,0,15.958,80.51,6,P-GPS,
0.354437320577902,36.9190215038684,5666.8666140825,169.291344,0,0.235366477348,13400,2018-04-16 05:20:14,16,0,16.16,5666.8666140825,169.291344,0.223694,1.18623035292,0,0,-10.961006,334.1, 0, 1,0,0,1024,1024,1684,1024,334.7,-21.5,98,4.07,4.076,4.03,4.058,0,0,15.958,80.51,6,P-GPS,
0.354437335349518,36.919021506551,5668.5070340825,170.931764,0,0.24083990272,13500,2018-04-16 05:20:14,16,0,16.16,5668.5070340825,170.931764,0.223694,1.18623035292,0,0,-10.961006,334, 0, 1.1,0,0,1024,1024,1684,1024,334.7,-22.4,98,4.07,4.076,4.03,4.058,0,0,15.958,80.51,6,P-GPS,
0.354437362487944,36.919021521037,5670.1474540825,172.572184,0,0.251667658972,13600,2018-04-16 05:20:14,16,0,16.106,5670.1474540825,172.572184,0.223694,1.18623035292,0,0,-10.961006,334.1, 0.2, 1,0,0,1024,1024,1684,1024,334.7,-23.3,98,4.07,4.074,4.028,4.056,0,0,15.958,80.51,6,P-GPS,
0.354437391295525,36.9190215338155,5671.7878740825,174.212604,0,0.262972777444,13700,2018-04-16 05:20:14,16,0,16.106,5671.7878740825,174.212604,0.223694,1.18623035292,0,0,-10.961006,334.1, 0.5, 0.9,0,0,1024,1024,1684,1024,334.7,-24.3,98,4.07,4.074,4.028,4.056,0,0,15.958,80.51,6,P-GPS,
0.35443741251985,36.9190215305015,5673.4282940825,175.853024,0,0.27022966744,13800,2018-04-16 05:20:15,16,0,16.106,5673.4282940825,175.853024,0.223694,1.18623035292,0,0,-10.961006,334.1, 0.6, 1.1,0,0,1024,1024,1684,1024,334.7,-25.1,98,4.07,4.074,4.028,4.056,0,0,15.958,80.51,6,P-GPS,
0.354437430953836,36.9190215251931,5675.0687140825,177.493444,0,0.27636811908,13900,2018-04-16 05:20:15,16,0,16.106,5675.0687140825,177.493444,0.223694,1.18623035292,0,0,-10.961006,334.1, 0.6, 1.1,0,0,1024,1024,1684,1024,334.7,-25.1,98,4.07,4.074,4.028,4.056,0,0,15.958,80.51,6,P-GPS,
0.354437435714185,36.9190215504146,5676.7091340825,179.133864,0,0.280157161196,14000,2018-04-16 05:20:15,16,0,16.106,5676.7091340825,179.133864,0.223694,1.18623035292,0,0,-10.961006,334, 0.6, 1.1,0,0,1024,1024,1684,1024,334.7,-25.1,98,4.07,4.074,4.028,4.056,0,0,15.958,80.51,6,P-GPS,
0.354437445968904,36.9190215720763,5678.3495540825,180.774284,0,0.285786098384,14100,2018-04-16 05:20:15,16,0,16.106,5678.3495540825,180.774284,0.223694,1.18623035292,0,0,-10.961006,334, 0.6, 1,0,0,1024,1024,1684,1024,334.7,-25.1,98,4.07,4.074,4.028,4.056,0,0,15.958,80.51,6,P-GPS,
0.354437448163232,36.9190215857778,5679.9899740825,182.414704,0,0.28792323756,14200,2018-04-16 05:20:15,16,0,16.106,5679.9899740825,182.414704,0.223694,1.18623035292,0,0,-11.1847,334, 0.8, 0.8,0,0,1024,1024,1684,1024,334.7,-25.1,98,4.07,4.074,4.028,4.056,0,0,15.958,80.51,6,P-GPS,
0.354437447959677,36.9190215830597,5681.6303940825,184.055124,0,0.287574812352,14300,2018-04-16 05:20:15,16,0,16.106,5681.6303940825,184.055124,0.223694,1.18623035292,0,0,-10.961006,334, 0.8, 1.2,0,0,1024,1024,1684,1024,334.7,-25.1,98,4.07,4.074,4.028,4.056,0,0,15.958,80.51,6,P-GPS,
0.35443746759749,36.9190215398327,5683.2708140825,185.695544,0,0.290578093288,14400,2018-04-16 05:20:15,16,0,16.106,5683.2708140825,185.695544,0.223694,1.18623035292,0,0,-11.1847,334, 0.9, 1.4,0,0,1024,1024,1684,1024,334.7,-25.1,98,4.07,4.074,4.028,4.056,0,0,15.958,80.51,6,P-GPS,
0.354437488097158,36.919021505008,5684.9112340825,187.335964,0,0.295399943836,14500,2018-04-16 05:20:15,16,0,16.106,5684.9112340825,187.335964,0.223694,1.18623035292,0,0,-11.1847,334, 0.9, 1.3,0,0,1024,1024,1684,1024,334.7,-25.1,98,4.07,4.074,4.028,4.056,0,0,15.958,80.51,6,P-GPS,
0.354437495750844,36.9190214850705,5686.5516540825,188.976384,0,0.296980652548,14600,2018-04-16 05:20:15,16,0,16.133,5686.5516540825,188.976384,0.223694,1.18623035292,0,0,-11.1847,334, 0.9, 1.4,0,0,1024,1024,1684,1024,334.7,-25.2,98,4.062,4.068,4.022,4.049,0,0,16.508,80.51,6,P-GPS,
0.354437498603064,36.9190214833447,5688.1920740825,190.616804,0,0.297917004284,14700,2018-04-16 05:20:16,16,0,16.133,5688.1920740825,190.616804,0.223694,1.18623035292,0,0,-11.1847,334, 0.8, 1.4,0,0,1024,1024,1684,1024,334.6,-25.1,98,4.062,4.068,4.022,4.049,0,0,16.508,80.51,6,P-GPS,
0.354437492090916,36.9190214985228,5689.8324940825,192.257224,0,0.29643373652,14800,2018-04-16 05:20:16,16,0,16.133,5689.8324940825,192.257224,0.223694,1.18623035292,0,0,-10.961006,334, 0.6, 1.2,0,0,1024,1024,1684,1024,334.6,-25.1,98,4.062,4.068,4.022,4.049,0,0,16.508,80.51,6,P-GPS,
0.354437490422576,36.9190215205664,5691.4729140825,193.897644,0,0.297274615812,14900,2018-04-16 05:20:16,16,0,16.133,5691.4729140825,193.897644,0.223694,1.18623035292,0,0,-10.961006,334, 0.5, 0.9,0,0,1024,1024,1684,1024,334.6,-25.1,98,4.062,4.068,4.022,4.049,0,0,16.508,80.51,6,P-GPS,
0.354437484748262,36.9190215343581,5693.1133340825,195.538064,0,0.296258539664,15000,2018-04-16 05:20:16,16,0,16.133,5693.1133340825,195.538064,0.223694,1.18623035292,0,0,-11.1847,334, 0.5, 0.8,0,0,1024,1024,1684,1024,334.6,-25.2,98,4.062,4.068,4.022,4.049,0,0,16.508,80.51,6,P-GPS,
0.35443748118767,36.9190215372479,5694.7537540825,197.178484,0,0.295212607872,15100,2018-04-16 05:20:16,16,0,16.133,5694.7537540825,197.178484,0.223694,1.18623035292,0,0,-11.1847,334, 0.3, 0.9,0,0,1024,1024,1684,1024,334.6,-25.1,98,4.062,4.068,4.022,4.049,0,0,16.508,80.51,6,P-GPS,
0.354437480287954,36.9190215167639,5696.3941740825,198.818904,0,0.293379930648,15200,2018-04-16 05:20:16,16,0,16.133,5696.3941740825,198.818904,0.223694,1.18623035292,0,0,-11.1847,334, 0.6, 1.1,0,0,1024,1024,1684,1024,334.6,-25.1,98,4.062,4.068,4.022,4.049,0,0,16.508,80.51,6,P-GPS,
0.354437485635764,36.9190214918205,5698.0345940825,200.459324,0,0.293712935908,15300,2018-04-16 05:20:16,16,0,16.133,5698.0345940825,200.459324,0.223694,1.18623035292,0,0,-10.961006,334.1, 0.9, 1.4,0,0,1024,1024,1684,1024,334.6,-25.1,98,4.062,4.068,4.022,4.049,0,0,16.508,80.51,6,P-GPS,
0.354437493808925,36.9190214656244,5699.6750140825,202.099744,0,0.295304799476,15400,2018-04-16 05:20:16,16,0,16.133,5699.6750140825,202.099744,0.223694,1.18623035292,0,0,-10.961006,334, 1.3, 1.4,0,0,1024,1024,1684,1024,334.6,-25.1,98,4.062,4.068,4.022,4.049,0,0,16.508,80.51,6,P-GPS,
0.354437499181162,36.9190214477666,5701.3154340825,203.740164,0,0.296506243084,15500,2018-04-16 05:20:16,16,0,16.133,5701.3154340825,203.740164,0.223694,1.18623035292,0,0,-10.961006,334, 1.3, 1.4,0,0,1024,1024,1684,1024,334.6,-25.2,98,4.062,4.068,4.022,4.049,0,0,16.508,80.51,6,P-GPS,
0.354437528238709,36.9190214112004,5702.9558540825,205.380584,0,0.306011820816,15600,2018-04-16 05:20:16,16,0,16.106,5702.9558540825,205.380584,0.223694,1.18623035292,0,0,-10.961006,334, 1.1, 1.1,0,0,1024,1024,1684,1024,334.6,-25.1,98,4.056,4.062,4.017,4.045,0,0,16.478,80.51,6,P-GPS,
0.354437551946818,36.9190213770556,5704.5962740825,207.021004,0,0.314211296144,15700,2018-04-16 05:20:16,16,0,16.106,5704.5962740825,207.021004,0.223694,1.18623035292,0,0,-10.961006,334, 1, 1.6,0,0,1024,1024,1684,1024,334.6,-25.1,98,4.056,4.062,4.017,4.045,0,0,16.478,80.51,6,P-GPS,
0.354437571328966,36.919021317932,5706.2366940825,208.661424,0,0.321683737328,15800,2018-04-16 05:20:17,16,0,16.106,5706.2366940825,208.661424,0.223694,1.18623035292,0,0,-10.961006,334, 1.1, 1.8,0,0,1024,1024,1684,1024,334.6,-25.1,98,4.056,4.062,4.017,4.045,0,0,16.478,80.51,6,P-GPS,
0.354437599992837,36.9190212790594,5707.8771140825,210.301844,0,0.33314633612,15900,2018-04-16 05:20:17,16,0,16.106,5707.8771140825,210.301844,0.223694,1.18623035292,0,0,-10.961006,334, 1.4, 1.7,0,0,1024,1024,1684,1024,334.6,-25.1,98,4.056,4.062,4.017,4.045,0,0,16.478,80.51,6,P-GPS,
0.35443762739385,36.9190212280232,5709.5175340825,211.942264,0,0.34527888244,16000,2018-04-16 05:20:17,16,0,16.106,5709.5175340825,211.942264,0.223694,1.18623035292,0,0,-10.961006,334.1, 1.5, 1.8,0,0,1024,1024,1684,1024,334.6,-25.1,98,4.056,4.062,4.017,4.045,0,0,16.478,80.51,6,P-GPS,
0.354437657436199,36.9190211986858,5711.1579540825,213.582684,0,0.357775602,16100,2018-04-16 05:20:17,16,0,16.106,5711.1579540825,213.582684,0.223694,1.18623035292,0,0,-10.961006,334.1, 1.8, 1.5,0,0,1024,1024,1684,1024,334.6,-25.1,98,4.056,4.062,4.017,4.045,0,0,16.478,80.51,6,P-GPS,
0.354437707819442,36.9190211974128,5712.7983740825,215.223104,0,0.375984264,16200,2018-04-16 05:20:17,16,0,16.106,5712.7983740825,215.223104,0.223694,1.18623035292,0,0,-10.961006,334, 1.8, 0.6,0,0,1024,1024,1684,1024,334.6,-25.1,98,4.056,4.062,4.017,4.045,0,0,16.478,80.51,6,P-GPS,
0.354437751165364,36.9190212001878,5714.4387940825,216.863524,0,0.39144358208,16300,2018-04-16 05:20:17,16,0,16.106,5714.4387940825,216.863524,0.223694,1.18623035292,0,0,-10.961006,334, 1.7, 0.5,0,0,1024,1024,1684,1024,334.6,-25.1,98,4.056,4.062,4.017,4.045,0,0,16.478,80.51,6,P-GPS,
0.35443776547613,36.9190211943134,5716.0792140825,218.503944,0,0.3969324274,16400,2018-04-16 05:20:17,16,0,16.106,5716.0792140825,218.503944,0.223694,1.18623035292,0,0,-10.961006,334, 1.8, 0.8,0,0,1024,1024,1684,1024,334.6,-25.1,98,4.056,4.062,4.017,4.045,0,0,16.478,80.51,6,P-GPS,
0.354437769415336,36.9190211839327,5717.7196340825,220.144364,0,0.39895670568,16500,2018-04-16 05:20:17,16,0,16.106,5717.7196340825,220.144364,0.223694,1.18623035292,0,0,-11.1847,334, 1.7, 1.4,0,0,1024,1024,1684,1024,334.6,-25.1,98,4.056,4.062,4.017,4.045,0,0,16.478,80.51,6,P-GPS,
0.354437785761657,36.9190211836576,5719.3600540825,221.784784,0,0.40485893684,16600,2018-04-16 05:20:17,16,0,16.106,5719.3600540825,221.784784,0.223694,1.18623035292,0,0,-10.961006,334, 1.4, 1.1,0,0,1024,1024,1684,1024,334.6,-25.1,98,4.056,4.062,4.017,4.045,0,0,16.478,80.51,6,P-GPS,
0.354437805758542,36.9190211841865,5721.0004740825,223.425204,0,0.41202757224,16700,2018-04-16 05:20:18,16,0,16.106,5721.0004740825,223.425204,0.223694,1.18623035292,0,0,-10.961006,334.1, 1.2, 0.9,0,0,1024,1024,1684,1024,334.6,-25.1,98,4.056,4.062,4.017,4.045,0,0,16.478,80.51,6,P-GPS,
0.354437816683773,36.9190211437494,5722.6408940825,225.065624,0,0.41854332048,16800,2018-04-16 05:20:18,16,0,16.106,5722.6408940825,225.065624,0.223694,1.18623035292,0,0,-10.961006,334.1, 1.5, 1.3,0,0,1024,1024,1684,1024,334.5,-25.1,98,4.056,4.062,4.017,4.045,0,0,16.478,80.51,6,P-GPS,
0.354437829436932,36.9190211064792,5724.2813140825,226.706044,0,0.4259022446,16900,2018-04-16 05:20:18,16,0,16.106,5724.2813140825,226.706044,0.223694,1.18623035292,0,0,-11.1847,334.1, 1.6, 1.5,0,0,1024,1024,1684,1024,334.5,-25.1,98,4.056,4.062,4.017,4.045,0,0,16.478,80.51,6,P-GPS,
0.35443786723556,36.9190210772456,5725.9217340825,228.346464,0,0.441765106,17000,2018-04-16 05:20:18,16,0,16.106,5725.9217340825,228.346464,0.223694,1.18623035292,0,0,-11.1847,334.1, 1.8, 1.6,0,0,1024,1024,1684,1024,334.5,-25.1,98,4.056,4.062,4.017,4.045,0,0,16.478,80.51,6,P-GPS,
0.354437902265833,36.9190210580398,5727.5621540825,229.986884,0,0.4558563138,17100,2018-04-16 05:20:18,16,0,16.106,5727.5621540825,229.986884,0.223694,1.18623035292,0,0,-11.1847,334.1, 1.8, 1.6,0,0,1024,1024,1684,1024,334.5,-25.1,98,4.056,4.062,4.017,4.045,0,0,16.478,80.51,6,P-GPS,
0.354437921166368,36.9190210214195,5729.2025740825,231.627304,0,0.46595145848,17200,2018-04-16 05:20:18,16,0,16.106,5729.2025740825,231.627304,0.223694,1.18623035292,0,0,-10.961006,334.1, 2, 1.4,0,0,1024,1024,1684,1024,334.5,-25.1,98,4.056,4.062,4.017,4.045,0,0,16.478,80.51,6,P-GPS,
0.35443792863482,36.9190209924953,5730.8429940825,233.267724,0,0.47149935892,17300,2018-04-16 05:20:18,16,0,16.106,5730.8429940825,233.267724,0.223694,1.18623035292,0,0,-11.1847,334.1, 1.9, 1.6,0,0,1024,1024,1684,1024,334.5,-25.1,98,4.056,4.062,4.017,4.045,0,0,16.478,80.51,6,P-GPS,
0.354437946377938,36.9190209466436,5732.4834140825,234.908144,0,0.48271655088,17400,2018-04-16 05:20:18,16,0,16.106,5732.4834140825,234.908144,0.223694,1.18623035292,0,0,-11.1847,334, 1.8, 1.7,0,0,1024,1024,1684,1024,334.5,-25.1,98,4.056,4.062,4.017,4.045,0,0,16.478,80.51,6,P-GPS,
0.354437959364779,36.919020917789,5734.1238340825,236.548564,0,0.49060697108,17500,2018-04-16 05:20:18,16,0,16.106,5734.1238340825,236.548564,0.223694,1.18623035292,0,0,-10.961006,334, 1.7, 1.7,0,0,1024,1024,1684,1024,334.5,-25.1,98,4.056,4.062,4.017,4.045,0,0,16.478,80.51,6,P-GPS,
0.354437960674048,36.9190209066235,5735.7642540825,238.188984,0,0.4924212756,17600,2018-04-16 05:20:18,16,0,16.026,5735.7642540825,238.188984,0.223694,1.18623035292,0,0,-11.1847,334, 1.6, 1.4,0,0,1024,1024,1684,1024,334.5,-25.1,98,4.053,4.057,4.007,4.038,0,0,16.812,80.51,6,P-GPS,
0.354437952970694,36.9190209079945,5737.4046740825,239.829404,0,0.48960959572,17700,2018-04-16 05:20:18,16,0,16.026,5737.4046740825,239.829404,0.223694,1.18623035292,0,0,-11.1847,334, 1.5, 1.4,0,0,1024,1024,1684,1024,334.5,-25.2,98,4.053,4.057,4.007,4.038,0,0,16.812,80.51,6,P-GPS,
0.35443794069874,36.9190208807645,5739.0450940825,241.469824,0,0.4888943726,17800,2018-04-16 05:20:19,16,0,16.026,5739.0450940825,241.469824,0.223694,1.18623035292,0,0,-10.961006,334, 1.2, 1.4,0,0,1024,1024,1684,1024,334.5,-25.1,98,4.053,4.057,4.007,4.038,0,0,16.812,80.51,6,P-GPS,
0.354437928008276,36.9190208628387,5740.6855140825,243.110244,0,0.48699476624,17900,2018-04-16 05:20:19,16,0,16.026,5740.6855140825,243.110244,0.223694,1.18623035292,0,0,-10.961006,334, 1.1, 1.6,0,0,1024,1024,1684,1024,334.5,-25.1,98,4.053,4.057,4.007,4.038,0,0,16.812,80.51,6,P-GPS,
0.354437893084666,36.9190208417331,5742.3259340825,244.750664,0,0.47822180008,18000,2018-04-16 05:20:19,16,0,16.026,5742.3259340825,244.750664,0.223694,1.18623035292,0,0,-10.961006,334.1, 1.1, 1.6,0,0,1024,1024,1684,1024,334.5,-25.1,98,4.053,4.057,4.007,4.038,0,0,16.812,80.51,6,P-GPS,
0.354437868069323,36.9190208315275,5743.9663540825,246.391084,0,0.47138781036,18100,2018-04-16 05:20:19,16,0,16.026,5743.9663540825,246.391084,0.223694,1.18623035292,0,0,-10.961006,334.1, 1.4, 1.8,0,0,1024,1024,1684,1024,334.5,-25.1,98,4.053,4.057,4.007,4.038,0,0,16.812,80.51,6,P-GPS,
0.354437858496515,36.9190208297273,5745.2786900825,247.70342,0,0.46848098612,18200,2018-04-16 05:20:19,16,0,16.026,5745.2786900825,247.70342,0.223694,1.18623035292,0,0,-10.961006,334.1, 1.6, 1.7,0,0,1024,1024,1684,1024,334.5,-25.2,98,4.053,4.057,4.007,4.038,0,0,16.812,80.51,6,P-GPS,
0.354437851979482,36.9190208473822,5746.9191100825,249.34384,0,0.463664713,18300,2018-04-16 05:20:19,16,0,16.026,5746.9191100825,249.34384,0.223694,1.18623035292,0,0,-10.961006,334.1, 1.3, 1.3,0,0,1024,1024,1684,1024,334.5,-25.1,98,4.053,4.057,4.007,4.038,0,0,16.812,80.51,6,P-GPS,
0.354437794346814,36.9190208998969,5750.1999500825,252.62468,0,0.43675854416,18500,2018-04-16 05:20:19,16,0,16.026,5750.1999500825,252.62468,0.223694,1.18623035292,0,0,-10.961006,334, 1.2, 0.8,0,0,1024,1024,1684,1024,334.5,-25.1,98,4.053,4.057,4.007,4.038,0,0,16.812,80.51,6,P-GPS,
0.354437770734376,36.9190209402194,5751.8403700825,254.2651,0,0.42323820252,18600,2018-04-16 05:20:19,16,0,16.053,5751.8403700825,254.2651,0.223694,1.18623035292,0,0,-10.961006,334, 1.3, 0.7,0,0,1024,1024,1684,1024,334.5,-25.1,98,4.047,4.051,4.005,4.035,0,0,17.078,80.51,6,P-GPS,
0.354437749082584,36.9190209773338,5753.4807900825,255.90552,0,0.41105316276,18700,2018-04-16 05:20:20,16,0,16.053,5753.4807900825,255.90552,0.223694,1.18623035292,0,0,-10.961006,334, 1, 0.9,0,0,1024,1024,1684,1024,334.5,-25.2,98,4.047,4.051,4.005,4.035,0,0,17.078,80.51,6,P-GPS,
0.354437695419248,36.9190209895955,5755.1212100825,257.54594,0,0.39113518312,18800,2018-04-16 05:20:20,16,0,16.053,5755.1212100825,257.54594,0.223694,1.18623035292,0,0,-10.961006,334, 0.7, 1.3,0,0,1024,1024,1684,1024,334.5,-25.1,98,4.047,4.051,4.005,4.035,0,0,17.078,80.51,6,P-GPS,
0.354437655565117,36.9190210019841,5756.7616300825,259.18636,0,0.37593177056,18900,2018-04-16 05:20:20,16,0,16.053,5756.7616300825,259.18636,0.223694,1.18623035292,0,0,-11.1847,334, 0.7, 1.3,0,0,1024,1024,1684,1024,334.5,-25.1,98,4.047,4.051,4.005,4.035,0,0,17.078,80.51,6,P-GPS,
0.35443763750323,36.9190209977568,5758.4020500825,260.82678,0,0.37032153416,19000,2018-04-16 05:20:20,16,0,16.053,5758.4020500825,260.82678,0.223694,1.18623035292,0,0,-11.1847,334, 0.7, 1.3,0,0,1024,1024,1684,1024,334.5,-25.1,98,4.047,4.051,4.005,4.035,0,0,17.078,80.51,6,P-GPS,
0.354437634043194,36.919021001255,5760.0424700825,262.4672,0,0.368684395,19100,2018-04-16 05:20:20,16,0,16.053,5760.0424700825,262.4672,0.223694,1.18623035292,0,0,-11.1847,334, 1, 1.1,0,0,1024,1024,1684,1024,334.5,-25.1,98,4.047,4.051,4.005,4.035,0,0,17.078,80.51,6,P-GPS,
0.354437609062863,36.9190210238862,5761.6828900825,264.10762,0,0.35724410592,19200,2018-04-16 05:20:20,16,0,16.053,5761.6828900825,264.10762,0.223694,1.18623035292,0,0,-11.1847,334, 1.1, 1.1,0,0,1024,1024,1684,1024,334.5,-25.1,98,4.047,4.051,4.005,4.035,0,0,17.078,80.51,6,P-GPS,
0.354437583100173,36.9190210434865,5763.3233100825,265.74804,0,0.34589568036,19300,2018-04-16 05:20:20,16,0,16.053,5763.3233100825,265.74804,0.223694,1.18623035292,0,0,-11.1847,334, 1.1, 1.2,0,0,1024,1024,1684,1024,334.5,-25.1,98,4.047,4.051,4.005,4.035,0,0,17.078,80.51,6,P-GPS,
0.35443751954119,36.9190210514566,5764.9637300825,267.38846,0,0.32312665076,19400,2018-04-16 05:20:20,16,0,16.053,5764.9637300825,267.38846,0.223694,1.18623035292,0,0,-11.1847,334, 1.1, 1.6,0,0,1024,1024,1684,1024,334.5,-25.2,98,4.047,4.051,4.005,4.035,0,0,17.078,80.51,6,P-GPS,
0.354437468899024,36.9190210711281,5766.6041500825,269.02888,0,0.303306112068,19500,2018-04-16 05:20:20,16,0,16.053,5766.6041500825,269.02888,0.223694,1.18623035292,0,0,-10.961006,334, 1.2, 1.6,0,0,1024,1024,1684,1024,334.5,-25.2,98,4.047,4.051,4.005,4.035,0,0,17.078,80.51,6,P-GPS,
0.354437424816231,36.9190211024044,5768.2445700825,270.6693,0,0.284278552404,19600,2018-04-16 05:20:20,16,0,16.079,5768.2445700825,270.6693,0.223694,1.18623035292,0,0,-10.961006,334, 0.8, 1.3,0,0,1024,1024,1684,1024,334.4,-25.2,98,4.043,4.048,3.999,4.031,0,0,17,80.51,6,P-GPS,
0.354437382860186,36.9190211524947,5769.8849900825,272.30972,0,0.264001976952,19700,2018-04-16 05:20:21,16,0,16.079,5769.8849900825,272.30972,0.223694,1.18623035292,0,0,-10.961006,334, 0.4, 0.9,0,0,1024,1024,1684,1024,334.4,-25.2,98,4.043,4.048,3.999,4.031,0,0,17,80.51,6,P-GPS,
0.354437322229959,36.9190212262262,5771.5254100825,273.95014,0,0.235775270012,19800,2018-04-16 05:20:21,16,0,16.079,5771.5254100825,273.95014,0.223694,1.18623035292,0,0,-10.961006,334, 0.1, 0.6,0,0,1024,1024,1274,1024,334.4,-25.2,98,4.043,4.048,3.999,4.031,0,0,17,80.51,6,P-GPS,
0.35443726744951,36.919021304533,5773.1658300825,275.59056,0,0.211488195744,19900,2018-04-16 05:20:21,16,0,16.079,5773.1658300825,275.59056,0.223694,1.18623035292,0,0,-11.1847,334, -0.2, 0.5,0,0,1024,1024,1035,1024,334.4,-25.2,98,4.043,4.048,3.999,4.031,0,0,17,80.51,6,P-GPS,
0.354437207758895,36.9190213779672,5774.8062500825,277.23098,0,0.18866798504,20000,2018-04-16 05:20:21,16,0,16.079,5774.8062500825,277.23098,0.223694,1.18623035292,0,0,-10.737312,334.1, -0.5, 0.5,0,0,1024,1024,1024,1024,334.4,-25.2,98,4.043,4.048,3.999,4.031,0,0,17,80.51,6,P-GPS,
0.354437157429798,36.9190214434537,5776.4466700825,278.8714,0,0.17269193466,20100,2018-04-16 05:20:21,16,0,16.079,5776.4466700825,278.8714,0.223694,1.18623035292,0,0,-9.618842,334.1, -0.9, 1.1,0,0,1024,1024,1024,1024,334.4,-25.2,98,4.043,4.048,3.999,4.031,0,0,17,80.51,6,P-GPS,
0.354437110682056,36.9190215285861,5777.7590060825,280.183736,0,0.1645423281,20200,2018-04-16 05:20:21,16,0,16.079,5777.7590060825,280.183736,0.223694,1.18623035292,0,0,-8.276678,334.1, -0.9, 1.1,0,0,1024,1024,1024,1024,334.4,-25.2,98,4.043,4.048,3.999,4.031,0,0,17,80.51,6,P-GPS,
0.354437077620572,36.9190216162488,5778.7432580825,281.167988,0,0.168494756048,20300,2018-04-16 05:20:21,16,0,16.079,5778.7432580825,281.167988,0.223694,1.18623035292,0,0,-6.71082,334.1, -0.7, 0.4,0,0,1024,1024,1024,1024,334.4,-25.2,98,4.043,4.048,3.999,4.031,0,0,17,80.51,6,P-GPS,
0.354437000567894,36.9190216888444,5779.3994260825,281.824156,0,0.163783141724,20400,2018-04-16 05:20:21,16,0,16.079,5779.3994260825,281.824156,0.223694,1.18623035292,0,0,-5.144962,334.2, -0.8, 0.2,0,0,1024,1024,1024,1024,334.4,-25.2,98,4.043,4.048,3.999,4.031,0,0,17,80.51,6,P-GPS,
0.354436928760842,36.9190217574608,5780.0555940825,282.480324,0,0.167787406944,20500,2018-04-16 05:20:21,16,0,16.079,5780.0555940825,282.480324,0.223694,1.18623035292,0,0,-3.35541,334.1, -1, 0.2,0,0,1024,1024,1024,1024,334.4,-25.2,98,4.043,4.048,3.999,4.031,0,0,17,80.51,6,P-GPS,
0.354436847526727,36.9190218437565,5780.3836780825,282.808408,0,0.184169297232,20600,2018-04-16 05:20:21,16,0,16.079,5780.3836780825,282.808408,0.223694,1.18623035292,0,0,-2.013246,334.1, -0.7, 0,0,0,1024,1024,1024,1024,334.4,-25.2,98,4.043,4.048,3.999,4.031,0,0,17,80.51,6,P-GPS,
0.354436780211738,36.9190219246105,5780.7117620825,283.136492,0,0.207153221852,20700,2018-04-16 05:20:21,16,0,16.079,5780.7117620825,283.136492,0.223694,1.18623035292,0,0,-1.11847,334.1, -0.8, -0.2,0,0,1024,1024,1024,1024,334.4,-25.2,98,4.043,4.048,3.999,4.031,0,0,17,80.51,6,P-GPS,
0.354436702404277,36.9190220135515,5780.7117620825,283.136492,0,0.237057750368,20800,2018-04-16 05:20:22,16,0,16.079,5780.7117620825,283.136492,0.223694,1.18623035292,0,0,-0.671082,334.1, -1.2, -0.1,0,0,1024,1024,1024,1024,334.4,-25.2,98,4.043,4.048,3.999,4.031,0,0,17,80.51,6,P-GPS,
0.354436637631288,36.9190220825699,5780.7117620825,283.136492,0,0.262918643584,20900,2018-04-16 05:20:22,16,0,16.079,5780.7117620825,283.136492,0.223694,1.18623035292,0,0,-0.223694,334.1, -1.4, -0.1,0,0,1024,1024,1024,1024,334.4,-25.2,98,4.043,4.048,3.999,4.031,0,0,17,80.51,6,P-GPS,
0.354436547004716,36.9190221205847,5780.7117620825,283.136492,0,0.281014116604,21000,2018-04-16 05:20:22,16,0,16.079,5780.7117620825,283.136492,0.223694,1.18623035292,0,0,0,334.1, -1.7, -0.2,0,0,1024,1024,1024,1024,334.4,-25.2,98,4.043,4.048,3.999,4.031,0,0,17,80.51,6,P-GPS,
0.35443647579571,36.9190221332583,5780.7117620825,283.136492,0,0.2914534214,21100,2018-04-16 05:20:22,16,0,16.079,5780.7117620825,283.136492,0.223694,1.18623035292,0,0,0,334.1, -2, -0.2,0,0,1024,1024,1024,1024,334.4,-25.2,98,4.043,4.048,3.999,4.031,0,0,17,80.51,6,P-GPS,
0.354436421203753,36.9190221228367,5781.0398460825,283.464576,0,0.293848762684,21200,2018-04-16 05:20:22,16,0,16.079,5781.0398460825,283.464576,0.223694,1.18623035292,0,0,0,334, -2.1, -0.3,0,0,1024,1024,977,1024,334.4,-25.2,98,4.043,4.048,3.999,4.031,0,0,17,80.51,6,P-GPS,
0.354436392888776,36.9190220896212,5781.0398460825,283.464576,0,0.286220809684,21300,2018-04-16 05:20:22,16,0,16.079,5781.0398460825,283.464576,0.223694,1.18623035292,0,0,0,334, -2.2, -0.3,0,0,1024,1024,854,1024,334.4,-25.2,98,4.043,4.048,3.999,4.031,0,0,17,80.51,6,P-GPS,
0.35443637302868,36.9190220230778,5781.0398460825,283.464576,0,0.266989509856,21400,2018-04-16 05:20:22,16,0,16.079,5781.0398460825,283.464576,0.223694,1.18623035292,0,0,0,334.1, -2.4, -0.2,0,0,1024,1024,842,1024,334.4,-25.2,98,4.043,4.048,3.999,4.031,0,0,17,80.51,6,P-GPS,
0.354436373953229,36.9190219357703,5781.0398460825,283.464576,0,0.238534128368,21500,2018-04-16 05:20:22,16,0,16.079,5781.0398460825,283.464576,0.223694,1.18623035292,0,0,0.223694,334.1, -2.7, -0.1,0,0,1024,1024,846,1024,334.4,-25.2,98,4.043,4.048,3.999,4.031,0,0,17,80.51,6,P-GPS,
0.354436403846575,36.9190218530713,5781.0398460825,283.464576,0,0.20691929796,21600,2018-04-16 05:20:22,16,0,16.614,5781.0398460825,283.464576,0.223694,1.18623035292,0,0,0.447388,334.1, -2.4, -0.2,0,0,1024,1024,843,1024,334.4,-25.2,97,4.04,4.093,4.073,4.092,0,0,17.182,80.51,6,P-GPS,
0.354436454274194,36.9190217449718,5781.0398460825,283.464576,0,0.16364337794,21700,2018-04-16 05:20:23,16,0,16.614,5781.0398460825,283.464576,0.223694,1.18623035292,0,0,0.447388,334.1, -2.2, -0.2,0,0,1024,1024,845,1024,334.4,-25.2,97,4.04,4.093,4.073,4.092,0,0,17.182,80.51,6,P-GPS,
0.354436506068076,36.9190216025259,5781.0398460825,283.464576,0,0.110109583576,21800,2018-04-16 05:20:23,16,0,16.614,5781.0398460825,283.464576,0.223694,1.18623035292,0,0,0.671082,334.1, -1.9, -0.1,0,0,1024,1024,850,1024,334.4,-25.1,97,4.04,4.093,4.073,4.092,0,0,17.182,80.51,6,P-GPS,
0.354436569433275,36.9190214417508,5780.7117620825,283.136492,0,0.052619096172,21900,2018-04-16 05:20:23,16,0,16.614,5781.0398460825,283.464576,0.223694,1.18623035292,0,0,0.671082,334, -1.8, -0.1,0,0,1024,1024,907,1024,334.4,-25.1,97,4.04,4.093,4.073,4.092,0,0,17.182,80.51,6,P-GPS,
0.354436646062557,36.9190212781933,5780.7117620825,283.136492,0,0.035279856772,22000,2018-04-16 05:20:23,16,0,16.614,5781.0398460825,283.464576,0.223694,1.18623035292,0,0,0.671082,334, -1.6, 0,0,0,1024,1024,988,1024,334.4,-25.1,97,4.04,4.093,4.073,4.092,0,0,17.182,80.51,6,P-GPS,
