latitude,longitude,altitude(feet),ascent(feet),speed(mph),distance(feet),time(millisecond),datetime(utc),satellites,voltage(v),max_altitude(feet),max_ascent(feet),max_speed(mph),max_distance(feet),compass_heading(degrees), pitch(degrees), roll(degrees),isPhoto,isVideo,rc_elevator,rc_aileron,rc_throttle,rc_rudder,gimbal_heading(degrees),gimbal_pitch(degrees),battery_percent,voltageCell1,voltageCell2,voltageCell3,voltageCell4,voltageCell5,voltageCell6,battery_temperature(f),flycStateRaw,flycState,message
0.357672391222395,36.8938414477832,5810.7016511655,0,0,0,100,2017-11-07 07:05:07,8,0,5810.7016511655,0,0,0,158.3, 1.2, 3.1,0,0,1024,1024,1024,1024,162.7,0,100,4.309,4.308,4.31,4.311,0,0,84.11,41,Motors_Started,
0.357672430795988,36.8938413683133,5810.7016511655,0,0,0.0323900929,200,2017-11-07 07:05:07,8,0,5810.7016511655,0,0,0.0323900929,158.3, 1.2, 3.1,0,0,1024,1024,1024,1024,162.7,0,100,4.309,4.308,4.31,4.311,0,0,84.11,41,Motors_Started,
0.357672469361206,36.8938412972699,5810.7016511655,0,0,0.061873033476,300,2017-11-07 07:05:07,8,0,5810.7016511655,0,0,0.061873033476,158.2, 1.2, 3.1,0,0,1024,1024,1024,1024,162.7,0,100,4.309,4.308,4.31,4.311,0,0,84.11,41,Motors_Started,
0.357672489208605,36.8938412175376,5810.7016511655,0,0,0.09129429426,400,2017-11-07 07:05:08,8,0,5810.7016511655,0,0,0.09129429426,158.2, 1.2, 3.1,0,0,1024,1024,1024,1024,162.7,0,100,4.309,4.308,4.31,4.311,0,0,84.11,41,Motors_Started,
0.357672508379309,36.8938411492554,5810.7016511655,0,0,0.1170029565,500,2017-11-07 07:05:08,8,0,5810.7016511655,0,0,0.1170029565,158.3, 1.2, 3.1,0,0,1024,1024,1024,1024,162.7,0,100,4.309,4.308,4.31,4.311,0,0,84.11,41,Motors_Started,
0.35767254219774,36.8938410720933,5810.7016511655,0,0,0.14772146142,600,2017-11-07 07:05:08,8,0,5810.7016511655,0,0,0.14772146142,158.2, 1.2, 3.1,0,0,1024,1024,1024,1024,162.7,0,100,4.309,4.308,4.31,4.311,0,0,84.11,41,Motors_Started,
0.357672579161485,36.8938410072091,5810.7016511655,0,0,0.174754598768,700,2017-11-07 07:05:08,8,0,5810.7016511655,0,0,0.174754598768,158.2, 1.2, 3.1,0,0,1024,1024,1024,1024,162.7,0,100,4.309,4.308,4.31,4.311,0,0,84.11,41,Motors_Started,
0.357672597989148,36.8938409716471,5810.7016511655,0,0,0.189387801336,800,2017-11-07 07:05:08,8,0,5810.7016511655,0,0,0.189387801336,158.2, 1.2, 3.1,0,0,1024,1024,1024,1024,162.7,0,100,4.309,4.308,4.31,4.311,0,0,84.11,41,Motors_Started,
0.357672616555826,36.8938409398723,5810.7016511655,0,0,0.202725728272,900,2017-11-07 07:05:08,8,17.216,5810.7016511655,0,0,0.202725728272,158.2, 1.2, 3.1,0,0,364,381,364,1684,162.7,0,100,4.309,4.308,4.31,4.311,0,0,84.11,41,Motors_Started,Setting new Return-To-Home altitude to 30m (98 ft). Setting new Maximum Flight Altitude to 100m (328 ft)
0.357672648567269,36.893840904178,5810.7016511655,0,0,0.21943242172,1000,2017-11-07 07:05:08,8,17.216,5810.7016511655,0,0,0.21943242172,158.2, 1, 3.2,0,0,402,474,604,1528,162.6,0,100,4.309,4.308,4.31,4.311,0,0,84.11,41,Motors_Started,
0.35767267791641,36.8938408640878,5810.7016511655,0,0,0.23725886586,1100,2017-11-07 07:05:08,8,17.216,5810.7016511655,0,0,0.23725886586,158.1, 0.6, 3.5,0,0,785,806,971,1205,162.1,0,100,4.309,4.308,4.31,4.311,0,0,84.11,41,Motors_Started,
0.35767268870129,36.8938408519434,5810.7016511655,0,0,0.24297572956,1200,2017-11-07 07:05:08,8,17.216,5810.7016511655,0,0,0.24297572956,158.2, 1, 3.3,0,0,1024,1027,1024,1024,162.1,0,100,4.309,4.308,4.31,4.311,0,0,84.11,41,Motors_Started,
0.357672717567342,36.8938408430381,5810.7016511655,0,0,0.250713918784,1300,2017-11-07 07:05:08,8,17.216,5810.7016511655,0,0,0.250713918784,158.1, 1.4, 2.9,0,0,1024,1024,1024,1024,160.8,0,100,4.309,4.308,4.31,4.311,0,0,84.11,41,Motors_Started,
0.357672729919446,36.893840823017,5810.7016511655,0,0,0.259282816696,1400,2017-11-07 07:05:09,8,17.216,5810.7016511655,0,0,0.259282816696,158.1, 1.2, 3.1,0,0,1024,1024,1024,1024,159.8,0,100,4.309,4.308,4.31,4.311,0,0,84.11,41,Motors_Started,
0.357672725155688,36.8938408013414,5810.7016511655,0,0,0.265459654164,1500,2017-11-07 07:05:09,8,17.216,5810.7016511655,0,0,0.265459654164,158.1, 0.5, 3.6,0,0,1024,1024,1024,1024,159.4,0,100,4.309,4.308,4.31,4.311,0,0,84.11,41,Motors_Started,
0.357672723169546,36.8938407935812,5810.7016511655,0,0,0.26764928678,1600,2017-11-07 07:05:09,8,17.216,5810.7016511655,0,0,0.26764928678,158.1, 0.7, 3.5,0,0,1024,1024,1024,1024,159.1,0,100,4.309,4.308,4.31,4.311,0,0,84.11,10,Assisted_Takeoff,
0.357672771549752,36.893840787057,5810.7016511655,0,0,0.278146006276,1700,2017-11-07 07:05:09,8,17.216,5810.7016511655,0,0,0.278146006276,158.1, 1.6, 2.7,0,0,1024,1024,1024,1024,158.9,0,100,4.309,4.308,4.31,4.311,0,0,84.11,10,Assisted_Takeoff,
0.357672798676728,36.8938408009921,5810.7016511655,0,0,0.278898959056,1800,2017-11-07 07:05:09,8,17.216,5810.7016511655,0,0,0.278898959056,158.1, 1.3, 3.1,0,0,1024,1024,1024,1024,158.8,0,100,4.309,4.308,4.31,4.311,0,0,84.11,10,Assisted_Takeoff,
0.357672807951684,36.8938407973648,5810.7016511655,0,0,0.28183071768,1900,2017-11-07 07:05:09,8,17.189,5810.7016511655,0,0,0.28183071768,158.1, 0.7, 3.4,0,0,1024,1024,1024,1024,158.7,0,100,4.306,4.306,4.309,4.307,0,0,84.11,10,Assisted_Takeoff,
0.357672806273623,36.8938408110705,5810.7016511655,0,0,0.277298565304,2000,2017-11-07 07:05:09,8,17.189,5810.7016511655,0,0,0.28183071768,158.1, 1.2, 3.2,0,0,1024,1024,1024,1024,158.7,0,100,4.306,4.306,4.309,4.307,0,0,84.11,10,Assisted_Takeoff,
0.357672817190406,36.8938408197203,5810.7016511655,0,0,0.276876321196,2100,2017-11-07 07:05:09,8,17.189,5810.7016511655,0,0,0.28183071768,158.1, 1.4, 2.9,0,0,1024,1024,1024,1024,158.6,0,100,4.306,4.306,4.309,4.307,0,0,84.11,10,Assisted_Takeoff,
0.357672838306999,36.893840835997,5810.7016511655,0,0,0.27645670176,2200,2017-11-07 07:05:09,8,17.189,5810.7016511655,0,0,0.28183071768,158.1, 1.1, 3.2,0,0,1024,1024,1024,1024,158.6,0,100,4.306,4.306,4.309,4.307,0,0,84.11,10,Assisted_Takeoff,
0.357672864457774,36.8938408458886,5810.7016511655,0,0,0.279345809464,2300,2017-11-07 07:05:09,8,17.189,5810.7016511655,0,0,0.28183071768,158.1, 0.9, 3.3,0,0,1024,1024,1024,1024,158.6,0,100,4.306,4.306,4.309,4.307,0,0,84.11,10,Assisted_Takeoff,
0.357672877817682,36.8938408617878,5810.7016511655,0,0,0.277897318604,2400,2017-11-07 07:05:10,8,17.189,5810.7016511655,0,0,0.28183071768,158.1, 1.1, 3.2,0,0,1024,1024,1024,1024,158.6,0,100,4.306,4.306,4.309,4.307,0,0,84.11,10,Assisted_Takeoff,
0.357672895091452,36.8938408736165,5810.7016511655,0,0,0.278707358,2500,2017-11-07 07:05:10,8,17.189,5810.7016511655,0,0,0.28183071768,158.1, 1.4, 3,0,0,1024,1024,1024,1024,158.5,0,100,4.306,4.306,4.309,4.307,0,0,84.11,10,Assisted_Takeoff,
0.357672900021719,36.8938409214791,5810.7016511655,0,0,0.267079076788,2600,2017-11-07 07:05:10,8,17.189,5810.7016511655,0,0,0.28183071768,158.1, 1.2, 3.1,0,1,1024,1024,1024,1024,158.5,0,100,4.306,4.306,4.309,4.307,0,0,84.11,10,Assisted_Takeoff,
0.357672903599563,36.8938409585754,5810.7016511655,0,0,0.258463262864,2700,2017-11-07 07:05:10,8,17.189,5810.7016511655,0,0,0.28183071768,158.1, 1.1, 3.2,0,1,1024,1024,1024,1024,158.5,0,100,4.306,4.306,4.309,4.307,0,0,84.11,10,Assisted_Takeoff,
0.357672894055711,36.8938409953397,5810.7016511655,0,0,0.246790034144,2800,2017-11-07 07:05:10,8,17.189,5810.7016511655,0,0,0.28183071768,158.1, 1.2, 3.1,0,1,1024,1024,1024,1024,158.5,0,100,4.306,4.306,4.309,4.307,0,0,84.11,10,Assisted_Takeoff,
0.357672894943366,36.8938410220562,5810.7016511655,0,0,0.24062664812,2900,2017-11-07 07:05:10,8,17.189,5810.7016511655,0,0,0.28183071768,158.1, 1.3, 3,0,1,1024,1024,1024,1024,158.4,0,100,4.304,4.301,4.3,4.3,0,0,84.11,10,Assisted_Takeoff,
0.357672915430921,36.8938410425982,5810.7016511655,0,0,0.241728354192,3000,2017-11-07 07:05:10,8,17.189,5810.7016511655,0,0,0.28183071768,158.1, 1.2, 3.1,0,1,1024,1024,1024,1024,158.4,0,100,4.304,4.301,4.3,4.3,0,0,84.11,10,Assisted_Takeoff,
0.357672939970097,36.8938410584443,5810.7016511655,0,0,0.24548229132,3100,2017-11-07 07:05:10,8,17.189,5810.7016511655,0,0,0.28183071768,158.1, 1.2, 3.1,0,1,1024,1024,1024,1024,158.4,0,100,4.304,4.301,4.3,4.3,0,0,84.11,10,Assisted_Takeoff,
0.357672955906966,36.893841067227,5810.7016511655,0,0,0.248442265168,3200,2017-11-07 07:05:10,8,17.189,5810.7016511655,0,0,0.28183071768,158.1, 1.3, 3.1,0,1,1024,1024,1024,1024,158.4,0,100,4.304,4.301,4.3,4.3,0,0,84.11,10,Assisted_Takeoff,
0.357672970157835,36.8938410766254,5810.7016511655,0,0,0.250903551336,3300,2017-11-07 07:05:10,8,17.189,5810.7016511655,0,0,0.28183071768,158.1, 1.2, 3.1,0,1,1024,1024,1024,1024,158.4,0,100,4.304,4.301,4.3,4.3,0,0,84.11,10,Assisted_Takeoff,
0.357672973066287,36.893841078773,5810.7016511655,0,0,0.251377304632,3400,2017-11-07 07:05:11,12,17.189,5810.7016511655,0,0,0.28183071768,158.1, 1.2, 3.1,0,1,1024,1024,1024,1024,158.4,0,100,4.304,4.301,4.3,4.3,0,0,84.11,10,Assisted_Takeoff,
0.357672977417947,36.8938410816211,5810.7016511655,0,0,0.252167330904,3500,2017-11-07 07:05:11,12,17.189,5810.7016511655,0,0,0.28183071768,158.1, 1.3, 3.1,0,1,1024,1024,1024,1024,158.4,0,100,4.304,4.301,4.3,4.3,0,0,84.11,10,Assisted_Takeoff,
0.357672970247298,36.8938410445336,5810.7016511655,0,0,0.257438328448,3600,2017-11-07 07:05:11,12,17.189,5810.7016511655,0,0,0.28183071768,158.1, 1.2, 3.1,0,1,1024,1024,1024,1024,158.4,0,100,4.304,4.301,4.3,4.3,0,0,84.11,10,Assisted_Takeoff,
0.357672970546117,36.8938410177762,5810.7016511655,0,0,0.26322671446,3700,2017-11-07 07:05:11,12,17.189,5810.7016511655,0,0,0.28183071768,158.1, 1.2, 3.1,0,1,1024,1024,1024,1024,158.4,0,100,4.304,4.301,4.3,4.3,0,0,84.11,10,Assisted_Takeoff,
0.357672931466718,36.8938409545905,5810.7016511655,0,0,0.266887803816,3800,2017-11-07 07:05:11,12,17.189,5810.7016511655,0,0,0.28183071768,158.1, 1.2, 3.1,0,1,1024,1024,1024,1024,158.4,0,100,4.304,4.301,4.3,4.3,0,0,84.11,10,Assisted_Takeoff,
0.35767289983628,36.8938409064977,5810.7016511655,0,0,0.2709891819,3900,2017-11-07 07:05:11,12,17.216,5810.7016511655,0,0,0.28183071768,158, 1.2, 3.1,0,1,1024,1024,1024,1024,158.4,0,100,4.304,4.301,4.3,4.3,0,0,84.11,10,Assisted_Takeoff,
0.35767286405504,36.8938408275293,5810.7016511655,0,0,0.28455217446,4000,2017-11-07 07:05:11,12,17.216,5810.7016511655,0,0,0.28455217446,158, 1.2, 3.1,0,1,1024,1024,1024,1024,158.4,0,100,4.304,4.301,4.3,4.3,0,0,84.11,10,Assisted_Takeoff,
0.357672842081122,36.8938407675511,5810.7016511655,0,0,0.29774279168,4100,2017-11-07 07:05:11,12,17.216,5810.7016511655,0,0,0.29774279168,158.1, 1.2, 3.1,0,1,1024,1024,1024,1024,158.3,0,100,4.304,4.301,4.3,4.3,0,0,84.11,10,Assisted_Takeoff,
0.357672789381723,36.8938406864604,5810.7016511655,0,0,0.313456702944,4200,2017-11-07 07:05:11,12,17.216,5810.7016511655,0,0,0.313456702944,158, 1.2, 3.1,0,1,1024,1024,1024,1024,158.3,0,100,4.304,4.301,4.3,4.3,0,0,84.11,10,Assisted_Takeoff,
0.357672746025521,36.8938406213928,5810.7016511655,0,0,0.3281168084,4300,2017-11-07 07:05:11,12,17.216,5810.7016511655,0,0,0.3281168084,158, 1.2, 3.1,0,1,1024,1024,1024,1024,158.3,0,100,4.304,4.301,4.3,4.3,0,0,84.11,10,Assisted_Takeoff,
0.357672676020393,36.8938405404058,5810.7016511655,0,0,0.34697507672,4400,2017-11-07 07:05:12,12,17.216,5810.7016511655,0,0,0.34697507672,158, 1.2, 3.1,0,1,1024,1024,1024,1024,158.3,0,100,4.304,4.301,4.3,4.3,0,0,84.11,10,Assisted_Takeoff,
0.357672620045582,36.8938404755299,5810.7016511655,0,0,0.36441274132,4500,2017-11-07 07:05:12,12,17.216,5810.7016511655,0,0,0.36441274132,158, 1.2, 3.1,0,0,1024,1024,1024,1024,158.3,0,100,4.304,4.301,4.3,4.3,0,0,84.11,10,Assisted_Takeoff,
0.357672575623385,36.8938403693914,5810.7016511655,0,0,0.39915355608,4600,2017-11-07 07:05:12,12,17.216,5810.7016511655,0,0,0.39915355608,158, 1.2, 3.1,0,0,1024,1024,1024,1024,158.3,0,100,4.304,4.301,4.3,4.3,0,0,84.11,10,Assisted_Takeoff,
0.357672544283802,36.8938402764136,5810.7016511655,0,0,0.43099738912,4700,2017-11-07 07:05:12,12,17.216,5810.7016511655,0,0,0.43099738912,158, 1.3, 3.1,0,0,1024,1024,1024,1024,158.3,0,100,4.304,4.301,4.3,4.3,0,0,84.11,10,Assisted_Takeoff,
0.357672494870349,36.8938402101131,5810.7016511655,0,0,0.45313649744,4800,2017-11-07 07:05:12,12,17.216,5810.7016511655,0,0,0.45313649744,158, 1.3, 3.1,0,0,1024,1024,1024,1024,158.3,0,100,4.304,4.301,4.3,4.3,0,0,84.11,10,Assisted_Takeoff,
0.357672451947695,36.8938401611927,5810.7016511655,0,0,0.46992455572,4900,2017-11-07 07:05:12,12,17.216,5810.7016511655,0,0,0.46992455572,158, 1.2, 3.1,0,0,1024,1024,1024,1024,158.3,0,100,4.303,4.303,4.304,4.306,0,0,84.11,10,Assisted_Takeoff,
0.35767239330693,36.8938401110633,5810.7016511655,0,0,0.48769358516,5000,2017-11-07 07:05:12,12,17.216,5810.7016511655,0,0,0.48769358516,158, 1.2, 3.1,0,0,1024,1024,1024,1024,158.3,0,100,4.303,4.303,4.304,4.306,0,0,84.11,10,Assisted_Takeoff,
0.357672344067414,36.8938400629354,5810.7016511655,0,0,0.5055446356,5100,2017-11-07 07:05:12,12,17.216,5810.7016511655,0,0,0.5055446356,158, 1.3, 3.1,0,0,1024,1024,1024,1024,158.3,0,100,4.303,4.303,4.304,4.306,0,0,84.11,10,Assisted_Takeoff,
0.357672314611076,36.8938399801276,5810.7016511655,0,0,0.53619096204,5200,2017-11-07 07:05:12,12,17.216,5810.7016511655,0,0,0.53619096204,158, 1.2, 3.1,0,0,1024,1024,1024,1024,158.3,0,100,4.303,4.303,4.304,4.306,0,0,84.11,10,Assisted_Takeoff,
0.357672290948233,36.8938399017559,5810.7016511655,0,0,0.56524280024,5300,2017-11-07 07:05:12,12,17.216,5810.7016511655,0,0,0.56524280024,158, 1.2, 3.1,0,0,1024,1024,1024,1024,158.3,0,100,4.303,4.303,4.304,4.306,0,0,84.11,10,Assisted_Takeoff,
0.35767225924746,36.8938398331979,5810.7016511655,0,0,0.59103348348,5400,2017-11-07 07:05:13,12,17.216,5810.7016511655,0,0,0.59103348348,158, 1.2, 3.1,0,0,1024,1024,1024,1024,158.3,0,100,4.303,4.303,4.304,4.306,0,0,84.11,10,Assisted_Takeoff,
0.357672224181894,36.8938397699358,5810.7016511655,0,0,0.61517718504,5500,2017-11-07 07:05:13,12,17.216,5810.7016511655,0,0,0.61517718504,158, 1.2, 3.1,0,0,1024,1024,1024,1024,158.3,0,100,4.303,4.303,4.304,4.306,0,0,84.11,10,Assisted_Takeoff,
0.3576722046122,36.8938397351644,5810.7016511655,0,0,0.62853348468,5600,2017-11-07 07:05:13,12,17.216,5810.7016511655,0,0,0.62853348468,158, 1.2, 3.1,0,0,1024,1024,1024,1024,158.3,0,100,4.303,4.303,4.304,4.306,0,0,84.11,10,Assisted_Takeoff,
0.357672186840552,36.8938397035192,5810.7016511655,0,0,0.64073492864,5700,2017-11-07 07:05:13,12,17.216,5810.7016511655,0,0,0.64073492864,158, 1.2, 3.1,0,0,1024,1024,1024,1024,158.3,0,100,4.303,4.303,4.304,4.306,0,0,84.11,10,Assisted_Takeoff,
0.35767215600864,36.8938396736371,5810.7016511655,0,0,0.65294621512,5800,2017-11-07 07:05:13,12,17.216,5810.7016511655,0,0,0.65294621512,158, 1.2, 3.1,0,0,1024,1024,1024,1024,158.3,0,100,4.303,4.303,4.304,4.306,0,0,84.11,10,Assisted_Takeoff,
0.357672123602089,36.8938396388924,5810.7016511655,0,0,0.6671424098,5900,2017-11-07 07:05:13,12,17.189,5810.7016511655,0,0,0.6671424098,158, 1.2, 3.1,0,0,1024,1024,1024,1024,158.3,0,100,4.303,4.303,4.304,4.305,0,0,84.11,10,Assisted_Takeoff,
0.357672107373099,36.8938396024345,5810.7016511655,0,0,0.68118112416,6000,2017-11-07 07:05:13,12,17.189,5810.7016511655,0,0,0.68118112416,158, 1.2, 3.1,0,0,1024,1024,1024,1024,158.3,0,100,4.303,4.303,4.304,4.305,0,0,84.11,10,Assisted_Takeoff,
0.357672093244273,36.8938395629152,5810.7016511655,0,0,0.69622049472,6100,2017-11-07 07:05:13,12,17.189,5810.7016511655,0,0,0.69622049472,158, 1.2, 3.1,0,0,1024,1024,1024,1024,158.3,0,100,4.303,4.303,4.304,4.305,0,0,84.11,10,Assisted_Takeoff,
0.357672063117773,36.8938395186501,5810.7016511655,0,0,0.71393703072,6200,2017-11-07 07:05:13,12,17.189,5810.7016511655,0,0,0.71393703072,158, 1.2, 3.1,0,1,1024,1024,1024,1024,158.3,0,100,4.303,4.303,4.304,4.305,0,0,84.11,10,Assisted_Takeoff,
0.357672030303481,36.893839473621,5810.7016511655,0,0,0.73219490532,6300,2017-11-07 07:05:13,12,17.189,5810.7016511655,0,0,0.73219490532,158, 1.2, 3.1,0,1,1024,1024,1024,1024,158.3,0,100,4.303,4.303,4.304,4.305,0,0,84.11,10,Assisted_Takeoff,
0.357672014421293,36.8938394575578,5810.7016511655,0,0,0.73901905252,6400,2017-11-07 07:05:14,12,17.189,5810.7016511655,0,0,0.73901905252,158, 1.2, 3.1,0,1,1024,1024,1024,1024,158.3,0,100,4.303,4.303,4.304,4.305,0,0,84.11,10,Assisted_Takeoff,
0.357671999672653,36.8938394399981,5810.7016511655,0,0,0.7463254832,6500,2017-11-07 07:05:14,12,17.189,5810.7016511655,0,0,0.7463254832,158, 1.2, 3.1,0,1,1024,1024,1024,1024,158.3,0,100,4.303,4.303,4.304,4.305,0,0,84.11,10,Assisted_Takeoff,
0.35767196902993,36.8938394162627,5810.7016511655,0,0,0.7570210216,6600,2017-11-07 07:05:14,12,17.189,5810.7016511655,0,0,0.7570210216,158, 1.2, 3.1,0,1,1024,1024,1024,1024,158.3,0,100,4.303,4.303,4.304,4.305,0,0,84.11,10,Assisted_Takeoff,
0.357671935802268,36.8938393870271,5810.7016511655,0,0,0.76999346296,6700,2017-11-07 07:05:14,12,17.189,5810.7016511655,0,0,0.76999346296,158, 1.2, 3.1,0,1,1024,1024,1024,1024,158.3,0,100,4.303,4.303,4.304,4.305,0,0,84.11,10,Assisted_Takeoff,
0.357671917210196,36.8938393477881,5810.7016511655,0,0,0.78544293852,6800,2017-11-07 07:05:14,12,17.189,5810.7016511655,0,0,0.78544293852,158, 1.2, 3.1,0,1,1024,1024,1024,1024,158.3,0,100,4.303,4.303,4.304,4.305,0,0,84.11,10,Assisted_Takeoff,
0.357671900488315,36.8938393076809,5810.7016511655,0,0,0.8010662986,6900,2017-11-07 07:05:14,12,17.189,5810.7016511655,0,0,0.8010662986,158, 1.2, 3.1,0,1,1024,1024,1024,1024,158.3,0,100,4.303,4.302,4.304,4.305,0,0,84.11,10,Assisted_Takeoff,
0.357671899593383,36.8938392903503,5810.7016511655,0,0,0.80730317544,7000,2017-11-07 07:05:14,12,17.189,5810.7016511655,0,0,0.80730317544,158, 1.2, 3.1,0,1,1024,1024,1024,1024,158.3,0,100,4.303,4.302,4.304,4.305,0,0,84.11,10,Assisted_Takeoff,
0.357671894705456,36.8938392737451,5810.7016511655,0,0,0.81360566908,7100,2017-11-07 07:05:14,12,17.189,5810.7016511655,0,0,0.81360566908,158, 1.2, 3.1,0,1,1024,1024,1024,1024,158.3,0,100,4.303,4.302,4.304,4.305,0,0,84.11,10,Assisted_Takeoff,
0.357671903864131,36.893839246575,5810.7016511655,0,0,0.82254267724,7200,2017-11-07 07:05:14,12,17.189,5810.7016511655,0,0,0.82254267724,158, 1.2, 3.1,0,1,1024,1024,1024,1024,158.3,0,100,4.303,4.302,4.304,4.305,0,0,84.11,10,Assisted_Takeoff,
0.357671904668073,36.8938392145604,5810.7016511655,0,0,0.83388782196,7300,2017-11-07 07:05:14,12,17.189,5810.7016511655,0,0,0.83388782196,158, 1.2, 3.1,0,1,1024,1024,1024,1024,158.3,0,100,4.303,4.302,4.304,4.305,0,0,84.11,10,Assisted_Takeoff,
0.357671884923495,36.8938392034794,5810.7016511655,0,0,0.83939635232,7400,2017-11-07 07:05:15,12,17.189,5810.7016511655,0,0,0.83939635232,158, 1.2, 3.1,0,1,1024,1024,1024,1024,158.3,0,100,4.303,4.302,4.304,4.305,0,0,84.11,10,Assisted_Takeoff,
0.357671859474223,36.8938391918538,5810.7016511655,0,0,0.84561354412,7500,2017-11-07 07:05:15,12,17.189,5810.7016511655,0,0,0.84561354412,158, 1.2, 3.1,0,1,1024,1024,1024,1024,158.3,0,100,4.303,4.302,4.304,4.305,0,0,84.11,10,Assisted_Takeoff,
0.357671843901642,36.893839165837,5810.7016511655,0,0,0.85616472556,7600,2017-11-07 07:05:15,12,17.189,5810.7016511655,0,0,0.85616472556,157.9, 1.2, 3.1,0,1,1024,1024,1024,1024,158.3,0,100,4.303,4.302,4.304,4.305,0,0,84.11,10,Assisted_Takeoff,
0.357671829626346,36.8938391359786,5810.7016511655,0,0,0.86797574956,7700,2017-11-07 07:05:15,12,17.189,5810.7016511655,0,0,0.86797574956,157.9, 1.2, 3.1,0,1,1024,1024,1024,1024,158.3,0,100,4.303,4.302,4.304,4.305,0,0,84.11,10,Assisted_Takeoff,
0.357671826986155,36.8938390909458,5810.7016511655,0,0,0.88417325664,7800,2017-11-07 07:05:15,12,17.189,5810.7016511655,0,0,0.88417325664,157.9, 1.2, 3.1,0,1,1024,1024,1024,1024,158.3,0,100,4.303,4.302,4.304,4.305,0,0,84.11,10,Assisted_Takeoff,
0.35767182096394,36.8938390488416,5810.7016511655,0,0,0.89962601304,7900,2017-11-07 07:05:15,12,17.189,5810.7016511655,0,0,0.89962601304,157.9, 1.2, 3.1,0,1,1024,1024,1024,1024,158.3,0,100,4.303,4.302,4.304,4.305,0,0,84.11,10,Assisted_Takeoff,
0.357671825067262,36.8938390260743,5810.7016511655,0,0,0.9073655146,8000,2017-11-07 07:05:15,12,17.189,5810.7016511655,0,0,0.9073655146,157.9, 1.2, 3.1,0,1,1024,1024,1024,1024,158.2,0,100,4.303,4.302,4.304,4.305,0,0,84.11,10,Assisted_Takeoff,
0.357671824846455,36.8938390074371,5810.7016511655,0,0,0.91400593476,8100,2017-11-07 07:05:15,12,17.189,5810.7016511655,0,0,0.91400593476,157.9, 1.2, 3.1,0,1,1024,1024,1024,1024,158.2,0,100,4.303,4.302,4.304,4.305,0,0,84.11,10,Assisted_Takeoff,
0.357671832706471,36.8938389753708,5810.7016511655,0,0,0.9247703708,8200,2017-11-07 07:05:15,12,17.189,5810.7016511655,0,0,0.9247703708,157.9, 1.1, 3.1,0,1,1024,1024,1024,1024,158.2,0,100,4.303,4.302,4.304,4.305,0,0,84.11,10,Assisted_Takeoff,
0.357671834298301,36.8938389419457,5810.7016511655,0,0,0.93654530556,8300,2017-11-07 07:05:15,12,17.189,5810.7016511655,0,0,0.93654530556,157.9, 1.2, 3.1,0,1,1024,1024,1024,1024,158.2,0,100,4.303,4.302,4.304,4.305,0,0,84.11,10,Assisted_Takeoff,
0.35767181095481,36.8938389262328,5810.7016511655,0,0,0.94401577824,8400,2017-11-07 07:05:16,12,17.189,5810.7016511655,0,0,0.94401577824,157.9, 1.2, 3.1,0,1,1024,1024,1024,1024,158.2,0,100,4.303,4.302,4.304,4.305,0,0,84.11,10,Assisted_Takeoff,
0.357671781636381,36.893838913296,5810.7016511655,0,0,0.95105974172,8500,2017-11-07 07:05:16,12,17.189,5810.7016511655,0,0,0.95105974172,157.9, 1.1, 3.1,0,1,1024,1024,1024,1024,158.2,0,100,4.303,4.302,4.304,4.305,0,0,84.11,10,Assisted_Takeoff,
0.357671758866892,36.8938388856842,5810.7016511655,0,0,0.9628117106,8600,2017-11-07 07:05:16,12,17.189,5810.7016511655,0,0,0.9628117106,157.9, 1.1, 3.1,0,1,1024,1024,1024,1024,158.2,0,100,4.303,4.302,4.304,4.305,0,0,84.11,10,Assisted_Takeoff,
0.357671739145163,36.8938388553571,5810.7016511655,0,0,0.97528874512,8700,2017-11-07 07:05:16,12,17.189,5810.7016511655,0,0,0.97528874512,157.9, 1.1, 3.1,0,1,1024,1024,1024,1024,158.2,0,100,4.303,4.302,4.304,4.305,0,0,84.11,10,Assisted_Takeoff,
0.357671698509378,36.8938388085589,5810.7016511655,0,0,0.99551512372,8800,2017-11-07 07:05:16,12,17.189,5810.7016511655,0,0,0.99551512372,157.9, 1.1, 3.1,0,1,1024,1024,1024,1024,158.2,0,100,4.303,4.302,4.304,4.305,0,0,84.11,10,Assisted_Takeoff,
0.357671656915102,36.8938387657573,5810.7016511655,0,0,1.01453087236,8900,2017-11-07 07:05:16,12,17.162,5810.7016511655,0,0,1.01453087236,157.9, 1.1, 3.1,0,1,1024,1024,1024,1024,158.2,0,99,4.302,4.302,4.304,4.305,0,0,84.11,10,Assisted_Takeoff,
0.357671628952174,36.8938387405134,5810.7016511655,0,0,1.02613520344,9000,2017-11-07 07:05:16,12,17.162,5810.7016511655,0,0,1.02613520344,157.9, 1.1, 3.1,0,1,1024,1024,1024,1024,158.2,0,99,4.302,4.302,4.304,4.305,0,0,84.11,10,Assisted_Takeoff,
0.357671603559542,36.8938387213141,5810.7016511655,0,0,1.03541013812,9100,2017-11-07 07:05:16,12,17.162,5810.7016511655,0,0,1.03541013812,157.9, 1.1, 3.1,0,1,1024,1024,1024,1024,158.2,0,99,4.302,4.302,4.304,4.305,0,0,84.11,10,Assisted_Takeoff,
0.357671592193461,36.8938387184353,5810.7016511655,0,0,1.03757877336,9200,2017-11-07 07:05:16,12,17.162,5810.7016511655,0,0,1.03757877336,157.9, 1.1, 3.1,0,1,1024,1024,1024,1024,158.2,0,99,4.302,4.302,4.304,4.305,0,0,84.11,10,Assisted_Takeoff,
0.357671548367961,36.8938386929494,5810.7016511655,0,0,1.05107286828,9400,2017-11-07 07:05:17,12,17.162,5810.7016511655,0,0,1.05107286828,157.9, 1.1, 3.1,0,1,1024,1024,1112,1024,158.2,0,99,4.302,4.302,4.304,4.305,0,0,84.11,10,Assisted_Takeoff,
0.357671511557036,36.8938386679277,5810.7016511655,0,0,1.0637795616,9500,2017-11-07 07:05:17,12,17.162,5810.7016511655,0,0,1.0637795616,157.9, 1, 3.1,0,1,1024,1024,1120,1024,158.2,0,99,4.302,4.302,4.304,4.305,0,0,84.11,10,Assisted_Takeoff,
0.357671492937611,36.8938386567105,5810.7016511655,0,0,1.06974412872,9600,2017-11-07 07:05:17,12,17.162,5810.7016511655,0,0,1.06974412872,157.9, 1.1, 3.1,0,1,1024,1024,1246,1024,158.2,0,99,4.302,4.302,4.304,4.305,0,0,84.11,10,Assisted_Takeoff,
0.357671475299628,36.8938386493561,5810.7016511655,0,0,1.07428153044,9700,2017-11-07 07:05:17,12,17.162,5810.7016511655,0,0,1.07428153044,157.9, 1.2, 3,0,1,1024,1024,1246,1024,158.2,0,99,4.302,4.302,4.304,4.305,0,0,84.11,10,Assisted_Takeoff,
0.357671445701539,36.893838622661,5810.7016511655,0,0,1.08692260696,9800,2017-11-07 07:05:17,12,17.162,5810.7016511655,0,0,1.08692260696,157.9, 1.3, 2.8,0,1,1024,1024,1307,1024,158.2,0,99,4.302,4.302,4.304,4.305,0,0,84.11,10,Assisted_Takeoff,
0.357671411411292,36.8938385936551,5810.7016511655,0,0,1.10096132132,9900,2017-11-07 07:05:17,12,17.189,5810.7016511655,0,0,1.10096132132,157.9, 1.5, 2.8,0,1,1024,1024,1379,1024,158.2,0,99,4.302,4.302,4.304,4.305,0,0,84.11,10,Assisted_Takeoff,
0.357671392827235,36.8938385385985,5810.7016511655,0,0,1.1221621094,10000,2017-11-07 07:05:17,12,17.189,5810.7016511655,0,0,1.1221621094,158.4, 2, 2.9,0,1,1024,1024,1447,1024,158.2,0,99,4.302,4.302,4.304,4.305,0,0,84.11,10,Assisted_Takeoff,
0.357671375637991,36.8938384492816,5810.7016511655,0,0,1.15502628368,10100,2017-11-07 07:05:17,12,17.189,5810.7016511655,0,0,1.15502628368,158.7, 2.2, 3.2,0,1,1024,1024,1530,1024,158.2,0,99,4.302,4.302,4.304,4.305,0,0,84.11,10,Assisted_Takeoff,
0.357671315296304,36.8938380942092,5810.7016511655,0,0.447388,1.28495410936,10300,2017-11-07 07:05:17,12,17.189,5810.7016511655,0,0.447388,1.28495410936,158.8, 0.4, 0.7,0,1,1024,1024,1552,1024,158.2,0,99,4.302,4.302,4.304,4.305,0,0,84.11,6,GPS_Atti,Obstacle Avoided. Revise Flight Route
0.357671249538819,36.8938378334281,5810.7016511655,0,0.447388,1.38289374504,10400,2017-11-07 07:05:18,12,17.189,5810.7016511655,0,0.447388,1.38289374504,158.9, -0.2, -0.6,0,1,1024,1024,1594,1024,158.2,0,99,4.302,4.302,4.304,4.305,0,0,84.11,6,GPS_Atti,
0.357671152576276,36.8938375851545,5811.0297351655,0.328084,0.31540854,1.4799377114,10500,2017-11-07 07:05:18,12,17.189,5811.0297351655,0.328084,0.447388,1.4799377114,159, 0.2, -1.7,0,1,1024,1024,1616,1024,158.2,0,99,4.302,4.302,4.304,4.305,0,0,84.11,6,GPS_Atti,
0.357671002576636,36.8938373734916,5811.6859031655,0.984252,0.50107456,1.57044296364,10600,2017-11-07 07:05:18,12,17.189,5811.6859031655,0.984252,0.50107456,1.57044296364,159, 0.7, -1.9,0,1,1024,1024,1617,1024,158.3,0,99,4.302,4.302,4.304,4.305,0,0,84.11,6,GPS_Atti,
0.357670852992859,36.8938372005886,5812.0139871655,1.312336,0.50107456,1.64805779552,10700,2017-11-07 07:05:18,12,17.189,5812.0139871655,1.312336,0.50107456,1.64805779552,158.9, 0.2, -1.1,0,1,1024,1024,1632,1024,158.3,0,99,4.302,4.302,4.304,4.305,0,0,84.11,6,GPS_Atti,
0.357670653599662,36.8938370127754,5812.9982391655,2.296588,0.70687304,1.73784126296,10800,2017-11-07 07:05:18,12,17.189,5812.9982391655,2.296588,0.70687304,1.73784126296,159.1, 0.6, -1.4,0,1,1024,1024,1641,1024,158.3,0,99,4.302,4.302,4.304,4.305,0,0,84.11,6,GPS_Atti,
0.357670420448516,36.8938368293393,5813.9824911655,3.28084,0.70687304,1.83200793264,10900,2017-11-07 07:05:18,12,17.054,5813.9824911655,3.28084,0.70687304,1.83200793264,159, 2.5, -2.2,0,1,1024,1024,1642,1024,158.3,0,99,4.239,4.24,4.227,4.231,0,0,84.11,6,GPS_Atti,
0.357670134219765,36.8938366323896,5814.9667431655,4.265092,0.50107456,1.9402723718,11000,2017-11-07 07:05:18,12,17.054,5814.9667431655,4.265092,0.70687304,1.9402723718,159, 4.3, -3.3,0,1,1024,1024,1635,1024,158.3,0,99,4.239,4.24,4.227,4.231,0,0,84.11,6,GPS_Atti,Home Point Recorded. RTH Altitude:  30m.
0.357669907577611,36.8938364546046,5816.2790791655,5.577428,0.31540854,2.03464901524,11100,2017-11-07 07:05:18,12,17.054,5816.2790791655,5.577428,0.70687304,2.03464901524,158.9, 4.4, -3.5,0,1,1024,1024,1627,1024,158.3,0,99,4.239,4.24,4.227,4.231,0,0,84.11,6,GPS_Atti,
0.357669716388922,36.8938362678475,5817.5914151655,6.889764,0.31540854,2.12696201032,11200,2017-11-07 07:05:18,12,17.054,5817.5914151655,6.889764,0.70687304,2.12696201032,158.8, 4.2, -3.9,0,1,1024,1024,1616,1024,158.3,0,99,4.239,4.24,4.227,4.231,0,0,84.11,6,GPS_Atti,
0.35766959057941,36.8938360946426,5818.9037511655,8.2021,0.223694,2.20420282644,11300,2017-11-07 07:05:18,12,17.054,5818.9037511655,8.2021,0.70687304,2.20420282644,158.7, 3.7, -4.5,0,1,1024,1024,1618,1024,158.3,0,99,4.239,4.24,4.227,4.231,0,0,84.11,6,GPS_Atti,
0.357669635631331,36.8938357706425,5820.5441711655,9.84252,0.223694,2.30236884008,11400,2017-11-07 07:05:19,13,17.054,5820.5441711655,9.84252,0.70687304,2.30236884008,158.7, 1.8, -4.4,0,1,1024,1024,1635,1024,158.4,0,99,4.239,4.24,4.227,4.231,0,0,84.11,6,GPS_Atti,
0.357669703010441,36.893835485649,5821.8565071655,11.154856,0.223694,2.38612868528,11500,2017-11-07 07:05:19,13,17.054,5821.8565071655,11.154856,0.70687304,2.38612868528,158.7, 1.6, -4,0,1,1024,1024,1629,1024,158.4,0,99,4.239,4.24,4.227,4.231,0,0,84.11,6,GPS_Atti,
0.357669840151277,36.8938351193972,5823.1688431655,12.467192,0.223694,2.48940952848,11600,2017-11-07 07:05:19,13,17.054,5823.1688431655,12.467192,0.70687304,2.48940952848,158.7, 1.6, -4.4,0,1,1024,1024,1640,1024,158.4,0,99,4.239,4.24,4.227,4.231,0,0,84.11,6,GPS_Atti,
0.357669940786877,36.8938348492915,5824.4811791655,13.779528,0,2.56805782496,11700,2017-11-07 07:05:19,13,17.054,5824.4811791655,13.779528,0.70687304,2.56805782496,158.7, 1.4, -4,0,1,1024,1024,1639,1024,158.4,0,99,4.239,4.24,4.227,4.231,0,0,84.11,6,GPS_Atti,
0.357670067688464,36.8938345511265,5826.1215991655,15.419948,0.223694,2.65516084612,11800,2017-11-07 07:05:19,13,17.054,5826.1215991655,15.419948,0.70687304,2.65516084612,158.6, 0.5, -3.7,0,1,1024,1024,1637,1024,158.4,0,99,4.239,4.24,4.227,4.231,0,0,84.11,6,GPS_Atti,
0.357670157681979,36.8938343107683,5827.4339351655,16.732284,0,2.72842200332,11900,2017-11-07 07:05:19,13,16.46,5827.4339351655,16.732284,0.70687304,2.72842200332,158.7, -0.1, -3.1,0,1,1024,1024,1640,1024,158.4,0,99,4.239,4.24,4.227,4.231,0,0,84.11,6,GPS_Atti,
0.357670216618217,36.8938340778332,5829.0743551655,18.372704,0.223694,2.80348106084,12000,2017-11-07 07:05:19,13,16.46,5829.0743551655,18.372704,0.70687304,2.80348106084,158.6, 0.3, -3.1,0,1,1024,1024,1642,1024,158.4,0,99,4.239,4.24,4.227,4.231,0,0,84.11,6,GPS_Atti,
0.35767021184138,36.8938338726169,5830.7147751655,20.013124,0.223694,2.87584982956,12100,2017-11-07 07:05:19,13,16.46,5830.7147751655,20.013124,0.70687304,2.87584982956,158.6, 0.6, -4,0,1,1024,1024,1649,1024,158.4,0,99,4.239,4.24,4.227,4.231,0,0,84.11,6,GPS_Atti,
0.357670200146709,36.8938337083472,5832.0271111655,21.32546,0.223694,2.93465232488,12200,2017-11-07 07:05:19,13,16.46,5832.0271111655,21.32546,0.70687304,2.93465232488,158.6, 1.5, -4.5,0,1,1024,1024,1645,1024,158.4,0,99,4.239,4.24,4.227,4.231,0,0,84.11,6,GPS_Atti,
0.357670177508692,36.8938335696208,5833.6675311655,22.96588,0.223694,2.98560705092,12300,2017-11-07 07:05:19,13,16.46,5833.6675311655,22.96588,0.70687304,2.98560705092,158.5, 1.8, -5.2,0,1,1024,1024,1649,1024,158.4,0,99,4.239,4.24,4.227,4.231,0,0,84.11,6,GPS_Atti,
0.357670177087128,36.893833473622,5835.3079511655,24.6063,0.223694,3.01938329872,12400,2017-11-07 07:05:20,13,16.46,5835.3079511655,24.6063,0.70687304,3.01938329872,158.8, 0.5, -5.9,0,1,1024,1024,1649,1024,158.4,0,99,4.239,4.24,4.227,4.231,0,0,84.11,6,GPS_Atti,
0.357670176776095,36.8938334192164,5836.6202871655,25.918636,0,3.03854340432,12500,2017-11-07 07:05:20,13,16.46,5836.6202871655,25.918636,0.70687304,3.03854340432,158.9, -0.7, -5.2,0,1,1024,1024,1650,1024,158.4,0,99,4.239,4.24,4.227,4.231,0,0,84.11,6,GPS_Atti,
0.357670157908129,36.893833506818,5838.2607071655,27.559056,0,3.00960311468,12600,2017-11-07 07:05:20,13,16.46,5838.2607071655,27.559056,0.70687304,3.03854340432,158.8, 0, -4.5,0,1,1024,1024,1661,1024,158.4,0,99,4.239,4.24,4.227,4.231,0,0,84.11,6,GPS_Atti,
0.357670083852806,36.8938336251361,5839.9011271655,29.199476,0.223694,2.97560048892,12700,2017-11-07 07:05:20,13,16.46,5839.9011271655,29.199476,0.70687304,3.03854340432,158.6, 1.7, -4.3,0,1,1024,1024,1665,1024,158.4,0,99,4.239,4.24,4.227,4.231,0,0,84.11,6,GPS_Atti,
0.357670004274819,36.8938338252569,5841.5415471655,30.839896,0,2.9141897258,12800,2017-11-07 07:05:20,13,16.46,5841.5415471655,30.839896,0.70687304,3.03854340432,158.6, 3.1, -3.9,0,1,1024,1024,1650,1024,158.4,0,99,4.239,4.24,4.227,4.231,0,0,84.11,6,GPS_Atti,
0.357669935376371,36.8938339679386,5842.8538831655,32.152232,0,2.87229667984,12900,2017-11-07 07:05:20,13,16.622,5842.8538831655,32.152232,0.70687304,3.03854340432,158.6, 3, -4.1,0,1,1024,1024,1650,1024,158.4,0,99,4.167,4.183,4.17,4.171,0,0,84.11,6,GPS_Atti,
0.357669950613722,36.8938341604116,5844.4943031655,33.792652,0,2.80389444668,13000,2017-11-07 07:05:20,13,16.622,5844.4943031655,33.792652,0.70687304,3.03854340432,158.6, 1.6, -4.1,0,1,1024,1024,1662,1024,158.4,0,99,4.167,4.183,4.17,4.171,0,0,84.11,6,GPS_Atti,
0.357669946675737,36.8938342953951,5846.1347231655,35.433072,0,2.75770350032,13100,2017-11-07 07:05:20,13,16.622,5846.1347231655,35.433072,0.70687304,3.03854340432,158.7, 0.8, -4.7,0,1,1024,1024,1661,1024,158.4,0,99,4.167,4.183,4.17,4.171,0,0,84.11,6,GPS_Atti,
0.357669974297811,36.8938344432933,5847.4470591655,36.745408,0,2.7033957558,13200,2017-11-07 07:05:20,13,16.622,5847.4470591655,36.745408,0.70687304,3.03854340432,158.7, 0.9, -5,0,1,1024,1024,1656,1024,158.4,0,99,4.167,4.183,4.17,4.171,0,0,84.11,6,GPS_Atti,
0.3576699691961,36.8938345667069,5849.0874791655,38.385828,0,2.66148958648,13300,2017-11-07 07:05:20,13,16.622,5849.0874791655,38.385828,0.70687304,3.03854340432,158.6, 1.2, -5.2,0,1,1024,1024,1664,1024,158.4,0,99,4.167,4.183,4.17,4.171,0,0,84.11,6,GPS_Atti,
0.357669990284653,36.8938347136913,5850.7278991655,40.026248,0,2.60837278688,13400,2017-11-07 07:05:21,13,16.622,5850.7278991655,40.026248,0.70687304,3.03854340432,158.6, 1.3, -5.4,0,1,1024,1024,1665,1024,158.4,0,99,4.167,4.183,4.17,4.171,0,0,84.11,6,GPS_Atti,
0.357669981722498,36.8938348436564,5852.3683191655,41.666668,0,2.5648294784,13500,2017-11-07 07:05:21,13,16.622,5852.3683191655,41.666668,0.70687304,3.03854340432,158.6, 1.2, -5.3,0,1,1024,1024,1666,1024,158.4,0,99,4.167,4.183,4.17,4.171,0,0,84.11,6,GPS_Atti,
0.357670002130362,36.893835002176,5853.6806551655,42.979004,0,2.50797908288,13600,2017-11-07 07:05:21,13,16.622,5853.6806551655,42.979004,0.70687304,3.03854340432,158.6, 1, -5.1,0,1,1024,1024,1667,1024,158.4,0,99,4.167,4.183,4.17,4.171,0,0,84.11,6,GPS_Atti,
0.357669987495943,36.8938351555347,5855.3210751655,44.619424,0,2.45749023612,13700,2017-11-07 07:05:21,13,16.622,5855.3210751655,44.619424,0.70687304,3.03854340432,158.6, 1.2, -5,0,1,1024,1024,1669,1024,158.4,0,99,4.167,4.183,4.17,4.171,0,0,84.11,6,GPS_Atti,
0.357670023565367,36.8938353183045,5856.9614951655,46.259844,0,2.39733603472,13800,2017-11-07 07:05:21,13,16.622,5856.9614951655,46.259844,0.70687304,3.03854340432,158.6, 1.3, -5,0,1,1024,1024,1678,1024,158.4,0,99,4.167,4.183,4.17,4.171,0,0,84.11,6,GPS_Atti,
0.357670032320899,36.893835478938,5858.6019151655,47.900264,0,2.34158800144,13900,2017-11-07 07:05:21,13,16.649,5858.6019151655,47.900264,0.70687304,3.03854340432,158.6, 1.2, -4.8,0,1,1024,1024,1684,1024,158.4,0,99,4.176,4.184,4.174,4.187,0,0,84.11,6,GPS_Atti,
0.35767006880863,36.8938356635988,5859.9142511655,49.2126,0,2.27407159508,14000,2017-11-07 07:05:21,13,16.649,5859.9142511655,49.2126,0.70687304,3.03854340432,158.6, 1.4, -4.5,0,1,1024,1024,1684,1024,158.4,0,99,4.176,4.184,4.174,4.187,0,0,84.11,6,GPS_Atti,
0.357670073596662,36.8938358452984,5861.5546711655,50.85302,0,2.21202106816,14100,2017-11-07 07:05:21,13,16.649,5861.5546711655,50.85302,0.70687304,3.03854340432,158.6, 1.5, -4.2,0,1,1024,1024,1684,1024,158.4,0,99,4.176,4.184,4.174,4.187,0,0,84.11,6,GPS_Atti,
0.357670108140438,36.8938360277281,5863.1950911655,52.49344,0,2.14574481932,14200,2017-11-07 07:05:21,13,16.649,5863.1950911655,52.49344,0.70687304,3.03854340432,158.6, 1.4, -4.1,0,1,1024,1024,1684,1024,158.4,0,99,4.176,4.184,4.174,4.187,0,0,84.11,6,GPS_Atti,
0.357670108982954,36.8938361977042,5864.8355111655,54.13386,0,2.08861227156,14300,2017-11-07 07:05:21,13,16.649,5864.8355111655,54.13386,0.70687304,3.03854340432,158.6, 1.3, -4.2,0,1,1024,1024,1684,1024,158.4,0,99,4.176,4.184,4.174,4.187,0,0,84.11,6,GPS_Atti,
0.357670111752937,36.8938365682935,5868.4444351655,57.742784,0,1.96492460356,14500,2017-11-07 07:05:22,13,16.649,5868.4444351655,57.742784,0.70687304,3.03854340432,158.6, 1.6, -4.1,0,1,1024,1024,1684,1024,158.4,0,99,4.176,4.184,4.174,4.187,0,0,84.11,6,GPS_Atti,
0.357670145795762,36.8938367334769,5870.0848551655,59.383204,0,1.90512145204,14600,2017-11-07 07:05:22,13,16.649,5870.0848551655,59.383204,0.70687304,3.03854340432,158.6, 1.9, -4.2,0,1,1024,1024,1684,1024,158.5,0,99,4.176,4.184,4.174,4.187,0,0,84.11,6,GPS_Atti,
0.357670155958271,36.893836878765,5871.7252751655,61.023624,0,1.85577105676,14700,2017-11-07 07:05:22,13,16.649,5871.7252751655,61.023624,0.70687304,3.03854340432,158.6, 1.9, -4,0,1,1024,1024,1684,1024,158.5,0,99,4.176,4.184,4.174,4.187,0,0,84.11,6,GPS_Atti,
0.35767019569719,36.8938370082441,5873.3656951655,62.664044,0,1.80698496596,14800,2017-11-07 07:05:22,13,16.649,5873.3656951655,62.664044,0.70687304,3.03854340432,158.6, 1.8, -4,0,1,1024,1024,1684,1024,158.5,0,99,4.176,4.184,4.174,4.187,0,0,84.11,6,GPS_Atti,
0.357670201990311,36.893837115072,5875.0061151655,64.304464,0,1.7710958572,14900,2017-11-07 07:05:22,13,16.487,5875.0061151655,64.304464,0.70687304,3.03854340432,158.6, 1.5, -4.2,0,1,1024,1024,1684,1024,158.5,0,99,4.176,4.184,4.174,4.187,0,0,84.11,6,GPS_Atti,
0.357670228185462,36.8938371804822,5876.9746191655,66.272968,0,1.74548562016,15000,2017-11-07 07:05:22,13,16.487,5876.9746191655,66.272968,0.70687304,3.03854340432,158.6, 1.6, -4.4,0,1,1024,1024,1684,1024,158.5,0,99,4.176,4.184,4.174,4.187,0,0,84.11,6,GPS_Atti,
0.357670224762472,36.8938372353878,5878.6150391655,67.913388,0,1.72821199756,15100,2017-11-07 07:05:22,13,16.487,5878.6150391655,67.913388,0.70687304,3.03854340432,158.6, 1.6, -4.9,0,1,1024,1024,1684,1024,158.5,0,99,4.176,4.184,4.174,4.187,0,0,84.11,6,GPS_Atti,
0.357670205506122,36.8938372834737,5880.5835431655,69.881892,0,1.71588588168,15200,2017-11-07 07:05:22,13,16.487,5880.5835431655,69.881892,0.70687304,3.03854340432,158.6, 1.6, -5.1,0,1,1024,1024,1684,1024,158.5,0,99,4.176,4.184,4.174,4.187,0,0,84.11,6,GPS_Atti,
0.357670157740196,36.8938373408467,5882.2239631655,71.522312,0,1.70563653752,15300,2017-11-07 07:05:22,13,16.487,5882.2239631655,71.522312,0.70687304,3.03854340432,158.6, 1.9, -5,0,1,1024,1024,1684,1024,158.5,0,99,4.176,4.184,4.174,4.187,0,0,84.11,6,GPS_Atti,
0.35767013660401,36.8938374142166,5883.8643831655,73.162732,0,1.68591868912,15400,2017-11-07 07:05:23,13,16.487,5883.8643831655,73.162732,0.70687304,3.03854340432,158.5, 2, -4.7,0,1,1024,1024,1684,1024,158.5,0,99,4.176,4.184,4.174,4.187,0,0,84.11,6,GPS_Atti,
0.357670106226812,36.8938374780729,5885.8328871655,75.131236,0,1.67112210072,15500,2017-11-07 07:05:23,13,16.487,5885.8328871655,75.131236,0.70687304,3.03854340432,158.5, 2, -4.6,0,1,1024,1024,1684,1024,158.5,0,99,4.176,4.184,4.174,4.187,0,0,84.11,6,GPS_Atti,
0.357670115870458,36.8938375520519,5887.4733071655,76.771656,0,1.64600727052,15600,2017-11-07 07:05:23,13,16.487,5887.4733071655,76.771656,0.70687304,3.03854340432,158.5, 2, -4.7,0,1,1024,1024,1684,1024,158.5,0,99,4.176,4.184,4.174,4.187,0,0,84.11,6,GPS_Atti,
0.357670109873306,36.893837611021,5889.4418111655,78.74016,0,1.62858272928,15700,2017-11-07 07:05:23,13,16.487,5889.4418111655,78.74016,0.70687304,3.03854340432,158.5, 1.9, -4.7,0,1,1024,1024,1684,1024,158.5,0,99,4.176,4.184,4.174,4.187,0,0,84.11,6,GPS_Atti,
0.357670142787212,36.8938376519855,5891.0822311655,80.38058,0,1.60959978904,15800,2017-11-07 07:05:23,13,16.487,5891.0822311655,80.38058,0.70687304,3.03854340432,158.6, 1.6, -4.8,0,1,1024,1024,1684,1024,158.5,0,99,4.176,4.184,4.174,4.187,0,0,84.11,6,GPS_Atti,
0.357670157151106,36.8938376767053,5892.7226511655,82.021,0,1.59916999868,15900,2017-11-07 07:05:23,13,16.487,5892.7226511655,82.021,0.70687304,3.03854340432,158.6, 1.3, -4.9,0,1,1024,1024,1684,1024,158.5,0,99,4.158,4.167,4.153,4.164,0,0,84.11,6,GPS_Atti,
0.357670187186534,36.8938377079418,5894.6911551655,83.989504,0,1.58378285908,16000,2017-11-07 07:05:23,13,16.487,5894.6911551655,83.989504,0.70687304,3.03854340432,158.6, 1.3, -4.8,0,1,1024,1024,1684,1024,158.5,0,99,4.158,4.167,4.153,4.164,0,0,84.11,6,GPS_Atti,
0.357670182573763,36.8938377379373,5896.3315751655,85.629924,0,1.57522642836,16100,2017-11-07 07:05:23,13,16.487,5896.3315751655,85.629924,0.70687304,3.03854340432,158.6, 1.3, -4.8,0,1,1024,1024,1684,1024,158.5,0,99,4.158,4.167,4.153,4.164,0,0,84.11,6,GPS_Atti,
0.357670178952714,36.8938377508669,5898.3000791655,87.598428,0,1.57185372484,16200,2017-11-07 07:05:23,13,16.487,5898.3000791655,87.598428,0.70687304,3.03854340432,158.6, 1.7, -4.8,0,1,1024,1024,1684,1024,158.5,0,99,4.158,4.167,4.153,4.164,0,0,84.11,6,GPS_Atti,
0.357670155536707,36.8938377533836,5899.9404991655,89.238848,0,1.57547249136,16300,2017-11-07 07:05:23,13,16.487,5899.9404991655,89.238848,0.70687304,3.03854340432,158.6, 1.9, -4.9,0,1,1024,1024,1684,1024,158.5,0,99,4.158,4.167,4.153,4.164,0,0,84.11,6,GPS_Atti,
0.357670158216108,36.8938377328129,5901.9090031655,91.207352,0,1.58139440756,16400,2017-11-07 07:05:24,13,16.487,5901.9090031655,91.207352,0.70687304,3.03854340432,158.6, 2, -4.9,0,1,1024,1024,1684,1024,158.5,0,99,4.158,4.167,4.153,4.164,0,0,84.11,6,GPS_Atti,
0.357670149314016,36.8938377007121,5903.5494231655,92.847772,0,1.59310700636,16500,2017-11-07 07:05:24,13,16.487,5903.5494231655,92.847772,0.70687304,3.03854340432,158.6, 1.7, -5.2,0,1,1024,1024,1684,1024,158.5,0,99,4.158,4.167,4.153,4.164,0,0,84.11,6,GPS_Atti,
0.357670170894359,36.8938376279155,5905.5179271655,94.816276,0,1.61198495972,16600,2017-11-07 07:05:24,13,16.487,5905.5179271655,94.816276,0.70687304,3.03854340432,158.6, 1.3, -5.5,0,1,1024,1024,1684,1024,158.5,0,99,4.158,4.167,4.153,4.164,0,0,84.11,6,GPS_Atti,
0.357670165753361,36.8938375715009,5907.1583471655,96.456696,0,1.63074480284,16700,2017-11-07 07:05:24,13,16.487,5907.1583471655,96.456696,0.70687304,3.03854340432,158.6, 1.3, -5.5,0,1,1024,1024,1684,1024,158.5,0,99,4.158,4.167,4.153,4.164,0,0,84.11,6,GPS_Atti,
0.357670169368914,36.893837510387,5908.7987671655,98.097116,0,1.64947183756,16800,2017-11-07 07:05:24,13,16.487,5908.7987671655,98.097116,0.70687304,3.03854340432,158.6, 1.5, -5.4,0,1,1024,1024,1684,1024,158.5,0,99,4.158,4.167,4.153,4.164,0,0,84.11,6,GPS_Atti,
0.357670142948632,36.893837471607,5910.7672711655,100.06562,0,1.66653220556,16900,2017-11-07 07:05:24,13,16.514,5910.7672711655,100.06562,0.70687304,3.03854340432,158.6, 1.7, -5.4,0,1,1024,1024,1684,1024,158.5,0,99,4.156,4.164,4.148,4.16,0,0,84.11,6,GPS_Atti,
0.357670101139757,36.8938374569144,5912.4076911655,101.70604,0,1.6787402112,17000,2017-11-07 07:05:24,13,16.514,5912.4076911655,101.70604,0.70687304,3.03854340432,158.6, 2.1, -5.1,0,1,1024,1024,1684,1024,158.5,0,99,4.156,4.164,4.148,4.16,0,0,84.11,6,GPS_Atti,
0.357670038905513,36.8938374484966,5914.3761951655,103.674544,0,1.69280189144,17100,2017-11-07 07:05:24,13,16.514,5914.3761951655,103.674544,0.70687304,3.03854340432,158.6, 2.5, -5,0,1,1024,1024,1684,1024,158.5,0,99,4.156,4.164,4.148,4.16,0,0,84.11,6,GPS_Atti,
0.357669952247865,36.8938373763763,5916.3446991655,105.643048,0,1.73156829688,17200,2017-11-07 07:05:24,13,16.514,5916.3446991655,105.643048,0.70687304,3.03854340432,158.5, 2.3, -5.1,0,1,1024,1024,1684,1024,158.5,0,99,4.156,4.164,4.148,4.16,0,0,84.11,6,GPS_Atti,
0.357669859371598,36.8938372947728,5917.9851191655,107.283468,0,1.7745735476,17300,2017-11-07 07:05:24,13,16.514,5917.9851191655,107.283468,0.70687304,3.03854340432,158.5, 1.9, -5.5,0,1,1024,1024,1684,1024,158.5,0,99,4.156,4.164,4.148,4.16,0,0,84.11,6,GPS_Atti,
0.357669767262734,36.8938371960391,5919.9536231655,109.251972,0,1.8228511082,17400,2017-11-07 07:05:25,13,16.514,5919.9536231655,109.251972,0.70687304,3.03854340432,158.5, 2.2, -6,0,1,1024,1024,1684,1024,158.5,0,99,4.156,4.164,4.148,4.16,0,0,84.11,6,GPS_Atti,
0.357669672715683,36.8938371259353,5921.5940431655,110.892392,0,1.86280189688,17500,2017-11-07 07:05:25,13,16.514,5921.5940431655,110.892392,0.70687304,3.03854340432,158.5, 2.6, -6.1,0,1,1024,1024,1684,1024,158.5,0,99,4.156,4.164,4.148,4.16,0,0,84.11,6,GPS_Atti,
0.357669606019705,36.893837033538,5923.5625471655,112.860896,0,1.90429468036,17600,2017-11-07 07:05:25,13,16.514,5923.5625471655,112.860896,0.70687304,3.03854340432,158.5, 3, -6,0,1,1024,1024,1684,1024,158.5,0,99,4.156,4.164,4.148,4.16,0,0,84.11,6,GPS_Atti,
0.357669548858268,36.8938369657435,5925.2029671655,114.501316,0,1.93634848716,17700,2017-11-07 07:05:25,13,16.514,5925.2029671655,114.501316,0.70687304,3.03854340432,158.5, 2.6, -5.6,0,1,1024,1024,1684,1024,158.5,0,99,4.156,4.164,4.148,4.16,0,0,84.11,6,GPS_Atti,
0.357669494330024,36.8938368954754,5926.8433871655,116.141736,0,1.96865491864,17800,2017-11-07 07:05:25,13,16.514,5926.8433871655,116.141736,0.70687304,3.03854340432,158.5, 2.4, -5.4,0,1,1024,1024,1684,1024,158.5,0,99,4.156,4.164,4.148,4.16,0,0,84.11,6,GPS_Atti,
0.357669426573116,36.8938368381658,5928.8118911655,118.11024,0,1.999589959,17900,2017-11-07 07:05:25,13,16.46,5928.8118911655,118.11024,0.70687304,3.03854340432,158.5, 2.9, -5.5,0,1,1024,1024,1684,1024,158.5,0,99,4.148,4.158,4.144,4.156,0,0,84.11,6,GPS_Atti,
0.357669379900893,36.8938367279484,5930.4523111655,119.75066,0,2.04263786064,18000,2017-11-07 07:05:25,13,16.46,5930.4523111655,119.75066,0.70687304,3.03854340432,158.4, 3, -5.5,0,1,1024,1024,1684,1024,158.5,0,99,4.148,4.158,4.144,4.156,0,0,84.11,6,GPS_Atti,
0.357669351653089,36.8938366113523,5932.0927311655,121.39108,0,2.08409127404,18100,2017-11-07 07:05:25,13,16.46,5932.0927311655,121.39108,0.70687304,3.03854340432,158.3, 2.5, -5.6,0,1,1024,1024,1684,1024,158.5,0,99,4.148,4.158,4.144,4.156,0,0,84.11,6,GPS_Atti,
0.35766935497654,36.8938364612134,5934.0612351655,123.359584,0.223694,2.1300361574,18200,2017-11-07 07:05:25,13,16.46,5934.0612351655,123.359584,0.70687304,3.03854340432,158.5, 1.4, -6.4,0,1,1024,1024,1684,1024,158.5,0,99,4.148,4.158,4.144,4.156,0,0,84.11,6,GPS_Atti,
0.357669341567932,36.8938363138452,5936.0297391655,125.328088,0.223694,2.17863195948,18300,2017-11-07 07:05:25,13,16.46,5936.0297391655,125.328088,0.70687304,3.03854340432,158.5, 0.7, -7.2,0,1,1024,1024,1684,1024,158.5,0,99,4.148,4.158,4.144,4.156,0,0,84.11,6,GPS_Atti,
0.357669325451425,36.8938361310097,5937.6701591655,126.968508,0.223694,2.2391733,18400,2017-11-07 07:05:26,13,16.46,5937.6701591655,126.968508,0.70687304,3.03854340432,158.5, 0.9, -7.7,0,1,1024,1024,1684,1024,158.5,0,99,4.148,4.158,4.144,4.156,0,0,84.11,6,GPS_Atti,
0.35766927802218,36.8938359780605,5939.6386631655,128.937012,0,2.29619758004,18500,2017-11-07 07:05:26,13,16.46,5939.6386631655,128.937012,0.70687304,3.03854340432,158.5, 1.5, -8,0,1,1024,1024,1684,1024,158.5,0,99,4.148,4.158,4.144,4.156,0,0,84.11,6,GPS_Atti,
0.35766921425333,36.8938358370008,5941.2790831655,130.577432,0,2.35243773932,18600,2017-11-07 07:05:26,13,16.46,5941.2790831655,130.577432,0.70687304,3.03854340432,158.4, 2.4, -7.8,0,1,1024,1024,1684,1024,158.5,0,99,4.148,4.158,4.144,4.156,0,0,84.11,6,GPS_Atti,
0.35766915871077,36.8938357252652,5942.9195031655,132.217852,0,2.39789705836,18700,2017-11-07 07:05:26,13,16.46,5942.9195031655,132.217852,0.70687304,3.03854340432,158.4, 2.5, -7.8,0,1,1024,1024,1684,1024,158.5,0,99,4.148,4.158,4.144,4.156,0,0,84.11,6,GPS_Atti,
0.357669138733629,36.8938355932242,5944.8880071655,134.186356,0,2.443487611,18800,2017-11-07 07:05:26,13,16.46,5944.8880071655,134.186356,0.70687304,3.03854340432,158.5, 1.8, -7.7,0,1,1024,1024,1684,1024,158.5,0,99,4.148,4.158,4.144,4.156,0,0,84.11,6,GPS_Atti,
0.357669119995124,36.8938354924478,5946.5284271655,135.826776,0,2.47897973812,18900,2017-11-07 07:05:26,13,16.514,5946.5284271655,135.826776,0.70687304,3.03854340432,158.6, 1.3, -7.7,0,1,1024,1024,1684,1024,158.5,0,99,4.148,4.158,4.144,4.156,0,0,84.11,6,GPS_Atti,
0.357669093985617,36.8938354092603,5948.1688471655,137.467196,0,2.51015756064,19000,2017-11-07 07:05:26,13,16.514,5948.1688471655,137.467196,0.70687304,3.03854340432,158.5, 1.5, -7.4,0,1,1024,1024,1684,1024,158.5,0,99,4.148,4.158,4.144,4.156,0,0,84.11,6,GPS_Atti,
0.35766905222071,36.893835360304,5949.8092671655,139.107616,0,2.53313984484,19100,2017-11-07 07:05:26,13,16.514,5949.8092671655,139.107616,0.70687304,3.03854340432,158.5, 1.9, -7.4,0,1,1024,1024,1684,1024,158.5,0,99,4.148,4.158,4.144,4.156,0,0,84.11,6,GPS_Atti,
0.357669032671647,36.8938352728673,5951.4496871655,140.748036,0,2.56455716868,19200,2017-11-07 07:05:26,13,16.514,5951.4496871655,140.748036,0.70687304,3.03854340432,158.4, 2, -7.2,0,1,1024,1024,1684,1024,158.5,0,99,4.148,4.158,4.144,4.156,0,0,84.11,6,GPS_Atti,
0.357669018160583,36.8938352080298,5953.4181911655,142.71654,0,2.58787409856,19300,2017-11-07 07:05:26,13,16.514,5953.4181911655,142.71654,0.70687304,3.03854340432,158.5, 2.2, -7,0,1,1024,1024,1684,1024,158.5,0,99,4.148,4.158,4.144,4.156,0,0,84.11,6,GPS_Atti,
0.357669014597954,36.8938351362816,5955.0586111655,144.35696,0,2.61154535916,19400,2017-11-07 07:05:27,13,16.514,5955.0586111655,144.35696,0.70687304,3.03854340432,158.5, 2, -7.1,0,1,1024,1024,1684,1024,158.5,0,99,4.148,4.158,4.144,4.156,0,0,84.11,6,GPS_Atti,
0.357669015695322,36.8938350892888,5956.6990311655,145.99738,0,2.62648630452,19500,2017-11-07 07:05:27,13,16.514,5956.6990311655,145.99738,0.70687304,3.03854340432,158.5, 1.6, -7.1,0,1,1024,1024,1684,1024,158.5,0,99,4.148,4.158,4.144,4.156,0,0,84.11,6,GPS_Atti,
0.357669037479424,36.8938350032685,5958.3394511655,147.6378,0,2.65056767012,19600,2017-11-07 07:05:27,13,16.514,5958.3394511655,147.6378,0.70687304,3.03854340432,158.6, 1.3, -6.9,0,1,1024,1024,1684,1024,158.5,0,99,4.148,4.158,4.144,4.156,0,0,84.11,6,GPS_Atti,
0.357669051547552,36.8938349352792,5959.9798711655,149.27822,0,2.67025271012,19700,2017-11-07 07:05:27,13,16.514,5959.9798711655,149.27822,0.70687304,3.03854340432,158.6, 1.1, -6.9,0,1,1024,1024,1684,1024,158.5,0,99,4.148,4.158,4.144,4.156,0,0,84.11,6,GPS_Atti,
0.357669088148052,36.8938348222707,5961.6202911655,150.91864,0,2.70102042764,19800,2017-11-07 07:05:27,13,16.514,5961.6202911655,150.91864,0.70687304,3.03854340432,158.5, 1.1, -7.4,0,1,1024,1024,1684,1024,158.5,0,99,4.148,4.158,4.144,4.156,0,0,84.11,6,GPS_Atti,
0.357669120447628,36.8938347361299,5963.2607111655,152.55906,0,2.723999431,19900,2017-11-07 07:05:27,13,16.46,5963.2607111655,152.55906,0.70687304,3.03854340432,158.5, 1.1, -7.9,0,1,1024,1024,1684,1024,158.5,0,99,4.15,4.159,4.143,4.154,0,0,84.11,6,GPS_Atti,
0.357669163026553,36.8938346598858,5964.9011311655,154.19948,0,2.7423229224,20000,2017-11-07 07:05:27,13,16.46,5964.9011311655,154.19948,0.70687304,3.03854340432,158.6, 1.1, -7.5,0,1,1024,1024,1684,1024,158.5,0,99,4.15,4.159,4.143,4.154,0,0,84.11,6,GPS_Atti,
0.35766920465121,36.8938346259612,5966.8696351655,156.167984,0,2.74704405116,20100,2017-11-07 07:05:27,13,16.46,5966.8696351655,156.167984,0.70687304,3.03854340432,158.6, 0.9, -6.8,0,1,1024,1024,1684,1024,158.5,0,99,4.15,4.159,4.143,4.154,0,0,84.11,6,GPS_Atti,
0.357669243824245,36.8938345791627,5968.5100551655,157.808404,0,2.75653880212,20200,2017-11-07 07:05:27,13,16.46,5968.5100551655,157.808404,0.70687304,3.03854340432,158.6, 0.5, -6.7,0,1,1024,1024,1684,1024,158.5,0,99,4.15,4.159,4.143,4.154,0,0,84.11,6,GPS_Atti,
0.357669267090435,36.8938345444336,5970.1504751655,159.448824,0,2.7645506134,20300,2017-11-07 07:05:27,13,16.46,5970.1504751655,159.448824,0.70687304,3.03854340432,158.6, 0.3, -7.3,0,1,1024,1024,1684,1024,158.5,0,99,4.15,4.159,4.143,4.154,0,0,84.11,6,GPS_Atti,
0.357669291146828,36.8938344921457,5971.7908951655,161.089244,0,2.77835966896,20400,2017-11-07 07:05:28,13,16.46,5971.7908951655,161.089244,0.70687304,3.03854340432,158.6, 0.1, -7.5,0,1,1024,1024,1684,1024,158.5,0,99,4.15,4.159,4.143,4.154,0,0,84.11,6,GPS_Atti,
0.357669297171867,36.8938344760535,5973.4313151655,162.729664,0,2.78282817304,20500,2017-11-07 07:05:28,13,16.46,5973.4313151655,162.729664,0.70687304,3.03854340432,158.5, 0.4, -7.3,0,1,1024,1024,1684,1024,158.5,0,99,4.15,4.159,4.143,4.154,0,0,84.11,6,GPS_Atti,
0.357669304547497,36.8938344480622,5975.3998191655,164.698168,0,2.79107948564,20600,2017-11-07 07:05:28,13,16.46,5975.3998191655,164.698168,0.70687304,3.03854340432,158.4, 1.1, -7.2,0,1,1024,1024,1684,1024,158.5,0,99,4.15,4.159,4.143,4.154,0,0,84.11,6,GPS_Atti,
0.357669305896663,36.8938344376255,5976.7121551655,166.010504,0,2.79436688732,20700,2017-11-07 07:05:28,13,16.46,5976.7121551655,166.010504,0.70687304,3.03854340432,158.4, 1.2, -7.4,0,1,1024,1024,1684,1024,158.5,0,99,4.15,4.159,4.143,4.154,0,0,84.11,6,GPS_Atti,
0.35766931929896,36.8938344190196,5978.6806591655,167.979008,0,2.79861885596,20800,2017-11-07 07:05:28,13,16.46,5978.6806591655,167.979008,0.70687304,3.03854340432,158.5, 1, -7.7,0,1,1024,1024,1684,1024,158.5,0,99,4.15,4.159,4.143,4.154,0,0,84.11,6,GPS_Atti,
0.357669331782001,36.8938344319995,5980.3210791655,169.619428,0,2.79245743844,20900,2017-11-07 07:05:28,13,16.46,5980.3210791655,169.619428,0.70687304,3.03854340432,158.5, 0.7, -7.9,0,1,1024,1024,1684,1024,158.5,0,99,4.15,4.159,4.143,4.154,0,0,84.11,6,GPS_Atti,
0.357669359146985,36.8938344247559,5981.9614991655,171.259848,0,2.79090560112,21000,2017-11-07 07:05:28,13,16.46,5981.9614991655,171.259848,0.70687304,3.03854340432,158.5, 0.5, -7.5,0,1,1024,1024,1684,1024,158.5,0,99,4.15,4.159,4.143,4.154,0,0,84.11,6,GPS_Atti,
0.357669379208804,36.8938344487051,5983.2738351655,172.572184,0,2.77998368476,21100,2017-11-07 07:05:28,13,16.46,5983.2738351655,172.572184,0.70687304,3.03854340432,158.5, 1, -7.2,0,1,1024,1024,1684,1024,158.5,0,99,4.15,4.159,4.143,4.154,0,0,84.11,6,GPS_Atti,
0.357669433302457,36.8938344610299,5984.9142551655,174.212604,0,2.76810048228,21200,2017-11-07 07:05:28,13,16.46,5984.9142551655,174.212604,0.70687304,3.03854340432,158.4, 0.9, -6.9,0,1,1024,1024,1684,1024,158.5,0,99,4.15,4.159,4.143,4.154,0,0,84.11,6,GPS_Atti,
0.35766949439618,36.8938344952515,5986.5546751655,175.853024,0,2.74795940552,21300,2017-11-07 07:05:28,13,16.46,5986.5546751655,175.853024,0.70687304,3.03854340432,158.5, 0.4, -6.6,0,1,1024,1024,1588,1024,158.5,0,99,4.15,4.159,4.143,4.154,0,0,84.11,6,GPS_Atti,
0.357669568372116,36.8938344856921,5988.5231791655,177.821528,0,2.74092200372,21400,2017-11-07 07:05:29,13,16.46,5988.5231791655,177.821528,0.70687304,3.03854340432,158.6, -0.2, -6.9,0,1,1024,1024,1475,1024,158.5,0,99,4.15,4.159,4.143,4.154,0,0,84.11,6,GPS_Atti,
0.357669601065165,36.893834480625,5990.1635991655,179.461948,0,2.73817922148,21500,2017-11-07 07:05:29,13,16.46,5990.1635991655,179.461948,0.70687304,3.03854340432,158.5, -0.3, -8.7,0,1,1024,1024,1419,1024,158.5,0,99,4.15,4.159,4.143,4.154,0,0,84.11,6,GPS_Atti,
0.357669610990124,36.8938344478214,5991.4759351655,180.774284,0,2.74795284384,21600,2017-11-07 07:05:29,13,16.46,5991.4759351655,180.774284,0.70687304,3.03854340432,158.5, 0.1, -10.6,0,1,1024,1024,1391,1024,158.5,0,99,4.15,4.159,4.143,4.154,0,0,84.11,6,GPS_Atti,
0.357669595028523,36.8938344322527,5992.7882711655,182.08662,0,2.75538394644,21700,2017-11-07 07:05:29,13,16.46,5992.7882711655,182.08662,0.70687304,3.03854340432,158.4, 0.5, -10.4,0,1,1024,1024,1345,1024,158.5,0,99,4.15,4.159,4.143,4.154,0,0,84.11,6,GPS_Atti,
0.357669575974914,36.8938343900974,5993.7725231655,183.070872,0,2.77224746404,21800,2017-11-07 07:05:29,13,16.46,5993.7725231655,183.070872,0.70687304,3.03854340432,158.4, 0.6, -9.2,0,1,1024,1024,1277,1024,158.5,0,99,4.15,4.159,4.143,4.154,0,0,84.11,6,GPS_Atti,
0.357669540409086,36.8938343480182,5994.7567751655,184.055124,0,2.79131898696,21900,2017-11-07 07:05:29,13,16.541,5994.7567751655,184.055124,0.70687304,3.03854340432,158.4, 0.4, -9.2,0,1,1024,1024,1252,1024,158.5,0,99,4.165,4.19,4.177,4.19,0,0,84.11,6,GPS_Atti,
0.357669510025578,36.893834234142,5995.4129431655,184.711292,0,2.83400927704,22000,2017-11-07 07:05:29,13,16.541,5995.4129431655,184.711292,0.70687304,3.03854340432,158.6, 0.2, -10.5,0,1,1024,1024,1198,1024,158.5,0,99,4.165,4.19,4.177,4.19,0,0,84.11,6,GPS_Atti,
0.357669461896509,36.8938341331113,5996.0691111655,185.36746,0,2.87475730984,22100,2017-11-07 07:05:29,13,16.541,5996.0691111655,185.36746,0.70687304,3.03854340432,158.5, 0.7, -9.4,0,1,1024,1024,1155,1024,158.5,0,99,4.165,4.19,4.177,4.19,0,0,84.11,6,GPS_Atti,
0.357669436954446,36.8938340237306,5996.3971951655,185.695544,0,2.91519366284,22200,2017-11-07 07:05:29,13,16.541,5996.3971951655,185.695544,0.70687304,3.03854340432,158.4, 0.8, -9.1,0,1,1024,1024,1114,1024,158.5,0,99,4.165,4.19,4.177,4.19,0,0,84.11,6,GPS_Atti,
0.357669393642314,36.8938338963301,5996.7252791655,186.023628,0,2.9642225358,22300,2017-11-07 07:05:29,13,16.541,5996.7252791655,186.023628,0.70687304,3.03854340432,158.4, 1, -10,0,1,1024,1024,1032,1024,158.5,0,99,4.165,4.19,4.177,4.19,0,0,84.11,6,GPS_Atti,
0.357669359639996,36.8938337141396,5997.0533631655,186.351712,0,3.0306103332,22400,2017-11-07 07:05:30,13,16.541,5997.0533631655,186.351712,0.70687304,3.03854340432,158.3, 1, -9.4,0,1,1024,1024,1024,1024,158.5,0,99,4.165,4.19,4.177,4.19,0,0,84.11,6,GPS_Atti,
0.357669317015271,36.8938335325359,5997.3814471655,186.679796,0,3.09798566344,22500,2017-11-07 07:05:30,13,16.541,5997.3814471655,186.679796,0.70687304,3.09798566344,158.3, 1, -9.5,0,1,1024,1024,1024,1024,158.5,0,99,4.165,4.19,4.177,4.19,0,0,84.11,6,GPS_Atti,
0.357669300465598,36.893833309554,5997.7095311655,187.00788,0,3.17609590216,22600,2017-11-07 07:05:30,13,16.541,5997.7095311655,187.00788,0.70687304,3.17609590216,158.4, 0.7, -8.6,0,1,1024,1024,1024,1024,158.5,0,99,4.165,4.19,4.177,4.19,0,0,84.11,6,GPS_Atti,
0.357669288074361,36.8938330979725,5997.7095311655,187.00788,0,3.24994761056,22700,2017-11-07 07:05:30,13,16.541,5997.7095311655,187.00788,0.70687304,3.24994761056,158.5, 0, -7.6,0,1,1024,1024,1024,1024,158.5,0,99,4.165,4.19,4.177,4.19,0,0,84.11,6,GPS_Atti,
0.357669295039012,36.893832916714,5998.0376151655,187.335964,0,3.3111549616,22800,2017-11-07 07:05:30,13,16.541,5998.0376151655,187.335964,0.70687304,3.3111549616,158.4, -0.2, -7.5,0,1,1024,1024,1024,1024,158.5,-1.3,99,4.165,4.19,4.177,4.19,0,0,84.11,6,GPS_Atti,
0.357669274118596,36.8938327254122,5998.0376151655,187.335964,0,3.3793964336,22900,2017-11-07 07:05:30,13,16.946,5998.0376151655,187.335964,0.70687304,3.3793964336,158.4, 0.5, -8,0,1,1024,1024,1024,1024,158.5,-6.8,99,4.165,4.19,4.177,4.19,0,0,84.11,6,GPS_Atti,
0.357669246126865,36.8938324916067,5998.3656991655,187.664048,0,3.4632218956,23000,2017-11-07 07:05:30,13,16.946,5998.3656991655,187.664048,0.70687304,3.4632218956,158.5, 0.3, -8.1,0,1,1024,1024,1024,1024,158.5,-12.4,99,4.165,4.19,4.177,4.19,0,0,84.11,6,GPS_Atti,
0.357669207129702,36.893832232367,5998.3656991655,187.664048,0,3.5572179616,23100,2017-11-07 07:05:30,13,16.946,5998.3656991655,187.664048,0.70687304,3.5572179616,158.6, -0.4, -7.8,0,1,1024,1024,1024,1024,158.5,-18,99,4.165,4.19,4.177,4.19,0,0,84.11,6,GPS_Atti,
0.357669173874026,36.8938319350504,5998.3656991655,187.664048,0,3.6637796448,23200,2017-11-07 07:05:30,13,16.946,5998.3656991655,187.664048,0.70687304,3.6637796448,158.7, -0.6, -8,0,1,1024,1024,1024,1024,158.5,-23.7,99,4.165,4.19,4.177,4.19,0,0,84.11,6,GPS_Atti,
0.357669104123699,36.8938316302354,5998.6937831655,187.992132,0,3.7772967088,23300,2017-11-07 07:05:30,13,16.946,5998.6937831655,187.992132,0.70687304,3.7772967088,158.6, -0.1, -8.4,0,1,1024,1024,1024,1024,158.5,-29.3,99,4.165,4.19,4.177,4.19,0,0,84.11,6,GPS_Atti,
0.357669014120413,36.8938312707246,5998.6937831655,187.992132,0,3.9121064244,23400,2017-11-07 07:05:31,14,16.946,5998.6937831655,187.992132,0.70687304,3.9121064244,158.6, 0.1, -8.6,0,1,1024,1024,1024,1024,158.5,-35,99,4.165,4.19,4.177,4.19,0,0,84.11,6,GPS_Atti,
0.357668903960858,36.8938309153828,5998.6937831655,187.992132,0,4.0478347752,23500,2017-11-07 07:05:31,14,16.946,5998.6937831655,187.992132,0.70687304,4.0478347752,158.6, 0.4, -8.3,0,1,1024,1024,1024,1024,158.5,-40.7,99,4.165,4.19,4.177,4.19,0,0,84.11,6,GPS_Atti,
0.357668814222806,36.8938304537991,5998.6937831655,187.992132,0,4.2180447544,23600,2017-11-07 07:05:31,14,16.946,5998.6937831655,187.992132,0.70687304,4.2180447544,158.6, 0.7, -8.3,0,1,1024,1024,1024,1024,158.5,-46.3,99,4.165,4.19,4.177,4.19,0,0,84.11,6,GPS_Atti,
0.357668712600776,36.8938300064855,5998.3656991655,187.664048,0,4.3847442348,23700,2017-11-07 07:05:31,14,16.946,5998.6937831655,187.992132,0.70687304,4.3847442348,158.6, 0.4, -8.5,0,1,1024,1024,1024,1024,158.5,-51.9,99,4.165,4.19,4.177,4.19,0,0,84.11,6,GPS_Atti,
