latitude,longitude,altitude(feet),ascent(feet),speed(mph),distance(feet),time(millisecond),datetime(utc),satellites,voltage(v),max_altitude(feet),max_ascent(feet),max_speed(mph),max_distance(feet),compass_heading(degrees), pitch(degrees), roll(degrees),isPhoto,isVideo,rc_elevator,rc_aileron,rc_throttle,rc_rudder,gimbal_heading(degrees),gimbal_pitch(degrees),battery_percent,voltageCell1,voltageCell2,voltageCell3,voltageCell4,voltageCell5,voltageCell6,battery_temperature(f),flycStateRaw,flycState,message
0.352651647486192,36.8960394067151,5804.28294722,0,0,0,0,2017-11-08 06:02:50,14,0,5804.28294722,0,0,0,46.7, 2.5, 3.6,0,0,1024,1024,1024,1024,51,0,99,4.278,4.278,4.28,4.28,0,0,73.31,6,GPS_Atti,
0.352651710691396,36.8960394589709,5804.28294722,0,0,0.0299208999076,100,,14,0,5804.28294722,0,0,0.0299208999076,46.7, 2.5, 3.6,0,0,1024,1024,1024,1024,51,0,99,4.278,4.278,4.28,4.28,0,0,73.31,41,Motors_Started,
0.352651771735655,36.8960394997306,5804.28294722,0,0,0.056627626484,200,2017-11-08 06:02:50,14,0,5804.28294722,0,0,0.056627626484,46.7, 2.5, 3.6,0,0,1024,1024,1024,1024,51,0,99,4.278,4.278,4.28,4.28,0,0,73.31,41,Motors_Started,
0.352651824987809,36.8960395224369,5804.28294722,0,0,0.077308401424,300,2017-11-08 06:02:50,14,17.115,5804.28294722,0,0,0.077308401424,46.7, 2.5, 3.6,0,0,1024,1024,1024,1024,51,0,99,4.278,4.278,4.28,4.28,0,0,73.31,41,Motors_Started,Setting new Return-To-Home altitude to 30m (98 ft). Setting new Maximum Flight Altitude to 120m (394 ft)
0.352651893152439,36.896039547961,5804.28294722,0,0,0.103389439004,400,2017-11-08 06:02:50,14,17.115,5804.28294722,0,0,0.103389439004,46.7, 2.5, 3.6,0,0,1024,1024,1024,1024,51,0,99,4.278,4.278,4.28,4.28,0,0,73.31,41,Motors_Started,
0.352651970251934,36.8960395817565,5804.28294722,0,0,0.133962930796,500,2017-11-08 06:02:50,14,17.115,5804.28294722,0,0,0.133962930796,46.7, 2.5, 3.6,0,0,1024,1024,1024,1024,51,0,99,4.278,4.278,4.28,4.28,0,0,73.31,41,Motors_Started,
0.352652048764105,36.8960396031406,5804.28294722,0,0,0.163004598392,600,2017-11-08 06:02:50,14,17.115,5804.28294722,0,0,0.163004598392,46.7, 2.5, 3.6,0,0,1024,1024,1024,1024,51,0,99,4.278,4.278,4.28,4.28,0,0,73.31,41,Motors_Started,
0.352652113344937,36.8960396140703,5804.28294722,0,0,0.186044297292,700,2017-11-08 06:02:50,14,17.115,5804.28294722,0,0,0.186044297292,46.7, 2.5, 3.6,0,0,1024,1024,1024,1024,51,0,99,4.278,4.278,4.28,4.28,0,0,73.31,41,Motors_Started,
0.35265223216191,36.896039656028,5804.28294722,0,0,0.231901910308,900,2017-11-08 06:02:50,14,17.115,5804.28294722,0,0,0.231901910308,46.7, 2.6, 3.6,0,0,1024,1024,1024,1024,51,0,99,4.278,4.278,4.28,4.28,0,0,73.31,41,Motors_Started,
0.352652284564424,36.8960396735291,5804.28294722,0,0,0.251998695728,1000,2017-11-08 06:02:51,14,17.115,5804.28294722,0,0,0.251998695728,46.7, 2.6, 3.6,0,0,796,739,650,1492,50.9,0,99,4.278,4.278,4.28,4.28,0,0,73.31,41,Motors_Started,
0.352652333291539,36.8960396820467,5804.28294722,0,0,0.269626977132,1100,2017-11-08 06:02:51,14,17.115,5804.28294722,0,0,0.269626977132,46.7, 2.7, 3.6,0,0,1024,1024,1024,1024,49.2,0,99,4.278,4.278,4.28,4.28,0,0,73.31,41,Motors_Started,
0.352652382069951,36.8960396984847,5804.28294722,0,0,0.288378618152,1200,2017-11-08 06:02:51,14,17.115,5804.28294722,0,0,0.288378618152,46.7, 2.5, 3.5,0,0,1024,1024,1024,1024,49.2,0,99,4.278,4.278,4.28,4.28,0,0,73.31,41,Motors_Started,
0.352652428277864,36.8960397250526,5804.28294722,0,0,0.307637477036,1300,2017-11-08 06:02:51,14,17.062,5804.28294722,0,0,0.307637477036,46.7, 2.6, 3.6,0,0,1024,1024,1024,1024,48.3,0,99,4.276,4.276,4.278,4.274,0,0,73.31,41,Motors_Started,
0.352652474296063,36.8960397463864,5804.28294722,0,0,0.326124354268,1400,2017-11-08 06:02:51,14,17.062,5804.28294722,0,0,0.326124354268,46.7, 2.6, 3.6,0,0,1024,1024,1024,1024,47.8,0,99,4.276,4.276,4.278,4.274,0,0,73.31,41,Motors_Started,
0.352652516047738,36.8960397559232,5804.28294722,0,0,0.34154528652,1500,2017-11-08 06:02:51,14,17.062,5804.28294722,0,0,0.34154528652,46.7, 2.7, 3.7,0,0,1024,1024,1024,1024,47.6,0,99,4.276,4.276,4.278,4.274,0,0,73.31,41,Motors_Started,
0.352652560796565,36.8960397588813,5804.28294722,0,0,0.35713255736,1600,,14,17.062,5804.28294722,0,0,0.35713255736,46.7, 2.5, 3.6,0,0,1024,1024,1024,1024,47.4,0,99,4.276,4.276,4.278,4.274,0,0,73.31,10,Assisted_Takeoff,
0.352652609481341,36.8960397590108,5804.28294722,0,0,0.37377625868,1700,2017-11-08 06:02:51,14,17.062,5804.28294722,0,0,0.37377625868,46.7, 2.6, 3.6,0,0,1024,1024,1024,1024,47.3,0,99,4.276,4.276,4.278,4.274,0,0,73.31,10,Assisted_Takeoff,
0.352652653282413,36.8960397673326,5804.28294722,0,0,0.38983597048,1800,2017-11-08 06:02:51,14,17.062,5804.28294722,0,0,0.38983597048,46.7, 2.5, 3.5,0,0,1024,1024,1024,1024,47.2,0,99,4.276,4.276,4.278,4.274,0,0,73.31,10,Assisted_Takeoff,
0.35265269792132,36.8960397900196,5804.28294722,0,0,0.40796917316,1900,2017-11-08 06:02:51,14,17.062,5804.28294722,0,0,0.40796917316,46.7, 2.5, 3.5,0,0,1024,1024,1024,1024,47.1,0,99,4.276,4.276,4.278,4.274,0,0,73.31,10,Assisted_Takeoff,
0.352652744470392,36.8960398107838,5804.28294722,0,0,0.42652232336,2000,2017-11-08 06:02:51,14,17.062,5804.28294722,0,0,0.42652232336,46.7, 2.6, 3.5,0,0,1024,1024,1024,1024,47.1,0,99,4.276,4.276,4.278,4.274,0,0,73.31,10,Assisted_Takeoff,
0.35265278839604,36.8960398190916,5804.28294722,0,0,0.44261484356,2100,2017-11-08 06:02:52,14,17.062,5804.28294722,0,0,0.44261484356,46.7, 2.6, 3.5,0,0,1024,1024,1024,1024,47.1,0,99,4.276,4.276,4.278,4.274,0,0,73.31,10,Assisted_Takeoff,
0.352652833512895,36.8960398385337,5804.28294722,0,0,0.46050854492,2200,2017-11-08 06:02:52,14,17.062,5804.28294722,0,0,0.46050854492,46.7, 2.6, 3.5,0,0,1024,1024,1024,1024,47,0,99,4.276,4.276,4.278,4.274,0,0,73.31,10,Assisted_Takeoff,
0.352652878915542,36.8960398666165,5804.28294722,0,0,0.47959647204,2300,2017-11-08 06:02:52,14,16.876,5804.28294722,0,0,0.47959647204,46.7, 2.6, 3.5,0,0,1024,1024,1024,1024,47,0,99,4.276,4.276,4.278,4.274,0,0,73.31,10,Assisted_Takeoff,
0.352652925755291,36.8960398935816,5804.28294722,0,0,0.49905841492,2400,2017-11-08 06:02:52,14,16.876,5804.28294722,0,0,0.49905841492,46.7, 2.6, 3.5,0,0,1024,1024,1024,1024,47,0,99,4.276,4.276,4.278,4.274,0,0,73.31,10,Assisted_Takeoff,
0.352652970995908,36.8960399044942,5804.28294722,0,0,0.51590552832,2500,2017-11-08 06:02:52,14,16.876,5804.28294722,0,0,0.51590552832,46.7, 2.6, 3.5,0,0,1024,1024,1024,1024,46.9,0,99,4.276,4.276,4.278,4.274,0,0,73.31,10,Assisted_Takeoff,
0.35265301865395,36.8960399113877,5804.28294722,0,0,0.53307744488,2600,2017-11-08 06:02:52,14,16.876,5804.28294722,0,0,0.53307744488,46.7, 2.6, 3.5,0,0,1024,1024,1061,1024,46.9,0,99,4.276,4.276,4.278,4.274,0,0,73.31,10,Assisted_Takeoff,
0.352653064423811,36.8960399113385,5804.28294722,0,0,0.54877298344,2700,,14,16.876,5804.28294722,0,0,0.54877298344,46.7, 2.6, 3.5,0,0,1024,1024,1135,1024,46.9,0,99,4.276,4.276,4.278,4.274,0,0,73.31,10,Assisted_Takeoff,
0.352653096588837,36.8960399238484,5804.28294722,0,0,0.56136156652,2800,2017-11-08 06:02:52,14,16.876,5804.28294722,0,0,0.56136156652,46.7, 2.6, 3.5,0,0,1024,1024,1169,1024,46.9,0,99,4.276,4.276,4.278,4.274,0,0,73.31,10,Assisted_Takeoff,
0.352653112288666,36.8960399471831,5804.28294722,0,0,0.56964896836,2900,2017-11-08 06:02:52,14,16.876,5804.28294722,0,0,0.56964896836,46.7, 2.6, 3.5,0,0,1024,1024,1240,1024,46.9,0,99,4.276,4.276,4.278,4.274,0,0,73.31,10,Assisted_Takeoff,
0.352653128041419,36.8960399702331,5804.28294722,0,0,0.57798230196,3000,2017-11-08 06:02:52,14,16.876,5804.28294722,0,0,0.57798230196,46.7, 2.6, 3.5,0,0,1024,1024,1299,1024,46.9,0,99,4.276,4.276,4.278,4.274,0,0,73.31,10,Assisted_Takeoff,
0.352653154101408,36.8960399785591,5804.28294722,0,0,0.58794949388,3100,2017-11-08 06:02:53,14,16.876,5804.28294722,0,0,0.58794949388,46.7, 2.7, 3.6,0,0,1024,1024,1300,1024,46.9,0,99,4.276,4.276,4.278,4.274,0,0,73.31,10,Assisted_Takeoff,
0.352653182297916,36.8960399851283,5804.28294722,0,0,0.59841865432,3200,2017-11-08 06:02:53,14,16.876,5804.28294722,0,0,0.59841865432,46.7, 2.8, 3.6,0,0,1024,1024,1299,1024,46.9,0,99,4.276,4.276,4.278,4.274,0,0,73.31,10,Assisted_Takeoff,
0.35265320766256,36.8960399844399,5804.28294722,0,0,0.60700133176,3300,2017-11-08 06:02:53,14,17.089,5804.28294722,0,0,0.60700133176,46.5, 2.4, 3.4,0,0,1024,1024,1293,1024,46.9,0,99,4.27,4.267,4.267,4.264,0,0,73.31,10,Assisted_Takeoff,
0.352653173610167,36.8960400076729,5804.28294722,0,0.223694,0.59841865432,3400,2017-11-08 06:02:53,14,17.089,5804.28294722,0,0.223694,0.60700133176,46.4, 1.8, 3,0,0,1024,1024,1292,1024,46.9,0,99,4.27,4.267,4.267,4.264,0,0,73.31,10,Assisted_Takeoff,
0.352653065678527,36.8960400561731,5804.28294722,0,0.223694,0.56910106808,3500,2017-11-08 06:02:53,14,17.089,5804.28294722,0,0.223694,0.60700133176,46.4, 1, 2.2,0,0,1024,1024,1290,1024,46.8,0,99,4.27,4.267,4.267,4.264,0,0,73.31,6,GPS_Atti,Obstacle Avoided. Revise Flight Route
0.352652895550098,36.8960401242523,5804.28294722,0,0.447388,0.52524279896,3600,2017-11-08 06:02:53,14,17.089,5804.28294722,0,0.447388,0.60700133176,46.4, 0.2, 0.3,0,0,1024,1024,1285,1024,46.8,0,99,4.27,4.267,4.267,4.264,0,0,73.31,6,GPS_Atti,
0.35265271623643,36.896040187244,5804.28294722,0,0.223694,0.48284778448,3700,2017-11-08 06:02:53,14,17.089,5804.28294722,0,0.447388,0.60700133176,46.3, -0.1, -1.5,0,0,1024,1024,1292,1024,46.8,0,99,4.27,4.267,4.267,4.264,0,0,73.31,6,GPS_Atti,
0.352652575511999,36.8960402430371,5804.61103122,0.328084,0.223694,0.455790697,3800,2017-11-08 06:02:53,14,17.089,5804.61103122,0.328084,0.447388,0.60700133176,46.3, -0.2, -2.1,0,0,1024,1024,1278,1024,46.8,0,99,4.27,4.267,4.267,4.264,0,0,73.31,6,GPS_Atti,
0.352652506193209,36.8960402619535,5804.93911522,0.656168,0,0.44217193016,3900,2017-11-08 06:02:53,14,17.089,5804.93911522,0.656168,0.447388,0.60700133176,46.3, -0.3, -1.8,0,0,1024,1024,1275,1024,46.8,0,99,4.27,4.267,4.267,4.264,0,0,73.31,6,GPS_Atti,
0.352652515947589,36.8960402300839,5804.93911522,0.656168,0,0.43662074888,4000,,14,17.089,5804.93911522,0.656168,0.447388,0.60700133176,46.2, -0.6, -0.4,0,0,1024,1024,1282,1024,46.8,0,99,4.27,4.267,4.267,4.264,0,0,73.31,6,GPS_Atti,
0.352652573636032,36.8960401641855,5805.26719922,0.984252,0,0.43652560452,4100,2017-11-08 06:02:54,14,17.089,5805.26719922,0.984252,0.447388,0.60700133176,46.1, -0.7, 0.4,0,0,1024,1024,1289,1024,46.8,0,99,4.27,4.267,4.267,4.264,0,0,73.31,6,GPS_Atti,
0.352652661748694,36.8960400894836,5805.59528322,1.312336,0,0.44608597228,4200,2017-11-08 06:02:54,14,17.089,5805.59528322,1.312336,0.447388,0.60700133176,46.1, -0.4, 0.5,0,0,1024,1024,1290,1024,46.8,0,99,4.27,4.267,4.267,4.264,0,0,73.31,6,GPS_Atti,
0.352652755419235,36.8960400161948,5805.92336722,1.64042,0,0.4613517208,4300,2017-11-08 06:02:54,14,16.691,5805.92336722,1.64042,0.447388,0.60700133176,46, 0, 0.4,0,0,1024,1024,1300,1024,46.8,0,99,4.222,4.225,4.219,4.211,0,0,73.31,6,GPS_Atti,
0.352652855895044,36.8960399481178,5806.57953522,2.296588,0,0.48311353252,4400,,14,16.691,5806.57953522,2.296588,0.447388,0.60700133176,46, -0.1, 0.2,0,0,1024,1024,1298,1024,46.8,0,99,4.222,4.225,4.219,4.211,0,0,73.31,6,GPS_Atti,Home Point Recorded. RTH Altitude:  30m.
0.352652943052623,36.8960398983714,5806.90761922,2.624672,0,0.505577444,4500,2017-11-08 06:02:54,14,16.691,5806.90761922,2.624672,0.447388,0.60700133176,46.1, -0.1, 0.3,0,0,1024,1024,1309,1024,46.8,0,99,4.222,4.225,4.219,4.211,0,0,73.31,6,GPS_Atti,
0.352653065877198,36.8960398378549,5807.23570322,2.952756,0,0.54087600156,4600,2017-11-08 06:02:54,14,16.691,5807.23570322,2.952756,0.447388,0.60700133176,46.2, 0, 1.7,0,0,1024,1024,1320,1024,46.7,0,99,4.222,4.225,4.219,4.211,0,0,73.31,6,GPS_Atti,
0.352653193495097,36.8960397715668,5807.89187122,3.608924,0,0.57955382432,4700,2017-11-08 06:02:54,14,16.691,5807.89187122,3.608924,0.447388,0.60700133176,46.3, 0.4, 2.3,0,0,1024,1024,1334,1024,46.7,0,99,4.222,4.225,4.219,4.211,0,0,73.31,6,GPS_Atti,
0.352653302803586,36.8960397343507,5808.21995522,3.937008,0,0.61565618768,4800,2017-11-08 06:02:54,14,16.691,5808.21995522,3.937008,0.447388,0.61565618768,46.4, 0.1, 1.7,0,0,1024,1024,1342,1024,46.7,0,99,4.222,4.225,4.219,4.211,0,0,73.31,6,GPS_Atti,
0.352653369476968,36.8960397030079,5808.87612322,4.593176,0,0.6375000204,4900,2017-11-08 06:02:54,14,16.691,5808.87612322,4.593176,0.447388,0.6375000204,46.4, 0.1, 1,0,0,1024,1024,1342,1024,46.7,0,99,4.222,4.225,4.219,4.211,0,0,73.31,6,GPS_Atti,
0.35265339388083,36.8960396586799,5809.20420722,4.92126,0,0.64376970564,5000,2017-11-08 06:02:55,14,16.691,5809.20420722,4.92126,0.447388,0.64376970564,46.5, -0.6, 0.6,0,0,1024,1024,1349,1024,46.7,0,99,4.222,4.225,4.219,4.211,0,0,73.31,6,GPS_Atti,
0.352653307215041,36.8960394846298,5810.51654322,6.233596,0.31540854,0.606217211,5200,2017-11-08 06:02:55,14,16.691,5810.51654322,6.233596,0.447388,0.64376970564,46.5, -2.5, 0.3,0,0,1024,1024,1348,1024,46.7,0,99,4.222,4.225,4.219,4.211,0,0,73.31,6,GPS_Atti,
0.352653237319782,36.8960393827476,5810.84462722,6.56168,0.31540854,0.58011484796,5300,2017-11-08 06:02:55,14,16.452,5810.84462722,6.56168,0.447388,0.64376970564,46.4, -2.7, 0.7,0,0,1024,1024,1351,1024,46.7,0,99,4.141,4.151,4.136,4.134,0,0,73.31,6,GPS_Atti,
0.352653168193962,36.8960392812037,5811.50079522,7.217848,0.31540854,0.55671589708,5400,2017-11-08 06:02:55,14,16.452,5811.50079522,7.217848,0.447388,0.64376970564,46.4, -3.5, 0.9,0,0,1024,1024,1348,1024,46.7,0,99,4.141,4.151,4.136,4.134,0,0,73.31,6,GPS_Atti,
0.35265312668004,36.8960391771225,5812.15696322,7.874016,0.31540854,0.5461450306,5500,2017-11-08 06:02:55,14,16.452,5812.15696322,7.874016,0.447388,0.64376970564,46.4, -4.3, 0.6,0,0,1024,1024,1352,1024,46.7,0,99,4.141,4.151,4.136,4.134,0,0,73.31,6,GPS_Atti,
0.352653111218778,36.8960391084801,5812.81313122,8.530184,0,0.5450131408,5600,,14,16.452,5812.81313122,8.530184,0.447388,0.64376970564,46.5, -4.1, 0,0,0,1024,1024,1352,1024,46.7,0,99,4.141,4.151,4.136,4.134,0,0,73.31,6,GPS_Atti,
0.352653139749931,36.8960390446972,5813.14121522,8.858268,0,0.56024280008,5700,2017-11-08 06:02:55,14,16.452,5813.14121522,8.858268,0.447388,0.64376970564,46.5, -3.9, 0.3,0,0,1024,1024,1354,1024,46.7,0,99,4.141,4.151,4.136,4.134,0,0,73.31,6,GPS_Atti,
0.352653211078221,36.8960389874395,5813.79738322,9.514436,0,0.59062994016,5800,2017-11-08 06:02:55,14,16.452,5813.79738322,9.514436,0.447388,0.64376970564,46.5, -3.1, 1.2,0,0,1024,1024,1356,1024,46.7,0,99,4.141,4.151,4.136,4.134,0,0,73.31,6,GPS_Atti,
0.35265330177848,36.8960389224062,5814.45355122,10.170604,0,0.62890093876,5900,2017-11-08 06:02:55,14,16.452,5814.45355122,10.170604,0.447388,0.64376970564,46.5, -2.7, 2.2,0,0,1024,1024,1356,1024,46.7,0,99,4.141,4.151,4.136,4.134,0,0,73.31,6,GPS_Atti,
0.352653393002285,36.8960388825297,5815.10971922,10.826772,0,0.66494752784,6000,2017-11-08 06:02:55,14,16.452,5815.10971922,10.826772,0.447388,0.66494752784,46.5, -2.2, 2.4,0,0,1024,1024,1359,1024,46.7,0,99,4.141,4.151,4.136,4.134,0,0,73.31,6,GPS_Atti,
0.35265345609879,36.896038859408,5815.76588722,11.48294,0,0.68942259424,6100,2017-11-08 06:02:56,14,16.452,5815.76588722,11.48294,0.447388,0.68942259424,46.5, -1.9, 1.6,0,0,1024,1024,1353,1024,46.7,0,99,4.141,4.151,4.136,4.134,0,0,73.31,6,GPS_Atti,
0.352653464874475,36.8960388399831,5816.09397122,11.811024,0,0.69456367052,6200,2017-11-08 06:02:56,14,16.452,5816.09397122,11.811024,0.447388,0.69456367052,46.5, -2.5, 1.1,0,0,1024,1024,1366,1024,46.7,0,99,4.141,4.151,4.136,4.134,0,0,73.31,6,GPS_Atti,
0.352653415962531,36.8960388067293,5816.75013922,12.467192,0,0.681348447,6300,2017-11-08 06:02:56,14,16.531,5816.75013922,12.467192,0.447388,0.69456367052,46.5, -3.4, 0.9,0,0,1024,1024,1373,1024,46.7,0,99,4.141,4.151,4.136,4.134,0,0,73.31,6,GPS_Atti,
0.352653360698841,36.8960388119244,5817.40630722,13.12336,0,0.661663407,6400,2017-11-08 06:02:56,14,16.531,5817.40630722,13.12336,0.447388,0.69456367052,46.5, -4, 1.1,0,0,1024,1024,1399,1024,46.7,0,99,4.141,4.151,4.136,4.134,0,0,73.31,6,GPS_Atti,
0.352653321291311,36.8960388474478,5818.06247522,13.779528,0,0.64387469252,6500,2017-11-08 06:02:56,14,16.531,5818.06247522,13.779528,0.447388,0.69456367052,46.4, -3.4, 0.5,0,0,1024,1024,1405,1024,46.7,0,99,4.141,4.151,4.136,4.134,0,0,73.31,6,GPS_Atti,
0.352653285704924,36.8960388984162,5818.71864322,14.435696,0,0.62581038748,6600,2017-11-08 06:02:56,14,16.531,5818.71864322,14.435696,0.447388,0.69456367052,46.3, -2.8, -0.5,0,0,1024,1024,1420,1024,46.7,0,99,4.141,4.151,4.136,4.134,0,0,73.31,6,GPS_Atti,
0.352653253286675,36.896038889162,5819.37481122,15.091864,0,0.6155512008,6700,2017-11-08 06:02:56,14,16.531,5819.37481122,15.091864,0.447388,0.69456367052,46.3, -3.4, -0.7,0,0,1024,1024,1430,1024,46.7,0,99,4.141,4.151,4.136,4.134,0,0,73.31,6,GPS_Atti,
0.352653225758644,36.8960388672244,5820.03097922,15.748032,0,0.60854332656,6800,2017-11-08 06:02:56,14,16.531,5820.03097922,15.748032,0.447388,0.69456367052,46.4, -4.4, -0.9,0,0,1024,1024,1443,1024,46.7,0,99,4.141,4.151,4.136,4.134,0,0,73.31,6,GPS_Atti,
0.35265321545385,36.896038825885,5820.68714722,16.4042,0,0.61005907464,6900,2017-11-08 06:02:56,14,16.531,5820.68714722,16.4042,0.447388,0.69456367052,46.6, -5.1, 0.4,0,0,1024,1024,1448,1024,46.7,0,99,4.141,4.151,4.136,4.134,0,0,73.31,6,GPS_Atti,
0.3526532487653,36.8960387756622,5821.34331522,17.060368,0,0.62795605684,7000,2017-11-08 06:02:57,14,16.531,5821.34331522,17.060368,0.447388,0.69456367052,46.6, -4.4, 1.7,0,0,1024,1024,1451,1024,46.7,0,99,4.141,4.151,4.136,4.134,0,0,73.31,6,GPS_Atti,
0.352653283514667,36.8960387188151,5822.32756722,18.04462,0,0.64751970576,7100,2017-11-08 06:02:57,14,16.531,5822.32756722,18.04462,0.447388,0.69456367052,46.5, -3.9, 1.3,0,0,1024,1024,1457,1024,46.7,0,99,4.141,4.151,4.136,4.134,0,0,73.31,6,GPS_Atti,
0.35265332184661,36.8960386940721,5822.98373522,18.700788,0,0.66391734408,7200,,14,16.531,5822.98373522,18.700788,0.447388,0.69456367052,46.5, -3.9, 1,0,0,1024,1024,1467,1024,46.7,0,99,4.141,4.151,4.136,4.134,0,0,73.31,6,GPS_Atti,
0.352653354512382,36.8960386938044,5823.96798722,19.68504,0,0.67493768564,7300,2017-11-08 06:02:57,14,16.346,5823.96798722,19.68504,0.447388,0.69456367052,46.5, -4, 0.9,0,0,1024,1024,1477,1024,46.7,0,99,4.13,4.148,4.145,4.143,0,0,73.31,6,GPS_Atti,
0.352653393192813,36.8960387278221,5824.95223922,20.669292,0,0.68338584864,7400,2017-11-08 06:02:57,14,16.346,5824.95223922,20.669292,0.447388,0.69456367052,46.5, -4.1, 0.5,0,0,1024,1024,1478,1024,46.7,0,99,4.13,4.148,4.145,4.143,0,0,73.31,6,GPS_Atti,
0.3526534247602,36.8960387668726,5825.60840722,21.32546,0,0.68917653124,7500,2017-11-08 06:02:57,14,16.346,5825.60840722,21.32546,0.447388,0.69456367052,46.6, -3.9, 0.6,0,0,1024,1024,1480,1024,46.7,0,99,4.13,4.148,4.145,4.143,0,0,73.31,6,GPS_Atti,
0.352653455888721,36.8960388167613,5826.59265922,22.309712,0,0.69401577024,7600,2017-11-08 06:02:57,14,16.346,5826.59265922,22.309712,0.447388,0.69456367052,46.6, -3.8, 1.1,0,0,1024,1024,1512,1024,46.7,0,99,4.13,4.148,4.145,4.143,0,0,73.31,6,GPS_Atti,
0.3526534470251,36.8960388398552,5827.57691122,23.293964,0.223694,0.68836288292,7700,2017-11-08 06:02:57,14,16.346,5827.57691122,23.293964,0.447388,0.69456367052,46.5, -4.1, 1,0,0,1024,1024,1517,1024,46.7,0,99,4.13,4.148,4.145,4.143,0,0,73.31,6,GPS_Atti,
0.352653435608079,36.8960388865947,5828.56116322,24.278216,0.223694,0.67943243644,7800,2017-11-08 06:02:57,14,16.346,5828.56116322,24.278216,0.447388,0.69456367052,46.5, -4.3, -0.1,0,0,1024,1024,1529,1024,46.7,0,99,4.13,4.148,4.145,4.143,0,0,73.31,6,GPS_Atti,
0.352653427122258,36.896038905085,5829.54541522,25.262468,0,0.67459975912,7900,2017-11-08 06:02:57,14,16.346,5829.54541522,25.262468,0.447388,0.69456367052,46.5, -4.8, -0.8,0,0,1024,1024,1532,1024,46.7,0,99,4.13,4.148,4.145,4.143,0,0,73.31,6,GPS_Atti,
0.35265346002334,36.8960389315748,5830.52966722,26.24672,0,0.683645035,8000,2017-11-08 06:02:58,14,16.346,5830.52966722,26.24672,0.447388,0.69456367052,46.5, -4.7, -0.6,0,0,1024,1024,1535,1024,46.7,0,99,4.13,4.148,4.145,4.143,0,0,73.31,6,GPS_Atti,
0.352653506399797,36.8960389529257,5831.51391922,27.230972,0,0.69813978612,8100,2017-11-08 06:02:58,14,16.346,5831.51391922,27.230972,0.447388,0.69813978612,46.5, -4.5, -0.3,0,0,1024,1024,1548,1024,46.7,0,99,4.13,4.148,4.145,4.143,0,0,73.31,6,GPS_Atti,
0.352653593040345,36.8960389699674,5832.49817122,28.215224,0,0.72750002328,8200,2017-11-08 06:02:58,14,16.346,5832.49817122,28.215224,0.447388,0.72750002328,46.5, -4.6, 0,0,0,1024,1024,1559,1024,46.7,0,99,4.13,4.148,4.145,4.143,0,0,73.31,6,GPS_Atti,
0.352653687397276,36.8960389600879,5833.81050722,29.52756,0,0.76188978816,8300,2017-11-08 06:02:58,14,16.425,5833.81050722,29.52756,0.447388,0.76188978816,46.4, -4.8, 0.4,0,0,1024,1024,1581,1024,46.7,0,99,4.107,4.121,4.12,4.12,0,0,73.31,6,GPS_Atti,
0.352653802693553,36.896038962258,5834.79475922,30.511812,0,0.8028707606,8400,2017-11-08 06:02:58,14,16.425,5834.79475922,30.511812,0.447388,0.8028707606,46.4, -5, 0.5,0,0,1024,1024,1608,1024,46.7,0,99,4.107,4.121,4.12,4.12,0,0,73.31,6,GPS_Atti,
0.352653909737691,36.8960389695991,5836.10709522,31.824148,0,0.84064635236,8500,,14,16.425,5836.10709522,31.824148,0.447388,0.84064635236,46.4, -4.2, 0.6,0,0,1024,1024,1626,1024,46.7,0,99,4.107,4.121,4.12,4.12,0,0,73.31,6,GPS_Atti,
0.352654039965986,36.8960389951136,5837.09134722,32.8084,0,0.88571853228,8600,2017-11-08 06:02:58,14,16.425,5837.09134722,32.8084,0.447388,0.88571853228,46.4, -3.8, 0.6,0,0,1024,1024,1647,1024,46.7,0,99,4.107,4.121,4.12,4.12,0,0,73.31,6,GPS_Atti,
0.352654153576824,36.8960390113813,5838.40368322,34.120736,0,0.92565291676,8700,2017-11-08 06:02:58,14,16.425,5838.40368322,34.120736,0.447388,0.92565291676,46.4, -4.3, 0.4,0,0,1024,1024,1671,1024,46.7,0,99,4.107,4.121,4.12,4.12,0,0,73.31,6,GPS_Atti,
0.352654278986553,36.8960390480064,5839.71601922,35.433072,0,0.9689796898,8800,2017-11-08 06:02:58,14,16.425,5839.71601922,35.433072,0.447388,0.9689796898,46.4, -4.5, 0.4,0,0,1024,1024,1684,1024,46.7,0,99,4.107,4.121,4.12,4.12,0,0,73.31,6,GPS_Atti,
0.352654390894853,36.8960390940891,5841.02835522,36.745408,0,1.00740816872,8900,,14,16.425,5841.02835522,36.745408,0.447388,1.00740816872,46.4, -4.9, 0.3,0,0,1024,1024,1684,1024,46.7,0,99,4.107,4.121,4.12,4.12,0,0,73.31,6,GPS_Atti,
0.352654548174045,36.89603917663,5842.66877522,38.385828,0,1.06163717308,9000,2017-11-08 06:02:59,14,16.425,5842.66877522,38.385828,0.447388,1.06163717308,46.3, -4.5, 0.7,0,0,1024,1024,1684,1024,46.7,0,99,4.107,4.121,4.12,4.12,0,0,73.31,6,GPS_Atti,
0.352654713617442,36.8960392694453,5843.98111122,39.698164,0,1.11979662376,9100,2017-11-08 06:02:59,14,16.425,5843.98111122,39.698164,0.447388,1.11979662376,46.3, -4.8, 0.7,0,0,1024,1024,1684,1024,46.7,0,99,4.107,4.121,4.12,4.12,0,0,73.31,6,GPS_Atti,
0.35265488680816,36.8960394214722,5845.62153122,41.338584,0,1.18187667824,9200,2017-11-08 06:02:59,14,16.425,5845.62153122,41.338584,0.447388,1.18187667824,46.4, -4.6, 0.1,0,0,1024,1024,1684,1024,46.7,0,99,4.107,4.121,4.12,4.12,0,0,73.31,6,GPS_Atti,
0.352655044982183,36.8960395814107,5847.26195122,42.979004,0.223694,1.24121066964,9300,2017-11-08 06:02:59,14,16.293,5847.26195122,42.979004,0.447388,1.24121066964,46.4, -4.2, -0.2,0,0,1024,1024,1684,1024,46.7,0,98,4.042,4.073,4.067,4.072,0,0,73.31,6,GPS_Atti,
0.352655241945741,36.8960397734714,5848.90237122,44.619424,0,1.31824479284,9400,2017-11-08 06:02:59,14,16.293,5848.90237122,44.619424,0.447388,1.31824479284,46.4, -3.8, -0.3,0,0,1024,1024,1684,1024,46.7,0,98,4.042,4.073,4.067,4.072,0,0,73.31,6,GPS_Atti,
0.352655453998461,36.8960399481445,5850.54279122,46.259844,0,1.40278219712,9500,2017-11-08 06:02:59,14,16.293,5850.54279122,46.259844,0.447388,1.40278219712,46.4, -3.5, -0.2,0,0,1024,1024,1684,1024,46.7,0,98,4.042,4.073,4.067,4.072,0,0,73.31,6,GPS_Atti,
0.352655687218511,36.896040135546,5852.18321122,47.900264,0,1.4976870558,9600,,14,16.293,5852.18321122,47.900264,0.447388,1.4976870558,46.4, -3.1, -0.3,0,0,1024,1024,1684,1024,46.7,0,98,4.042,4.073,4.067,4.072,0,0,73.31,6,GPS_Atti,
0.352655905318458,36.8960402827969,5853.82363122,49.540684,0,1.58601054944,9700,2017-11-08 06:02:59,14,16.293,5853.82363122,49.540684,0.447388,1.58601054944,46.4, -2.9, -0.1,0,0,1024,1024,1684,1024,46.7,0,98,4.042,4.073,4.067,4.072,0,0,73.31,6,GPS_Atti,
0.352656127237107,36.8960404472876,5855.46405122,51.181104,0,1.67794624792,9800,2017-11-08 06:02:59,14,16.293,5855.46405122,51.181104,0.447388,1.67794624792,46.4, -2.9, -0.1,0,0,1024,1024,1684,1024,46.7,0,98,4.042,4.073,4.067,4.072,0,0,73.31,6,GPS_Atti,
0.352656319287649,36.8960405954838,5857.10447122,52.821524,0,1.75881895392,9900,2017-11-08 06:02:59,14,16.293,5857.10447122,52.821524,0.447388,1.75881895392,46.4, -3.4, 0,0,0,1024,1024,1684,1024,46.7,0,98,4.042,4.073,4.067,4.072,0,0,73.31,6,GPS_Atti,
0.352656518824149,36.8960407430441,5859.07297522,54.790028,0,1.8429626574,10000,2017-11-08 06:03:00,14,16.293,5859.07297522,54.790028,0.447388,1.8429626574,46.4, -3.6, 0.7,0,0,1024,1024,1684,1024,46.7,0,98,4.042,4.073,4.067,4.072,0,0,73.31,6,GPS_Atti,
0.352656694378554,36.8960408587735,5860.71339522,56.430448,0,1.91604993008,10100,,14,16.293,5860.71339522,56.430448,0.447388,1.91604993008,46.4, -3.1, 0.8,0,0,1024,1024,1684,1024,46.7,0,98,4.042,4.073,4.067,4.072,0,0,73.31,6,GPS_Atti,
0.352656871025645,36.89604099736,5862.35381522,58.070868,0,1.99220478816,10200,2017-11-08 06:03:00,14,16.293,5862.35381522,58.070868,0.447388,1.99220478816,46.3, -3.9, 0,0,0,1024,1024,1684,1024,46.7,0,98,4.042,4.073,4.067,4.072,0,0,73.31,6,GPS_Atti,
0.352657050863672,36.8960411345998,5864.32231922,60.039372,0,2.06976056492,10300,2017-11-08 06:03:00,14,16.24,5864.32231922,60.039372,0.447388,2.06976056492,46.3, -4.2, -0.1,0,0,1024,1024,1684,1024,46.7,0,98,4.042,4.073,4.067,4.072,0,0,73.31,6,GPS_Atti,
0.352657257632092,36.8960413042572,5865.96273922,61.679792,0,2.16076778568,10400,2017-11-08 06:03:00,14,16.24,5865.96273922,61.679792,0.447388,2.16076778568,46.3, -3.7, 0.1,0,0,1024,1024,1684,1029,46.7,0,98,4.042,4.073,4.067,4.072,0,0,73.31,6,GPS_Atti,
0.352657438445557,36.8960414685659,5867.60315922,63.320212,0,2.2427494156,10500,2017-11-08 06:03:00,14,16.24,5867.60315922,63.320212,0.447388,2.2427494156,46.4, -3, 0.4,0,0,1024,1024,1684,1069,46.7,0,98,4.042,4.073,4.067,4.072,0,0,73.31,6,GPS_Atti,
0.352657627354017,36.8960416520564,5869.57166322,65.288716,0,2.33047579636,10600,2017-11-08 06:03:00,14,16.24,5869.57166322,65.288716,0.447388,2.33047579636,46.4, -2.4, 0.3,0,0,1024,1024,1684,1083,46.7,0,98,4.042,4.073,4.067,4.072,0,0,73.31,6,GPS_Atti,
0.35265779638569,36.8960418106642,5871.21208322,66.929136,0,2.40877304296,10700,2017-11-08 06:03:00,14,16.24,5871.21208322,66.929136,0.447388,2.40877304296,46.4, -2, 0.2,0,0,1024,1024,1684,1024,46.8,0,98,4.042,4.073,4.067,4.072,0,0,73.31,6,GPS_Atti,
0.352657966946471,36.8960419690343,5873.18058722,68.89764,0,2.48796267804,10800,2017-11-08 06:03:00,14,16.24,5873.18058722,68.89764,0.447388,2.48796267804,46.8, -2.1, 0.1,0,0,1024,1024,1684,1065,46.9,0,98,4.042,4.073,4.067,4.072,0,0,73.31,6,GPS_Atti,
0.352658107363126,36.8960420917878,5874.82100722,70.53806,0,2.55236556724,10900,2017-11-08 06:03:00,14,16.24,5874.82100722,70.53806,0.447388,2.55236556724,47, -2.4, 0.2,0,0,1024,1024,1684,1040,46.9,0,98,4.042,4.073,4.067,4.072,0,0,73.31,6,GPS_Atti,
0.352658240248227,36.8960422153871,5876.78951122,72.506564,0,2.61454404692,11000,,14,16.24,5876.78951122,72.506564,0.447388,2.61454404692,47, -2.6, 0.2,0,0,1024,1024,1684,1024,47,0,98,4.042,4.073,4.067,4.072,0,0,73.31,6,GPS_Atti,
0.352658339587382,36.8960423199019,5878.42993122,74.146984,0,2.66291347104,11100,2017-11-08 06:03:01,14,16.24,5878.42993122,74.146984,0.447388,2.66291347104,47.1, -2.3, 0,0,0,1024,1024,1684,1024,47,0,98,4.042,4.073,4.067,4.072,0,0,73.31,6,GPS_Atti,
0.352658449186548,36.8960424147065,5880.39843522,76.115488,0,2.71342856452,11200,2017-11-08 06:03:01,14,16.24,5880.39843522,76.115488,0.447388,2.71342856452,47.1, -2.1, 0,0,0,1024,1024,1684,1024,47,0,98,4.042,4.073,4.067,4.072,0,0,73.31,6,GPS_Atti,
0.352658536157671,36.8960424597796,5882.36693922,78.083992,0,2.74910113784,11300,2017-11-08 06:03:01,14,16.24,5882.36693922,78.083992,0.447388,2.74910113784,47.1, -2.7, 0.3,0,0,1024,1024,1684,1024,47,0,98,4.071,4.089,4.08,4.077,0,0,73.31,6,GPS_Atti,
0.352658623046558,36.8960424940805,5884.00735922,79.724412,0,2.78315625704,11400,2017-11-08 06:03:01,14,16.24,5884.00735922,79.724412,0.447388,2.78315625704,47.1, -3.1, 0.6,0,0,1024,1024,1684,1024,47,0,98,4.071,4.089,4.08,4.077,0,0,73.31,6,GPS_Atti,
0.352658682848721,36.896042515714,5885.97586322,81.692916,0,2.80630258324,11500,2017-11-08 06:03:01,14,16.24,5885.97586322,81.692916,0.447388,2.80630258324,47.1, -3, 0.9,0,0,1024,1024,1684,1024,47,0,98,4.071,4.089,4.08,4.077,0,0,73.31,6,GPS_Atti,
0.352658732076583,36.8960425308565,5887.94436722,83.66142,0,2.82496400116,11600,2017-11-08 06:03:01,14,16.24,5887.94436722,83.66142,0.447388,2.82496400116,47.1, -3.4, 0.9,0,0,1024,1024,1684,1024,47,0,98,4.071,4.089,4.08,4.077,0,0,73.31,6,GPS_Atti,
0.352658740866109,36.8960425167022,5889.58478722,85.30184,0,2.8258203004,11700,2017-11-08 06:03:01,14,16.24,5889.58478722,85.30184,0.447388,2.8258203004,47.1, -3.9, 0.7,0,0,1024,1024,1684,1024,47,0,98,4.071,4.089,4.08,4.077,0,0,73.31,6,GPS_Atti,
0.352658759082698,36.8960425271587,5891.55329122,87.270344,0,2.83344169172,11800,2017-11-08 06:03:01,14,16.24,5891.55329122,87.270344,0.447388,2.83344169172,47.1, -3.8, 0.5,0,0,1024,1024,1684,1024,47,0,98,4.071,4.089,4.08,4.077,0,0,73.31,6,GPS_Atti,
0.352658763408659,36.8960425446929,5893.52179522,89.238848,0,2.83746072072,11900,2017-11-08 06:03:01,14,16.24,5893.52179522,89.238848,0.447388,2.83746072072,47.1, -3.4, 0.3,0,0,1024,1024,1684,1024,47,0,98,4.071,4.089,4.08,4.077,0,0,73.31,6,GPS_Atti,
0.35265878148683,36.8960425618407,5895.16221522,90.879268,0,2.84602043228,12000,2017-11-08 06:03:02,14,16.24,5895.16221522,90.879268,0.447388,2.84602043228,47.1, -3.3, 0.3,0,0,1024,1024,1684,1024,47,0,98,4.071,4.089,4.08,4.077,0,0,73.31,6,GPS_Atti,
0.352658794308384,36.8960425539825,5896.80263522,92.519688,0,2.84914379196,12100,2017-11-08 06:03:02,14,16.24,5896.80263522,92.519688,0.447388,2.84914379196,47.1, -3.7, 0.4,0,0,1024,1024,1684,1024,47,0,98,4.071,4.089,4.08,4.077,0,0,73.31,6,GPS_Atti,
0.35265881109927,36.8960425639465,5898.77113922,94.488192,0,2.856217283,12200,2017-11-08 06:03:02,14,16.24,5898.77113922,94.488192,0.447388,2.856217283,47.1, -3.9, 0.4,0,0,1024,1024,1684,1024,47,0,98,4.071,4.089,4.08,4.077,0,0,73.31,6,GPS_Atti,
0.352658800833559,36.8960425781126,5900.41155922,96.128612,0,2.85487870028,12300,,14,16.24,5900.41155922,96.128612,0.447388,2.856217283,47.1, -3.9, 0.3,0,0,1024,1024,1684,1025,47,0,98,4.062,4.082,4.074,4.072,0,0,73.31,6,GPS_Atti,
0.352658788823785,36.896042608918,5902.38006322,98.097116,0,2.85545612812,12400,2017-11-08 06:03:02,14,16.24,5902.38006322,98.097116,0.447388,2.856217283,47.1, -3.7, 0.3,0,0,1024,1024,1684,1025,47,-2.7,98,4.062,4.082,4.074,4.072,0,0,73.31,6,GPS_Atti,
0.35265874808663,36.8960426186957,5904.02048322,99.737536,0,2.84336623272,12500,2017-11-08 06:03:02,14,16.24,5904.02048322,99.737536,0.447388,2.856217283,47.1, -3.6, 0.1,0,0,1024,1024,1684,1040,47,-7.5,98,4.062,4.082,4.074,4.072,0,0,73.31,6,GPS_Atti,
0.352658714354227,36.8960426170481,5905.66090322,101.377956,0,2.83190953944,12600,2017-11-08 06:03:02,14,16.24,5905.66090322,101.377956,0.447388,2.856217283,47.1, -3.7, 0.1,0,0,1024,1024,1684,1038,47,-10.3,98,4.062,4.082,4.074,4.072,0,0,73.31,6,GPS_Atti,
0.352658685430619,36.8960425766459,5907.62940722,103.34646,0,2.81622056256,12700,2017-11-08 06:03:02,14,16.24,5907.62940722,103.34646,0.447388,2.856217283,47.1, -3.8, 0.3,0,0,1024,1024,1684,1037,47,-10.3,98,4.062,4.082,4.074,4.072,0,0,73.31,6,GPS_Atti,
0.35265865705661,36.8960425381366,5909.26982722,104.98688,0,2.80102371168,12800,2017-11-08 06:03:02,14,16.24,5909.26982722,104.98688,0.447388,2.856217283,47.1, -4, 0.5,0,0,1024,1024,1684,1036,47,-10.3,98,4.062,4.082,4.074,4.072,0,0,73.31,6,GPS_Atti,
0.352658606230431,36.896042500534,5910.91024722,106.6273,0,2.77850074508,12900,2017-11-08 06:03:02,14,16.24,5910.91024722,106.6273,0.447388,2.856217283,47.1, -4.2, 0.5,0,0,1024,1024,1684,1036,47,-10.3,98,4.062,4.082,4.074,4.072,0,0,73.31,6,GPS_Atti,
0.352658551295687,36.8960424614144,5912.87875122,108.595804,0,2.75439313276,13000,2017-11-08 06:03:03,14,16.24,5912.87875122,108.595804,0.447388,2.856217283,47.1, -4.6, 0.4,0,0,1024,1024,1684,1033,47,-10.3,98,4.062,4.082,4.074,4.072,0,0,73.31,6,GPS_Atti,
0.352658495231617,36.8960424100172,5914.51917122,110.236224,0,2.72811360436,13100,2017-11-08 06:03:03,14,16.24,5914.51917122,110.236224,0.447388,2.856217283,47.1, -4.7, 0.5,0,0,1024,1024,1684,1033,47,-10.3,98,4.062,4.082,4.074,4.072,0,0,73.31,6,GPS_Atti,
0.352658453131454,36.8960423685049,5916.15959122,111.876644,0,2.70797580844,13200,2017-11-08 06:03:03,14,16.24,5916.15959122,111.876644,0.447388,2.856217283,47.1, -4.5, 0.5,0,0,1024,1024,1684,1024,47,-10.3,98,4.062,4.082,4.074,4.072,0,0,73.31,6,GPS_Atti,
0.352658413435689,36.8960423319076,5918.12809522,113.845148,0,2.68937672648,13300,2017-11-08 06:03:03,14,16.133,5918.12809522,113.845148,0.447388,2.856217283,47.1, -4.1, 0.4,0,0,1024,1024,1684,1024,47,-10.3,98,4.062,4.082,4.074,4.072,0,0,73.31,6,GPS_Atti,
0.352658373796105,36.8960423099283,5919.76851522,115.485568,0,2.67292003304,13400,,14,16.133,5919.76851522,115.485568,0.447388,2.856217283,47.1, -3.9, 0.3,0,0,1024,1024,1684,1036,47,-10.3,98,4.062,4.082,4.074,4.072,0,0,73.31,6,GPS_Atti,
0.352658321681012,36.8960422862831,5921.73701922,117.454072,0,2.65204404812,13500,2017-11-08 06:03:03,14,16.133,5921.73701922,117.454072,0.447388,2.856217283,47.1, -4, 0.2,0,0,1024,1024,1684,1041,47,-10.3,98,4.062,4.082,4.074,4.072,0,0,73.31,6,GPS_Atti,
0.352658264306045,36.8960422482769,5923.37743922,119.094492,0,2.62733276124,13600,2017-11-08 06:03:03,14,16.133,5923.37743922,119.094492,0.447388,2.856217283,47, -4.5, 0.1,0,0,1024,1024,1684,1049,47,-10.3,98,4.062,4.082,4.074,4.072,0,0,73.31,6,GPS_Atti,
0.352658210485971,36.8960421793048,5925.34594322,121.062996,0,2.59940625116,13700,2017-11-08 06:03:03,14,16.133,5925.34594322,121.062996,0.447388,2.856217283,47.1, -5.2, 0.5,0,0,1024,1024,1684,1050,47,-10.4,98,4.062,4.082,4.074,4.072,0,0,73.31,6,GPS_Atti,
0.352658178266392,36.896042113446,5926.98636322,122.703416,0,2.57928814028,13800,2017-11-08 06:03:03,14,16.133,5926.98636322,122.703416,0.447388,2.856217283,47.1, -5, 0.7,0,0,1024,1024,1684,1051,47,-10.6,98,4.062,4.082,4.074,4.072,0,0,73.31,6,GPS_Atti,
0.352658158427059,36.8960420477885,5928.62678322,124.343836,0,2.5635007382,13900,2017-11-08 06:03:03,14,16.133,5928.62678322,124.343836,0.447388,2.856217283,47.2, -4.6, 0.9,0,0,1024,1024,1684,1050,47,-11.4,98,4.062,4.082,4.074,4.072,0,0,73.31,6,GPS_Atti,
0.352658158578504,36.8960419690857,5930.59528722,126.31234,0,2.55289706332,14000,2017-11-08 06:03:04,14,16.133,5930.59528722,126.31234,0.447388,2.856217283,47.3, -4.6, 1.4,0,0,1024,1024,1684,1049,47,-12.6,98,4.062,4.082,4.074,4.072,0,0,73.31,6,GPS_Atti,
0.352658162975303,36.8960418768977,5932.23570722,127.95276,0,2.5422737034,14100,2017-11-08 06:03:04,14,16.133,5932.23570722,127.95276,0.447388,2.856217283,47.3, -4.6, 1.8,0,0,1024,1024,1684,1049,47,-13.9,98,4.062,4.082,4.074,4.072,0,0,73.31,6,GPS_Atti,
0.352658151088476,36.8960418010149,5933.87612722,129.59318,0,2.52852370296,14200,2017-11-08 06:03:04,14,16.133,5933.87612722,129.59318,0.447388,2.856217283,47.3, -4.8, 1.6,0,0,1024,1024,1684,1052,47,-15.2,98,4.062,4.082,4.074,4.072,0,0,73.31,6,GPS_Atti,
0.352658105663845,36.8960417506252,5935.84463122,131.561684,0,2.506643781,14300,2017-11-08 06:03:04,14,16.133,5935.84463122,131.561684,0.447388,2.856217283,47.3, -5, 1,0,0,1024,1024,1684,1050,47,-16.6,98,4.062,4.082,4.074,4.072,0,0,73.31,6,GPS_Atti,
0.352658056168104,36.8960416991166,5937.48505122,133.202104,0,2.4832842002,14400,2017-11-08 06:03:04,14,16.133,5937.48505122,133.202104,0.447388,2.856217283,47.4, -5, 0.8,0,0,1024,1024,1684,1050,47,-18.2,98,4.062,4.082,4.074,4.072,0,0,73.31,6,GPS_Atti,
0.352658014829238,36.8960416370167,5939.12547122,134.842524,0,2.46150598428,14500,2017-11-08 06:03:04,14,16.133,5939.12547122,134.842524,0.447388,2.856217283,47.5, -4.8, 0.8,0,0,1024,1024,1684,1039,47,-18.2,98,4.062,4.082,4.074,4.072,0,0,73.31,6,GPS_Atti,
0.352657994419136,36.8960415752294,5940.76589122,136.482944,0,2.44709981584,14600,2017-11-08 06:03:04,14,16.133,5940.76589122,136.482944,0.447388,2.856217283,47.6, -4.8, 1.1,0,0,1024,1024,1684,1041,47,-19.8,98,4.062,4.082,4.074,4.072,0,0,73.31,6,GPS_Atti,
0.352657997914591,36.8960415221182,5942.73439522,138.451448,0,2.44211293904,14700,,14,16.133,5942.73439522,138.451448,0.447388,2.856217283,47.5, -4.6, 1,0,0,1024,1024,1684,1040,47,-20.7,98,4.062,4.082,4.074,4.072,0,0,73.31,6,GPS_Atti,
0.352658003167137,36.8960414860733,5944.37481522,140.091868,0,2.43980978936,14800,2017-11-08 06:03:04,14,16.133,5944.37481522,140.091868,0.447388,2.856217283,47.5, -4.4, 1.1,0,0,1024,1024,1684,1041,47,-20.7,98,4.062,4.082,4.074,4.072,0,0,73.31,6,GPS_Atti,
0.352657995238243,36.8960414548301,5946.01523522,141.732288,0,2.43353682328,14900,2017-11-08 06:03:04,14,16.133,5946.01523522,141.732288,0.447388,2.856217283,47.6, -4.2, 1.5,0,0,1024,1024,1684,1037,47,-20.7,98,4.062,4.082,4.074,4.072,0,0,73.31,6,GPS_Atti,
0.352657985018943,36.8960414242924,5947.65565522,143.372708,0,2.42658472332,15000,2017-11-08 06:03:04,14,16.133,5947.65565522,143.372708,0.447388,2.856217283,47.6, -4.2, 1.9,0,0,1024,1024,1684,1041,47.1,-20.7,98,4.062,4.082,4.074,4.072,0,0,73.31,6,GPS_Atti,
0.352657963873597,36.8960413794194,5949.62415922,145.341212,0,2.4143045392,15100,2017-11-08 06:03:05,14,16.133,5949.62415922,145.341212,0.447388,2.856217283,47.6, -4.9, 2,0,0,1024,1024,1684,1045,47.1,-20.7,98,4.062,4.082,4.074,4.072,0,0,73.31,6,GPS_Atti,
0.352657932440557,36.896041353769,5951.26457922,146.981632,0,2.4005742238,15200,2017-11-08 06:03:05,14,16.133,5951.26457922,146.981632,0.447388,2.856217283,47.5, -5.1, 1.5,0,0,1024,1024,1684,1044,47.1,-20.7,98,4.062,4.082,4.074,4.072,0,0,73.31,6,GPS_Atti,
0.35265790333782,36.8960413421927,5952.90499922,148.622052,0,2.38918314732,15300,2017-11-08 06:03:05,14,16.107,5952.90499922,148.622052,0.447388,2.856217283,47.5, -4.8, 0.8,0,0,1024,1024,1684,1043,47.1,-21,98,4.051,4.074,4.068,4.065,0,0,73.31,6,GPS_Atti,
0.352657891853219,36.8960413444741,5954.87350322,150.590556,0,2.38542658552,15400,2017-11-08 06:03:05,14,16.107,5954.87350322,150.590556,0.447388,2.856217283,47.5, -4.6, 0.7,0,0,1024,1024,1684,1040,47.1,-22,98,4.051,4.074,4.068,4.065,0,0,73.31,6,GPS_Atti,
0.352657895218398,36.8960413428436,5956.51392322,152.230976,0,2.38642068004,15500,2017-11-08 06:03:05,14,16.107,5956.51392322,152.230976,0.447388,2.856217283,47.5, -4.7, 0.9,0,0,1024,1024,1684,1043,47.1,-23.2,98,4.051,4.074,4.068,4.065,0,0,73.31,6,GPS_Atti,
0.352657903151363,36.8960413495937,5958.15434322,153.871396,0,2.38991477464,15600,2017-11-08 06:03:05,14,16.107,5958.15434322,153.871396,0.447388,2.856217283,47.5, -4.6, 1.2,0,0,1024,1024,1684,1046,47.1,-24.3,98,4.051,4.074,4.068,4.065,0,0,73.31,6,GPS_Atti,
0.352657899738959,36.8960413522391,5959.79476322,155.511816,0,2.38901254364,15700,2017-11-08 06:03:05,14,16.107,5959.79476322,155.511816,0.447388,2.856217283,47.5, -4.3, 1.3,0,0,1024,1024,1684,1040,47.1,-25.4,98,4.051,4.074,4.068,4.065,0,0,73.31,6,GPS_Atti,
0.35265791086286,36.8960413707904,5961.43518322,157.152236,0,2.39490493228,15800,2017-11-08 06:03:05,14,16.107,5961.43518322,157.152236,0.447388,2.856217283,47.5, -4.2, 1.4,0,0,1024,1024,1684,1031,47.1,-27.2,98,4.051,4.074,4.068,4.065,0,0,73.31,6,GPS_Atti,
0.352657929686044,36.8960413851086,5963.07560322,158.792656,0,2.40302501128,15900,,14,16.107,5963.07560322,158.792656,0.447388,2.856217283,47.6, -4.1, 1.3,0,0,1024,1024,1684,1032,47.1,-28.6,98,4.051,4.074,4.068,4.065,0,0,73.31,6,GPS_Atti,
0.352657944232934,36.8960414067111,5964.71602322,160.433076,0,2.41045939472,16000,2017-11-08 06:03:05,14,16.107,5964.71602322,160.433076,0.447388,2.856217283,47.5, -4, 0.9,0,0,1024,1024,1684,1028,47.1,-29.4,98,4.051,4.074,4.068,4.065,0,0,73.31,6,GPS_Atti,
0.352657941835051,36.8960414117065,5966.35644322,162.073496,0,2.41018052332,16100,2017-11-08 06:03:06,14,16.107,5966.35644322,162.073496,0.447388,2.856217283,47.5, -4.1, 0.9,0,0,1024,1024,1684,1026,47.1,-29.4,98,4.051,4.074,4.068,4.065,0,0,73.31,6,GPS_Atti,
0.352657944406364,36.8960414295148,5967.99686322,163.713916,0,2.41305125832,16200,2017-11-08 06:03:06,14,16.107,5967.99686322,163.713916,0.447388,2.856217283,47.6, -4.2, 1.1,0,0,1024,1024,1684,1024,47.1,-29.4,98,4.051,4.074,4.068,4.065,0,0,73.31,6,GPS_Atti,
0.352657938710881,36.8960414488573,5969.63728322,165.354336,0,2.41324482788,16300,2017-11-08 06:03:06,14,16.133,5969.63728322,165.354336,0.447388,2.856217283,47.6, -4.5, 1.2,0,0,1024,1024,1684,1024,47.2,-29.4,98,4.045,4.066,4.061,4.058,0,0,73.31,6,GPS_Atti,
0.352657935659991,36.8960414776285,5971.60578722,167.32284,0,2.41544627152,16400,2017-11-08 06:03:06,14,16.133,5971.60578722,167.32284,0.447388,2.856217283,47.6, -4.7, 1.2,0,0,1024,1024,1684,1026,47.2,-29.4,98,4.045,4.066,4.061,4.058,0,0,73.31,6,GPS_Atti,
0.352657931455349,36.8960414964784,5973.24620722,168.96326,0,2.41615165212,16500,2017-11-08 06:03:06,14,16.133,5973.24620722,168.96326,0.447388,2.856217283,47.6, -4.6, 1,0,0,1024,1024,1684,1030,47.2,-29.4,98,4.045,4.066,4.061,4.058,0,0,73.31,6,GPS_Atti,
0.352657937033583,36.8960415456959,5974.88662722,170.60368,0,2.42380585184,16600,2017-11-08 06:03:06,14,16.133,5974.88662722,170.60368,0.447388,2.856217283,47.5, -4.3, 1,0,0,1024,1024,1684,1030,47.2,-29.4,98,4.045,4.066,4.061,4.058,0,0,73.31,6,GPS_Atti,
0.352657939718073,36.8960416033111,5976.52704722,172.2441,0,2.4315781618,16700,2017-11-08 06:03:06,14,16.133,5976.52704722,172.2441,0.447388,2.856217283,47.6, -4, 0.5,0,0,1024,1024,1684,1031,47.2,-29.4,98,4.045,4.066,4.061,4.058,0,0,73.31,6,GPS_Atti,
0.352657967216793,36.8960416901108,5978.16746722,173.88452,0,2.45163393672,16800,2017-11-08 06:03:06,14,16.133,5978.16746722,173.88452,0.447388,2.856217283,47.6, -3.9, 0.8,0,0,1024,1024,1684,1030,47.2,-29.8,98,4.045,4.066,4.061,4.058,0,0,73.31,6,GPS_Atti,
0.352658006571399,36.8960417746911,5979.80788722,175.52494,0,2.47574154904,16900,2017-11-08 06:03:06,14,16.133,5979.80788722,175.52494,0.447388,2.856217283,47.6, -3.7, 1.1,0,0,1024,1024,1684,1027,47.2,-30.9,98,4.045,4.066,4.061,4.058,0,0,73.31,6,GPS_Atti,
0.352658058000103,36.8960418770294,5981.44830722,177.16536,0,2.50651582824,17000,2017-11-08 06:03:07,14,16.133,5981.44830722,177.16536,0.447388,2.856217283,47.6, -3.8, 1.1,0,0,1024,1024,1684,1030,47.2,-31.9,98,4.045,4.066,4.061,4.058,0,0,73.31,6,GPS_Atti,
0.352658087325123,36.8960419537773,5983.08872722,178.80578,0,2.52666674752,17100,2017-11-08 06:03:07,14,16.133,5983.08872722,178.80578,0.447388,2.856217283,47.6, -3.7, 0.5,0,0,1024,1024,1684,1036,47.2,-33,98,4.045,4.066,4.061,4.058,0,0,73.31,6,GPS_Atti,
0.352658118430846,36.8960420299823,5985.05723122,180.774284,0,2.54753617076,17200,2017-11-08 06:03:07,14,16.133,5985.05723122,180.774284,0.447388,2.856217283,47.6, -3.8, 0.4,0,0,1024,1024,1684,1025,47.2,-34,98,4.045,4.066,4.061,4.058,0,0,73.31,6,GPS_Atti,
0.352658129084126,36.8960420689799,5986.69765122,182.414704,0,2.556512549,17300,,14,16.16,5986.69765122,182.414704,0.447388,2.856217283,47.5, -4.3, 0.7,0,0,1024,1024,1684,1026,47.2,-35,98,4.04,4.061,4.053,4.05,0,0,73.31,6,GPS_Atti,
0.352658159924413,36.8960421310252,5988.33807122,184.055124,0,2.5755742294,17400,2017-11-08 06:03:07,14,16.16,5988.33807122,184.055124,0.447388,2.856217283,47.5, -4.4, 0.6,0,0,1024,1024,1684,1027,47.2,-35.5,98,4.04,4.061,4.053,4.05,0,0,73.31,6,GPS_Atti,
0.352658201770538,36.8960422060151,5989.97849122,185.695544,0,2.60028879712,17500,2017-11-08 06:03:07,14,16.16,5989.97849122,185.695544,0.447388,2.856217283,47.5, -3.6, 0.5,0,0,1024,1024,1684,1024,47.2,-35.6,98,4.04,4.061,4.053,4.05,0,0,73.31,6,GPS_Atti,
0.352658243147672,36.8960422829985,5991.61891122,187.335964,0,2.6252789554,17600,,14,16.16,5991.61891122,187.335964,0.447388,2.856217283,47.5, -3.8, 0.6,0,0,1024,1024,1684,1024,47.2,-35.6,98,4.04,4.061,4.053,4.05,0,0,73.31,6,GPS_Atti,
0.352658256797289,36.8960423225206,5993.25933122,188.976384,0,2.63563328644,17700,2017-11-08 06:03:07,14,16.16,5993.25933122,188.976384,0.447388,2.856217283,47.5, -4.4, 0.4,0,0,1024,1024,1684,1029,47.2,-35.6,98,4.04,4.061,4.053,4.05,0,0,73.31,6,GPS_Atti,
0.352658297559685,36.8960423649933,5994.89975122,190.616804,0,2.65550533432,17800,2017-11-08 06:03:07,14,16.16,5994.89975122,190.616804,0.447388,2.856217283,47.6, -4.5, 0.9,0,0,1024,1024,1684,1026,47.2,-35.6,98,4.04,4.061,4.053,4.05,0,0,73.31,6,GPS_Atti,
0.35265834988729,36.8960423914938,5996.54017122,192.257224,0,2.67688000692,17900,2017-11-08 06:03:07,14,16.16,5996.54017122,192.257224,0.447388,2.856217283,47.6, -3.7, 1.5,0,0,1024,1024,1684,1030,47.2,-35.6,98,4.04,4.061,4.053,4.05,0,0,73.31,6,GPS_Atti,
0.352658411712795,36.8960424396182,5998.18059122,193.897644,0,2.70463591332,18000,2017-11-08 06:03:08,14,16.16,5998.18059122,193.897644,0.447388,2.856217283,47.7, -3.2, 1.9,0,0,1024,1024,1684,1034,47.2,-35.6,98,4.04,4.061,4.053,4.05,0,0,73.31,6,GPS_Atti,
0.352658429681046,36.8960424824527,5999.82101122,195.538064,0,2.71703748852,18100,2017-11-08 06:03:08,14,16.16,5999.82101122,195.538064,0.447388,2.856217283,47.7, -3.5, 1,0,0,1024,1024,1684,1034,47.2,-35.6,98,4.04,4.061,4.053,4.05,0,0,73.31,6,GPS_Atti,
0.352658421829504,36.896042540676,6001.46143122,197.178484,0,2.7232776462,18200,2017-11-08 06:03:08,14,16.16,6001.46143122,197.178484,0.447388,2.856217283,47.6, -3.6, -0.2,0,0,1024,1024,1684,1034,47.2,-35.7,98,4.04,4.061,4.053,4.05,0,0,73.31,6,GPS_Atti,
0.352658394766393,36.8960425580839,6003.42993522,199.146988,0,2.71700139928,18300,2017-11-08 06:03:08,14,16.08,6003.42993522,199.146988,0.447388,2.856217283,47.6, -3.9, -0.2,0,0,1024,1024,1684,1033,47.2,-35.8,98,4.04,4.061,4.053,4.05,0,0,73.31,6,GPS_Atti,
0.352658402337843,36.8960425406568,6005.07035522,200.787408,0,2.71682423392,18400,2017-11-08 06:03:08,14,16.08,6005.07035522,200.787408,0.447388,2.856217283,47.5, -4.8, 0.4,0,0,1024,1024,1684,1033,47.2,-36.1,98,4.04,4.061,4.053,4.05,0,0,73.31,6,GPS_Atti,
0.352658434471929,36.8960424778406,6006.71077522,202.427828,0.223694,2.71793643868,18500,2017-11-08 06:03:08,14,16.08,6006.71077522,202.427828,0.447388,2.856217283,47.5, -5.3, 1.2,0,0,1024,1024,1684,1034,47.3,-36.3,98,4.04,4.061,4.053,4.05,0,0,73.31,6,GPS_Atti,
0.352658485247627,36.8960424316144,6008.67927922,204.396332,0,2.72795612404,18600,2017-11-08 06:03:08,14,16.08,6008.67927922,204.396332,0.447388,2.856217283,47.5, -5.3, 1.6,0,0,1024,1024,1684,1038,47.3,-36.6,98,4.04,4.061,4.053,4.05,0,0,73.31,6,GPS_Atti,
0.352658517415909,36.8960423948983,6010.31969922,206.036752,0,2.73332357828,18700,2017-11-08 06:03:08,14,16.08,6010.31969922,206.036752,0.447388,2.856217283,47.5, -5, 1.6,0,0,1024,1024,1684,1037,47.3,-36.9,98,4.04,4.061,4.053,4.05,0,0,73.31,6,GPS_Atti,
0.352658564315911,36.8960423713173,6011.96011922,207.677172,0,2.74562344744,18800,,14,16.08,6011.96011922,207.677172,0.447388,2.856217283,47.5, -4.9, 1.5,0,0,1024,1024,1684,1039,47.3,-37.1,98,4.04,4.061,4.053,4.05,0,0,73.31,6,GPS_Atti,
0.352658600578916,36.8960423341184,6013.60053922,209.317592,0,2.7524935264,18900,2017-11-08 06:03:08,14,16.08,6013.60053922,209.317592,0.447388,2.856217283,47.5, -4.9, 1.8,0,0,1024,1024,1684,1034,47.3,-37.4,98,4.04,4.061,4.053,4.05,0,0,73.31,6,GPS_Atti,
0.352658629627914,36.8960423226202,6015.24095922,210.958012,0,2.7606464138,19000,2017-11-08 06:03:08,14,16.08,6015.24095922,210.958012,0.447388,2.856217283,47.5, -5.1, 1.7,0,0,1024,1024,1684,1044,47.3,-37.7,98,4.04,4.061,4.053,4.05,0,0,73.31,6,GPS_Atti,
0.352658625983456,36.8960423218686,6016.88137922,212.598432,0,2.75931439276,19100,2017-11-08 06:03:09,14,16.08,6016.88137922,212.598432,0.447388,2.856217283,47.6, -4.9, 1.7,0,0,1024,1024,1684,1043,47.3,-37.7,98,4.04,4.061,4.053,4.05,0,0,73.31,6,GPS_Atti,
0.352658636213341,36.8960423564446,6018.52179922,214.238852,0,2.76763788384,19200,2017-11-08 06:03:09,14,16.08,6018.52179922,214.238852,0.447388,2.856217283,47.6, -4.7, 1.5,0,0,1024,1024,1684,1040,47.3,-37.9,98,4.04,4.061,4.053,4.05,0,0,73.31,6,GPS_Atti,
0.352658641612448,36.8960423878238,6020.16221922,215.879272,0,2.77392397328,19300,2017-11-08 06:03:09,14,16.213,6020.16221922,215.879272,0.447388,2.856217283,47.5, -4.8, 0.7,0,0,1024,1024,1684,1040,47.3,-38.2,98,4.037,4.058,4.049,4.046,0,0,75.11,6,GPS_Atti,
0.352658663893633,36.896042429592,6021.80263922,217.519692,0,2.78739838316,19400,2017-11-08 06:03:09,14,16.213,6021.80263922,217.519692,0.447388,2.856217283,47.6, -4.8, 0.7,0,0,1024,1024,1684,1037,47.3,-38.5,98,4.037,4.058,4.049,4.046,0,0,75.11,6,GPS_Atti,
0.352658682857677,36.8960424440172,6023.44305922,219.160112,0,2.7958334228,19500,2017-11-08 06:03:09,14,16.213,6023.44305922,219.160112,0.447388,2.856217283,47.6, -4.7, 0.9,0,0,1024,1024,1684,1039,47.3,-38.8,98,4.037,4.058,4.049,4.046,0,0,75.11,6,GPS_Atti,
0.352658714662003,36.896042462212,6025.41156322,221.128616,0,2.8091208248,19600,2017-11-08 06:03:09,14,16.213,6025.41156322,221.128616,0.447388,2.856217283,47.6, -4.6, 1.4,0,0,1024,1024,1684,1038,47.3,-39.1,98,4.037,4.058,4.049,4.046,0,0,75.11,6,GPS_Atti,
0.352658732613969,36.8960424644913,6027.05198322,222.769036,0,2.81546268852,19700,2017-11-08 06:03:09,14,16.213,6027.05198322,222.769036,0.447388,2.856217283,47.6, -4.4, 1.8,0,0,1024,1024,1684,1042,47.3,-39.5,98,4.037,4.058,4.049,4.046,0,0,75.11,6,GPS_Atti,
0.352658752384908,36.8960424797516,6028.69240322,224.409456,0,2.82429142896,19800,2017-11-08 06:03:09,14,16.213,6028.69240322,224.409456,0.447388,2.856217283,47.6, -4.6, 1,0,0,1024,1024,1684,1045,47.3,-39.8,98,4.037,4.058,4.049,4.046,0,0,75.11,6,GPS_Atti,
0.352658763592674,36.8960424838413,6030.33282322,226.049876,0,2.82863854196,19900,2017-11-08 06:03:09,14,16.213,6030.33282322,226.049876,0.447388,2.856217283,47.6, -4.9, 0.6,0,0,1024,1024,1684,1044,47.3,-40.1,98,4.037,4.058,4.049,4.046,0,0,75.11,6,GPS_Atti,
0.35265879181198,36.8960424889566,6031.97324322,227.690296,0,2.838828831,20000,2017-11-08 06:03:10,14,16.213,6031.97324322,227.690296,0.447388,2.856217283,47.6, -4.8, 1.3,0,0,1024,1024,1684,1044,47.3,-40.4,98,4.037,4.058,4.049,4.046,0,0,75.11,6,GPS_Atti,
0.352658798423462,36.8960424956564,6033.61366322,229.330716,0,2.84201452664,20100,2017-11-08 06:03:10,14,16.213,6033.61366322,229.330716,0.447388,2.856217283,47.6, -4.4, 1.2,0,0,1024,1024,1684,1049,47.3,-40.7,98,4.037,4.058,4.049,4.046,0,0,75.11,6,GPS_Atti,
0.352658816681576,36.896042531758,6035.25408322,230.971136,0,2.85336623304,20200,2017-11-08 06:03:10,14,16.213,6035.25408322,230.971136,0.447388,2.856217283,47.7, -4.2, 0.9,0,0,1024,1024,1684,1048,47.3,-41,98,4.037,4.058,4.049,4.046,0,0,75.11,6,GPS_Atti,
0.352658828429171,36.896042572355,6036.89450322,232.611556,0,2.8632382806,20300,2017-11-08 06:03:10,14,16.08,6036.89450322,232.611556,0.447388,2.8632382806,47.7, -4.3, 0.7,0,0,1024,1024,1684,1048,47.3,-41.4,98,4.034,4.056,4.05,4.047,0,0,75.11,6,GPS_Atti,
0.352658845943087,36.8960426120516,6038.53492322,234.251976,0,2.87494759856,20400,,14,16.08,6038.53492322,234.251976,0.447388,2.87494759856,47.7, -4.4, 0.5,0,0,1024,1024,1684,1044,47.3,-41.7,98,4.034,4.056,4.05,4.047,0,0,75.11,6,GPS_Atti,
0.352658845286824,36.8960426228668,6039.84725922,235.564312,0,2.87633539388,20500,2017-11-08 06:03:10,14,16.08,6039.84725922,235.564312,0.447388,2.87633539388,47.7, -4.5, 0.7,0,0,1024,1024,1684,1050,47.3,-41.7,98,4.034,4.056,4.05,4.047,0,0,75.11,6,GPS_Atti,
0.352658855518337,36.8960426318619,6041.48767922,237.204732,0,2.88108276936,20600,2017-11-08 06:03:10,14,16.08,6041.48767922,237.204732,0.447388,2.88108276936,47.7, -4.3, 0.9,0,0,1024,1024,1684,1048,47.3,-42.1,98,4.034,4.056,4.05,4.047,0,0,75.11,6,GPS_Atti,
0.352658849121809,36.8960426263601,6043.12809922,238.845152,0,2.8781332942,20700,2017-11-08 06:03:10,14,16.08,6043.12809922,238.845152,0.447388,2.88108276936,47.8, -4.4, 0.8,0,0,1024,1024,1684,1051,47.3,-42.4,98,4.034,4.056,4.05,4.047,0,0,75.11,6,GPS_Atti,
0.352658840719038,36.8960426394311,6044.76851922,240.485572,0,2.87728683748,20800,2017-11-08 06:03:10,14,16.08,6044.76851922,240.485572,0.447388,2.88108276936,47.9, -4.9, 0.5,0,0,1024,1024,1684,1052,47.3,-42.8,98,4.034,4.056,4.05,4.047,0,0,75.11,6,GPS_Atti,
0.352658826367561,36.8960426627818,6046.73702322,242.454076,0,2.87602043324,20900,2017-11-08 06:03:10,14,16.08,6046.73702322,242.454076,0.447388,2.88108276936,48, -5, 0.6,0,0,1024,1024,1684,1051,47.4,-43.1,98,4.034,4.056,4.05,4.047,0,0,75.11,6,GPS_Atti,
0.352658814211227,36.8960427010835,6048.37744322,244.094496,0,2.877788806,21000,2017-11-08 06:03:11,14,16.08,6048.37744322,244.094496,0.447388,2.88108276936,48, -4.7, 0.3,0,0,1024,1024,1684,1051,47.4,-43.5,98,4.034,4.056,4.05,4.047,0,0,75.11,6,GPS_Atti,
0.352658786444628,36.8960427226057,6050.01786322,245.734916,0,2.87188657484,21100,2017-11-08 06:03:11,14,16.08,6050.01786322,245.734916,0.447388,2.88108276936,48.2, -4.7, 0.3,0,0,1024,1024,1684,1050,47.4,-43.8,98,4.034,4.056,4.05,4.047,0,0,75.11,6,GPS_Atti,
0.352658769777504,36.896042741916,6051.65828322,247.375336,0,2.86935376636,21200,2017-11-08 06:03:11,14,16.08,6051.65828322,247.375336,0.447388,2.88108276936,48.3, -4.9, 0.4,0,0,1024,1024,1684,1050,47.4,-44.2,98,4.034,4.056,4.05,4.047,0,0,75.11,6,GPS_Atti,
0.352658761112553,36.8960427509219,6053.29870322,249.015756,0,2.86788723088,21300,2017-11-08 06:03:11,14,16.107,6053.29870322,249.015756,0.447388,2.88108276936,48.4, -4.8, 0.5,0,0,1024,1024,1684,1046,47.4,-44.5,98,4.03,4.051,4.042,4.037,0,0,75.11,6,GPS_Atti,
0.352658761758231,36.8960427799993,6054.93912322,250.656176,0,2.87263132552,21400,2017-11-08 06:03:11,14,16.107,6054.93912322,250.656176,0.447388,2.88108276936,48.5, -4.5, 0.4,0,0,1024,1024,1684,1046,47.4,-44.9,98,4.03,4.051,4.042,4.037,0,0,75.11,6,GPS_Atti,
0.352658753637995,36.8960428169327,6056.57954322,252.296596,0,2.87575796604,21500,2017-11-08 06:03:11,14,16.107,6056.57954322,252.296596,0.447388,2.88108276936,48.6, -4.5, 0.3,0,0,1024,1024,1684,1048,47.5,-45.2,98,4.03,4.051,4.042,4.037,0,0,75.11,6,GPS_Atti,
0.352658750599319,36.8960428549657,6058.21996322,253.937016,0,2.8807907746,21600,2017-11-08 06:03:11,14,16.107,6058.21996322,253.937016,0.447388,2.88108276936,48.7, -4.5, 0.1,0,0,1024,1024,1684,1047,47.5,-45.6,98,4.03,4.051,4.042,4.037,0,0,75.11,6,GPS_Atti,
0.352658738618856,36.8960428720106,6059.86038322,255.577436,0,2.87958342548,21700,,14,16.107,6059.86038322,255.577436,0.447388,2.88108276936,48.8, -4.2, 0,0,0,1024,1024,1684,1049,47.5,-45.9,98,4.03,4.051,4.042,4.037,0,0,75.11,6,GPS_Atti,
0.352658721127739,36.8960428790048,6061.50080322,257.217856,0,2.87497384528,21800,2017-11-08 06:03:11,14,16.107,6061.50080322,257.217856,0.447388,2.88108276936,48.9, -4.4, 0.1,0,0,1024,1024,1684,1049,47.6,-46.3,98,4.03,4.051,4.042,4.037,0,0,75.11,6,GPS_Atti,
0.352658680279036,36.8960428687035,6063.14122322,258.858276,0,2.8599410364,21900,2017-11-08 06:03:11,14,16.107,6063.14122322,258.858276,0.447388,2.88108276936,48.9, -4.7, 0.1,0,0,1024,1024,1684,1048,47.6,-46.6,98,4.03,4.051,4.042,4.037,0,0,75.11,6,GPS_Atti,
0.352658654026076,36.8960428693641,6064.78164322,260.498696,0,2.85145678416,22000,2017-11-08 06:03:11,14,16.107,6064.78164322,260.498696,0.447388,2.88108276936,49, -4.6, 0,0,0,1024,1024,1684,1050,47.6,-46.6,98,4.03,4.051,4.042,4.037,0,0,75.11,6,GPS_Atti,
0.352658639667271,36.8960428778068,6066.42206322,262.139116,0,2.8481300124,22100,2017-11-08 06:03:12,14,16.107,6066.42206322,262.139116,0.447388,2.88108276936,49.1, -4.6, 0.3,0,0,1024,1024,1684,1050,47.7,-47,98,4.03,4.051,4.042,4.037,0,0,75.11,6,GPS_Atti,
0.352658640074382,36.8960428923734,6068.06248322,263.779536,0,2.85063001248,22200,2017-11-08 06:03:12,14,16.107,6068.06248322,263.779536,0.447388,2.88108276936,49.2, -4.9, 0.6,0,0,1024,1024,1684,1052,47.7,-47.3,98,4.03,4.051,4.042,4.037,0,0,75.11,6,GPS_Atti,
0.352658632182128,36.8960429062751,6069.70290322,265.419956,0,2.85032161352,22300,2017-11-08 06:03:12,14,16.107,6069.70290322,265.419956,0.447388,2.88108276936,49.4, -4.7, 0.3,0,0,1024,1024,1684,1051,47.8,-47.7,98,4.03,4.051,4.042,4.037,0,0,75.11,6,GPS_Atti,
0.352658617622211,36.8960429474384,6071.34332322,267.060376,0,2.85234261096,22400,2017-11-08 06:03:12,14,16.107,6071.34332322,267.060376,0.447388,2.88108276936,49.5, -4.5, 0,0,0,1024,1024,1684,1050,47.9,-48,98,4.03,4.051,4.042,4.037,0,0,75.11,6,GPS_Atti,
0.352658582879358,36.8960429949857,6072.98374322,268.700796,0,2.84897974996,22500,2017-11-08 06:03:12,14,16.107,6072.98374322,268.700796,0.447388,2.88108276936,49.6, -4.4, -0.1,0,0,1024,1024,1684,1052,47.9,-48.4,98,4.03,4.051,4.042,4.037,0,0,75.11,6,GPS_Atti,
0.352658561312246,36.8960430403287,6074.62416322,270.341216,0,2.84964904132,22600,2017-11-08 06:03:12,14,16.107,6074.62416322,270.341216,0.447388,2.88108276936,49.8, -4.1, -0.1,0,0,1024,1024,1684,1053,48,-48.8,98,4.03,4.051,4.042,4.037,0,0,75.11,6,GPS_Atti,
0.35265854905739,36.8960430529296,6076.26458322,271.981636,0,2.84783801764,22700,2017-11-08 06:03:12,14,16.107,6076.26458322,271.981636,0.447388,2.88108276936,49.8, -4.1, 0,0,0,1024,1024,1684,1053,48.1,-49.1,98,4.03,4.051,4.042,4.037,0,0,75.11,6,GPS_Atti,
0.352658547427318,36.8960430567602,6077.90500322,273.622056,0,2.8479659704,22800,2017-11-08 06:03:12,14,16.107,6077.90500322,273.622056,0.447388,2.88108276936,49.9, -4.2, 0,0,0,1024,1024,1684,1051,48.2,-49.5,98,4.03,4.051,4.042,4.037,0,0,75.11,6,GPS_Atti,
0.352658542870932,36.8960430402516,6079.54542322,275.262476,0,2.84368119336,22900,2017-11-08 06:03:12,14,16.107,6079.54542322,275.262476,0.447388,2.88108276936,50.1, -4.3, 0.1,0,0,1024,1024,1684,1053,48.2,-49.8,98,4.03,4.051,4.042,4.037,0,0,75.11,6,GPS_Atti,
0.352658543344809,36.8960430185207,6081.18584322,276.902896,0,2.84014772868,23000,,14,16.107,6081.18584322,276.902896,0.447388,2.88108276936,50.2, -4.7, 0.2,0,0,1024,1024,1684,1053,48.3,-50.2,98,4.03,4.051,4.042,4.037,0,0,75.11,6,GPS_Atti,
0.352658531957914,36.896042997189,6082.82626322,278.543316,0,2.83286098304,23100,2017-11-08 06:03:13,14,16.107,6082.82626322,278.543316,0.447388,2.88108276936,50.4, -5.1, 0.1,0,0,1024,1024,1684,1052,48.4,-50.5,98,4.03,4.051,4.042,4.037,0,0,75.11,6,GPS_Atti,
0.352658534501544,36.896042993686,6084.46668322,280.183736,0,2.83309392268,23200,2017-11-08 06:03:13,14,16.107,6084.46668322,280.183736,0.447388,2.88108276936,50.5, -5, 0,0,0,1024,1024,1684,1050,48.5,-50.8,98,4.03,4.051,4.042,4.037,0,0,75.11,6,GPS_Atti,
0.352658530809861,36.8960429996182,6086.10710322,281.824156,0,2.83290035312,23300,2017-11-08 06:03:13,14,16.08,6086.10710322,281.824156,0.447388,2.88108276936,50.6, -4.8, -0.1,0,0,1024,1024,1684,1052,48.6,-51.2,97,4.027,4.048,4.042,4.038,0,0,75.11,6,GPS_Atti,
0.352658539684881,36.8960430277674,6087.74752322,283.464576,0,2.84053158696,23400,2017-11-08 06:03:13,14,16.08,6087.74752322,283.464576,0.447388,2.88108276936,50.7, -4.7, 0,0,0,1024,1024,1684,1050,48.6,-51.2,97,4.027,4.048,4.042,4.038,0,0,75.11,6,GPS_Atti,
0.352658540699402,36.8960430698729,6089.71602722,285.43308,0,2.84803814888,23500,2017-11-08 06:03:13,14,16.08,6089.71602722,285.43308,0.447388,2.88108276936,50.9, -4.6, -0.2,0,0,1024,1024,1684,1052,48.7,-51.5,97,4.027,4.048,4.042,4.038,0,0,75.11,6,GPS_Atti,
0.352658538404924,36.8960431213257,6091.35644722,287.0735,0,2.85615822788,23600,2017-11-08 06:03:13,14,16.08,6091.35644722,287.0735,0.447388,2.88108276936,51, -4.5, -0.4,0,0,1024,1024,1684,1052,48.8,-51.9,97,4.027,4.048,4.042,4.038,0,0,75.11,6,GPS_Atti,
0.35265851610664,36.8960431455822,6092.99686722,288.71392,0,2.85321859524,23700,2017-11-08 06:03:13,14,16.08,6092.99686722,288.71392,0.447388,2.88108276936,51.1, -4.6, -0.2,0,0,1024,1024,1684,1053,48.9,-52.2,97,4.027,4.048,4.042,4.038,0,0,75.11,6,GPS_Atti,
0.352658503885982,36.8960431693891,6094.63728722,290.35434,0,2.85347121992,23800,2017-11-08 06:03:13,14,16.08,6094.63728722,290.35434,0.447388,2.88108276936,51.2, -4.4, -0.1,0,0,1024,1024,1684,1053,49,-52.6,97,4.027,4.048,4.042,4.038,0,0,75.11,6,GPS_Atti,
0.352658495816228,36.8960431795962,6096.27770722,291.99476,0,2.85268709916,23900,2017-11-08 06:03:13,14,16.08,6096.27770722,291.99476,0.447388,2.88108276936,51.3, -4.2, 0,0,0,1024,1024,1684,1054,49.2,-52.9,97,4.027,4.048,4.042,4.038,0,0,75.11,6,GPS_Atti,
