latitude,longitude,altitude(feet),ascent(feet),speed(mph),distance(feet),time(millisecond),datetime(utc),satellites,gpslevel,voltage(v),max_altitude(feet),max_ascent(feet),max_speed(mph),max_distance(feet), xSpeed(mph), ySpeed(mph), zSpeed(mph), compass_heading(degrees), pitch(degrees), roll(degrees),isPhoto,isVideo,rc_elevator,rc_aileron,rc_throttle,rc_rudder,gimbal_heading(degrees),gimbal_pitch(degrees),battery_percent,voltageCell1,voltageCell2,voltageCell3,voltageCell4,voltageCell5,voltageCell6,current(A),battery_temperature(f),flycStateRaw,flycState,message
0.353940618264147,36.9196895453993,5486.2405125019,0,0,0,0,2018-04-08 06:17:01,13,0,0,5486.2405125019,0,0,0,0,0,0,307.1, -0.3, -3.7,0,0,364,364,364,1684,311.6,0,99,4.301,4.304,4.3,4.3,0,0,0,78.71,6,P-GPS,
0.353940545742818,36.9196896498236,5486.2405125019,0,0,0.046385172088,100,2018-04-08 06:17:01,13,0,0,5486.2405125019,0,0,0.046385172088,0,0,0,307.1, -0.3, -3.7,0,0,364,364,364,1684,311.6,0,99,4.301,4.304,4.3,4.3,0,0,0,78.71,41,Motors_Started,
0.353940467380058,36.9196897755917,5486.2405125019,0,0,0.1004183103,200,2018-04-08 06:17:01,13,0,0,5486.2405125019,0,0,0.1004183103,0,0,0,307.1, -0.3, -3.7,0,0,364,364,364,1684,311.6,0,99,4.301,4.304,4.3,4.3,0,0,0,78.71,41,Motors_Started,
0.353940392576261,36.9196898907735,5486.2405125019,0,0,0.150525923452,300,2018-04-08 06:17:01,13,0,0,5486.2405125019,0,0,0.150525923452,0,0,0,307.1, -0.3, -3.8,0,0,364,364,364,1684,311.6,0,99,4.301,4.304,4.3,4.3,0,0,0,78.71,41,Motors_Started,
0.353940323780406,36.9196900276653,5486.2405125019,0,0,0.206161752004,400,2018-04-08 06:17:01,13,0,0,5486.2405125019,0,0,0.206161752004,0,0,0,307.1, -0.3, -3.7,0,0,364,364,364,1684,311.6,0,99,4.301,4.304,4.3,4.3,0,0,0,78.71,41,Motors_Started,
0.353940262478445,36.9196901576644,5486.2405125019,0,0,0.258358275984,500,2018-04-08 06:17:01,13,0,17.176,5486.2405125019,0,0,0.258358275984,0,0,0,307.1, -0.3, -3.7,0,0,364,364,364,1684,311.6,0,99,4.301,4.304,4.3,4.3,0,0,1.462,78.71,41,Motors_Started,Setting new Return-To-Home altitude to 45m (148 ft). Setting new Maximum Flight Altitude to 150m (492 ft)
0.353940202517509,36.9196902988685,5486.2405125019,0,0,0.31396982632,600,2018-04-08 06:17:01,13,0,17.176,5486.2405125019,0,0,0.31396982632,0,0,0,307.1, -0.3, -3.7,0,0,364,364,364,1684,311.6,0,99,4.301,4.304,4.3,4.3,0,0,1.462,78.71,41,Motors_Started,
0.353940098729038,36.919690516463,5486.2405125019,0,0,0.4018044748,800,2018-04-08 06:17:01,13,0,17.176,5486.2405125019,0,0,0.4018044748,0,0,0,307.1, -0.4, -3.7,0,0,364,364,364,1684,311.6,0,99,4.301,4.304,4.3,4.3,0,0,1.462,78.71,41,Motors_Started,
0.353940024392198,36.9196906259985,5486.2405125019,0,0,0.44986549996,900,2018-04-08 06:17:02,13,0,17.176,5486.2405125019,0,0,0.44986549996,0,0,0,307.1, -0.3, -3.7,0,0,364,364,364,1684,311.6,0,99,4.301,4.304,4.3,4.3,0,0,1.462,78.71,41,Motors_Started,
0.353939944765765,36.9196907585949,5486.2405125019,0,0,0.50625985872,1000,2018-04-08 06:17:02,13,0,17.176,5486.2405125019,0,0,0.50625985872,0,0,0,307.1, 0, -3.5,0,0,364,364,364,1684,311.6,0,99,4.301,4.304,4.3,4.3,0,0,1.462,78.71,41,Motors_Started,
0.353939809821496,36.9196909662038,5486.2405125019,0,0,0.59641406108,1200,2018-04-08 06:17:02,13,0,17.176,5486.2405125019,0,0,0.59641406108,0,0,0,307.1, -0.2, -3.7,0,0,462,434,455,1622,311.6,0,99,4.301,4.304,4.3,4.3,0,0,1.462,78.71,41,Motors_Started,
0.353939754528902,36.9196910440545,5486.2405125019,0,0,0.6310859782,1300,2018-04-08 06:17:02,13,0,17.176,5486.2405125019,0,0,0.6310859782,0,0,0,307.1, -0.2, -3.6,0,0,1022,925,863,1170,311.5,0,99,4.301,4.304,4.3,4.3,0,0,1.462,78.71,41,Motors_Started,
0.353939696071019,36.919691141158,5486.2405125019,0,0,0.67243112388,1400,2018-04-08 06:17:02,13,0,17.176,5486.2405125019,0,0,0.67243112388,0,0,0,307.1, 0, -3.5,0,0,1024,992,972,1073,310.7,0,99,4.301,4.304,4.3,4.3,0,0,1.462,78.71,41,Motors_Started,
0.353939648130442,36.919691214056,5486.2405125019,0,0,0.70421262096,1500,2018-04-08 06:17:02,13,0,17.149,5486.2405125019,0,0,0.70421262096,0,0,0,307.1, -0.2, -3.5,0,0,1024,1024,1024,1024,309.5,0,99,4.294,4.295,4.286,4.286,0,0,1.804,78.71,41,Motors_Started,
0.353939597027834,36.9196913064873,5486.2405125019,0,0,0.74273952508,1600,2018-04-08 06:17:02,13,0,17.149,5486.2405125019,0,0,0.74273952508,0,0,0,307.1, 0, -3.4,0,0,1024,1024,1024,1024,308.7,0,99,4.294,4.295,4.286,4.286,0,0,1.804,78.71,10,Assisted_Takeoff,
0.353939551539286,36.9196913778704,5486.2405125019,0,0,0.77359582528,1700,2018-04-08 06:17:02,13,0,17.149,5486.2405125019,0,0,0.77359582528,0,0,0,307.1, -0.2, -3.6,0,0,1024,1024,1024,1024,308.3,0,99,4.294,4.295,4.286,4.286,0,0,1.804,78.71,10,Assisted_Takeoff,
0.353939502709986,36.9196914627807,5486.2405125019,0,0,0.80933073456,1800,2018-04-08 06:17:02,13,0,17.149,5486.2405125019,0,0,0.80933073456,0,0,0,307.1, -0.1, -3.5,0,0,1024,1024,1024,1024,308.1,0,99,4.294,4.295,4.286,4.286,0,0,1.804,78.71,10,Assisted_Takeoff,
0.353939462148296,36.9196915399633,5486.2405125019,0,0,0.84111223164,1900,2018-04-08 06:17:02,13,0,17.149,5486.2405125019,0,0,0.84111223164,0,0,0,307.1, -0.2, -3.6,0,0,1024,1024,1024,1024,307.9,0,99,4.294,4.295,4.286,4.286,0,0,1.804,78.71,10,Assisted_Takeoff,
0.353939414929119,36.9196916245031,5486.2405125019,0,0,0.87643703592,2000,2018-04-08 06:17:03,13,0,17.149,5486.2405125019,0,0,0.87643703592,0,0,0,307.1, -0.2, -3.6,0,0,1024,1024,1026,1024,307.8,0,99,4.294,4.295,4.286,4.286,0,0,1.804,78.71,10,Assisted_Takeoff,
0.353939373172965,36.9196916773368,5486.2405125019,0,0,0.90076118368,2100,2018-04-08 06:17:03,13,0,17.149,5486.2405125019,0,0,0.90076118368,0,0,0,307.1, -0.1, -3.6,0,0,1024,1024,1052,1024,307.8,0,99,4.294,4.295,4.286,4.286,0,0,1.804,78.71,10,Assisted_Takeoff,
0.353939326324667,36.9196917367279,5486.2405125019,0,0,0.92809714256,2200,2018-04-08 06:17:03,13,0,17.149,5486.2405125019,0,0,0.92809714256,0,0,0,307.1, -0.2, -3.6,0,0,1024,1024,1061,1024,307.7,0,99,4.294,4.295,4.286,4.286,0,0,1.804,78.71,10,Assisted_Takeoff,
0.353939283935049,36.9196917926139,5486.2405125019,0,0,0.95352365256,2300,2018-04-08 06:17:03,13,0,17.149,5486.2405125019,0,0,0.95352365256,0,0,0,307, -0.3, -3.6,0,0,1024,1024,1065,1024,307.7,0,99,4.294,4.295,4.286,4.286,0,0,1.804,78.71,10,Assisted_Takeoff,
0.353939237259773,36.9196918670365,5486.2405125019,0,0,0.985564336,2400,2018-04-08 06:17:03,13,0,17.149,5486.2405125019,0,0,0.985564336,0,0,0,307.1, -0.2, -3.6,0,0,1024,1024,1079,1024,307.6,0,99,4.294,4.295,4.286,4.286,0,0,1.804,78.71,10,Assisted_Takeoff,
0.353939222525204,36.9196919452993,5486.2405125019,0,0,1.01290029488,2500,2018-04-08 06:17:03,13,0,16.855,5486.2405125019,0,0,1.01290029488,0,0,0,307.1, -0.2, -3.6,0,0,1024,1024,1088,1024,307.6,0,99,4.294,4.295,4.286,4.286,0,0,1.804,78.71,10,Assisted_Takeoff,
0.353939205595086,36.9196920315339,5486.2405125019,0,0,1.0432579074,2600,2018-04-08 06:17:03,13,0,16.855,5486.2405125019,0,0,1.0432579074,0,0,0,307, -0.2, -3.6,0,0,1024,1024,1095,1024,307.5,0,99,4.294,4.295,4.286,4.286,0,0,1.804,78.71,10,Assisted_Takeoff,
0.353939189898107,36.9196920946787,5486.2405125019,0,0,1.06613520472,2700,2018-04-08 06:17:03,13,0,16.855,5486.2405125019,0,0,1.06613520472,0,0,0,307, -0.1, -3.6,0,0,1024,1024,1098,1024,307.5,0,99,4.294,4.295,4.286,4.286,0,0,1.804,78.71,10,Assisted_Takeoff,
0.353939160816133,36.9196921613264,5486.2405125019,0,0,1.09253940504,2800,2018-04-08 06:17:03,13,0,16.855,5486.2405125019,0,0,1.09253940504,0,0,0,307, -0.1, -3.5,0,0,1024,1024,1099,1024,307.5,0,99,4.294,4.295,4.286,4.286,0,0,1.804,78.71,10,Assisted_Takeoff,
0.353939129066768,36.9196922332009,5486.2405125019,0,0,1.12108599388,2900,2018-04-08 06:17:04,13,0,16.855,5486.2405125019,0,0,1.12108599388,0,0,0,307, -0.1, -3.5,0,0,1024,1024,1107,1024,307.5,0,99,4.294,4.295,4.286,4.286,0,0,1.804,78.71,10,Assisted_Takeoff,
0.353939091211144,36.9196923143876,5486.2405125019,0,0,1.1536909818,3000,2018-04-08 06:17:04,13,0,16.855,5486.2405125019,0,0,1.1536909818,0,0,0,307, -0.1, -3.4,0,0,1024,1024,1118,1024,307.4,0,99,4.294,4.295,4.286,4.286,0,0,1.804,78.71,10,Assisted_Takeoff,
0.353939049017753,36.9196923731022,5486.2405125019,0,0,1.1798884892,3100,2018-04-08 06:17:04,13,0,16.855,5486.2405125019,0,0,1.1798884892,0,0,0,307.1, -0.1, -3.4,0,0,1024,1024,1130,1024,307.4,0,99,4.294,4.295,4.286,4.286,0,0,1.804,78.71,10,Assisted_Takeoff,
0.353939005174341,36.9196924350018,5486.2405125019,0,0,1.20740161344,3200,2018-04-08 06:17:04,13,0,16.855,5486.2405125019,0,0,1.20740161344,0,0,0,307, 0, -3.4,0,0,1024,1024,1149,1024,307.4,0,99,4.294,4.295,4.286,4.286,0,0,1.804,78.71,10,Assisted_Takeoff,
0.353938956372724,36.9196925064416,5486.2405125019,0,0,1.23884190316,3300,2018-04-08 06:17:04,13,0,16.855,5486.2405125019,0,0,1.23884190316,0,0,0,307, 0, -3.4,0,0,1024,1024,1169,1024,307.4,0,99,4.294,4.295,4.286,4.286,0,0,1.804,78.71,10,Assisted_Takeoff,
0.353938907432283,36.9196925851734,5486.2405125019,0,0,1.27263127432,3400,2018-04-08 06:17:04,13,0,16.855,5486.2405125019,0,0,1.27263127432,0,0,0,307, 0, -3.3,0,0,1024,1024,1182,1024,307.4,0,99,4.294,4.295,4.286,4.286,0,0,1.804,78.71,10,Assisted_Takeoff,
0.353938850291404,36.9196926469252,5486.2405125019,0,0,1.3025098842,3500,2018-04-08 06:17:04,13,0,17.069,5486.2405125019,0,0,1.3025098842,0,0,0,306.8, 0.1, -3.2,0,0,1024,1024,1182,1024,307.4,0,99,4.286,4.289,4.281,4.292,0,0,2.848,78.71,10,Assisted_Takeoff,
0.353938785763497,36.9196927133139,5486.2405125019,0,0,1.3352362632,3600,2018-04-08 06:17:04,13,0,17.069,5486.2405125019,0,0,1.3352362632,0,0,0,306.7, 1.7, -1.6,0,0,1024,1024,1198,1024,307.4,0,99,4.286,4.289,4.281,4.292,0,0,2.848,78.71,10,Assisted_Takeoff,
0.353938686920203,36.9196927994618,5486.2405125019,0,0,1.38058731452,3700,2018-04-08 06:17:04,13,0,17.069,5486.2405125019,0,0,1.38058731452,0,0,-0.223694,306.8, 3.4, 0.2,0,0,1024,1024,1224,1024,307.4,0,99,4.286,4.289,4.281,4.292,0,0,2.848,78.71,10,Assisted_Takeoff,
0.353938561148959,36.919692955358,5486.2405125019,0,0.223694,1.45295608324,3800,2018-04-08 06:17:04,13,0,17.069,5486.2405125019,0,0.223694,1.45295608324,0,0.223694,-0.671082,306.7, 1.5, 1.1,0,0,1024,1024,1224,1024,307.4,0,99,4.286,4.289,4.281,4.292,0,0,2.848,78.71,6,P-GPS,Obstacle Avoided. Revise Flight Route
0.353938422903427,36.9196931814071,5486.2405125019,0,0.223694,1.54962931468,3900,2018-04-08 06:17:04,13,0,17.069,5486.2405125019,0,0.223694,1.54962931468,0,0.223694,-0.671082,306.7, 0, 0.7,0,0,1024,1024,1224,1024,307.3,0,99,4.286,4.289,4.281,4.292,0,0,2.848,78.71,6,P-GPS,
0.353938313366956,36.9196934364709,5486.2405125019,0,0.223694,1.65000661448,4000,2018-04-08 06:17:05,13,0,17.069,5486.2405125019,0,0.223694,1.65000661448,0,0.223694,-0.894776,306.7, -1, 0.2,0,0,1024,1024,1220,1024,307.3,0,99,4.286,4.289,4.281,4.292,0,0,2.848,78.71,6,P-GPS,
0.35393821175775,36.9196937579855,5486.5685965019,0.328084,0.447388,1.7700459884,4100,2018-04-08 06:17:05,13,0,17.069,5486.5685965019,0.328084,0.447388,1.7700459884,0,0.447388,-1.11847,306.7, -1.6, -0.2,0,0,1024,1024,1223,1024,307.3,0,99,4.286,4.289,4.281,4.292,0,0,2.848,78.71,6,P-GPS,
0.353938150801835,36.9196940813094,5486.5685965019,0.328084,0.447388,1.88391082144,4200,2018-04-08 06:17:05,13,0,17.069,5486.5685965019,0.328084,0.447388,1.88391082144,0,0.447388,-1.11847,306.5, -1.5, -0.7,0,0,1024,1024,1227,1024,307.3,0,99,4.286,4.289,4.281,4.292,0,0,2.848,78.71,6,P-GPS,
0.353938139261459,36.9196944327091,5486.8966805019,0.656168,0.447388,1.99937342356,4300,2018-04-08 06:17:05,13,0,17.069,5486.8966805019,0.656168,0.447388,1.99937342356,0,0.447388,-1.342164,306.4, -1.9, -1.4,0,0,1024,1024,1230,1024,307.3,0,99,4.286,4.289,4.281,4.292,0,0,2.848,78.71,6,P-GPS,
0.353938158934691,36.9196947677722,5487.2247645019,0.984252,0.223694,2.106053217,4400,2018-04-08 06:17:05,13,0,17.069,5487.2247645019,0.984252,0.447388,2.106053217,0,0.223694,-1.565858,306.5, -2.6, -2.3,0,0,1024,1024,1226,1024,307.2,0,99,4.286,4.289,4.281,4.292,0,0,2.848,78.71,6,P-GPS,
0.353938251276829,36.9196950908082,5487.5528485019,1.312336,0.3131716,2.19980322,4500,2018-04-08 06:17:05,13,0,16.695,5487.5528485019,1.312336,0.447388,2.19980322,0.223694,0.223694,-1.565858,306.7, -1.9, -3.3,0,0,1024,1024,1232,1024,307.2,0,99,4.227,4.231,4.21,4.21,0,0,8.438,78.71,6,P-GPS,
0.353938353769059,36.9196953830233,5487.5528485019,1.312336,0.223694,2.284448892,4600,2018-04-08 06:17:05,13,0,16.695,5487.5528485019,1.312336,0.447388,2.284448892,0,0.223694,-1.789552,306.8, -1.2, -3,0,0,1024,1024,1228,1024,307.2,0,99,4.227,4.231,4.21,4.21,0,0,8.438,78.71,6,P-GPS,Home Point Recorded. RTH Altitude:  45m.
0.353938473241074,36.9196956878192,5487.8809325019,1.64042,0.3131716,2.3737369526,4700,2018-04-08 06:17:05,13,0,16.695,5487.8809325019,1.64042,0.447388,2.3737369526,0.223694,0.223694,-2.013246,306.8, -0.9, -3.2,0,0,1024,1024,1227,1024,307.2,0,99,4.227,4.231,4.21,4.21,0,0,8.438,78.71,6,P-GPS,
0.353938572904289,36.9196960090308,5488.2090165019,1.968504,0.3131716,2.47346464608,4800,2018-04-08 06:17:05,13,0,16.695,5488.2090165019,1.968504,0.447388,2.47346464608,0.223694,0.223694,-2.013246,306.9, -1.9, -3.6,0,0,1024,1024,1236,1024,307.2,0,99,4.227,4.231,4.21,4.21,0,0,8.438,78.71,6,P-GPS,
0.353938676842984,36.9196963523612,5488.5371005019,2.296588,0.3131716,2.58250664432,4900,2018-04-08 06:17:06,13,0,16.695,5488.5371005019,2.296588,0.447388,2.58250664432,0.223694,0.223694,-2.013246,306.9, -2.6, -4.6,0,0,1024,1024,1240,1024,307.2,0,99,4.227,4.231,4.21,4.21,0,0,8.438,78.71,6,P-GPS,
0.353938775131386,36.9196966776615,5488.8651845019,2.624672,0.3131716,2.68763788128,5000,2018-04-08 06:17:06,13,0,16.695,5488.8651845019,2.624672,0.447388,2.68763788128,0.223694,0.223694,-2.013246,306.9, -2.8, -5.6,0,0,1024,1024,1233,1024,307.2,0,99,4.227,4.231,4.21,4.21,0,0,8.438,78.71,6,P-GPS,
0.353938884259118,36.9196969335786,5489.1932685019,2.952756,0.3131716,2.76876977364,5100,2018-04-08 06:17:06,13,0,16.695,5489.1932685019,2.952756,0.447388,2.76876977364,0.223694,0.223694,-2.013246,307, -3, -5.7,0,0,1024,1024,1234,1024,307.2,0,99,4.227,4.231,4.21,4.21,0,0,8.438,78.71,6,P-GPS,
0.353938998316964,36.9196971238714,5489.5213525019,3.28084,0.223694,2.8274115078,5200,2018-04-08 06:17:06,13,0,16.695,5489.5213525019,3.28084,0.447388,2.8274115078,0.223694,0,-1.789552,307.1, -2.1, -4.9,0,0,1024,1024,1238,1024,307.2,0,99,4.227,4.231,4.21,4.21,0,0,8.438,78.71,6,P-GPS,
0.35393910868272,36.9196972807975,5489.8494365019,3.608924,0.223694,2.8754430054,5300,2018-04-08 06:17:06,13,0,16.695,5489.8494365019,3.608924,0.447388,2.8754430054,0.223694,0,-2.013246,307, -0.8, -4.2,0,0,1024,1024,1241,1024,307.2,0,99,4.227,4.231,4.21,4.21,0,0,8.438,78.71,6,P-GPS,
0.353939231211732,36.9196974493997,5490.1775205019,3.937008,0.223694,2.92778224592,5400,2018-04-08 06:17:06,13,0,16.695,5490.1775205019,3.937008,0.447388,2.92778224592,0.223694,0,-2.013246,306.9, -0.2, -4.8,0,0,1024,1024,1245,1024,307.2,0,99,4.227,4.231,4.21,4.21,0,0,8.438,78.71,6,P-GPS,
0.35393936133377,36.919697633059,5490.5056045019,4.265092,0.223694,2.98614510868,5500,2018-04-08 06:17:06,13,0,16.641,5490.5056045019,4.265092,0.447388,2.98614510868,0.223694,0,-2.013246,306.9, -0.4, -5.6,0,0,1024,1024,1245,1024,307.2,0,99,4.227,4.231,4.21,4.21,0,0,12.952,78.71,6,P-GPS,
0.353939487568306,36.9196978195704,5490.8336885019,4.593176,0.223694,3.04682752532,5600,2018-04-08 06:17:06,13,0,16.641,5490.8336885019,4.593176,0.447388,3.04682752532,0.223694,0,-2.013246,306.8, -0.1, -6.2,0,0,1024,1024,1245,1024,307.2,0,99,4.227,4.231,4.21,4.21,0,0,12.952,78.71,6,P-GPS,
0.353939605100031,36.9196979883375,5491.1617725019,4.92126,0.223694,3.102444325,5700,2018-04-08 06:17:06,13,0,16.641,5491.1617725019,4.92126,0.447388,3.102444325,0.223694,0,-2.013246,306.8, -0.6, -6.4,0,0,1024,1024,1243,1024,307.2,0,99,4.227,4.231,4.21,4.21,0,0,12.952,78.71,6,P-GPS,
0.35393969931203,36.9196981462164,5491.4898565019,5.249344,0.223694,3.15580390676,5800,2018-04-08 06:17:06,13,0,16.641,5491.4898565019,5.249344,0.447388,3.15580390676,0.223694,0,-2.013246,306.9, -0.4, -6.4,0,0,1024,1024,1249,1024,307.2,0,99,4.227,4.231,4.21,4.21,0,0,12.952,78.71,6,P-GPS,
0.353939786533118,36.9196982687266,5491.4898565019,5.249344,0.223694,3.19707359312,5900,2018-04-08 06:17:06,13,0,16.641,5491.4898565019,5.249344,0.447388,3.19707359312,0.223694,0,-2.013246,306.9, -0.4, -6,0,0,1024,1024,1299,1024,307.2,0,99,4.227,4.231,4.21,4.21,0,0,12.952,78.71,6,P-GPS,
0.353939854838202,36.919698386601,5491.8179405019,5.577428,0,3.2376477414,6000,2018-04-08 06:17:07,13,0,16.641,5491.8179405019,5.577428,0.447388,3.2376477414,0,0,-2.013246,306.7, -0.7, -6.2,0,0,1024,1024,1337,1024,307.2,0,99,4.227,4.231,4.21,4.21,0,0,12.952,78.71,6,P-GPS,
0.353939950229194,36.9196984889045,5492.1460245019,5.905512,0,3.27206047216,6100,2018-04-08 06:17:07,13,0,16.641,5492.1460245019,5.905512,0.447388,3.27206047216,0,0,-2.23694,306.6, -0.7, -6.7,0,0,1024,1024,1343,1024,307.2,0,99,4.227,4.231,4.21,4.21,0,0,12.952,78.71,6,P-GPS,
0.353940005987117,36.919698565282,5492.8021925019,6.56168,0,3.2984253024,6200,2018-04-08 06:17:07,13,0,16.641,5492.8021925019,6.56168,0.447388,3.2984253024,0,0,-2.684328,306.6, -0.8, -5.7,0,0,1024,1024,1352,1024,307.2,0,99,4.227,4.231,4.21,4.21,0,0,12.952,78.71,6,P-GPS,
0.353939999862132,36.9196986043872,5493.1302765019,6.889764,0,3.3127953816,6300,2018-04-08 06:17:07,13,0,16.641,5493.1302765019,6.889764,0.447388,3.3127953816,0,0,-3.131716,306.6, -0.6, -4.2,0,0,1024,1024,1376,1024,307.2,0,99,4.227,4.231,4.21,4.21,0,0,12.952,78.71,6,P-GPS,
0.353939975926448,36.9196986409186,5493.4583605019,7.217848,0,3.3267061432,6400,2018-04-08 06:17:07,13,0,16.641,5493.4583605019,7.217848,0.447388,3.3267061432,0,0,-3.35541,306.6, -0.4, -4.5,0,0,1024,1024,1395,1024,307.2,0,99,4.227,4.231,4.21,4.21,0,0,12.952,78.71,6,P-GPS,
0.353939939056033,36.9196986492373,5494.1145285019,7.874016,0,3.330708768,6500,2018-04-08 06:17:07,13,0,16.641,5494.1145285019,7.874016,0.447388,3.330708768,0,0,-3.579104,306.7, -0.6, -6.1,0,0,1024,1024,1433,1024,307.2,0,99,4.176,4.193,4.164,4.173,0,0,12.952,78.71,6,P-GPS,
0.353939858561639,36.9196985989442,5494.7706965019,8.530184,0.223694,3.3147310772,6600,2018-04-08 06:17:07,13,0,16.641,5494.7706965019,8.530184,0.447388,3.330708768,0,-0.223694,-4.026492,306.9, -0.2, -5.2,0,0,1024,1024,1432,1024,307.1,0,99,4.176,4.193,4.164,4.173,0,0,12.952,78.71,6,P-GPS,
0.353939736201171,36.9196984667342,5495.4268645019,9.186352,0.4921268,3.270751417,6700,2018-04-08 06:17:07,13,0,16.641,5495.4268645019,9.186352,0.4921268,3.330708768,-0.223694,-0.447388,-4.47388,307.3, -0.8, -2.1,0,0,1024,1024,1400,1024,307.1,0,99,4.176,4.193,4.164,4.173,0,0,12.952,78.71,6,P-GPS,
0.353939650936251,36.9196982950894,5496.0830325019,9.84252,0.447388,3.21170942036,6800,2018-04-08 06:17:07,13,0,16.641,5496.0830325019,9.84252,0.4921268,3.330708768,0,-0.447388,-4.921268,307.1, -0.1, -1.6,0,0,1024,1024,1405,1024,307.1,0,99,4.176,4.193,4.164,4.173,0,0,12.952,78.71,6,P-GPS,
0.353939659962716,36.919698069779,5496.7392005019,10.498688,0.447388,3.12964576944,6900,2018-04-08 06:17:08,13,0,16.641,5496.7392005019,10.498688,0.4921268,3.330708768,0,-0.447388,-4.921268,306.9, 1.3, -2.5,0,0,1024,1024,1416,1024,307.1,0,99,4.176,4.193,4.164,4.173,0,0,12.952,78.71,6,P-GPS,
0.3539397003351,36.9196978270668,5497.7234525019,11.48294,0.447388,3.04000665896,7000,2018-04-08 06:17:08,13,0,16.641,5497.7234525019,11.48294,0.4921268,3.330708768,0,-0.447388,-5.144962,306.9, 2.7, -2.2,0,0,1024,1024,1415,1024,307.1,0,99,4.176,4.193,4.164,4.173,0,0,12.952,78.71,6,P-GPS,
0.353939791393617,36.9196975800123,5498.3796205019,12.139108,0.447388,2.946850488,7100,2018-04-08 06:17:08,13,0,16.641,5498.3796205019,12.139108,0.4921268,3.330708768,0,-0.447388,-5.144962,306.8, 4.1, -2.3,0,0,1024,1024,1414,1024,307.1,0,99,4.176,4.193,4.164,4.173,0,0,12.952,78.71,6,P-GPS,
0.353939885780673,36.9196973663715,5499.3638725019,13.12336,0.447388,2.86590888436,7200,2018-04-08 06:17:08,13,0,16.641,5499.3638725019,13.12336,0.4921268,3.330708768,0,-0.447388,-5.144962,306.9, 3.8, -3.5,0,0,1024,1024,1403,1024,307.1,0,99,4.176,4.193,4.164,4.173,0,0,12.952,78.71,6,P-GPS,
0.353939993552726,36.9196971483991,5500.0200405019,13.779528,0.671082,2.78324483972,7300,2018-04-08 06:17:08,13,0,16.641,5500.0200405019,13.779528,0.671082,3.330708768,0,-0.671082,-5.144962,306.8, 4.6, -3.1,0,0,1024,1024,1400,1024,307.1,0,99,4.176,4.193,4.164,4.173,0,0,12.952,78.71,6,P-GPS,
0.353940073407141,36.9196969135303,5500.6762085019,14.435696,0.671082,2.69554798652,7400,2018-04-08 06:17:08,13,0,16.641,5500.6762085019,14.435696,0.671082,3.330708768,0,-0.671082,-4.921268,306.8, 5.3, -0.2,0,0,1024,1024,1400,1024,307.1,0,99,4.176,4.193,4.164,4.173,0,0,12.952,78.71,6,P-GPS,
0.353940192491994,36.919696698335,5501.6604605019,15.419948,0.4921268,2.61431438812,7500,2018-04-08 06:17:08,13,0,16.507,5501.6604605019,15.419948,0.671082,3.330708768,0.223694,-0.447388,-4.921268,306.7, 5, -1.2,0,1,1024,1024,1400,1024,307.1,0,99,4.155,4.17,4.132,4.137,0,0,14.608,78.71,6,P-GPS,
0.353940373492322,36.9196965171981,5502.3166285019,16.076116,0.6263432,2.54517396596,7600,2018-04-08 06:17:08,13,0,16.507,5502.3166285019,16.076116,0.671082,3.330708768,0.447388,-0.447388,-4.921268,306.7, 6, -3.9,0,1,1024,1024,1398,1024,307.1,0,99,4.155,4.17,4.132,4.137,0,0,14.608,78.71,6,P-GPS,
0.353940604629796,36.9196963473604,5502.9727965019,16.732284,0.4921268,2.48165034188,7700,2018-04-08 06:17:08,13,0,16.507,5502.9727965019,16.732284,0.671082,3.330708768,0.223694,-0.447388,-4.921268,306.7, 7.1, -4.7,0,1,1024,1024,1401,1024,307.1,0,99,4.155,4.17,4.132,4.137,0,0,14.608,78.71,6,P-GPS,
0.353940811194049,36.919696198784,5503.6289645019,17.388452,0.447388,2.42845808296,7800,2018-04-08 06:17:08,13,0,16.507,5503.6289645019,17.388452,0.671082,3.330708768,0,-0.447388,-4.697574,306.6, 7.6, -4.5,0,1,1024,1024,1405,1024,307.1,0,99,4.155,4.17,4.132,4.137,0,0,14.608,78.71,6,P-GPS,
0.353940969382321,36.9196960890516,5504.6132165019,18.372704,0.447388,2.39083669068,7900,2018-04-08 06:17:09,16,0,16.507,5504.6132165019,18.372704,0.671082,3.330708768,0,-0.447388,-4.697574,306.7, 7, -2.9,0,1,1024,1024,1422,1024,307.1,0,99,4.155,4.17,4.132,4.137,0,0,14.608,78.71,6,P-GPS,
0.353941256421427,36.9196959934673,5505.9255525019,19.68504,0.3131716,2.36402238536,8100,2018-04-08 06:17:09,16,0,16.507,5505.9255525019,19.68504,0.671082,3.330708768,0.223694,-0.223694,-4.697574,306.6, 7.7, -3.8,0,1,1024,1024,1434,1024,307.1,0,99,4.155,4.17,4.132,4.137,0,0,14.608,78.71,6,P-GPS,
0.353941387873294,36.9196959970731,5506.5817205019,20.341208,0.223694,2.37053157192,8200,2018-04-08 06:17:09,16,0,16.507,5506.5817205019,20.341208,0.671082,3.330708768,0.223694,0,-4.921268,306.6, 7.3, -4,0,1,1024,1024,1434,1024,307.1,0,99,4.155,4.17,4.132,4.137,0,0,14.608,78.71,6,P-GPS,
0.353941504946,36.9196960508039,5507.5659725019,21.32546,0.223694,2.39539377744,8300,2018-04-08 06:17:09,16,0,16.507,5507.5659725019,21.32546,0.671082,3.330708768,0.223694,0,-5.144962,306.6, 6.9, -4.5,0,1,1024,1024,1426,1024,307.1,0,99,4.155,4.17,4.132,4.137,0,0,14.608,78.71,6,P-GPS,
0.353941626437489,36.9196961305142,5508.2221405019,21.981628,0.223694,2.43052501216,8400,2018-04-08 06:17:09,16,0,16.507,5508.2221405019,21.981628,0.671082,3.330708768,0,0,-5.368656,306.6, 6.5, -4.9,0,1,1024,1024,1420,1024,307.1,0,99,4.155,4.17,4.132,4.137,0,0,14.608,78.71,6,P-GPS,
0.353941720926527,36.9196962279914,5509.2063925019,22.96588,0.223694,2.4710630712,8500,2018-04-08 06:17:09,16,0,16.561,5509.2063925019,22.96588,0.671082,3.330708768,0.223694,0,-5.368656,306.5, 6.5, -5.3,0,1,1024,1024,1425,1024,307.1,0,99,4.149,4.165,4.129,4.141,0,0,13.462,78.71,6,P-GPS,
0.35394181370916,36.9196963322423,5509.8625605019,23.622048,0.223694,2.51424876812,8600,2018-04-08 06:17:09,16,0,16.561,5509.8625605019,23.622048,0.671082,3.330708768,0.223694,0,-5.368656,306.5, 6.4, -5.8,0,1,1024,1024,1421,1024,307.1,0,99,4.149,4.165,4.129,4.141,0,0,13.462,78.71,6,P-GPS,
0.353941909948571,36.9196964635101,5510.8468125019,24.6063,0,2.56764115828,8700,2018-04-08 06:17:09,16,0,16.561,5510.8468125019,24.6063,0.671082,3.330708768,0,0,-5.368656,306.5, 6.5, -6.1,0,1,1024,1024,1421,1024,307.1,0,99,4.149,4.165,4.129,4.141,0,0,13.462,78.71,6,P-GPS,
0.353941989862425,36.9196965909536,5511.5029805019,25.262468,0,2.61877633052,8800,2018-04-08 06:17:09,16,0,16.561,5511.5029805019,25.262468,0.671082,3.330708768,0,0,-5.368656,306.4, 6.5, -5.9,0,1,1024,1024,1425,1024,307.1,0,99,4.149,4.165,4.129,4.141,0,0,13.462,78.71,6,P-GPS,
0.353942009033485,36.9196967264793,5512.4872325019,26.24672,0,2.66864837936,8900,2018-04-08 06:17:10,16,0,16.561,5512.4872325019,26.24672,0.671082,3.330708768,0,0,-5.368656,306.5, 6.2, -5.5,0,1,1024,1024,1438,1024,307.1,0,99,4.149,4.165,4.129,4.141,0,0,13.462,78.71,6,P-GPS,
0.353942018711939,36.9196968689585,5513.1434005019,26.902888,0,2.72036097944,9000,2018-04-08 06:17:10,16,0,16.561,5513.1434005019,26.902888,0.671082,3.330708768,0,0,-5.368656,306.5, 5.8, -6,0,1,1024,1024,1445,1024,307.1,0,99,4.149,4.165,4.129,4.141,0,0,13.462,78.71,6,P-GPS,
0.353942010538982,36.9196970065558,5514.1276525019,27.88714,0,2.76913722772,9100,2018-04-08 06:17:10,16,0,16.561,5514.1276525019,27.88714,0.671082,3.330708768,0,0,-5.368656,306.5, 5.5, -6.6,0,1,1024,1024,1444,1024,307.1,0,99,4.149,4.165,4.129,4.141,0,0,13.462,78.71,6,P-GPS,
0.353941993371416,36.9196971227943,5514.7838205019,28.543308,0,2.809711376,9200,2018-04-08 06:17:10,16,0,16.561,5514.7838205019,28.543308,0.671082,3.330708768,0,0,-5.59235,306.6, 5.4, -6.5,0,1,1024,1024,1444,1024,307.1,0,99,4.149,4.165,4.129,4.141,0,0,13.462,78.71,6,P-GPS,
0.353941961362416,36.9196971961634,5515.7680725019,29.52756,0,2.83400927704,9300,2018-04-08 06:17:10,16,0,16.561,5515.7680725019,29.52756,0.671082,3.330708768,0,0,-5.59235,306.5, 5.6, -6.2,0,1,1024,1024,1450,1024,307.1,0,99,4.149,4.165,4.129,4.141,0,0,13.462,78.71,6,P-GPS,
0.353941923739558,36.9196972541135,5516.7523245019,30.511812,0,2.85251321464,9400,2018-04-08 06:17:10,16,0,16.561,5516.7523245019,30.511812,0.671082,3.330708768,0,0,-5.59235,306.5, 5.8, -5.8,0,1,1024,1024,1443,1024,307.1,0,99,4.149,4.165,4.129,4.141,0,0,13.462,78.71,6,P-GPS,
0.353941874845425,36.9196972729242,5517.4084925019,31.16798,0,2.85636163996,9500,2018-04-08 06:17:10,16,0,16.534,5517.4084925019,31.16798,0.671082,3.330708768,0,0,-5.816044,306.5, 5.7, -5.8,0,1,1024,1024,1433,1024,307.1,0,99,4.149,4.165,4.129,4.141,0,0,13.462,78.71,6,P-GPS,
0.353941758553761,36.9196972854161,5519.3769965019,33.136484,0,2.85437017008,9700,2018-04-08 06:17:10,16,0,16.534,5519.3769965019,33.136484,0.671082,3.330708768,0,0,-6.039738,306.5, 5.8, -5.6,0,1,1024,1024,1437,1024,307.1,0,99,4.149,4.165,4.129,4.141,0,0,13.462,78.71,6,P-GPS,
0.353941700773515,36.9196972871612,5519.3769965019,33.136484,0,2.8520014036,9800,2018-04-08 06:17:10,16,0,16.534,5519.3769965019,33.136484,0.671082,3.330708768,0,0,-5.144962,306.5, 6, -5.8,0,1,1024,1024,1433,1024,307.1,0,99,4.149,4.165,4.129,4.141,0,0,13.462,78.71,6,P-GPS,
0.353941645790121,36.919697252923,5520.0331645019,33.792652,0,2.83691282044,9900,2018-04-08 06:17:11,16,0,16.534,5520.0331645019,33.792652,0.671082,3.330708768,0,0,-4.921268,306.5, 6.3, -5.8,0,1,1024,1024,1423,1024,307.1,0,99,4.149,4.165,4.129,4.141,0,0,13.462,78.71,6,P-GPS,
0.353941582589599,36.9196972261663,5521.0174165019,34.776904,0,2.82427174392,10000,2018-04-08 06:17:11,16,0,16.534,5521.0174165019,34.776904,0.671082,3.330708768,0,0,-4.921268,306.5, 6.1, -5.6,0,1,1024,1024,1436,1024,307.1,0,99,4.149,4.165,4.129,4.141,0,0,13.462,78.71,6,P-GPS,
0.353941513947631,36.9196971831854,5521.6735845019,35.433072,0,2.80568578532,10100,2018-04-08 06:17:11,16,0,16.534,5521.6735845019,35.433072,0.671082,3.330708768,0,0,-4.921268,306.5, 6.3, -5.6,0,1,1024,1024,1445,1024,307.1,0,99,4.149,4.165,4.129,4.141,0,0,13.462,78.71,6,P-GPS,
0.353941443114796,36.9196971523604,5522.3297525019,36.08924,0,2.79161098172,10200,2018-04-08 06:17:11,16,0,16.534,5522.3297525019,36.08924,0.671082,3.330708768,0,0,-4.921268,306.5, 6.4, -5.3,0,1,1024,1024,1435,1024,307.1,0,99,4.149,4.165,4.129,4.141,0,0,13.462,78.71,6,P-GPS,
0.353941371043325,36.9196971265693,5523.3140045019,37.073492,0,2.77953420968,10300,2018-04-08 06:17:11,16,0,16.534,5523.3140045019,37.073492,0.671082,3.330708768,0,0,-5.144962,306.5, 6.3, -4.6,0,1,1024,1024,1441,1024,307.1,0,99,4.149,4.165,4.129,4.141,0,0,13.462,78.71,6,P-GPS,
0.353941305587611,36.9196971285243,5523.9701725019,37.72966,0,2.77798893404,10400,2018-04-08 06:17:11,16,0,16.534,5523.9701725019,37.72966,0.671082,3.330708768,0,0,-5.368656,306.5, 6.3, -5,0,1,1024,1024,1444,1024,307.1,0,99,4.149,4.165,4.129,4.141,0,0,13.462,78.71,6,P-GPS,
0.353941239677562,36.9196971467889,5524.9544245019,38.713912,0,2.782562425,10500,2018-04-08 06:17:11,16,0,16.454,5524.9544245019,38.713912,0.671082,3.330708768,0,0,-5.368656,306.5, 6.4, -5.7,0,1,1024,1024,1450,1024,307.1,0,99,4.13,4.15,4.11,4.122,0,0,15.268,78.71,6,P-GPS,
0.353941167372613,36.9196971747212,5525.9386765019,39.698164,0,2.79070218904,10600,2018-04-08 06:17:11,16,0,16.454,5525.9386765019,39.698164,0.671082,3.330708768,0,0,-5.59235,306.5, 6.3, -5.8,0,1,1024,1024,1451,1024,307.1,0,99,4.13,4.15,4.11,4.122,0,0,15.268,78.71,6,P-GPS,
0.353940971559143,36.9196972235561,5527.5790965019,41.338584,0,2.8042815858,10800,2018-04-08 06:17:11,16,0,16.454,5527.5790965019,41.338584,0.671082,3.330708768,0,0,-5.816044,306.6, 5.8, -5.7,0,1,1024,1024,1451,1024,307.1,0,99,4.13,4.15,4.11,4.122,0,0,15.268,78.71,6,P-GPS,
0.353940886506531,36.9196972311832,5528.5633485019,42.322836,0,2.8058071764,10900,2018-04-08 06:17:11,16,0,16.454,5528.5633485019,42.322836,0.671082,3.330708768,0,0,-6.039738,306.6, 5.7, -6,0,1,1024,1024,1451,1024,307.1,0,99,4.13,4.15,4.11,4.122,0,0,15.268,78.71,6,P-GPS,
0.353940813254642,36.91969722692,5529.5476005019,43.307088,0,2.80344825244,11000,2018-04-08 06:17:12,16,0,16.454,5529.5476005019,43.307088,0.671082,3.330708768,0,0,-6.039738,306.5, 6.1, -5.5,0,1,1024,1024,1450,1024,307.1,0,99,4.13,4.15,4.11,4.122,0,0,15.268,78.71,6,P-GPS,
0.353940731018016,36.9196972316457,5530.5318525019,44.29134,0,2.80457029972,11100,2018-04-08 06:17:12,16,0,16.454,5530.5318525019,44.29134,0.671082,3.330708768,0,0,-6.039738,306.5, 6.2, -5.3,0,1,1024,1024,1451,1024,307.1,0,99,4.13,4.15,4.11,4.122,0,0,15.268,78.71,6,P-GPS,
0.353940659725349,36.9196972540236,5531.5161045019,45.275592,0,2.81247384328,11200,2018-04-08 06:17:12,16,0,16.454,5531.5161045019,45.275592,0.671082,3.330708768,0,0,-6.263432,306.5, 6.1, -5.7,0,1,1024,1024,1455,1024,307.1,0,99,4.13,4.15,4.11,4.122,0,0,15.268,78.71,6,P-GPS,
0.353940608687064,36.9196972939146,5532.5003565019,46.259844,0,2.82698827944,11300,2018-04-08 06:17:12,16,0,16.454,5532.5003565019,46.259844,0.671082,3.330708768,0,0,-6.039738,306.5, 6.2, -5.8,0,1,1024,1024,1461,1024,307.1,0,99,4.13,4.15,4.11,4.122,0,0,15.268,78.71,6,P-GPS,
0.353940564427992,36.9196973322447,5533.8126925019,47.57218,0,2.84104011716,11400,2018-04-08 06:17:12,16,0,16.454,5533.8126925019,47.57218,0.671082,3.330708768,0,0,-6.263432,306.5, 6.4, -5.8,0,1,1024,1024,1457,1024,307.1,0,99,4.13,4.15,4.11,4.122,0,0,15.268,78.71,6,P-GPS,
0.353940499383053,36.9196973874819,5534.7969445019,48.556432,0,2.86145350364,11500,2018-04-08 06:17:12,16,0,16.293,5534.7969445019,48.556432,0.671082,3.330708768,0,0,-6.263432,306.4, 6.4, -5.8,0,1,1024,1024,1457,1024,307.1,0,99,4.112,4.142,4.107,4.123,0,0,14.99,78.71,6,P-GPS,
0.353940435386222,36.9196974472435,5535.7811965019,49.540684,0,2.88370087968,11600,2018-04-08 06:17:12,16,0,16.293,5535.7811965019,49.540684,0.671082,3.330708768,0,0,-6.263432,306.4, 6.2, -6.1,0,1,1024,1024,1459,1024,307.1,0,99,4.112,4.142,4.107,4.123,0,0,14.99,78.71,6,P-GPS,
0.353940377100344,36.9196975252312,5536.7654485019,50.524936,0,2.91271006696,11700,2018-04-08 06:17:12,16,0,16.293,5536.7654485019,50.524936,0.671082,3.330708768,0,0,-6.263432,306.4, 6, -6.5,0,1,1024,1024,1455,1024,307.1,0,99,4.112,4.142,4.107,4.123,0,0,14.99,78.71,6,P-GPS,
0.353940329567081,36.9196975901039,5538.0777845019,51.837272,0,2.93693907036,11800,2018-04-08 06:17:12,16,0,16.293,5538.0777845019,51.837272,0.671082,3.330708768,0,0,-6.263432,306.4, 6.2, -6.6,0,1,1024,1024,1457,1024,307.1,0,99,4.112,4.142,4.107,4.123,0,0,14.99,78.71,6,P-GPS,
0.353940285169591,36.9196976513258,5539.0620365019,52.821524,0,2.95988198448,11900,2018-04-08 06:17:13,16,0,16.293,5539.0620365019,52.821524,0.671082,3.330708768,0,0,-6.263432,306.4, 6.3, -6.9,0,1,1024,1024,1457,1024,307.1,0,99,4.112,4.142,4.107,4.123,0,0,14.99,78.71,6,P-GPS,
0.353940237638975,36.9196976982507,5540.0462885019,53.805776,0,2.97774615828,12000,2018-04-08 06:17:13,16,0,16.293,5540.0462885019,53.805776,0.671082,3.330708768,0,0,-6.263432,306.3, 6.5, -6.9,0,1,1024,1024,1457,1024,307.1,0,99,4.112,4.142,4.107,4.123,0,0,14.99,78.71,6,P-GPS,
0.353940174990292,36.9196977456168,5541.3586245019,55.118112,0,2.99615495152,12100,2018-04-08 06:17:13,16,0,16.293,5541.3586245019,55.118112,0.671082,3.330708768,0,0,-6.263432,306.4, 6.5, -6.8,0,1,1024,1024,1458,1024,307.1,0,99,4.112,4.142,4.107,4.123,0,0,14.99,78.71,6,P-GPS,
0.353940104568638,36.9196977855206,5542.3428765019,56.102364,0,3.01218185492,12200,2018-04-08 06:17:13,16,0,16.293,5542.3428765019,56.102364,0.671082,3.330708768,0,0,-6.039738,306.4, 6.4, -6.7,0,1,1024,1024,1459,1024,307.1,0,99,4.112,4.142,4.107,4.123,0,0,14.99,78.71,6,P-GPS,
0.353939998402639,36.9196978280218,5543.3271285019,57.086616,0,3.03030193424,12300,2018-04-08 06:17:13,16,0,16.293,5543.3271285019,57.086616,0.671082,3.330708768,0,0,-6.263432,306.4, 6.5, -6.6,0,1,1024,1024,1458,1024,307.1,0,99,4.112,4.142,4.107,4.123,0,0,14.99,78.71,6,P-GPS,
0.353939886903078,36.9196978624184,5544.6394645019,58.398952,0,3.0461123022,12400,2018-04-08 06:17:13,16,0,16.293,5544.6394645019,58.398952,0.671082,3.330708768,0,0,-6.039738,306.4, 6.5, -6.4,0,1,1024,1024,1461,1024,307.1,0,99,4.112,4.142,4.107,4.123,0,0,14.99,78.71,6,P-GPS,
0.353939751719836,36.9196979045685,5545.6237165019,59.383204,0,3.06612214536,12500,2018-04-08 06:17:13,16,0,16.534,5545.6237165019,59.383204,0.671082,3.330708768,0,0,-6.039738,306.5, 6.4, -6.1,0,1,1024,1024,1465,1024,307.1,0,99,4.125,4.147,4.108,4.121,0,0,14.732,78.71,6,P-GPS,
0.353939513694655,36.9196979928918,5547.5922205019,61.351708,0,3.10824156928,12700,2018-04-08 06:17:13,16,0,16.534,5547.5922205019,61.351708,0.671082,3.330708768,0,0,-6.039738,306.4, 6.2, -6.3,0,1,1024,1024,1472,1024,307.1,0,99,4.125,4.147,4.108,4.121,0,0,14.732,78.71,6,P-GPS,
0.353939417257794,36.9196980382173,5548.9045565019,62.664044,0,3.12937017888,12800,2018-04-08 06:17:13,16,0,16.534,5548.9045565019,62.664044,0.671082,3.330708768,0,0,-6.039738,306.4, 6.7, -5.8,0,1,1024,1024,1472,1024,307.1,0,99,4.125,4.147,4.108,4.121,0,0,14.732,78.71,6,P-GPS,
0.353939289852407,36.9196980834507,5549.8888085019,63.648296,0,3.15252306676,12900,2018-04-08 06:17:13,16,0,16.534,5549.8888085019,63.648296,0.671082,3.330708768,0,0,-6.263432,306.4, 6.6, -5.5,0,1,1024,1024,1472,1024,307.1,0,99,4.125,4.147,4.108,4.121,0,0,14.732,78.71,6,P-GPS,
0.353939154238848,36.9196981463556,5551.2011445019,64.960632,0,3.18313002312,13000,2018-04-08 06:17:14,16,0,16.534,5551.2011445019,64.960632,0.671082,3.330708768,0,0,-6.039738,306.4, 6, -5.7,0,1,1024,1024,1474,1024,307.1,0,99,4.125,4.147,4.108,4.121,0,0,14.732,78.71,6,P-GPS,
0.353938997407885,36.9196982334392,5552.1853965019,65.944884,0,3.2244587646,13100,2018-04-08 06:17:14,15,0,16.534,5552.1853965019,65.944884,0.671082,3.330708768,0,0,-6.263432,306.4, 5.4, -6,0,1,1024,1024,1478,1024,307.1,0,99,4.125,4.147,4.108,4.121,0,0,14.732,78.71,6,P-GPS,
0.35393884593206,36.9196983195464,5553.1696485019,66.929136,0,3.26583671868,13200,2018-04-08 06:17:14,15,0,16.534,5553.1696485019,66.929136,0.671082,3.330708768,0,0,-6.263432,306.4, 5.2, -6,0,1,1024,1024,1479,1024,307.1,0,99,4.125,4.147,4.108,4.121,0,0,14.732,78.71,6,P-GPS,
0.353938679188758,36.9196983890399,5554.4819845019,68.241472,0,3.3031825204,13300,2018-04-08 06:17:14,16,0,16.534,5554.4819845019,68.241472,0.671082,3.330708768,0,0,-6.71082,306.5, 5.2, -5.8,0,1,1024,1024,1479,1024,307.1,0,99,4.125,4.147,4.108,4.121,0,0,14.732,78.71,6,P-GPS,
0.353938532260363,36.9196984493625,5555.7943205019,69.553808,0,3.3365158548,13400,2018-04-08 06:17:14,16,0,16.534,5555.7943205019,69.553808,0.671082,3.3365158548,0,0,-6.487126,306.4, 5.3, -5.7,0,1,1024,1024,1484,1024,307.1,0,99,4.125,4.147,4.108,4.121,0,0,14.732,78.71,6,P-GPS,
0.353938381606902,36.9196985200615,5556.7785725019,70.53806,0,3.374507982,13500,2018-04-08 06:17:14,16,0,16.4,5556.7785725019,70.53806,0.671082,3.374507982,0,0,-6.263432,306.4, 5.4, -5.6,0,1,1024,1024,1494,1024,307.1,0,99,4.125,4.147,4.108,4.121,0,0,14.732,78.71,6,P-GPS,
0.353938245738898,36.9196985989977,5557.7628245019,71.522312,0,3.4146654636,13600,2018-04-08 06:17:14,16,0,16.4,5557.7628245019,71.522312,0.671082,3.4146654636,0,0,-6.487126,306.4, 5.2, -6,0,1,1024,1024,1502,1024,307.1,0,99,4.125,4.147,4.108,4.121,0,0,14.732,78.71,6,P-GPS,
0.353938089359014,36.9196986741633,5559.0751605019,72.834648,0,3.4560040476,13700,2018-04-08 06:17:14,16,0,16.4,5559.0751605019,72.834648,0.671082,3.4560040476,0,0,-6.487126,306.5, 5.1, -6,0,1,1024,1024,1502,1024,307.1,0,99,4.125,4.147,4.108,4.121,0,0,14.732,78.71,6,P-GPS,
0.353937932048881,36.919698741068,5560.0594125019,73.8189,0.223694,3.4951772772,13800,2018-04-08 06:17:14,16,0,16.4,5560.0594125019,73.8189,0.671082,3.4951772772,-0.223694,0,-6.71082,306.5, 5.1, -5.1,0,1,1024,1024,1502,1024,307.1,0,99,4.125,4.147,4.108,4.121,0,0,14.732,78.71,6,P-GPS,
0.353937755482398,36.9196988041249,5561.3717485019,75.131236,0.223694,3.535761268,13900,2018-04-08 06:17:15,16,0,16.4,5561.3717485019,75.131236,0.671082,3.535761268,-0.223694,0,-6.71082,306.4, 4.9, -5,0,1,1024,1024,1511,1024,307.1,0,99,4.125,4.147,4.108,4.121,0,0,14.732,78.71,6,P-GPS,
0.353937601392514,36.9196988833267,5562.6840845019,76.443572,0.223694,3.5802822668,14000,2018-04-08 06:17:15,16,0,16.4,5562.6840845019,76.443572,0.671082,3.5802822668,-0.223694,0,-6.934514,306.5, 4.6, -5.3,0,1,1024,1024,1521,1024,307.1,0,99,4.125,4.147,4.108,4.121,0,0,14.732,78.71,6,P-GPS,
0.353937420355952,36.9196989493685,5563.6683365019,77.427824,0.223694,3.6239174388,14100,2018-04-08 06:17:15,16,0,16.4,5563.6683365019,77.427824,0.671082,3.6239174388,-0.223694,0,-7.158208,306.5, 4.3, -5.4,0,1,1024,1024,1534,1024,307.1,0,99,4.125,4.147,4.108,4.121,0,0,14.732,78.71,6,P-GPS,
0.353937054848033,36.919699065849,5566.2930085019,80.052496,0,3.7087927696,14300,2018-04-08 06:17:15,16,0,16.4,5566.2930085019,80.052496,0.671082,3.7087927696,0,0,-7.158208,306.6, 4.3, -5.3,0,1,1024,1024,1541,1024,307.1,0,99,4.125,4.147,4.108,4.121,0,0,14.732,78.71,6,P-GPS,
0.353936882257803,36.9196991145854,5567.2772605019,81.036748,0,3.7479003824,14400,2018-04-08 06:17:15,16,0,16.4,5567.2772605019,81.036748,0.671082,3.7479003824,0,0,-7.158208,306.5, 4.6, -4.9,0,1,1024,1024,1544,1024,307.1,0,99,4.125,4.147,4.108,4.121,0,0,14.732,78.71,6,P-GPS,
0.35393671599937,36.9196991495409,5568.5895965019,82.349084,0,3.7821851604,14500,2018-04-08 06:17:15,16,0,16.347,5568.5895965019,82.349084,0.671082,3.7821851604,0,0,-7.605596,306.5, 4.3, -4.9,0,1,1024,1024,1544,1024,307.1,0,99,4.116,4.14,4.103,4.121,0,0,14.946,78.71,6,P-GPS,
0.35393643206876,36.9196992059943,5571.2142685019,84.973756,0,3.8413058972,14700,2018-04-08 06:17:15,16,0,16.347,5571.2142685019,84.973756,0.671082,3.8413058972,0,0,-7.82929,306.5, 4.8, -5.4,0,1,1024,1024,1541,1024,307.1,0,99,4.116,4.14,4.103,4.121,0,0,14.946,78.71,6,P-GPS,
0.353936287575296,36.9196992300745,5572.5266045019,86.286092,0,3.87057099,14800,2018-04-08 06:17:15,16,0,16.347,5572.5266045019,86.286092,0.671082,3.87057099,0,0,-7.82929,306.5, 5, -5.3,0,1,1024,1024,1523,1024,307.1,0,99,4.116,4.14,4.103,4.121,0,0,14.946,78.71,6,P-GPS,
0.353936110368835,36.9196992851576,5573.8389405019,87.598428,0,3.9156497316,14900,2018-04-08 06:17:15,16,0,16.347,5573.8389405019,87.598428,0.671082,3.9156497316,0,0,-7.605596,306.5, 4.9, -5,0,1,1024,1024,1526,1024,307.1,0,99,4.116,4.14,4.103,4.121,0,0,14.946,78.71,6,P-GPS,
0.353935951227517,36.919699346782,5575.1512765019,88.910764,0,3.9606628564,15000,2018-04-08 06:17:16,16,0,16.347,5575.1512765019,88.910764,0.671082,3.9606628564,0,0,-7.605596,306.5, 4.7, -5,0,1,1024,1024,1533,1024,307.1,0,99,4.116,4.14,4.103,4.121,0,0,14.946,78.71,6,P-GPS,
0.353935769384061,36.9196994172776,5576.4636125019,90.2231,0,4.0126969788,15100,2018-04-08 06:17:16,16,0,16.347,5576.4636125019,90.2231,0.671082,4.0126969788,0,0,-7.605596,306.5, 4.1, -4.5,0,1,1024,1024,1537,1024,307.1,0,99,4.116,4.14,4.103,4.121,0,0,14.946,78.71,6,P-GPS,
0.353935628446304,36.9196994655215,5577.4478645019,91.207352,0,4.0513780824,15200,2018-04-08 06:17:16,16,0,16.347,5577.4478645019,91.207352,0.671082,4.0513780824,0,0,-7.605596,306.5, 4.4, -4.3,0,1,1024,1024,1542,1024,307.1,0,99,4.116,4.14,4.103,4.121,0,0,14.946,78.71,6,P-GPS,
0.353935498292103,36.9196995196196,5578.7602005019,92.519688,0,4.0904856952,15300,2018-04-08 06:17:16,16,0,16.347,5578.7602005019,92.519688,0.671082,4.0904856952,0,0,-7.605596,306.4, 4.8, -4.8,0,1,1024,1024,1544,1024,307.1,0,99,4.116,4.14,4.103,4.121,0,0,14.946,78.71,6,P-GPS,
0.353935394372135,36.919699574542,5580.0725365019,93.832024,0,4.1256891084,15400,2018-04-08 06:17:16,16,0,16.347,5580.0725365019,93.832024,0.671082,4.1256891084,0,0,-7.82929,306.5, 4.9, -5,0,1,1024,1024,1544,1024,307.1,0,99,4.116,4.14,4.103,4.121,0,0,14.946,78.71,6,P-GPS,
0.353935280543086,36.9196996515019,5581.3848725019,95.14436,0,4.1698492148,15500,2018-04-08 06:17:16,16,0,16.347,5581.3848725019,95.14436,0.671082,4.1698492148,0,0,-7.82929,306.5, 4.6, -5,0,1,1024,1024,1545,1024,307.1,0,99,4.103,4.127,4.089,4.109,0,0,15.732,78.71,6,P-GPS,
0.353935052559298,36.9196997990387,5583.6814605019,97.440948,0,4.256561816,15700,2018-04-08 06:17:16,16,0,16.347,5583.6814605019,97.440948,0.671082,4.256561816,0,0,-7.82929,306.5, 3.9, -5.3,0,1,1024,1024,1545,1024,307.1,0,99,4.103,4.127,4.089,4.109,0,0,15.732,78.71,6,P-GPS,
0.35393492855573,36.9196998449123,5584.9937965019,98.753284,0,4.29297914,15800,2018-04-08 06:17:16,16,0,16.347,5584.9937965019,98.753284,0.671082,4.29297914,0,0,-7.82929,306.6, 4.1, -4.8,0,1,1024,1024,1545,1024,307.1,0,99,4.103,4.127,4.089,4.109,0,0,15.732,78.71,6,P-GPS,
0.353934808190106,36.9196998717376,5586.3061325019,100.06562,0,4.3229004008,15900,2018-04-08 06:17:17,16,0,16.347,5586.3061325019,100.06562,0.671082,4.3229004008,0,0,-7.82929,306.5, 4.6, -4.4,0,1,1024,1024,1546,1024,307.1,0,99,4.103,4.127,4.089,4.109,0,0,15.732,78.71,6,P-GPS,
0.353934638325484,36.9196999545366,5588.6027205019,102.362208,0,4.3797901664,16100,2018-04-08 06:17:17,16,0,16.347,5588.6027205019,102.362208,0.671082,4.3797901664,0,0,-8.052984,306.5, 4.2, -4.9,0,1,1024,1024,1545,1024,307.1,0,99,4.103,4.127,4.089,4.109,0,0,15.732,78.71,6,P-GPS,
0.353934590059219,36.9197000102192,5589.9150565019,103.674544,0,4.4062009284,16200,2018-04-08 06:17:17,16,0,16.347,5589.9150565019,103.674544,0.671082,4.4062009284,0,0,-8.052984,306.5, 4, -5.4,0,1,1024,1024,1545,1024,307.1,0,99,4.103,4.127,4.089,4.109,0,0,15.732,78.71,6,P-GPS,
0.353934505099224,36.9197000594481,5591.2273925019,104.98688,0,4.4372704832,16300,2018-04-08 06:17:17,16,0,16.347,5591.2273925019,104.98688,0.671082,4.4372704832,0,0,-8.052984,306.5, 4.1, -5.4,0,1,1024,1024,1545,1024,307.1,0,99,4.103,4.127,4.089,4.109,0,0,15.732,78.71,6,P-GPS,
0.353934433160268,36.9197000912346,5592.5397285019,106.299216,0,4.4604988304,16400,2018-04-08 06:17:17,16,0,16.347,5592.5397285019,106.299216,0.671082,4.4604988304,0,0,-8.052984,306.5, 4.4, -5.4,0,1,1024,1024,1547,1024,307.1,0,99,4.103,4.127,4.089,4.109,0,0,15.732,78.71,6,P-GPS,
0.353934358422831,36.9197001201219,5593.8520645019,107.611552,0,4.483431902,16500,2018-04-08 06:17:17,16,0,16.32,5593.8520645019,107.611552,0.671082,4.483431902,0,0,-8.052984,306.5, 4.7, -5.4,0,1,1024,1024,1548,1024,307.1,0,99,4.108,4.13,4.09,4.107,0,0,15.14,78.71,6,P-GPS,
0.353934312974587,36.9197001435105,5595.1644005019,108.923888,0,4.4992455508,16600,2018-04-08 06:17:17,16,0,16.32,5595.1644005019,108.923888,0.671082,4.4992455508,0,0,-8.052984,306.5, 4.7, -5.2,0,1,1024,1024,1548,1024,307.1,0,99,4.108,4.13,4.09,4.107,0,0,15.14,78.71,6,P-GPS,
0.353934262214359,36.9197001538697,5596.4767365019,110.236224,0,4.51197521,16700,2018-04-08 06:17:17,16,0,16.32,5596.4767365019,110.236224,0.671082,4.51197521,0,0,-7.82929,306.5, 4.7, -5.2,0,1,1024,1024,1548,1024,307.1,0,99,4.108,4.13,4.09,4.107,0,0,15.14,78.71,6,P-GPS,
0.353934232494442,36.9197001611541,5597.4609885019,111.220476,0,4.519849226,16800,2018-04-08 06:17:17,16,0,16.32,5597.4609885019,111.220476,0.671082,4.519849226,0,0,-7.82929,306.5, 4.7, -5.4,0,1,1024,1024,1549,1024,307.1,0,99,4.108,4.13,4.09,4.107,0,0,15.14,78.71,6,P-GPS,
0.353934194853773,36.9197001878766,5598.7733245019,112.532812,0,4.535269174,16900,2018-04-08 06:17:18,16,0,16.32,5598.7733245019,112.532812,0.671082,4.535269174,0,0,-8.052984,306.5, 4.5, -5.9,0,1,1024,1024,1549,1024,307.1,0,99,4.108,4.13,4.09,4.107,0,0,15.14,78.71,6,P-GPS,
0.353934171387081,36.9197002103895,5600.0856605019,113.845148,0,4.5467193056,17000,2018-04-08 06:17:18,16,0,16.32,5600.0856605019,113.845148,0.671082,4.5467193056,0,0,-8.052984,306.5, 4.7, -5.7,0,1,1024,1024,1549,1024,307.1,0,99,4.108,4.13,4.09,4.107,0,0,15.14,78.71,6,P-GPS,
0.353934145945901,36.9197002460709,5601.3979965019,115.157484,0,4.562664188,17100,2018-04-08 06:17:18,16,0,16.32,5601.3979965019,115.157484,0.671082,4.562664188,0,0,-7.82929,306.5, 4.7, -5.4,0,1,1024,1024,1549,1024,307.1,0,99,4.108,4.13,4.09,4.107,0,0,15.14,78.71,6,P-GPS,
0.353934136901523,36.9197002753585,5602.7103325019,116.46982,0,4.5735237684,17200,2018-04-08 06:17:18,16,0,16.32,5602.7103325019,116.46982,0.671082,4.5735237684,0,0,-8.052984,306.5, 4.6, -5.4,0,1,1024,1024,1549,1024,307.1,0,99,4.108,4.13,4.09,4.107,0,0,15.14,78.71,6,P-GPS,
0.353934137285021,36.9197003195106,5604.0226685019,117.782156,0,4.5872376796,17300,2018-04-08 06:17:18,16,0,16.32,5604.0226685019,117.782156,0.671082,4.5872376796,0,0,-8.052984,306.5, 4.5, -5.5,0,1,1024,1024,1549,1024,307.1,0,99,4.108,4.13,4.09,4.107,0,0,15.14,78.71,6,P-GPS,
0.35393415310454,36.919700340122,5605.0069205019,118.766408,0,4.59071537,17400,2018-04-08 06:17:18,16,0,16.32,5605.0069205019,118.766408,0.671082,4.59071537,0,0,-8.052984,306.5, 4.8, -5.4,0,1,1024,1024,1551,1024,307.1,0,99,4.108,4.13,4.09,4.107,0,0,15.14,78.71,6,P-GPS,
0.3539341808174,36.9197003745358,5606.3192565019,120.078744,0,4.5963256064,17500,2018-04-08 06:17:18,16,0,16.293,5606.3192565019,120.078744,0.671082,4.5963256064,0,0,-8.276678,306.5, 5.1, -5.6,0,1,1024,1024,1554,1024,307.1,0,99,4.108,4.13,4.09,4.107,0,0,15.14,78.71,6,P-GPS,
0.353934222109855,36.9197003947318,5607.6315925019,121.39108,0,4.594980462,17600,2018-04-08 06:17:18,16,0,16.293,5607.6315925019,121.39108,0.671082,4.5963256064,0,0,-8.500372,306.5, 5.2, -5.6,0,1,1024,1024,1554,1024,307.1,0,99,4.108,4.13,4.09,4.107,0,0,15.14,78.71,6,P-GPS,
0.353934257281803,36.9197003857472,5608.9439285019,122.703416,0,4.5856628764,17700,2018-04-08 06:17:18,16,0,16.293,5608.9439285019,122.703416,0.671082,4.5963256064,0,0,-8.276678,306.4, 5.8, -5.8,0,1,1024,1024,1552,1024,307.1,0,99,4.108,4.13,4.09,4.107,0,0,15.14,78.71,6,P-GPS,
0.353934296725159,36.9197003650716,5610.2562645019,124.015752,0,4.5718833484,17800,2018-04-08 06:17:18,16,0,16.293,5610.2562645019,124.015752,0.671082,4.5963256064,0,0,-8.276678,306.5, 5.7, -6.3,0,1,1024,1024,1556,1024,307.1,0,99,4.108,4.13,4.09,4.107,0,0,15.14,78.71,6,P-GPS,
0.353934330557711,36.9197003467812,5611.5686005019,125.328088,0,4.5599082824,17900,2018-04-08 06:17:19,16,0,16.293,5611.5686005019,125.328088,0.671082,4.5963256064,0,0,-8.276678,306.5, 5.4, -5.8,0,1,1024,1024,1557,1024,307.1,0,99,4.108,4.13,4.09,4.107,0,0,15.14,78.71,6,P-GPS,
0.353934376014097,36.9197003235511,5612.8809365019,126.640424,0,4.5442258672,18000,2018-04-08 06:17:19,16,0,16.293,5612.8809365019,126.640424,0.671082,4.5963256064,0,0,-8.500372,306.5, 5.7, -5.4,0,1,1024,1024,1554,1024,307.1,0,99,4.108,4.13,4.09,4.107,0,0,15.14,78.71,6,P-GPS,
0.353934412680956,36.9197003173051,5614.1932725019,127.95276,0.223694,4.5355644496,18100,2018-04-08 06:17:19,16,0,16.293,5614.1932725019,127.95276,0.671082,4.5963256064,0.223694,0,-8.500372,306.4, 6.1, -5.6,0,1,1024,1024,1555,1024,307.1,0,99,4.108,4.13,4.09,4.107,0,0,15.14,78.71,6,P-GPS,
0.353934468909499,36.9197003276344,5615.5056085019,129.265096,0.223694,4.5286418772,18200,2018-04-08 06:17:19,16,0,16.293,5615.5056085019,129.265096,0.671082,4.5963256064,0.223694,0,-8.500372,306.4, 5.9, -6.3,0,1,1024,1024,1557,1024,307.1,0,99,4.108,4.13,4.09,4.107,0,0,15.14,78.71,6,P-GPS,
0.353934533750068,36.9197003907598,5616.8179445019,130.577432,0.223694,4.5370408276,18300,2018-04-08 06:17:19,16,0,16.293,5616.8179445019,130.577432,0.671082,4.5963256064,0.223694,0,-8.052984,306.4, 5.9, -7.2,0,1,1024,1024,1553,1024,307.1,0,99,4.108,4.13,4.09,4.107,0,0,15.14,78.71,6,P-GPS,
0.353934603062344,36.9197004475794,5618.1302805019,131.889768,0,4.5428479144,18400,2018-04-08 06:17:19,16,0,16.293,5618.1302805019,131.889768,0.671082,4.5963256064,0,0,-8.052984,306.4, 6, -7.4,0,1,1024,1024,1555,1024,307.1,0,99,4.108,4.13,4.09,4.107,0,0,15.14,78.71,6,P-GPS,
0.353934658891918,36.9197005236528,5619.4426165019,133.202104,0,4.557414844,18500,2018-04-08 06:17:19,16,0,16.293,5619.4426165019,133.202104,0.671082,4.5963256064,0,0,-7.82929,306.4, 5.6, -7.1,0,1,1024,1024,1556,1024,307.1,0,99,4.108,4.13,4.09,4.107,0,0,15.14,78.71,6,P-GPS,
0.353934708459311,36.9197005824637,5620.4268685019,134.186356,0,4.5677166816,18600,2018-04-08 06:17:19,16,0,16.293,5620.4268685019,134.186356,0.671082,4.5963256064,0,0,-7.82929,306.4, 5.4, -6.9,0,1,1024,1024,1557,1024,307.1,0,99,4.108,4.13,4.09,4.107,0,0,15.14,78.71,6,P-GPS,
0.353934734498944,36.9197006231106,5621.7392045019,135.498692,0,4.5763452908,18700,2018-04-08 06:17:19,16,0,16.293,5621.7392045019,135.498692,0.671082,4.5963256064,0,0,-7.82929,306.4, 5.2, -6.7,0,1,1024,1024,1558,1024,307.1,0,99,4.108,4.13,4.09,4.107,0,0,15.14,78.71,6,P-GPS,
0.353934756471539,36.9197006395916,5622.7234565019,136.482944,0,4.577920094,18800,2018-04-08 06:17:19,16,0,16.293,5622.7234565019,136.482944,0.671082,4.5963256064,0,0,-8.052984,306.4, 5.3, -6.4,0,1,1024,1024,1559,1024,307.1,0,99,4.108,4.13,4.09,4.107,0,0,15.14,78.71,6,P-GPS,
0.353934783180463,36.9197006674297,5624.0357925019,137.79528,0,4.582349228,18900,2018-04-08 06:17:19,16,0,16.293,5624.0357925019,137.79528,0.671082,4.5963256064,0,0,-8.052984,306.4, 5.6, -6.4,0,1,1024,1024,1551,1024,307.1,0,99,4.108,4.13,4.09,4.107,0,0,15.14,78.71,6,P-GPS,
0.353934816764678,36.9197006938717,5625.3481285019,139.107616,0,4.5852363672,19000,2018-04-08 06:17:20,16,0,16.293,5625.3481285019,139.107616,0.671082,4.5963256064,0,0,-8.052984,306.4, 5.6, -6.6,0,1,1024,1024,1547,1024,307.1,0,99,4.108,4.13,4.09,4.107,0,0,15.14,78.71,6,P-GPS,
0.35393482635947,36.9197007140463,5626.6604645019,140.419952,0,4.5901576272,19100,2018-04-08 06:17:20,16,0,16.293,5626.6604645019,140.419952,0.671082,4.5963256064,0,0,-8.276678,306.4, 5.7, -6.6,0,1,1024,1024,1549,1024,307.1,0,99,4.108,4.13,4.09,4.107,0,0,15.14,78.71,6,P-GPS,
0.353934831226889,36.919700728688,5627.6447165019,141.404204,0,4.5940618268,19200,2018-04-08 06:17:20,16,0,16.293,5627.6447165019,141.404204,0.671082,4.5963256064,0,0,-8.052984,306.4, 5.7, -6.6,0,1,1024,1024,1548,1024,307.1,0,99,4.108,4.13,4.09,4.107,0,0,15.14,78.71,6,P-GPS,
0.353934813991438,36.9197007674078,5628.9570525019,142.71654,0,4.6095145832,19300,2018-04-08 06:17:20,16,0,16.293,5628.9570525019,142.71654,0.671082,4.6095145832,0,0,-7.605596,306.5, 5.4, -6.5,0,1,1024,1024,1544,1024,307.1,0,99,4.108,4.13,4.09,4.107,0,0,15.14,78.71,6,P-GPS,
0.353934799778379,36.9197008070568,5629.9413045019,143.700792,0,4.6247376808,19400,2018-04-08 06:17:20,16,0,16.293,5629.9413045019,143.700792,0.671082,4.6247376808,0,0,-7.82929,306.5, 5.1, -6.6,0,1,1024,1024,1545,1024,307.1,0,99,4.108,4.13,4.09,4.107,0,0,15.14,78.71,6,P-GPS,
0.353934806660997,36.9197008307709,5631.2536405019,145.013128,0,4.6312665524,19500,2018-04-08 06:17:20,16,0,16.347,5631.2536405019,145.013128,0.671082,4.6312665524,0,0,-8.052984,306.5, 5.3, -6.9,0,1,1024,1024,1591,1024,307.1,0,98,4.087,4.112,4.074,4.092,0,0,16.024,78.71,6,P-GPS,
0.353934790571971,36.9197008437895,5633.5502285019,147.309716,0,4.6381891248,19700,2018-04-08 06:17:20,16,0,16.347,5633.5502285019,147.309716,0.671082,4.6381891248,0,0,-7.82929,306.4, 5.3, -6.5,0,1,1024,1024,1614,1024,307.1,0,98,4.087,4.112,4.074,4.092,0,0,16.024,78.71,6,P-GPS,
0.35393473915548,36.9197008445004,5634.8625645019,148.622052,0,4.6470473928,19800,2018-04-08 06:17:20,16,0,16.347,5634.8625645019,148.622052,0.671082,4.6470473928,0,0,-8.052984,306.5, 4.7, -5.2,0,1,1024,1024,1617,1024,307.1,0,98,4.087,4.112,4.074,4.092,0,0,16.024,78.71,6,P-GPS,
0.353934687531362,36.9197008406955,5636.1749005019,149.934388,0,4.6545605164,19900,2018-04-08 06:17:21,16,0,16.347,5636.1749005019,149.934388,0.671082,4.6545605164,0,0,-8.724066,306.5, 4.7, -4.6,0,1,1024,1024,1612,1024,307.1,0,98,4.087,4.112,4.074,4.092,0,0,16.024,78.71,6,P-GPS,
0.353934684649017,36.9197008448259,5638.7995725019,152.55906,0,4.6563649784,20100,2018-04-08 06:17:21,16,0,16.347,5638.7995725019,152.55906,0.671082,4.6563649784,0,0,-8.94776,306.3, 5.6, -6.8,0,1,1024,1024,1611,1024,307.1,0,98,4.087,4.112,4.074,4.092,0,0,16.024,78.71,6,P-GPS,
0.353934681319663,36.9197008376485,5640.1119085019,153.871396,0,4.6546261332,20200,2018-04-08 06:17:21,16,0,16.347,5640.1119085019,153.871396,0.671082,4.6563649784,0,0,-9.171454,306.3, 5.6, -6.7,0,1,1024,1024,1611,1024,307.1,0,98,4.087,4.112,4.074,4.092,0,0,16.024,78.71,6,P-GPS,
0.353934626643027,36.9197008220797,5641.4242445019,155.183732,0,4.6589240336,20300,2018-04-08 06:17:21,16,0,16.347,5641.4242445019,155.183732,0.671082,4.6589240336,0,0,-9.171454,306.4, 5.7, -6.2,0,1,1024,1024,1612,1024,307.1,0,98,4.087,4.112,4.074,4.092,0,0,16.024,78.71,6,P-GPS,
0.353934552508928,36.9197007960766,5642.7365805019,156.496068,0,4.6633203592,20400,2018-04-08 06:17:21,16,0,16.347,5642.7365805019,156.496068,0.671082,4.6633203592,0,0,-9.171454,306.4, 5.5, -5.8,0,1,1024,1024,1605,1024,307.1,0,98,4.087,4.112,4.074,4.092,0,0,16.024,78.71,6,P-GPS,
0.353934449402368,36.9197007803343,5644.0489165019,157.808404,0,4.6762468688,20500,2018-04-08 06:17:21,16,0,16.213,5644.0489165019,157.808404,0.671082,4.6762468688,0,0,-8.94776,306.5, 5.1, -5.5,0,1,1024,1024,1596,1024,307.1,0,98,4.087,4.112,4.074,4.092,0,0,17.59,78.71,6,P-GPS,
0.353934363410755,36.9197007536825,5645.3612525019,159.12074,0,4.6829397824,20600,2018-04-08 06:17:21,16,0,16.213,5645.3612525019,159.12074,0.671082,4.6829397824,0,0,-9.171454,306.5, 5.6, -5.6,0,1,1024,1024,1596,1024,307.1,0,98,4.087,4.112,4.074,4.092,0,0,17.59,78.71,6,P-GPS,
0.353934260160077,36.919700738649,5647.0016725019,160.76116,0,4.6966536936,20700,2018-04-08 06:17:21,16,0,16.213,5647.0016725019,160.76116,0.671082,4.6966536936,0,0,-9.171454,306.4, 5.8, -5.4,0,1,1024,1024,1597,1024,307.1,0,98,4.087,4.112,4.074,4.092,0,0,17.59,78.71,6,P-GPS,
0.353934167424263,36.9197007197869,5648.3140085019,162.073496,0,4.7074804656,20800,2018-04-08 06:17:21,16,0,16.213,5648.3140085019,162.073496,0.671082,4.7074804656,0,0,-8.94776,306.5, 5.7, -4.7,0,1,1024,1024,1597,1024,307.1,0,98,4.087,4.112,4.074,4.092,0,0,17.59,78.71,6,P-GPS,
0.35393406956862,36.9197007341674,5649.6263445019,163.385832,0,4.7299542196,20900,2018-04-08 06:17:22,16,0,16.213,5649.6263445019,163.385832,0.671082,4.7299542196,0,0,-8.94776,306.5, 5.8, -5,0,1,1024,1024,1602,1024,307.1,0,98,4.087,4.112,4.074,4.092,0,0,17.59,78.71,6,P-GPS,
0.353933999191342,36.9197007556225,5650.9386805019,164.698168,0,4.7497376848,21000,2018-04-08 06:17:22,16,0,16.213,5650.9386805019,164.698168,0.671082,4.7497376848,0,0,-8.94776,306.5, 5.5, -5.4,0,1,1024,1024,1599,1024,307.1,0,98,4.087,4.112,4.074,4.092,0,0,17.59,78.71,6,P-GPS,
0.35393394327546,36.9197008001364,5652.2510165019,166.010504,0,4.7740815176,21100,2018-04-08 06:17:22,16,0,16.213,5652.2510165019,166.010504,0.671082,4.7740815176,0,0,-8.94776,306.5, 5.4, -5.5,0,1,1024,1024,1598,1024,307.1,0,98,4.087,4.112,4.074,4.092,0,0,17.59,78.71,6,P-GPS,
0.353933906224288,36.9197008360362,5653.5633525019,167.32284,0,4.7922573712,21200,2018-04-08 06:17:22,16,0,16.213,5653.5633525019,167.32284,0.671082,4.7922573712,0,0,-8.94776,306.5, 5.4, -5.6,0,1,1024,1024,1598,1024,307.1,0,98,4.087,4.112,4.074,4.092,0,0,17.59,78.71,6,P-GPS,
0.353933815314774,36.9197009057802,5654.8756885019,168.635176,0,4.8311025168,21300,2018-04-08 06:17:22,16,0,16.213,5654.8756885019,168.635176,0.671082,4.8311025168,0,0,-8.724066,306.5, 5.2, -5.7,0,1,1024,1024,1596,1024,307.1,0,98,4.087,4.112,4.074,4.092,0,0,17.59,78.71,6,P-GPS,
0.35393372390777,36.9197009682675,5656.1880245019,169.947512,0,4.8678151164,21400,2018-04-08 06:17:22,16,0,16.213,5656.1880245019,169.947512,0.671082,4.8678151164,0,0,-8.724066,306.5, 5.1, -5.9,0,1,1024,1024,1597,1024,307.1,0,98,4.087,4.112,4.074,4.092,0,0,17.59,78.71,6,P-GPS,
0.353933619477284,36.91970101558,5657.5003605019,171.259848,0,4.9023623616,21500,2018-04-08 06:17:22,16,0,16.267,5657.5003605019,171.259848,0.671082,4.9023623616,0,0,-8.94776,306.5, 5, -5.9,0,1,1024,1024,1596,1024,307.1,0,98,4.072,4.095,4.056,4.079,0,0,17.59,78.71,6,P-GPS,
0.353933410760432,36.9197010521479,5660.1250325019,173.88452,0,4.953740316,21700,2018-04-08 06:17:22,16,0,16.267,5660.1250325019,173.88452,0.671082,4.953740316,0,0,-8.94776,306.5, 5.2, -4.9,0,1,1024,1024,1597,1024,307.1,0,98,4.072,4.095,4.056,4.079,0,0,17.59,78.71,6,P-GPS,
0.353933315897869,36.9197010752967,5661.4373685019,175.196856,0,4.979330868,21800,2018-04-08 06:17:22,16,0,16.267,5661.4373685019,175.196856,0.671082,4.979330868,0,0,-8.94776,306.4, 5.2, -5,0,1,1024,1024,1597,1024,307.1,0,98,4.072,4.095,4.056,4.079,0,0,17.59,78.71,6,P-GPS,
0.353933180301409,36.9197011326001,5662.7497045019,176.509192,0,5.0235565912,21900,2018-04-08 06:17:23,16,0,16.267,5662.7497045019,176.509192,0.671082,5.0235565912,0,0,-8.94776,306.5, 4.9, -5.1,0,1,1024,1024,1598,1024,307.1,0,98,4.072,4.095,4.056,4.079,0,0,17.59,78.71,6,P-GPS,
0.353933060556222,36.9197011881542,5664.0620405019,177.821528,0,5.0642718156,22000,2018-04-08 06:17:23,16,0,16.267,5664.0620405019,177.821528,0.671082,5.0642718156,0,0,-8.94776,306.5, 4.7, -5.1,0,1,1024,1024,1598,1024,307.1,0,98,4.072,4.095,4.056,4.079,0,0,17.59,78.71,6,P-GPS,
0.353932924686997,36.919701234,5665.3743765019,179.133864,0,5.1054135492,22100,2018-04-08 06:17:23,16,0,16.267,5665.3743765019,179.133864,0.671082,5.1054135492,0,0,-9.171454,306.5, 4.5, -5.1,0,1,1024,1024,1599,1024,307.1,0,98,4.072,4.095,4.056,4.079,0,0,17.59,78.71,6,P-GPS,
0.353932820128679,36.9197012636881,5666.6867125019,180.4462,0,5.135498852,22200,2018-04-08 06:17:23,16,0,16.267,5666.6867125019,180.4462,0.671082,5.135498852,0,0,-9.171454,306.5, 4.6, -5,0,1,1024,1024,1599,1024,307.1,0,98,4.072,4.095,4.056,4.079,0,0,17.59,78.71,6,P-GPS,
0.353932676604953,36.9197013041058,5667.9990485019,181.758536,0,5.1769030528,22300,2018-04-08 06:17:23,16,0,16.267,5667.9990485019,181.758536,0.671082,5.1769030528,0,0,-8.94776,306.5, 4.5, -4.7,0,1,1024,1024,1599,1024,307.1,0,98,4.072,4.095,4.056,4.079,0,0,17.59,78.71,6,P-GPS,
0.353932561552128,36.9197013468532,5669.3113845019,183.070872,0,5.2133859936,22400,2018-04-08 06:17:23,16,0,16.267,5669.3113845019,183.070872,0.671082,5.2133859936,0,0,-9.171454,306.6, 4.1, -4.6,0,1,1024,1024,1597,1024,307.1,0,98,4.072,4.095,4.056,4.079,0,0,17.59,78.71,6,P-GPS,
0.353932423588724,36.9197013715351,5670.9518045019,184.711292,0,5.249344,22500,2018-04-08 06:17:23,16,0,16.16,5670.9518045019,184.711292,0.671082,5.249344,0,0,-9.171454,306.6, 4, -4.8,0,1,1024,1024,1597,1024,307.1,0,98,4.079,4.103,4.064,4.086,0,0,16.286,78.71,6,P-GPS,
0.353932327496687,36.9197013730747,5672.2641405019,186.023628,0,5.26984925,22600,2018-04-08 06:17:23,16,0,16.16,5672.2641405019,186.023628,0.671082,5.26984925,0,0,-9.171454,306.5, 4.4, -5,0,1,1024,1024,1596,1024,307.1,0,98,4.079,4.103,4.064,4.086,0,0,16.286,78.71,6,P-GPS,
0.353932221053445,36.9197013741945,5673.5764765019,187.335964,0,5.2925526628,22700,2018-04-08 06:17:23,16,0,16.16,5673.5764765019,187.335964,0.671082,5.2925526628,0,0,-9.171454,306.5, 4.9, -5.3,0,1,1024,1024,1592,1024,307.1,0,98,4.079,4.103,4.064,4.086,0,0,16.286,78.71,6,P-GPS,
