latitude,longitude,altitude(feet),ascent(feet),speed(mph),distance(feet),time(millisecond),datetime(utc),satellites,gpslevel,voltage(v),max_altitude(feet),max_ascent(feet),max_speed(mph),max_distance(feet), xSpeed(mph), ySpeed(mph), zSpeed(mph), compass_heading(degrees), pitch(degrees), roll(degrees),isPhoto,isVideo,rc_elevator,rc_aileron,rc_throttle,rc_rudder,gimbal_heading(degrees),gimbal_pitch(degrees),battery_percent,voltageCell1,voltageCell2,voltageCell3,voltageCell4,voltageCell5,voltageCell6,current(A),battery_temperature(f),flycStateRaw,flycState,message
0.355961705764353,36.8882905127553,5823.9171246856,0,0,0,0,2018-04-05 07:10:00,13,0,0,5823.9171246856,0,0,0,0,0,0,256.6, -2.9, -0.1,0,0,364,364,364,1684,261.1,0,100,4.307,4.292,4.286,4.279,0,0,0,80.51,6,P-GPS,
0.355961709750784,36.8882905447591,5823.9171246856,0,0,0.011766568618,200,2018-04-05 07:10:00,13,0,17.135,5823.9171246856,0,0,0.011766568618,0,0,0,256.6, -2.9, -0.1,0,0,364,364,364,1684,261.1,0,100,4.307,4.292,4.286,4.279,0,0,1.494,80.51,41,Motors_Started,Setting new Return-To-Home altitude to 45m (148 ft). Setting new Maximum Flight Altitude to 150m (492 ft)
0.35596171257471,36.8882905729069,5823.9171246856,0,0,0.0220860899456,300,2018-04-05 07:10:00,13,0,17.135,5823.9171246856,0,0,0.0220860899456,0,0,0,256.6, -2.9, -0.1,0,0,364,364,364,1684,261.1,0,100,4.307,4.292,4.286,4.279,0,0,1.494,80.51,41,Motors_Started,
0.355961714987046,36.888290611921,5823.9171246856,0,0,0.036335959168,500,2018-04-05 07:10:00,13,0,17.135,5823.9171246856,0,0,0.036335959168,0,0,0,256.6, -3, -0.1,0,0,364,364,364,1684,261.1,0,100,4.307,4.292,4.286,4.279,0,0,1.494,80.51,41,Motors_Started,
0.355961714368237,36.8882906211984,5823.9171246856,0,0,0.039688977648,600,2018-04-05 07:10:00,13,0,17.135,5823.9171246856,0,0,0.039688977648,0,0,0,256.6, -3, -0.1,0,0,364,364,364,1684,261.1,0,100,4.307,4.292,4.286,4.279,0,0,1.494,80.51,41,Motors_Started,
0.355961716729888,36.888290626186,5823.9171246856,0,0,0.041577101068,700,2018-04-05 07:10:01,13,0,17.135,5823.9171246856,0,0,0.041577101068,0,0,0,256.6, -3, -0.1,0,0,375,364,364,1684,261.1,0,100,4.307,4.292,4.286,4.279,0,0,1.494,80.51,41,Motors_Started,
0.355961779111303,36.8882906869292,5823.9171246856,0,0,0.068950789608,900,2018-04-05 07:10:01,13,0,17.135,5823.9171246856,0,0,0.068950789608,0,0,0,256.6, -3, -0.1,0,0,375,364,364,1684,261.1,0,100,4.307,4.292,4.286,4.279,0,0,1.494,80.51,41,Motors_Started,
0.355961773837384,36.8882907107929,5823.9171246856,0,0,0.076401905332,1000,2018-04-05 07:10:01,13,0,17.135,5823.9171246856,0,0,0.076401905332,0,0,0,256.6, -3, -0.1,0,0,382,364,364,1684,261.1,0,100,4.307,4.292,4.286,4.279,0,0,1.494,80.51,41,Motors_Started,
0.355961765727733,36.8882907254305,5823.9171246856,0,0,0.080618112816,1100,2018-04-05 07:10:01,13,0,17.135,5823.9171246856,0,0,0.080618112816,0,0,0,256.6, -3.1, -0.1,0,0,389,364,364,1684,261.1,0,100,4.307,4.292,4.286,4.279,0,0,1.494,80.51,41,Motors_Started,
0.355961753568548,36.8882907648834,5823.9171246856,0,0,0.093625987248,1200,2018-04-05 07:10:01,13,0,17.135,5823.9171246856,0,0,0.093625987248,0,0,0,256.6, -2.9, -0.1,0,0,453,364,400,1673,261.1,0,100,4.306,4.291,4.285,4.278,0,0,1.494,80.51,41,Motors_Started,
0.355961748241501,36.8882907989373,5823.9171246856,0,0,0.105555121488,1300,2018-04-05 07:10:01,13,0,17.135,5823.9171246856,0,0,0.105555121488,0,0,0,256.6, -3, -0.1,0,0,739,623,649,1468,261,0,100,4.306,4.291,4.285,4.278,0,0,1.494,80.51,41,Motors_Started,
0.355961739902239,36.8882908253319,5823.9171246856,0,0,0.114719163776,1400,2018-04-05 07:10:01,13,0,17.135,5823.9171246856,0,0,0.114719163776,0,0,0,256.6, -3, -0.1,0,0,1021,984,909,1169,260.3,0,100,4.306,4.291,4.285,4.278,0,0,1.494,80.51,41,Motors_Started,
0.35596173642083,36.8882908407153,5823.9171246856,0,0,0.120175200696,1500,2018-04-05 07:10:01,13,0,17.135,5823.9171246856,0,0,0.120175200696,0,0,0,256.6, -3, -0.1,0,0,1024,1024,1024,1024,259.1,0,100,4.306,4.291,4.285,4.278,0,0,1.494,80.51,41,Motors_Started,
0.355961729717136,36.8882908466033,5823.9171246856,0,0,0.122115161388,1600,2018-04-05 07:10:01,13,0,17.135,5823.9171246856,0,0,0.122115161388,0,0,0,256.6, -3, -0.1,0,0,1024,1024,1024,1024,258.3,0,100,4.306,4.291,4.285,4.278,0,0,1.494,80.51,10,Assisted_Takeoff,
0.355961732123569,36.8882908512519,5823.9171246856,0,0,0.123871723124,1700,2018-04-05 07:10:01,13,0,17.135,5823.9171246856,0,0,0.123871723124,0,0,0,256.6, -3, -0.1,0,0,1024,1024,1024,1024,257.9,0,100,4.306,4.291,4.285,4.278,0,0,1.494,80.51,10,Assisted_Takeoff,
0.355961727411463,36.8882908461736,5823.9171246856,0,0,0.12190125062,1800,2018-04-05 07:10:02,13,0,17.135,5823.9171246856,0,0,0.123871723124,0,0,0,256.6, -3, -0.1,0,0,1024,1024,1024,1024,257.9,0,100,4.306,4.291,4.285,4.278,0,0,1.494,80.51,10,Assisted_Takeoff,
0.355961729210283,36.8882908418196,5823.9171246856,0,0,0.12036089624,1900,2018-04-05 07:10:02,13,0,17.135,5823.9171246856,0,0,0.123871723124,0,0,0,256.5, -3, -0.1,0,0,1024,1024,1024,1024,257.6,0,100,4.306,4.291,4.285,4.278,0,0,1.494,80.51,10,Assisted_Takeoff,
0.355961727931344,36.8882908628212,5823.9171246856,0,0,0.127974741628,2000,2018-04-05 07:10:02,13,0,17.135,5823.9171246856,0,0,0.127974741628,0,0,0,256.6, -3, -0.1,0,0,1024,1024,1024,1024,257.3,0,100,4.306,4.291,4.285,4.278,0,0,1.494,80.51,10,Assisted_Takeoff,
0.355961729283359,36.8882909006449,5823.9171246856,0,0,0.141778547844,2200,2018-04-05 07:10:02,13,0,17.081,5823.9171246856,0,0,0.141778547844,0,0,0,256.6, -3, -0.1,0,0,1024,1024,1024,1024,257.2,0,100,4.302,4.289,4.283,4.276,0,0,1.758,80.51,10,Assisted_Takeoff,
0.355961732858405,36.8882909082982,5823.9171246856,0,0,0.14464895476,2300,2018-04-05 07:10:02,13,0,17.081,5823.9171246856,0,0,0.14464895476,0,0,0,256.5, -3, -0.1,0,0,1024,1024,1024,1024,257.2,0,100,4.302,4.289,4.283,4.276,0,0,1.758,80.51,10,Assisted_Takeoff,
0.35596173213334,36.8882909120411,5823.9171246856,0,0,0.145993771076,2400,2018-04-05 07:10:02,13,0,17.081,5823.9171246856,0,0,0.145993771076,0,0,0,256.6, -3, -0.1,0,0,1024,1024,1024,1024,257.1,0,100,4.302,4.289,4.283,4.276,0,0,1.758,80.51,10,Assisted_Takeoff,
0.355961736374826,36.8882909116236,5823.9171246856,0,0,0.145952104408,2500,2018-04-05 07:10:02,13,0,17.081,5823.9171246856,0,0,0.145993771076,0,0,0,256.6, -3, -0.1,0,0,1024,1024,1024,1024,257.1,0,100,4.302,4.289,4.283,4.276,0,0,1.758,80.51,10,Assisted_Takeoff,
0.355961704073621,36.8882909087869,5823.9171246856,0,0,0.144490490188,2600,2018-04-05 07:10:02,13,0,17.081,5823.9171246856,0,0,0.145993771076,0,0,0,256.6, -3, -0.1,0,0,1024,1024,1024,1024,257.1,0,100,4.302,4.289,4.283,4.276,0,0,1.758,80.51,10,Assisted_Takeoff,
0.355961677810687,36.888290903953,5823.9171246856,0,0,0.143089571508,2700,2018-04-05 07:10:02,13,0,17.081,5823.9171246856,0,0,0.145993771076,0,0,0,256.5, -3, -0.1,0,0,1024,1024,1024,1024,257,0,100,4.302,4.289,4.283,4.276,0,0,1.758,80.51,10,Assisted_Takeoff,
0.355961648629175,36.888290898258,5823.9171246856,0,0,0.142184059668,2800,2018-04-05 07:10:03,13,0,17.081,5823.9171246856,0,0,0.145993771076,0,0,0,256.5, -3, 0,0,0,1024,1024,1024,1024,257,0,100,4.302,4.289,4.283,4.276,0,0,1.758,80.51,10,Assisted_Takeoff,
0.355961633060639,36.888290889764,5823.9171246856,0,0,0.140083009732,2900,2018-04-05 07:10:03,13,0,17.081,5823.9171246856,0,0,0.145993771076,0,0,0,256.5, -3, 0,0,0,1024,1024,1024,1024,257,0,100,4.302,4.289,4.283,4.276,0,0,1.758,80.51,10,Assisted_Takeoff,
0.355961618193353,36.8882908829892,5823.9171246856,0,0,0.1388041383,3000,2018-04-05 07:10:03,13,0,17.081,5823.9171246856,0,0,0.145993771076,0,0,0,256.5, -3, 0,0,0,1024,1024,1024,1024,257,0,100,4.302,4.289,4.283,4.276,0,0,1.758,80.51,10,Assisted_Takeoff,
0.35596161187845,36.8882908735787,5823.9171246856,0,0,0.136027235324,3100,2018-04-05 07:10:03,13,0,17.081,5823.9171246856,0,0,0.145993771076,0,0,0,256.5, -3, 0,0,0,1024,1024,1024,1024,257,0,100,4.302,4.289,4.283,4.276,0,0,1.758,80.51,10,Assisted_Takeoff,
0.355961606864471,36.8882908987711,5823.9171246856,0,0,0.14538386292,3200,2018-04-05 07:10:03,13,0,16.869,5823.9171246856,0,0,0.145993771076,0,0,0,256.5, -3, 0,0,0,1024,1024,1024,1024,257,0,100,4.302,4.289,4.283,4.276,0,0,2.928,80.51,10,Assisted_Takeoff,
0.35596160718955,36.8882909189275,5823.9171246856,0,0,0.152490818528,3300,2018-04-05 07:10:03,13,0,16.869,5823.9171246856,0,0,0.152490818528,0,0,0,256.5, -3, -0.1,0,0,1024,1024,1024,1024,256.9,0,100,4.302,4.289,4.283,4.276,0,0,2.928,80.51,10,Assisted_Takeoff,
0.355961607344048,36.8882909420327,5823.9171246856,0,0,0.16068241984,3400,2018-04-05 07:10:03,13,0,16.869,5823.9171246856,0,0,0.16068241984,0,0,0,256.5, -3, -0.1,0,0,1024,1024,1024,1024,256.9,0,100,4.302,4.289,4.283,4.276,0,0,2.928,80.51,10,Assisted_Takeoff,
0.35596161292554,36.8882909629987,5823.9171246856,0,0,0.167723758648,3600,2018-04-05 07:10:03,13,0,16.869,5823.9171246856,0,0,0.167723758648,0,0,0,256.5, -3.1, -0.1,0,0,1024,1024,1025,1024,256.9,0,100,4.302,4.289,4.283,4.276,0,0,2.928,80.51,10,Assisted_Takeoff,
0.35596161831345,36.8882909647814,5823.9171246856,0,0,0.167976383328,3700,2018-04-05 07:10:03,13,0,16.869,5823.9171246856,0,0,0.167976383328,0,0,0,256.5, -3.1, -0.1,0,0,1024,1024,1024,1024,256.9,0,100,4.302,4.289,4.283,4.276,0,0,2.928,80.51,10,Assisted_Takeoff,
0.355961620712352,36.888290999101,5823.9171246856,0,0,0.180132551696,3800,2018-04-05 07:10:04,13,0,16.869,5823.9171246856,0,0,0.180132551696,0,0,0,256.5, -3.1, -0.1,0,0,1024,1024,1024,1024,256.9,0,100,4.302,4.289,4.283,4.276,0,0,2.928,80.51,10,Assisted_Takeoff,
0.355961627845344,36.8882910515089,5823.9171246856,0,0,0.198605321316,4000,2018-04-05 07:10:04,13,0,16.869,5823.9171246856,0,0,0.198605321316,0,0,0,256.5, -3.1, -0.1,0,0,1024,1024,1024,1024,256.9,0,100,4.302,4.289,4.283,4.276,0,0,2.928,80.51,10,Assisted_Takeoff,
0.355961633017893,36.8882910628866,5823.9171246856,0,0,0.202458339812,4100,2018-04-05 07:10:04,13,0,16.869,5823.9171246856,0,0,0.202458339812,0,0,0,256.5, -3.1, -0.1,0,0,1024,1024,1024,1024,256.9,0,100,4.302,4.289,4.283,4.276,0,0,2.928,80.51,10,Assisted_Takeoff,
0.355961602394189,36.8882910726671,5823.9171246856,0,0,0.207731962028,4200,2018-04-05 07:10:04,13,0,17.108,5823.9171246856,0,0,0.207731962028,0,0,0,256.5, -3.1, -0.1,0,0,1024,1024,1024,1024,256.9,0,100,4.297,4.285,4.278,4.269,0,0,2.928,80.51,10,Assisted_Takeoff,
0.355961576803802,36.8882910727884,5823.9171246856,0,0,0.209671266552,4300,2018-04-05 07:10:04,13,0,17.108,5823.9171246856,0,0,0.209671266552,0,0,0,256.5, -3.1, -0.1,0,0,1024,1024,1024,1024,256.9,0,100,4.297,4.285,4.278,4.269,0,0,2.928,80.51,10,Assisted_Takeoff,
0.355961548193466,36.8882910724777,5823.9171246856,0,0,0.212148300752,4400,2018-04-05 07:10:04,13,0,17.108,5823.9171246856,0,0,0.212148300752,0,0,0,256.5, -3.1, -0.1,0,0,1024,1024,1024,1024,256.9,0,100,4.297,4.285,4.278,4.269,0,0,2.928,80.51,10,Assisted_Takeoff,
0.355961532979117,36.8882910658178,5823.9171246856,0,0,0.211398956896,4500,2018-04-05 07:10:04,13,0,17.108,5823.9171246856,0,0,0.212148300752,0,0,0,256.5, -3.1, 0,0,0,1024,1024,1024,1024,256.9,0,100,4.297,4.285,4.278,4.269,0,0,2.928,80.51,10,Assisted_Takeoff,
0.355961517782274,36.8882910608004,5823.9171246856,0,0,0.211385833536,4600,2018-04-05 07:10:05,13,0,17.108,5823.9171246856,0,0,0.212148300752,0,0,0,256.5, -3.1, 0,0,0,1024,1024,1024,1024,256.9,0,100,4.297,4.285,4.278,4.269,0,0,2.928,80.51,10,Assisted_Takeoff,
0.355961497741218,36.8882910215968,5823.9171246856,0,0,0.200562014292,5000,2018-04-05 07:10:05,13,0,17.108,5823.9171246856,0,0,0.212148300752,0,0,0,256.5, -3.1, 0,0,0,1024,1024,1024,1024,256.9,0,100,4.297,4.285,4.278,4.269,0,0,2.928,80.51,10,Assisted_Takeoff,
0.355961498584752,36.8882910072289,5823.9171246856,0,0,0.195600728044,5100,2018-04-05 07:10:05,13,0,17.108,5823.9171246856,0,0,0.212148300752,0,0,0,256.5, -3.1, 0,0,0,1024,1024,1074,1024,256.9,0,100,4.3,4.285,4.279,4.273,0,0,1.926,80.51,10,Assisted_Takeoff,
0.355961501946674,36.888290989854,5823.9171246856,0,0,0.18928478296,5300,2018-04-05 07:10:05,13,0,17.108,5823.9171246856,0,0,0.212148300752,0,0,0,256.5, -3.1, 0,0,0,1024,1024,1137,1024,256.9,0,100,4.3,4.285,4.279,4.273,0,0,1.926,80.51,10,Assisted_Takeoff,
0.355961503331462,36.8882910193114,5823.9171246856,0,0,0.199024612668,5400,2018-04-05 07:10:05,13,0,17.108,5823.9171246856,0,0,0.212148300752,0,0,0,256.5, -3.2, 0,0,0,1024,1024,1158,1024,256.9,0,100,4.3,4.285,4.279,4.273,0,0,1.926,80.51,10,Assisted_Takeoff,
0.355961505873464,36.8882910366468,5823.9171246856,0,0,0.204578746704,5500,2018-04-05 07:10:05,13,0,17.108,5823.9171246856,0,0,0.212148300752,0,0,0,256.5, -3.2, -0.1,0,0,1024,1024,1158,1024,256.8,0,100,4.3,4.285,4.279,4.273,0,0,1.926,80.51,10,Assisted_Takeoff,
0.355961507342931,36.8882910637478,5823.9171246856,0,0,0.213663392664,5600,2018-04-05 07:10:05,13,0,17.108,5823.9171246856,0,0,0.213663392664,0,0,0,256.5, -3.2, -0.1,0,0,1024,1024,1204,1024,256.8,0,100,4.3,4.285,4.279,4.273,0,0,1.926,80.51,10,Assisted_Takeoff,
0.355961510455498,36.8882910696252,5823.9171246856,0,0,0.215303812664,5700,2018-04-05 07:10:05,13,0,17.108,5823.9171246856,0,0,0.215303812664,0,0,0,256.5, -3.2, -0.1,0,0,1024,1024,1204,1024,256.8,0,100,4.3,4.285,4.279,4.273,0,0,1.926,80.51,10,Assisted_Takeoff,
0.355961511880793,36.8882910842262,5823.9171246856,0,0,0.220169954552,5800,2018-04-05 07:10:06,13,0,17.108,5823.9171246856,0,0,0.220169954552,0,0,0,256.5, -3.2, -0.1,0,0,1024,1024,1217,1024,256.8,0,100,4.3,4.285,4.279,4.273,0,0,1.926,80.51,10,Assisted_Takeoff,
0.355961485765844,36.8882910865545,5823.9171246856,0,0,0.224206372004,6000,2018-04-05 07:10:06,13,0,17.108,5823.9171246856,0,0,0.224206372004,0,0,0,256.3, -3.4, -0.1,0,0,1024,1024,1227,1024,256.8,0,100,4.3,4.285,4.279,4.273,0,0,1.926,80.51,10,Assisted_Takeoff,
0.355961460819303,36.8882910661182,5823.9171246856,0,0,0.22078576822,6100,2018-04-05 07:10:06,13,0,17.108,5823.9171246856,0,0,0.224206372004,0,0,0,255.9, -2.6, -0.1,0,0,1024,1024,1231,1024,256.8,0,100,4.3,4.285,4.279,4.273,0,0,1.926,80.51,10,Assisted_Takeoff,
0.355961408995091,36.8882910060669,5823.9171246856,0,0.223694,0.210040032968,6200,2018-04-05 07:10:06,13,0,17.081,5823.9171246856,0,0.223694,0.224206372004,0,-0.223694,-0.223694,255.7, -0.4, 0,0,0,1024,1024,1233,1024,256.8,0,100,4.3,4.285,4.279,4.273,0,0,1.95,80.51,10,Assisted_Takeoff,
0.355961346604313,36.8882909083811,5823.9171246856,0,0.223694,0.194950465556,6300,2018-04-05 07:10:06,13,0,17.081,5823.9171246856,0,0.223694,0.224206372004,0,-0.223694,-0.447388,255.7, 0.7, 0.2,0,0,1024,1024,1231,1024,256.8,0,100,4.3,4.285,4.279,4.273,0,0,1.95,80.51,6,P-GPS,Home Point Recorded. RTH Altitude:  45m.
0.355961276740401,36.8882908370024,5823.9171246856,0,0.223694,0.19620407452,6400,2018-04-05 07:10:06,13,0,17.081,5823.9171246856,0,0.223694,0.224206372004,0,-0.223694,-0.671082,255.6, 0.4, 0.3,0,0,1024,1024,1232,1024,256.8,0,100,4.3,4.285,4.279,4.273,0,0,1.95,80.51,6,P-GPS,
0.355961209880969,36.8882907477893,5823.9171246856,0,0.3131716,0.200215229504,6500,2018-04-05 07:10:06,13,0,17.081,5823.9171246856,0,0.3131716,0.224206372004,-0.223694,-0.223694,-0.894776,255.5, 0.2, 0.2,0,0,1024,1024,1232,1024,256.8,0,100,4.3,4.285,4.279,4.273,0,0,1.95,80.51,6,P-GPS,
0.355961130059937,36.8882906074662,5824.2452086856,0.328084,0.3131716,0.212868773216,6600,2018-04-05 07:10:06,13,0,17.081,5824.2452086856,0.328084,0.3131716,0.224206372004,-0.223694,-0.223694,-1.11847,255.5, 0.8, 0,0,0,1024,1024,1247,1024,256.7,0,100,4.3,4.285,4.279,4.273,0,0,1.95,80.51,6,P-GPS,
0.3559610318955,36.8882904371661,5824.2452086856,0.328084,0.3131716,0.247402566972,6700,2018-04-05 07:10:06,13,0,17.081,5824.2452086856,0.328084,0.3131716,0.247402566972,-0.223694,-0.223694,-1.11847,255.6, 1.5, 0,0,0,1024,1024,1249,1024,256.7,0,100,4.3,4.285,4.279,4.273,0,0,1.95,80.51,6,P-GPS,
0.355960923211723,36.8882902909649,5824.5732926856,0.656168,0.3131716,0.296759195848,6800,2018-04-05 07:10:07,13,0,17.081,5824.5732926856,0.656168,0.3131716,0.296759195848,-0.223694,-0.223694,-1.342164,255.7, 1.7, -0.1,0,0,1024,1024,1245,1024,256.7,0,100,4.3,4.285,4.279,4.273,0,0,1.95,80.51,6,P-GPS,
0.355960778920797,36.8882901562707,5824.9013766856,0.984252,0.3131716,0.36230644204,6900,2018-04-05 07:10:07,13,0,17.081,5824.9013766856,0.984252,0.3131716,0.36230644204,-0.223694,-0.223694,-1.565858,255.8, 3.1, 0.3,0,0,1024,1024,1249,1024,256.7,0,100,4.3,4.285,4.279,4.273,0,0,1.95,80.51,6,P-GPS,
0.355960573028073,36.8882900964776,5824.9013766856,0.984252,0.223694,0.44030185136,7000,2018-04-05 07:10:07,13,0,17.081,5824.9013766856,0.984252,0.3131716,0.44030185136,-0.223694,0,-1.565858,255.9, 2.9, 1.3,0,0,1024,1024,1234,1024,256.7,0,100,4.3,4.285,4.279,4.273,0,0,1.95,80.51,6,P-GPS,
0.355960090118094,36.8882901252536,5825.5575446856,1.64042,0.223694,0.6061844026,7200,2018-04-05 07:10:07,13,0,16.975,5825.5575446856,1.64042,0.3131716,0.6061844026,-0.223694,0,-2.013246,255.5, 1.4, 3.6,0,0,1024,1024,1242,1024,256.6,0,100,4.3,4.285,4.279,4.273,0,0,6.222,80.51,6,P-GPS,
0.355959858077445,36.8882901384458,5825.8856286856,1.968504,0.223694,0.68782154432,7300,2018-04-05 07:10:07,13,0,16.975,5825.8856286856,1.968504,0.3131716,0.68782154432,-0.223694,0,-2.013246,255.5, 2, 3.5,0,0,1024,1024,1233,1024,256.6,0,100,4.3,4.285,4.279,4.273,0,0,6.222,80.51,6,P-GPS,
0.3559596374471,36.8882901731956,5826.2137126856,2.296588,0.223694,0.76472443392,7400,2018-04-05 07:10:07,13,0,16.975,5826.2137126856,2.296588,0.3131716,0.76472443392,-0.223694,0,-2.013246,255.5, 2.3, 4.4,0,0,1024,1024,1215,1024,256.6,0,100,4.3,4.285,4.279,4.273,0,0,6.222,80.51,6,P-GPS,
0.355959316613608,36.8882901921089,5826.8698806856,2.952756,0.223694,0.8794947788,7600,2018-04-05 07:10:07,13,0,16.975,5826.8698806856,2.952756,0.3131716,0.8794947788,-0.223694,0,-2.013246,255.5, 2.7, 4,0,0,1024,1024,1237,1024,256.5,0,100,4.3,4.285,4.279,4.273,0,0,6.222,80.51,6,P-GPS,
0.355959217443506,36.8882901788975,5827.1979646856,3.28084,0,0.91599740464,7700,2018-04-05 07:10:07,13,0,16.975,5827.1979646856,3.28084,0.3131716,0.91599740464,0,0,-2.013246,255.4, 2.3, 3.1,0,0,1024,1024,1253,1024,256.5,0,100,4.3,4.285,4.279,4.273,0,0,6.222,80.51,6,P-GPS,
0.355959115127759,36.8882902542187,5827.5260486856,3.608924,0,0.94988848184,7800,2018-04-05 07:10:08,13,0,16.975,5827.5260486856,3.608924,0.3131716,0.94988848184,0,0,-2.013246,255.3, 1.6, 2.7,0,0,1024,1024,1243,1024,256.5,0,100,4.3,4.285,4.279,4.273,0,0,6.222,80.51,6,P-GPS,
0.355959013371026,36.8882903203433,5827.8541326856,3.937008,0,0.98482286616,7900,2018-04-05 07:10:08,13,0,16.975,5827.8541326856,3.937008,0.3131716,0.98482286616,0,0,-2.013246,255.3, 1, 3.4,0,0,1024,1024,1239,1024,256.5,0,100,4.3,4.285,4.279,4.273,0,0,6.222,80.51,6,P-GPS,
0.355958859143232,36.888290349706,5828.5103006856,4.593176,0,1.0402887472,8100,2018-04-05 07:10:08,13,0,16.975,5828.5103006856,4.593176,0.3131716,1.0402887472,0,0,-2.013246,255.6, 1.8, 2.5,0,0,1024,1024,1237,1024,256.4,0,100,4.3,4.285,4.279,4.273,0,0,6.222,80.51,6,P-GPS,
0.355958793251147,36.8882903387079,5828.8383846856,4.92126,0,1.06452431228,8200,2018-04-05 07:10:08,13,0,16.524,5828.8383846856,4.92126,0.3131716,1.06452431228,0,0,-2.23694,255.7, 2.8, 2.2,0,0,1024,1024,1262,1024,256.4,0,100,4.225,4.213,4.201,4.195,0,0,6.222,80.51,6,P-GPS,
0.355958718789909,36.8882903218638,5829.1664686856,5.249344,0,1.09201775148,8300,2018-04-05 07:10:08,13,0,16.524,5829.1664686856,5.249344,0.3131716,1.09201775148,0,0,-2.013246,255.7, 3, 2.8,0,0,1024,1024,1253,1024,256.4,0,100,4.225,4.213,4.201,4.195,0,0,6.222,80.51,6,P-GPS,
0.355958686332857,36.8882903446873,5829.4945526856,5.577428,0,1.10334321116,8400,2018-04-05 07:10:08,13,0,16.524,5829.4945526856,5.577428,0.3131716,1.10334321116,0,0,-2.23694,255.5, 2.9, 2.3,0,0,1024,1024,1255,1024,256.4,0,100,4.225,4.213,4.201,4.195,0,0,6.222,80.51,6,P-GPS,
0.35595865441337,36.8882903571421,5829.8226366856,5.905512,0,1.1147310068,8500,2018-04-05 07:10:08,13,0,16.524,5829.8226366856,5.905512,0.3131716,1.1147310068,0,0,-2.23694,255.5, 3.1, 2.3,0,0,1024,1024,1275,1024,256.4,0,100,4.225,4.213,4.201,4.195,0,0,6.222,80.51,6,P-GPS,
0.355958540446809,36.8882904236191,5830.1507206856,6.233596,0,1.15532155928,8600,2018-04-05 07:10:08,13,0,16.524,5830.1507206856,6.233596,0.3131716,1.15532155928,0,0,-2.23694,255.4, 2.4, 3.3,0,0,1024,1024,1263,1024,256.4,0,100,4.225,4.213,4.201,4.195,0,0,6.222,80.51,6,P-GPS,
0.355958413210784,36.8882904807229,5830.4788046856,6.56168,0,1.20134190196,8700,2018-04-05 07:10:08,13,0,16.524,5830.4788046856,6.56168,0.3131716,1.20134190196,0,0,-2.23694,255.4, 2.3, 3.9,0,0,1024,1024,1264,1024,256.4,0,100,4.225,4.213,4.201,4.195,0,0,6.222,80.51,6,P-GPS,
0.35595826270366,36.8882905839741,5830.8068886856,6.889764,0,1.25646657564,8800,2018-04-05 07:10:09,13,0,16.524,5830.8068886856,6.889764,0.3131716,1.25646657564,0,0,-2.23694,255.5, 2.2, 4.2,0,0,1024,1024,1257,1024,256.3,-0.3,100,4.225,4.213,4.201,4.195,0,0,6.222,80.51,6,P-GPS,
0.355958138531498,36.8882906733204,5831.1349726856,7.217848,0,1.302821564,8900,2018-04-05 07:10:09,13,0,16.524,5831.1349726856,7.217848,0.3131716,1.302821564,0,0,-2.23694,255.5, 2.3, 4.3,0,0,1024,1024,1267,1024,256.3,-1.3,100,4.225,4.213,4.201,4.195,0,0,6.222,80.51,6,P-GPS,
0.355958029319672,36.8882908204519,5831.4630566856,7.545932,0,1.34603678848,9000,2018-04-05 07:10:09,13,0,16.524,5831.4630566856,7.545932,0.3131716,1.34603678848,0,0,-2.460634,255.6, 2, 4.2,0,0,1024,1024,1271,1024,256.3,-2.9,100,4.225,4.213,4.201,4.195,0,0,6.222,80.51,6,P-GPS,
0.355957948010089,36.8882909636645,5831.7911406856,7.874016,0.223694,1.38084978172,9100,2018-04-05 07:10:09,13,0,16.524,5831.7911406856,7.874016,0.3131716,1.38084978172,0,0.223694,-2.460634,255.6, 1.6, 4,0,0,1024,1024,1270,1024,256.3,-2.9,100,4.225,4.213,4.201,4.195,0,0,6.222,80.51,6,P-GPS,
0.355957896574057,36.8882911505373,5832.4473086856,8.530184,0.223694,1.40912734168,9200,2018-04-05 07:10:09,13,0,16.524,5832.4473086856,8.530184,0.3131716,1.40912734168,0,0.223694,-2.460634,255.7, 1.4, 4.4,0,0,1024,1024,1267,1024,256.3,-4.3,100,4.185,4.176,4.167,4.161,0,0,13.484,80.51,6,P-GPS,
0.355957860649005,36.8882913212778,5832.7753926856,8.858268,0.223694,1.43356631884,9300,2018-04-05 07:10:09,13,0,16.524,5832.7753926856,8.858268,0.3131716,1.43356631884,0,0.223694,-2.460634,255.7, 0.8, 4.7,0,0,1024,1024,1273,1024,256.3,-5.8,100,4.185,4.176,4.167,4.161,0,0,13.484,80.51,6,P-GPS,
0.355957847402834,36.888291530381,5833.1034766856,9.186352,0.223694,1.4558563458,9400,2018-04-05 07:10:09,13,0,16.524,5833.1034766856,9.186352,0.3131716,1.4558563458,0,0.223694,-2.460634,255.7, 0, 4.9,0,0,1024,1024,1265,1024,256.3,-7.5,100,4.185,4.176,4.167,4.161,0,0,13.484,80.51,6,P-GPS,
0.355957844316119,36.8882917073865,5833.4315606856,9.514436,0.223694,1.47472773748,9500,2018-04-05 07:10:09,13,0,16.524,5833.4315606856,9.514436,0.3131716,1.47472773748,0,0.223694,-2.460634,255.7, -0.2, 4.9,0,0,1024,1024,1270,1024,256.3,-9.2,100,4.185,4.176,4.167,4.161,0,0,13.484,80.51,6,P-GPS,
0.355957855801229,36.8882919067383,5833.7596446856,9.84252,0.223694,1.49389440476,9600,2018-04-05 07:10:09,13,0,16.524,5833.7596446856,9.84252,0.3131716,1.49389440476,0,0.223694,-2.460634,255.6, -0.3, 4.8,0,0,1024,1024,1269,1024,256.3,-10.9,100,4.185,4.176,4.167,4.161,0,0,13.484,80.51,6,P-GPS,
0.355957877147891,36.888292058492,5834.0877286856,10.170604,0,1.5064140902,9700,2018-04-05 07:10:09,13,0,16.524,5834.0877286856,10.170604,0.3131716,1.5064140902,0,0,-2.460634,255.5, -0.5, 4.5,0,0,1024,1024,1274,1024,256.3,-12.6,100,4.185,4.176,4.167,4.161,0,0,13.484,80.51,6,P-GPS,
0.355957881419961,36.8882921886127,5834.4158126856,10.498688,0,1.5233924372,9800,2018-04-05 07:10:10,13,0,16.524,5834.4158126856,10.498688,0.3131716,1.5233924372,0,0,-2.460634,255.6, -0.1, 3.8,0,0,1024,1024,1275,1024,256.3,-12.6,100,4.185,4.176,4.167,4.161,0,0,13.484,80.51,6,P-GPS,
0.355957873675183,36.8882922752693,5835.0719806856,11.154856,0,1.53892393376,9900,2018-04-05 07:10:10,13,0,16.524,5835.0719806856,11.154856,0.3131716,1.53892393376,0,0,-2.460634,255.6, 0.1, 3.8,0,0,1024,1024,1271,1024,256.2,-16.2,100,4.185,4.176,4.167,4.161,0,0,13.484,80.51,6,P-GPS,
0.35595783735218,36.8882923918624,5835.4000646856,11.48294,0,1.56908797672,10000,2018-04-05 07:10:10,13,0,16.524,5835.4000646856,11.48294,0.3131716,1.56908797672,0,0,-2.460634,255.7, 0.4, 4,0,0,1024,1024,1279,1024,256.2,-17.5,100,4.185,4.176,4.167,4.161,0,0,13.484,80.51,6,P-GPS,
0.355957794358816,36.8882925023503,5835.7281486856,11.811024,0.223694,1.60107944756,10100,2018-04-05 07:10:10,13,0,16.47,5835.7281486856,11.811024,0.3131716,1.60107944756,0,0.223694,-2.460634,255.8, -0.3, 5,0,0,1024,1024,1272,1024,256.2,-17.5,100,4.166,4.167,4.162,4.159,0,0,13.35,80.51,6,P-GPS,
0.355957718758659,36.8882928108726,5836.3843166856,12.467192,0,1.67899611672,10300,2018-04-05 07:10:10,13,0,16.47,5836.3843166856,12.467192,0.3131716,1.67899611672,0,0,-2.684328,255.8, 0, 5,0,0,1024,1024,1277,1024,256.2,-17.5,100,4.166,4.167,4.162,4.159,0,0,13.35,80.51,6,P-GPS,
0.355957692195328,36.8882929763182,5837.0404846856,13.12336,0.223694,1.71818903136,10400,2018-04-05 07:10:10,13,0,16.47,5837.0404846856,13.12336,0.3131716,1.71818903136,0,0.223694,-2.460634,255.8, -0.5, 4.9,0,0,1024,1024,1281,1024,256.2,-17.5,100,4.166,4.167,4.162,4.159,0,0,13.35,80.51,6,P-GPS,
0.35595768723809,36.888293124804,5837.3685686856,13.451444,0.223694,1.7486549116,10500,2018-04-05 07:10:10,13,0,16.47,5837.3685686856,13.451444,0.3131716,1.7486549116,0,0.223694,-2.460634,255.8, -1.3, 4.8,0,0,1024,1024,1290,1024,256.2,-17.5,100,4.166,4.167,4.162,4.159,0,0,13.35,80.51,6,P-GPS,
0.355957684744688,36.888293505372,5838.0247366856,14.107612,0,1.82876646272,10700,2018-04-05 07:10:10,13,0,16.47,5838.0247366856,14.107612,0.3131716,1.82876646272,0,0,-2.684328,255.7, -1.9, 4.5,0,0,1024,1024,1302,1024,256.2,-17.5,100,4.166,4.167,4.162,4.159,0,0,13.35,80.51,6,P-GPS,
0.355957701684678,36.8882936765626,5838.3528206856,14.435696,0,1.86187341916,10800,2018-04-05 07:10:11,13,0,16.47,5838.3528206856,14.435696,0.3131716,1.86187341916,0,0,-2.684328,255.6, -2, 3.8,0,0,1024,1024,1296,1024,256.2,-17.5,100,4.166,4.167,4.162,4.159,0,0,13.35,80.51,6,P-GPS,
0.355957722501994,36.8882937934329,5839.0089886856,15.091864,0,1.88273628072,10900,2018-04-05 07:10:11,13,0,16.47,5839.0089886856,15.091864,0.3131716,1.88273628072,0,0,-2.684328,255.7, -1.8, 3.6,0,0,1024,1024,1288,1024,256.2,-17.5,100,4.166,4.167,4.162,4.159,0,0,13.35,80.51,6,P-GPS,
0.355957744949331,36.8882939170685,5839.3370726856,15.419948,0,1.905511872,11000,2018-04-05 07:10:11,13,0,16.47,5839.3370726856,15.419948,0.3131716,1.905511872,0,0,-2.908022,255.7, -1.8, 3.8,0,0,1024,1024,1301,1024,256.2,-17.5,100,4.166,4.167,4.162,4.159,0,0,13.35,80.51,6,P-GPS,
0.35595777041219,36.8882940772454,5840.3213246856,16.4042,0,1.93721134808,11200,2018-04-05 07:10:11,13,0,16.524,5840.3213246856,16.4042,0.3131716,1.93721134808,0,0,-2.908022,255.7, -1.4, 4.4,0,0,1024,1024,1307,1024,256.2,-17.5,100,4.166,4.167,4.162,4.159,0,0,13.35,80.51,6,P-GPS,
0.355957791505069,36.8882941209522,5840.6494086856,16.732284,0.223694,1.94228680756,11300,2018-04-05 07:10:11,13,0,16.524,5840.6494086856,16.732284,0.3131716,1.94228680756,0.223694,0,-2.908022,255.7, -1.7, 3.7,0,0,1024,1024,1319,1024,256.2,-17.5,100,4.166,4.167,4.162,4.159,0,0,13.35,80.51,6,P-GPS,
0.355957831897401,36.8882942141426,5840.9774926856,17.060368,0,1.95480977384,11400,2018-04-05 07:10:11,13,0,16.524,5840.9774926856,17.060368,0.3131716,1.95480977384,0,0,-2.908022,255.6, -1.7, 3.5,0,0,1024,1024,1326,1024,256.2,-17.5,100,4.166,4.167,4.162,4.159,0,0,13.35,80.51,6,P-GPS,
0.355957873092963,36.8882943187427,5841.9617446856,18.04462,0,1.97067263524,11600,2018-04-05 07:10:11,13,0,16.524,5841.9617446856,18.04462,0.3131716,1.97067263524,0,0,-3.131716,255.5, -1.4, 3.5,0,0,1024,1024,1325,1024,256.2,-17.5,100,4.166,4.167,4.162,4.159,0,0,13.35,80.51,6,P-GPS,
0.355957863487739,36.8882943217735,5842.6179126856,18.700788,0,1.97393707104,11700,2018-04-05 07:10:11,13,0,16.524,5842.6179126856,18.700788,0.3131716,1.97393707104,0,0,-3.35541,255.6, -1.3, 3.5,0,0,1024,1024,1325,1024,256.2,-17.5,100,4.166,4.167,4.162,4.159,0,0,13.35,80.51,6,P-GPS,
0.355957821631436,36.8882943754613,5842.9459966856,19.028872,0,1.99857617944,11800,2018-04-05 07:10:12,13,0,16.524,5842.9459966856,19.028872,0.3131716,1.99857617944,0,0,-3.35541,255.7, -1, 3.9,0,0,1024,1024,1324,1024,256.2,-17.5,100,4.166,4.167,4.162,4.159,0,0,13.35,80.51,6,P-GPS,
0.355957771219644,36.8882943990859,5843.6021646856,19.68504,0,2.01770675748,11900,2018-04-05 07:10:12,13,0,16.524,5843.6021646856,19.68504,0.3131716,2.01770675748,0,0,-3.35541,255.7, -0.9, 4.2,0,0,1024,1024,1326,1024,256.2,-17.5,100,4.166,4.167,4.162,4.159,0,0,13.35,80.51,6,P-GPS,
0.355957724367478,36.8882944655373,5843.9302486856,20.013124,0,2.04691279516,12000,2018-04-05 07:10:12,13,0,16.524,5843.9302486856,20.013124,0.3131716,2.04691279516,0,0,-3.35541,255.8, -0.8, 4.2,0,0,1024,1024,1326,1024,256.2,-17.5,100,4.166,4.167,4.162,4.159,0,0,13.35,80.51,6,P-GPS,
0.355957681814201,36.8882944975069,5844.5864166856,20.669292,0,2.06614836008,12100,2018-04-05 07:10:12,13,0,16.524,5844.5864166856,20.669292,0.3131716,2.06614836008,0,0,-3.35541,255.8, -0.8, 4.4,0,0,1024,1024,1326,1024,256.2,-17.5,100,4.166,4.167,4.162,4.159,0,0,13.35,80.51,6,P-GPS,
0.355957630832708,36.8882945501715,5845.2425846856,21.32546,0,2.09288720608,12200,2018-04-05 07:10:12,13,0,16.524,5845.2425846856,21.32546,0.3131716,2.09288720608,0,0,-3.35541,255.7, -0.9, 4.4,0,0,1024,1024,1325,1024,256.2,-17.5,100,4.162,4.153,4.141,4.14,0,0,13.244,80.51,6,P-GPS,
0.35595758318688,36.8882945649152,5845.5706686856,21.653544,0,2.1090387814,12300,2018-04-05 07:10:12,13,0,16.524,5845.5706686856,21.653544,0.3131716,2.1090387814,0,0,-3.35541,255.7, -0.8, 4.5,0,0,1024,1024,1325,1024,256.2,-17.5,100,4.162,4.153,4.141,4.14,0,0,13.244,80.51,6,P-GPS,
0.355957560418892,36.8882946237116,5846.2268366856,22.309712,0,2.1300197532,12400,2018-04-05 07:10:12,13,0,16.524,5846.2268366856,22.309712,0.3131716,2.1300197532,0,0,-3.35541,255.7, -0.8, 4.7,0,0,1024,1024,1324,1024,256.2,-17.5,100,4.162,4.153,4.141,4.14,0,0,13.244,80.51,6,P-GPS,
0.355957527293898,36.8882947187301,5847.2110886856,23.293964,0,2.16307093536,12600,2018-04-05 07:10:12,13,0,16.524,5847.2110886856,23.293964,0.3131716,2.16307093536,0,0,-3.35541,255.7, -0.9, 4.4,0,0,1024,1024,1326,1024,256.2,-17.5,100,4.162,4.153,4.141,4.14,0,0,13.244,80.51,6,P-GPS,
0.355957502029709,36.8882947508763,5847.8672566856,23.950132,0,2.17789048964,12700,2018-04-05 07:10:12,13,0,16.524,5847.8672566856,23.950132,0.3131716,2.17789048964,0,0,-3.35541,255.7, -1, 4.6,0,0,1024,1024,1327,1024,256.1,-17.6,100,4.162,4.153,4.141,4.14,0,0,13.244,80.51,6,P-GPS,
0.355957494359433,36.8882948204601,5848.1953406856,24.278216,0,2.19794298372,12800,2018-04-05 07:10:13,13,0,16.524,5848.1953406856,24.278216,0.3131716,2.19794298372,0,0,-3.579104,255.8, -1, 4.7,0,0,1024,1024,1325,1024,256.2,-17.6,100,4.162,4.153,4.141,4.14,0,0,13.244,80.51,6,P-GPS,
0.355957488203405,36.8882948506704,5848.8515086856,24.934384,0,2.20740164544,12900,2018-04-05 07:10:13,13,0,16.524,5848.8515086856,24.934384,0.3131716,2.20740164544,0,0,-3.579104,255.8, -0.9, 4.8,0,0,1024,1024,1325,1024,256.2,-17.7,100,4.162,4.153,4.141,4.14,0,0,13.244,80.51,6,P-GPS,
0.355957503718711,36.8882949488771,5849.5076766856,25.590552,0,2.22933406084,13000,2018-04-05 07:10:13,13,0,16.524,5849.5076766856,25.590552,0.3131716,2.22933406084,0,0,-3.579104,255.8, -0.7, 4.9,0,0,1024,1024,1326,1023,256.2,-17.9,100,4.162,4.153,4.141,4.14,0,0,13.244,80.51,6,P-GPS,
0.355957528906668,36.8882950114511,5849.8357606856,25.918636,0,2.23970151524,13100,2018-04-05 07:10:13,13,0,16.524,5849.8357606856,25.918636,0.3131716,2.23970151524,0,0,-3.35541,255.8, -0.7, 4.7,0,0,1024,1024,1324,1024,256.1,-18,100,4.162,4.153,4.141,4.14,0,0,13.244,80.51,6,P-GPS,
0.355957546072707,36.8882951154757,5850.4919286856,26.574804,0,2.26345479684,13200,2018-04-05 07:10:13,13,0,16.524,5850.4919286856,26.574804,0.3131716,2.26345479684,0,0,-3.35541,255.8, -0.9, 4.4,0,0,1024,1024,1324,1024,256.1,-18.3,99,4.162,4.153,4.141,4.14,0,0,13.244,80.51,6,P-GPS,
0.355957568236848,36.8882951747589,5850.8200126856,26.902888,0,2.27417330112,13300,2018-04-05 07:10:13,13,0,16.524,5850.8200126856,26.902888,0.3131716,2.27417330112,0,0,-3.35541,255.7, -1.1, 4.5,0,0,1024,1024,1326,1024,256.1,-18.6,99,4.162,4.153,4.141,4.14,0,0,13.244,80.51,6,P-GPS,
0.355957627926648,36.8882952572554,5851.4761806856,27.559056,0,2.28251647724,13400,2018-04-05 07:10:13,13,0,16.524,5851.4761806856,27.559056,0.3131716,2.28251647724,0,0,-3.579104,255.6, -1.5, 4.4,0,0,1024,1024,1326,1024,256.1,-18.6,99,4.162,4.153,4.141,4.14,0,0,13.244,80.51,6,P-GPS,
0.355957703060052,36.8882952786082,5852.1323486856,28.215224,0,2.2707021724,13500,2018-04-05 07:10:13,13,0,16.524,5852.1323486856,28.215224,0.3131716,2.28251647724,0,0,-3.579104,255.6, -1.6, 3.7,0,0,1024,1024,1326,1023,256.1,-19,99,4.162,4.153,4.141,4.14,0,0,13.244,80.51,6,P-GPS,
0.355957783714746,36.8882953324207,5852.4604326856,28.543308,0,2.26708340588,13600,2018-04-05 07:10:13,13,0,16.524,5852.4604326856,28.543308,0.3131716,2.28251647724,0,0,-3.35541,255.6, -1.2, 3.2,0,0,1024,1024,1325,1023,256.1,-19.3,99,4.162,4.153,4.141,4.14,0,0,13.244,80.51,6,P-GPS,
0.355957839972753,36.8882953281386,5853.1166006856,29.199476,0,2.25296595136,13700,2018-04-05 07:10:14,13,0,16.524,5853.1166006856,29.199476,0.3131716,2.28251647724,0,0,-3.35541,255.6, -0.6, 2.9,0,0,1024,1024,1326,1023,256.1,-20.1,99,4.162,4.153,4.141,4.14,0,0,13.244,80.51,6,P-GPS,
0.355957788942102,36.8882952843769,5854.1008526856,30.183728,0,2.25230650252,13900,2018-04-05 07:10:14,13,0,16.524,5854.1008526856,30.183728,0.3131716,2.28251647724,0,0,-3.35541,255.6, -0.1, 4.2,0,0,1024,1024,1326,1024,256.1,-20.5,99,4.162,4.153,4.141,4.14,0,0,13.244,80.51,6,P-GPS,
0.355957740903157,36.88829527649,5854.7570206856,30.839896,0,2.2612533532,14000,2018-04-05 07:10:14,13,0,16.524,5854.7570206856,30.839896,0.3131716,2.28251647724,0,0,-3.35541,255.7, 0.6, 4.6,0,0,1024,1024,1326,1024,256.1,-20.9,99,4.162,4.153,4.141,4.14,0,0,13.244,80.51,6,P-GPS,
0.355957708611214,36.888295240674,5855.0851046856,31.16798,0,2.25881568908,14100,2018-04-05 07:10:14,13,0,16.524,5855.0851046856,31.16798,0.3131716,2.28251647724,0,0,-3.579104,255.7, 0.7, 4.1,0,0,1024,1024,1325,1024,256.1,-21.6,99,4.162,4.153,4.141,4.14,0,0,13.244,80.51,6,P-GPS,
0.355957668211045,36.8882952992809,5856.0693566856,32.152232,0,2.2846621466,14300,2018-04-05 07:10:14,13,0,16.524,5856.0693566856,32.152232,0.3131716,2.2846621466,0,0,-3.579104,255.7, -0.6, 4.1,0,0,1024,1024,1326,1024,256.1,-22,99,4.162,4.153,4.141,4.14,0,0,13.244,80.51,6,P-GPS,
0.355957619928342,36.8882953933195,5856.7255246856,32.8084,0,2.322260573,14400,2018-04-05 07:10:14,13,0,16.524,5856.7255246856,32.8084,0.3131716,2.322260573,0,0,-3.579104,255.7, -0.6, 4.4,0,0,1024,1024,1326,1024,256.1,-22.4,99,4.162,4.153,4.141,4.14,0,0,13.244,80.51,6,P-GPS,
0.355957567096021,36.8882954427797,5857.3816926856,33.464568,0,2.3484744846,14500,2018-04-05 07:10:14,13,0,16.524,5857.3816926856,33.464568,0.3131716,2.3484744846,0,0,-3.579104,255.7, -0.4, 4.1,0,0,1024,1024,1326,1024,256.1,-22.8,99,4.162,4.153,4.141,4.14,0,0,13.244,80.51,6,P-GPS,
0.355957498790938,36.8882955392496,5858.0378606856,34.120736,0.223694,2.39145676944,14600,2018-04-05 07:10:14,13,0,16.524,5858.0378606856,34.120736,0.3131716,2.39145676944,0,-0.223694,-3.579104,255.7, -0.4, 4.4,0,0,1024,1024,1325,1024,256.1,-23.2,99,4.162,4.153,4.141,4.14,0,0,13.244,80.51,6,P-GPS,
0.355957427703047,36.8882955855915,5858.3659446856,34.44882,0,2.42108603548,14700,2018-04-05 07:10:14,13,0,16.524,5858.3659446856,34.44882,0.3131716,2.42108603548,0,0,-3.579104,255.7, -0.1, 4.8,0,0,1024,1024,1325,1024,256.1,-23.5,99,4.162,4.153,4.141,4.14,0,0,13.244,80.51,6,P-GPS,
0.355957364702925,36.8882957050279,5859.0221126856,35.104988,0,2.46923564332,14800,2018-04-05 07:10:15,13,0,16.524,5859.0221126856,35.104988,0.3131716,2.46923564332,0,0,-3.579104,255.7, -0.1, 4.7,0,0,1024,1024,1317,1023,256.1,-23.5,99,4.162,4.153,4.141,4.14,0,0,13.244,80.51,6,P-GPS,
0.355957315388756,36.8882957802065,5859.6782806856,35.761156,0,2.50182422704,14900,2018-04-05 07:10:15,13,0,16.524,5859.6782806856,35.761156,0.3131716,2.50182422704,0,0,-3.802798,255.7, -0.1, 4.3,0,0,1024,1024,1318,1024,256.1,-23.9,99,4.162,4.153,4.141,4.14,0,0,13.244,80.51,6,P-GPS,
0.355957270443091,36.8882958930493,5860.3344486856,36.417324,0,2.54398630188,15000,2018-04-05 07:10:15,13,0,16.524,5860.3344486856,36.417324,0.3131716,2.54398630188,0,0,-3.579104,255.7, -0.1, 4.4,0,0,1024,1024,1316,1024,256.1,-24.3,99,4.162,4.153,4.141,4.14,0,0,13.244,80.51,6,P-GPS,
0.35595721009774,36.8882960890428,5861.3187006856,37.401576,0,2.6133202936,15200,2018-04-05 07:10:15,13,0,16.524,5861.3187006856,37.401576,0.3131716,2.6133202936,0,0,-3.579104,255.7, -0.1, 4.6,0,0,1024,1024,1312,1024,256.1,-25.2,99,4.152,4.147,4.139,4.134,0,0,13.528,80.51,6,P-GPS,
0.35595719366043,36.8882961709295,5861.9748686856,38.057744,0,2.64038066192,15300,2018-04-05 07:10:15,13,0,16.524,5861.9748686856,38.057744,0.3131716,2.64038066192,0,0,-3.802798,255.7, -0.1, 4.9,0,0,1024,1024,1307,1023,256.1,-25.7,99,4.152,4.147,4.139,4.134,0,0,13.528,80.51,6,P-GPS,
0.355957147502897,36.8882962723049,5862.6310366856,38.713912,0,2.67981635872,15400,2018-04-05 07:10:15,13,0,16.524,5862.6310366856,38.713912,0.3131716,2.67981635872,0,0,-3.579104,255.7, -0.2, 5,0,0,1024,1024,1309,1023,256.1,-26.6,99,4.152,4.147,4.139,4.134,0,0,13.528,80.51,6,P-GPS,
0.355957092482558,36.8882964169375,5863.6152886856,39.698164,0,2.73370415572,15600,2018-04-05 07:10:15,13,0,16.524,5863.6152886856,39.698164,0.3131716,2.73370415572,0,0,-3.35541,255.7, -0.2, 4.5,0,0,1024,1024,1309,1023,256.1,-27.1,99,4.152,4.147,4.139,4.134,0,0,13.528,80.51,6,P-GPS,
0.355957088159039,36.8882964681945,5864.2714566856,40.354332,0,2.74942922184,15700,2018-04-05 07:10:15,13,0,16.524,5864.2714566856,40.354332,0.3131716,2.74942922184,0,0,-3.35541,255.6, 0, 4.3,0,0,1024,1024,1310,1024,256.1,-27.6,99,4.152,4.147,4.139,4.134,0,0,13.528,80.51,6,P-GPS,
0.35595709912264,36.8882965491798,5864.9276246856,41.0105,0,2.77041019364,15800,2018-04-05 07:10:16,13,0,16.524,5864.9276246856,41.0105,0.3131716,2.77041019364,0,0,-3.35541,255.7, -0.4, 4.7,0,0,1024,1024,1319,1024,256.1,-27.6,99,4.152,4.147,4.139,4.134,0,0,13.528,80.51,6,P-GPS,
0.355957112864163,36.8882965832018,5865.2557086856,41.338584,0,2.77726058756,15900,2018-04-05 07:10:16,13,0,16.524,5865.2557086856,41.338584,0.3131716,2.77726058756,0,0,-3.131716,255.7, -0.5, 4.6,0,0,1024,1024,1308,1024,256.1,-28.4,99,4.152,4.147,4.139,4.134,0,0,13.528,80.51,6,P-GPS,
0.35595711143561,36.8882966632262,5865.9118766856,41.994752,0,2.80090888228,16000,2018-04-05 07:10:16,13,0,16.524,5865.9118766856,41.994752,0.3131716,2.80090888228,0,0,-3.131716,255.6, -0.3, 4.3,0,0,1024,1024,1306,1024,256.1,-28.7,99,4.152,4.147,4.139,4.134,0,0,13.528,80.51,6,P-GPS,
0.355957100859274,36.8882966910741,5866.2399606856,42.322836,0,2.81136163852,16100,2018-04-05 07:10:16,13,0,16.524,5866.2399606856,42.322836,0.3131716,2.81136163852,0,0,-3.35541,255.6, 0, 4.5,0,0,1024,1024,1307,1024,256.1,-29,99,4.152,4.147,4.139,4.134,0,0,13.528,80.51,6,P-GPS,
0.355957120873156,36.8882967481995,5866.8961286856,42.979004,0,2.82376649456,16200,2018-04-05 07:10:16,13,0,16.417,5866.8961286856,42.979004,0.3131716,2.82376649456,0,0,-3.131716,255.6, 0, 4.8,0,0,1024,1024,1307,1024,256.1,-29,99,4.146,4.141,4.134,4.132,0,0,13.58,80.51,6,P-GPS,
0.355957151217174,36.8882967542329,5867.5522966856,43.635172,0,2.81899943404,16300,2018-04-05 07:10:16,13,0,16.417,5867.5522966856,43.635172,0.3131716,2.82376649456,0,0,-3.35541,255.6, 0, 4.6,0,0,1024,1024,1311,1024,256.1,-29.2,99,4.146,4.141,4.134,4.132,0,0,13.58,80.51,6,P-GPS,
0.355957188374093,36.8882967937315,5867.8803806856,43.963256,0,2.82271662576,16400,2018-04-05 07:10:16,13,0,16.417,5867.8803806856,43.963256,0.3131716,2.82376649456,0,0,-3.35541,255.6, 0.3, 4,0,0,1024,1024,1304,1024,256.1,-29.2,99,4.146,4.141,4.134,4.132,0,0,13.58,80.51,6,P-GPS,
0.355957213901174,36.8882967814785,5868.5365486856,44.619424,0,2.81365494568,16500,2018-04-05 07:10:16,13,0,16.417,5868.5365486856,44.619424,0.3131716,2.82376649456,0,0,-3.35541,255.6, 0.4, 3.7,0,0,1024,1024,1312,1024,256.1,-29.2,99,4.146,4.141,4.134,4.132,0,0,13.58,80.51,6,P-GPS,
0.355957254562301,36.8882968249538,5869.1927166856,45.275592,0,2.81798565448,16600,2018-04-05 07:10:16,13,0,16.417,5869.1927166856,45.275592,0.3131716,2.82376649456,0,0,-3.131716,255.6, 0.3, 3.8,0,0,1024,1024,1326,1024,256.1,-29.2,99,4.146,4.141,4.134,4.132,0,0,13.58,80.51,6,P-GPS,
0.355957280953068,36.8882968107417,5869.5208006856,45.603676,0.223694,2.80820547044,16700,2018-04-05 07:10:16,13,0,16.417,5869.5208006856,45.603676,0.3131716,2.82376649456,0,-0.223694,-3.131716,255.7, 0.5, 4.1,0,0,1024,1024,1327,1024,256.1,-29.2,99,4.146,4.141,4.134,4.132,0,0,13.58,80.51,6,P-GPS,
0.355957328247865,36.8882968190816,5870.1769686856,46.259844,0.223694,2.8008202996,16800,2018-04-05 07:10:17,13,0,16.417,5870.1769686856,46.259844,0.3131716,2.82376649456,0,-0.223694,-3.35541,255.6, 0.8, 3.8,0,0,1024,1024,1331,1024,256.1,-29.2,99,4.146,4.141,4.134,4.132,0,0,13.58,80.51,6,P-GPS,
0.355957359370178,36.8882967880113,5871.4893046856,47.57218,0.223694,2.78503289752,17000,2018-04-05 07:10:17,13,0,16.417,5871.4893046856,47.57218,0.3131716,2.82376649456,0,-0.223694,-3.579104,255.4, 0.5, 3.4,0,0,1024,1024,1334,1024,256,-29.2,99,4.146,4.141,4.134,4.132,0,0,13.58,80.51,6,P-GPS,
0.355957325623933,36.8882967310673,5871.8173886856,47.900264,0.223694,2.77505258224,17100,2018-04-05 07:10:17,13,0,16.417,5871.8173886856,47.900264,0.3131716,2.82376649456,0,-0.223694,-3.579104,255.6, 0.9, 4.1,0,0,1024,1024,1334,1024,256,-29.2,99,4.146,4.141,4.134,4.132,0,0,13.58,80.51,6,P-GPS,
0.355957284249446,36.888296738153,5872.4735566856,48.556432,0.223694,2.78587935424,17200,2018-04-05 07:10:17,13,0,16.444,5872.4735566856,48.556432,0.3131716,2.82376649456,0,-0.223694,-3.35541,255.7, 2.2, 3.3,0,0,1024,1024,1325,1024,256,-29.2,99,4.139,4.134,4.133,4.135,0,0,12.98,80.51,6,P-GPS,
0.355957243564401,36.8882967264578,5873.1297246856,49.2126,0.223694,2.79103355388,17300,2018-04-05 07:10:17,13,0,16.444,5873.1297246856,49.2126,0.3131716,2.82376649456,0,-0.223694,-3.579104,255.8, 2.5, 3.1,0,0,1024,1024,1326,1024,256,-29.2,99,4.139,4.134,4.133,4.135,0,0,12.98,80.51,6,P-GPS,
0.355957191564011,36.8882967988484,5873.7858926856,49.868768,0.223694,2.82355323996,17400,2018-04-05 07:10:17,13,0,16.444,5873.7858926856,49.868768,0.3131716,2.82376649456,0,0,-3.802798,255.8, 2.3, 3.8,0,0,1024,1024,1329,1024,256,-29.2,99,4.139,4.134,4.133,4.135,0,0,12.98,80.51,6,P-GPS,
0.355957136271926,36.888296856582,5874.4420606856,50.524936,0,2.85243119364,17500,2018-04-05 07:10:17,13,0,16.444,5874.4420606856,50.524936,0.3131716,2.85243119364,0,0,-3.579104,255.7, 1.4, 4.5,0,0,1024,1024,1326,1023,256,-29.2,99,4.139,4.134,4.133,4.135,0,0,12.98,80.51,6,P-GPS,
0.35595711048694,36.8882969714019,5875.0982286856,51.181104,0,2.89197187732,17600,2018-04-05 07:10:17,13,0,16.444,5875.0982286856,51.181104,0.3131716,2.89197187732,0,0,-3.579104,255.6, 0.6, 4.1,0,0,1024,1024,1323,1024,256,-29.2,99,4.139,4.134,4.133,4.135,0,0,12.98,80.51,6,P-GPS,
0.355957083501893,36.8882970362453,5875.7543966856,51.837272,0,2.9169620356,17700,2018-04-05 07:10:18,13,0,16.444,5875.7543966856,51.837272,0.3131716,2.9169620356,0,0,-3.579104,255.6, 0.6, 3.5,0,0,1024,1024,1319,1024,256,-29.2,99,4.139,4.134,4.133,4.135,0,0,12.98,80.51,6,P-GPS,
0.355956961186716,36.8882972354053,5876.7386486856,52.821524,0,3.00205390184,17900,2018-04-05 07:10:18,13,0,16.444,5876.7386486856,52.821524,0.3131716,3.00205390184,0,0,-3.579104,255.6, 0.9, 4.4,0,0,1024,1024,1311,1023,256,-29.2,99,4.139,4.134,4.133,4.135,0,0,12.98,80.51,6,P-GPS,
0.355956846453168,36.8882973701094,5877.3948166856,53.477692,0,3.06635180416,18000,2018-04-05 07:10:18,13,0,16.444,5877.3948166856,53.477692,0.3131716,3.06635180416,0,0,-3.579104,255.6, 0.9, 4.5,0,0,1024,1024,1306,1023,256,-29.3,99,4.139,4.134,4.133,4.135,0,0,12.98,80.51,6,P-GPS,
0.355956728842973,36.8882974410461,5878.0509846856,54.13386,0,3.11233933844,18100,2018-04-05 07:10:18,13,0,16.444,5878.0509846856,54.13386,0.3131716,3.11233933844,0,0,-3.579104,255.7, 1, 4.7,0,0,1024,1024,1302,1023,256,-29.3,99,4.139,4.134,4.133,4.135,0,0,12.98,80.51,6,P-GPS,
0.355956559802751,36.8882975510318,5878.7071526856,54.790028,0.223694,3.18102700468,18200,2018-04-05 07:10:18,13,0,16.444,5878.7071526856,54.790028,0.3131716,3.18102700468,0,-0.223694,-3.579104,255.7, 1.9, 5,0,0,1024,1024,1304,1023,256,-29.3,99,4.139,4.134,4.133,4.135,0,0,12.98,80.51,6,P-GPS,
0.355956395889481,36.8882976055921,5879.3633206856,55.446196,0.3131716,3.23259852864,18300,2018-04-05 07:10:18,13,0,16.444,5879.3633206856,55.446196,0.3131716,3.23259852864,-0.223694,-0.223694,-3.35541,255.8, 2.3, 5.3,0,0,1024,1024,1306,1023,256,-29.4,99,4.139,4.134,4.133,4.135,0,0,12.98,80.51,6,P-GPS,
0.35595626845641,36.8882977227026,5879.6914046856,55.77428,0.223694,3.2946851448,18400,2018-04-05 07:10:18,13,0,16.444,5879.6914046856,55.77428,0.3131716,3.2946851448,0,-0.223694,-3.35541,255.8, 2.3, 5.6,0,0,1024,1024,1306,1023,256,-29.5,99,4.139,4.134,4.133,4.135,0,0,12.98,80.51,6,P-GPS,
0.355956164411052,36.8882977909226,5880.3475726856,56.430448,0,3.33743449,18500,2018-04-05 07:10:18,13,0,16.444,5880.3475726856,56.430448,0.3131716,3.33743449,0,0,-3.35541,255.8, 2.1, 5.2,0,0,1024,1024,1288,1024,256,-29.5,99,4.139,4.134,4.133,4.135,0,0,12.98,80.51,6,P-GPS,
0.35595604569321,36.8882978895589,5881.0037406856,57.086616,0,3.3923557516,18600,2018-04-05 07:10:18,13,0,16.444,5881.0037406856,57.086616,0.3131716,3.3923557516,0,0,-3.131716,255.8, 2.4, 5.5,0,0,1024,1024,1265,1024,256,-29.6,99,4.139,4.134,4.133,4.135,0,0,12.98,80.51,6,P-GPS,
0.355955926057129,36.8882979388358,5881.3318246856,57.4147,0,3.4332678264,18700,2018-04-05 07:10:18,13,0,16.444,5881.3318246856,57.4147,0.3131716,3.4332678264,0,0,-3.131716,255.8, 2.7, 5.9,0,0,1024,1024,1242,1024,256,-29.7,99,4.139,4.134,4.133,4.135,0,0,12.98,80.51,6,P-GPS,
0.355955767794153,36.8882980236003,5881.9879926856,58.070868,0,3.4932415816,18800,2018-04-05 07:10:19,13,0,16.444,5881.9879926856,58.070868,0.3131716,3.4932415816,0,0,-2.908022,255.8, 2.6, 6.2,0,0,1024,1024,1184,1024,256,-29.7,99,4.139,4.134,4.133,4.135,0,0,12.98,80.51,6,P-GPS,
0.355955630974121,36.8882980646738,5882.3160766856,58.398952,0,3.536089352,18900,2018-04-05 07:10:19,13,0,16.444,5882.3160766856,58.398952,0.3131716,3.536089352,0,0,-2.460634,255.8, 2.6, 6.3,0,0,1024,1024,1184,1024,256,-29.7,99,4.139,4.134,4.133,4.135,0,0,12.98,80.51,6,P-GPS,
0.35595551798372,36.8882981612657,5882.6441606856,58.727036,0,3.5893701936,19000,2018-04-05 07:10:19,13,0,16.444,5882.6441606856,58.727036,0.3131716,3.5893701936,0,0,-2.013246,255.8, 3.2, 6.8,0,0,1024,1024,1092,1024,256,-29.7,99,4.139,4.134,4.133,4.135,0,0,12.98,80.51,6,P-GPS,
0.355955438526848,36.8882982175813,5882.9722446856,59.05512,0,3.6235893548,19100,2018-04-05 07:10:19,13,0,16.444,5882.9722446856,59.05512,0.3131716,3.6235893548,0,0,-1.565858,255.8, 2.9, 6.8,0,0,1024,1024,1092,1024,256,-29.7,99,4.139,4.134,4.133,4.135,0,0,12.98,80.51,6,P-GPS,
0.355955384886107,36.8882983724913,5883.3003286856,59.383204,0,3.6798557608,19200,2018-04-05 07:10:19,13,0,16.47,5883.3003286856,59.383204,0.3131716,3.6798557608,0,0,-1.342164,255.8, 2.7, 5.8,0,0,1024,1024,1180,1024,256,-29.7,99,4.135,4.124,4.121,4.123,0,0,13.598,80.51,6,P-GPS,
0.355955343987329,36.8882984719653,5883.6284126856,59.711288,0,3.717519804,19300,2018-04-05 07:10:19,13,0,16.47,5883.6284126856,59.711288,0.3131716,3.717519804,0,0,-0.671082,255.8, 2.5, 5.8,0,0,1024,1024,1180,1024,256,-29.7,99,4.135,4.124,4.121,4.123,0,0,13.598,80.51,6,P-GPS,
0.355955285030735,36.8882986016344,5883.6284126856,59.711288,0,3.7679135064,19400,2018-04-05 07:10:19,13,0,16.47,5883.6284126856,59.711288,0.3131716,3.7679135064,0,0,-0.671082,255.7, 1.7, 5.4,0,0,1024,1024,1248,1024,256,-29.7,99,4.135,4.124,4.121,4.123,0,0,13.598,80.51,6,P-GPS,
0.355955243180538,36.888298674533,5883.9564966856,60.039372,0,3.798228468,19500,2018-04-05 07:10:19,13,0,16.47,5883.9564966856,60.039372,0.3131716,3.798228468,0,0,-0.894776,255.6, 1.6, 4.6,0,0,1024,1024,1249,1024,256,-29.7,99,4.135,4.124,4.121,4.123,0,0,13.598,80.51,6,P-GPS,
0.355955150616321,36.8882988196648,5884.2845806856,60.367456,0,3.86072847,19600,2018-04-05 07:10:19,13,0,16.47,5884.2845806856,60.367456,0.3131716,3.86072847,0,0,-1.565858,255.6, 2.1, 5.2,0,0,1024,1024,1245,1024,256,-29.7,99,4.135,4.124,4.121,4.123,0,0,13.598,80.51,6,P-GPS,
0.355955065901815,36.8882989154891,5884.6126646856,60.69554,0,3.907316398,19700,2018-04-05 07:10:19,13,0,16.47,5884.6126646856,60.69554,0.3131716,3.907316398,0,0,-1.789552,255.7, 2.1, 5.6,0,0,1024,1024,1247,1024,256,-29.7,99,4.135,4.124,4.121,4.123,0,0,13.598,80.51,6,P-GPS,
0.355954975383127,36.8882990540442,5884.9407486856,61.023624,0,3.9674541952,19800,2018-04-05 07:10:20,13,0,16.47,5884.9407486856,61.023624,0.3131716,3.9674541952,0,0,-1.789552,255.7, 2.4, 6.4,0,0,1024,1024,1260,1024,255.9,-29.7,99,4.135,4.124,4.121,4.123,0,0,13.598,80.51,6,P-GPS,
0.355954920280246,36.8882991250424,5885.5969166856,61.679792,0.223694,4.0002297868,19900,2018-04-05 07:10:20,13,0,16.47,5885.5969166856,61.679792,0.3131716,4.0002297868,0,-0.223694,-2.013246,255.7, 2.6, 6.3,0,0,1024,1024,1255,1024,255.9,-29.7,99,4.135,4.124,4.121,4.123,0,0,13.598,80.51,6,P-GPS,
0.355954886672012,36.8882992355666,5885.9250006856,62.007876,0,4.03953425,20000,2018-04-05 07:10:20,13,0,16.47,5885.9250006856,62.007876,0.3131716,4.03953425,0,0,-2.013246,255.8, 3.2, 6.2,0,0,1024,1024,1246,1024,255.9,-29.7,99,4.135,4.124,4.121,4.123,0,0,13.598,80.51,6,P-GPS,
0.355954876437648,36.8882993012911,5886.2530846856,62.33596,0,4.0607284764,20100,2018-04-05 07:10:20,13,0,16.47,5886.2530846856,62.33596,0.3131716,4.0607284764,0,0,-2.23694,255.7, 2.8, 6.8,0,0,1024,1024,1245,1024,255.9,-29.7,99,4.135,4.124,4.121,4.123,0,0,13.598,80.51,6,P-GPS,
0.355954849555295,36.8882994227386,5886.5811686856,62.664044,0,4.1018045932,20200,2018-04-05 07:10:20,13,0,16.47,5886.5811686856,62.664044,0.3131716,4.1018045932,0,0,-2.23694,255.7, 2, 7,0,0,1024,1024,1252,1024,255.9,-29.7,99,4.147,4.145,4.14,4.129,0,0,12.678,80.51,6,P-GPS,
0.355954866386485,36.8882994605906,5886.9092526856,62.992128,0.223694,4.1090224412,20300,2018-04-05 07:10:20,13,0,16.47,5886.9092526856,62.992128,0.3131716,4.1090224412,0,-0.223694,-2.23694,255.7, 2.3, 6,0,0,1024,1024,1254,1024,255.9,-29.7,99,4.147,4.145,4.14,4.129,0,0,12.678,80.51,6,P-GPS,
0.355954901722498,36.8882995283102,5887.5654206856,63.648296,0.223694,4.120899082,20400,2018-04-05 07:10:20,13,0,16.47,5887.5654206856,63.648296,0.3131716,4.120899082,0,-0.223694,-2.23694,255.8, 2.9, 5.2,0,0,1024,1024,1270,1024,255.9,-29.5,99,4.147,4.145,4.14,4.129,0,0,12.678,80.51,6,P-GPS,
0.355954950369006,36.888299531651,5887.8935046856,63.97638,0.223694,4.1111877956,20500,2018-04-05 07:10:20,13,0,16.47,5887.8935046856,63.97638,0.3131716,4.120899082,0,-0.223694,-2.23694,255.8, 3.3, 5.2,0,0,1024,1024,1263,1024,255.9,-28.2,99,4.147,4.145,4.14,4.129,0,0,12.678,80.51,6,P-GPS,
0.355955000796624,36.8882995812555,5888.2215886856,64.304464,0.223694,4.1147311028,20600,2018-04-05 07:10:20,13,0,16.47,5888.2215886856,64.304464,0.3131716,4.120899082,0,-0.223694,-2.460634,255.8, 3.1, 4.7,0,0,1024,1024,1256,1023,255.9,-27,99,4.147,4.145,4.14,4.129,0,0,12.678,80.51,6,P-GPS,
0.355955057721733,36.8882995724477,5888.8777566856,64.960632,0.223694,4.0998360892,20700,2018-04-05 07:10:20,13,0,16.47,5888.8777566856,64.960632,0.3131716,4.120899082,0,-0.223694,-2.460634,255.8, 3.4, 4.9,0,0,1024,1024,1259,1023,255.9,-27,99,4.147,4.145,4.14,4.129,0,0,12.678,80.51,6,P-GPS,
0.355955126975589,36.8882996622568,5889.2058406856,65.288716,0.223694,4.1114830712,20800,2018-04-05 07:10:21,13,0,16.47,5889.2058406856,65.288716,0.3131716,4.120899082,0,-0.223694,-2.460634,255.9, 3.8, 5.4,0,0,1024,1024,1258,1024,255.9,-25.7,99,4.147,4.145,4.14,4.129,0,0,12.678,80.51,6,P-GPS,
0.355955211969984,36.8882997079473,5889.5339246856,65.6168,0.3131716,4.1070867456,20900,2018-04-05 07:10:21,13,0,16.47,5889.5339246856,65.6168,0.3131716,4.120899082,0.223694,-0.223694,-2.460634,255.9, 3.7, 4.8,0,0,1024,1024,1252,1024,255.9,-25.7,99,4.147,4.145,4.14,4.129,0,0,12.678,80.51,6,P-GPS,
0.355955290090107,36.8882998388588,5890.1900926856,66.272968,0,4.1299542004,21000,2018-04-05 07:10:21,13,0,16.47,5890.1900926856,66.272968,0.3131716,4.1299542004,0,0,-2.23694,255.8, 3.5, 4.7,0,0,1024,1024,1249,1024,255.9,-23.4,99,4.147,4.145,4.14,4.129,0,0,12.678,80.51,6,P-GPS,
0.355955359163409,36.8882999238546,5890.5181766856,66.601052,0,4.141404332,21100,2018-04-05 07:10:21,13,0,16.47,5890.5181766856,66.601052,0.3131716,4.141404332,0,0,-2.23694,255.8, 3.1, 5,0,0,1024,1024,1251,1023,255.9,-23.4,99,4.147,4.145,4.14,4.129,0,0,12.678,80.51,6,P-GPS,
0.355955380309975,36.8883001064631,5890.8462606856,66.929136,0,4.1925526276,21200,2018-04-05 07:10:21,13,0,16.444,5890.8462606856,66.929136,0.3131716,4.1925526276,0,0,-2.013246,255.8, 2.7, 4.6,0,0,1024,1024,1252,1022,255.9,-23.4,99,4.138,4.13,4.126,4.125,0,0,13.8,80.51,6,P-GPS,
0.355955394395812,36.8883002343567,5891.1743446856,67.25722,0,4.2287731012,21300,2018-04-05 07:10:21,13,0,16.444,5891.1743446856,67.25722,0.3131716,4.2287731012,0,0,-2.013246,255.8, 2.2, 4.6,0,0,1024,1024,1256,1023,255.9,-23.4,99,4.138,4.13,4.126,4.125,0,0,13.8,80.51,6,P-GPS,
0.355955376374026,36.8883004511959,5891.5024286856,67.585304,0,4.298884652,21400,2018-04-05 07:10:21,13,0,16.444,5891.5024286856,67.585304,0.3131716,4.298884652,0,0,-2.23694,255.8, 1.6, 5.2,0,0,1024,1024,1254,1024,255.9,-23.3,99,4.138,4.13,4.126,4.125,0,0,13.8,80.51,6,P-GPS,
0.355955360062106,36.8883005982885,5892.1585966856,68.241472,0,4.3474082756,21500,2018-04-05 07:10:21,13,0,16.444,5892.1585966856,68.241472,0.3131716,4.3474082756,0,0,-2.23694,255.7, 1.5, 5.4,0,0,1024,1024,1254,1024,255.9,-23,99,4.138,4.13,4.126,4.125,0,0,13.8,80.51,6,P-GPS,
0.35595531511176,36.8883007948271,5892.4866806856,68.569556,0,4.4168964668,21600,2018-04-05 07:10:21,13,0,16.444,5892.4866806856,68.569556,0.3131716,4.4168964668,0,0,-2.013246,255.8, 2.1, 5.3,0,0,1024,1024,1251,1024,255.9,-22.7,99,4.138,4.13,4.126,4.125,0,0,13.8,80.51,6,P-GPS,
0.35595527722601,36.8883009188537,5892.8147646856,68.89764,0,4.4626313764,21700,2018-04-05 07:10:21,13,0,16.444,5892.8147646856,68.89764,0.3131716,4.4626313764,0,0,-2.013246,255.8, 2.2, 5.6,0,0,1024,1024,1249,1024,255.9,-22.5,99,4.138,4.13,4.126,4.125,0,0,13.8,80.51,6,P-GPS,
0.355955233707676,36.8883011231825,5893.1428486856,69.225724,0,4.5344817724,21800,2018-04-05 07:10:22,13,0,16.444,5893.1428486856,69.225724,0.3131716,4.5344817724,0,0,-2.013246,255.8, 2, 6,0,0,1024,1024,1248,1024,255.9,-22.2,99,4.138,4.13,4.126,4.125,0,0,13.8,80.51,6,P-GPS,
0.355955210977855,36.8883012597821,5893.4709326856,69.553808,0,4.5813977844,21900,2018-04-05 07:10:22,13,0,16.444,5893.4709326856,69.553808,0.3131716,4.5813977844,0,0,-2.013246,255.8, 1.6, 6,0,0,1024,1024,1252,1024,255.9,-22.2,99,4.138,4.13,4.126,4.125,0,0,13.8,80.51,6,P-GPS,
0.355955232673614,36.8883014641495,5893.7990166856,69.881892,0,4.6413387312,22000,2018-04-05 07:10:22,13,0,16.444,5893.7990166856,69.881892,0.3131716,4.6413387312,0,0,-2.23694,255.8, 1.4, 5.8,0,0,1024,1024,1254,1024,255.9,-22.1,99,4.138,4.13,4.126,4.125,0,0,13.8,80.51,6,P-GPS,
0.355955262193029,36.8883016016109,5894.1271006856,70.209976,0,4.6791668164,22100,2018-04-05 07:10:22,13,0,16.444,5894.1271006856,70.209976,0.3131716,4.6791668164,0,0,-2.013246,255.8, 1.3, 5.7,0,0,1024,1024,1255,1024,255.9,-21.8,99,4.138,4.13,4.126,4.125,0,0,13.8,80.51,6,P-GPS,
0.355955290259262,36.8883018032237,5894.4551846856,70.53806,0,4.7378282356,22200,2018-04-05 07:10:22,13,0,16.444,5894.4551846856,70.53806,0.3131716,4.7378282356,0,0,-2.013246,255.8, 1, 6,0,0,1024,1024,1258,1024,255.9,-21.5,99,4.138,4.13,4.126,4.125,0,0,13.8,80.51,6,P-GPS,
0.355955311321149,36.8883019449729,5894.7832686856,70.866144,0,4.7791012028,22300,2018-04-05 07:10:22,13,0,16.444,5894.7832686856,70.866144,0.3131716,4.7791012028,0,0,-2.23694,255.7, 0.4, 6,0,0,1024,1024,1260,1024,255.9,-21.1,99,4.138,4.13,4.126,4.125,0,0,13.8,80.51,6,P-GPS,
0.355955296993081,36.8883021308339,5895.4394366856,71.522312,0,4.8409122284,22400,2018-04-05 07:10:22,13,0,16.444,5895.4394366856,71.522312,0.3131716,4.8409122284,0,0,-2.23694,255.6, 0.2, 6,0,0,1024,1024,1265,1024,255.9,-21,99,4.138,4.13,4.126,4.125,0,0,13.8,80.51,6,P-GPS,
0.355955280979777,36.8883022338221,5895.7675206856,71.850396,0,4.8766733844,22500,2018-04-05 07:10:22,13,0,16.444,5895.7675206856,71.850396,0.3131716,4.8766733844,0,0,-2.23694,255.6, -0.1, 7,0,0,1024,1024,1264,1024,255.9,-21,99,4.138,4.13,4.126,4.125,0,0,13.8,80.51,6,P-GPS,
0.355955290883566,36.8883023472005,5896.0956046856,72.17848,0.223694,4.911253438,22600,2018-04-05 07:10:22,13,0,16.444,5896.0956046856,72.17848,0.3131716,4.911253438,0,-0.223694,-2.460634,255.6, 0.1, 6.5,0,0,1024,1024,1270,1023,255.9,-21,99,4.138,4.13,4.126,4.125,0,0,13.8,80.51,6,P-GPS,
0.355955349255141,36.8883023558381,5896.4236886856,72.506564,0.3131716,4.9039043564,22700,2018-04-05 07:10:22,13,0,16.444,5896.4236886856,72.506564,0.3131716,4.911253438,0.223694,-0.223694,-2.23694,255.7, 0.9, 5.3,0,0,1024,1024,1284,1023,255.9,-21,99,4.138,4.13,4.126,4.125,0,0,13.8,80.51,6,P-GPS,
0.355955440923511,36.8883023786835,5896.7517726856,72.834648,0.3131716,4.8955382144,22800,2018-04-05 07:10:23,13,0,16.444,5896.7517726856,72.834648,0.3131716,4.911253438,0.223694,-0.223694,-2.23694,255.9, 1.8, 4.5,0,0,1024,1024,1303,1023,255.9,-21,99,4.138,4.13,4.126,4.125,0,0,13.8,80.51,6,P-GPS,
0.355955542680701,36.8883023548574,5897.0798566856,73.162732,0.3131716,4.8706038304,22900,2018-04-05 07:10:23,13,0,16.444,5897.0798566856,73.162732,0.3131716,4.911253438,0.223694,-0.223694,-2.460634,255.8, 1.8, 3.8,0,0,1024,1024,1313,1022,255.9,-21,99,4.138,4.13,4.126,4.125,0,0,13.8,80.51,6,P-GPS,
0.355955650229046,36.8883023652144,5897.7360246856,73.8189,0.3131716,4.8560040924,23000,2018-04-05 07:10:23,13,0,16.444,5897.7360246856,73.8189,0.3131716,4.911253438,0.223694,-0.223694,-2.684328,255.7, 1.5, 3.2,0,0,1024,1024,1324,1019,255.9,-21,99,4.138,4.13,4.126,4.125,0,0,13.8,80.51,6,P-GPS,
0.355955730483448,36.888302329177,5898.0641086856,74.146984,0.223694,4.8310040916,23100,2018-04-05 07:10:23,13,0,16.444,5898.0641086856,74.146984,0.3131716,4.911253438,0,-0.223694,-2.908022,255.7, 1.7, 3.6,0,0,1024,1024,1351,1024,255.9,-21,99,4.138,4.13,4.126,4.125,0,0,13.8,80.51,6,P-GPS,
0.355955834735211,36.8883023030073,5899.3764446856,75.45932,0.223694,4.8054135396,23300,2018-04-05 07:10:23,13,0,16.444,5899.3764446856,75.45932,0.3131716,4.911253438,0,-0.223694,-3.579104,255.6, 1.8, 4.4,0,0,1024,1024,1388,1024,255.9,-21,99,4.138,4.13,4.126,4.125,0,0,13.8,80.51,6,P-GPS,
0.355955869032481,36.8883023407641,5900.0326126856,76.115488,0.223694,4.8122048784,23400,2018-04-05 07:10:23,13,0,16.444,5900.0326126856,76.115488,0.3131716,4.911253438,0,-0.223694,-3.802798,255.7, 2.1, 4.4,0,0,1024,1024,1403,1024,255.9,-21,99,4.138,4.13,4.126,4.125,0,0,13.8,80.51,6,P-GPS,
0.35595589921162,36.88830232346,5900.6887806856,76.771656,0.223694,4.801673382,23500,2018-04-05 07:10:23,13,0,16.444,5900.6887806856,76.771656,0.3131716,4.911253438,0,-0.223694,-4.026492,255.6, 2, 4.5,0,0,1024,1024,1400,1024,255.9,-21,99,4.138,4.13,4.126,4.125,0,0,13.8,80.51,6,P-GPS,
0.355955911258034,36.8883023895426,5901.3449486856,77.427824,0.223694,4.8213912304,23600,2018-04-05 07:10:23,13,0,16.444,5901.3449486856,77.427824,0.3131716,4.911253438,0,-0.223694,-4.47388,255.7, 1.7, 4.5,0,0,1024,1024,1400,1024,255.9,-21,99,4.138,4.13,4.126,4.125,0,0,13.8,80.51,6,P-GPS,
0.355955928740398,36.888302381056,5902.0011166856,78.083992,0.447388,4.8158138024,23700,2018-04-05 07:10:23,13,0,16.444,5902.0011166856,78.083992,0.447388,4.911253438,0,-0.447388,-4.697574,255.7, 2.1, 4.2,0,0,1024,1024,1397,1023,255.9,-21,99,4.138,4.13,4.126,4.125,0,0,13.8,80.51,6,P-GPS,
0.355955962384255,36.8883024145753,5902.6572846856,78.74016,0.447388,4.8214568472,23800,2018-04-05 07:10:24,13,0,16.444,5902.6572846856,78.74016,0.447388,4.911253438,0,-0.447388,-4.697574,255.8, 2.5, 3.8,0,0,1024,1024,1403,1024,255.9,-21,99,4.138,4.13,4.126,4.125,0,0,13.8,80.51,6,P-GPS,
