latitude,longitude,altitude(feet),ascent(feet),speed(mph),distance(feet),time(millisecond),datetime(utc),satellites,gpslevel,voltage(v),max_altitude(feet),max_ascent(feet),max_speed(mph),max_distance(feet), xSpeed(mph), ySpeed(mph), zSpeed(mph), compass_heading(degrees), pitch(degrees), roll(degrees),isPhoto,isVideo,rc_elevator,rc_aileron,rc_throttle,rc_rudder,gimbal_heading(degrees),gimbal_pitch(degrees),battery_percent,voltageCell1,voltageCell2,voltageCell3,voltageCell4,voltageCell5,voltageCell6,current(A),battery_temperature(f),flycStateRaw,flycState,message
0.36469246582622,36.925784649289,5342.6512979333,0,0,0,0,2018-04-03 07:41:49,13,0,0,5342.6512979333,0,0,0,0,0,0,46.1, 2.8, 6.6,0,0,364,364,364,1684,50.3,0,98,4.274,4.275,4.274,4.275,0,0,0,84.11,41,Motors_Started,
0.364692512326845,36.9257845502436,5342.6512979333,0,0,0.039920276868,100,2018-04-03 07:41:49,13,0,0,5342.6512979333,0,0,0.039920276868,0,0,0,46.1, 2.8, 6.6,0,0,364,364,364,1684,50.3,0,98,4.274,4.275,4.274,4.275,0,0,0,84.11,41,Motors_Started,
0.364692563528789,36.925784467598,5342.6512979333,0,0,0.075265094272,200,2018-04-03 07:41:49,13,0,0,5342.6512979333,0,0,0.075265094272,0,0,0,46.1, 2.8, 6.6,0,0,364,364,364,1684,50.3,0,98,4.274,4.275,4.274,4.275,0,0,0,84.11,41,Motors_Started,
0.364692614264997,36.9257843953846,5342.6512979333,0,0,0.10730479346,300,2018-04-03 07:41:49,13,0,0,5342.6512979333,0,0,0.10730479346,0,0,0,46.1, 2.8, 6.6,0,0,364,364,364,1684,50.3,0,98,4.274,4.275,4.274,4.275,0,0,0,84.11,41,Motors_Started,
0.364692666748526,36.9257843178223,5342.6512979333,0,0,0.141416343108,400,2018-04-03 07:41:49,14,0,0,5342.6512979333,0,0,0.141416343108,0,0,0,46.1, 2.8, 6.6,0,0,364,364,364,1684,50.3,0,98,4.274,4.275,4.274,4.275,0,0,0,84.11,41,Motors_Started,
0.3646927180038,36.9257842337902,5342.6512979333,0,0,0.177328089664,500,2018-04-03 07:41:49,14,0,0,5342.6512979333,0,0,0.177328089664,0,0,0,46.1, 2.8, 6.6,0,0,364,364,364,1684,50.3,0,98,4.274,4.275,4.274,4.275,0,0,0,84.11,41,Motors_Started,
0.364692770935151,36.9257841418602,5342.6512979333,0,0,0.21602198854,600,2018-04-03 07:41:49,14,0,0,5342.6512979333,0,0,0.21602198854,0,0,0,46.1, 2.8, 6.6,0,0,364,364,364,1684,50.3,0,98,4.274,4.275,4.274,4.275,0,0,0,84.11,41,Motors_Started,
0.364692822714378,36.9257840477547,5342.6512979333,0,0,0.25518537562,700,2018-04-03 07:41:50,14,0,17.094,5342.6512979333,0,0,0.25518537562,0,0,0,46.1, 2.8, 6.6,0,0,364,364,364,1684,50.3,0,98,4.274,4.275,4.274,4.275,0,0,1.55,84.11,41,Motors_Started,Setting new Return-To-Home altitude to 45m (148 ft). Setting new Maximum Flight Altitude to 150m (492 ft)
0.364692876047954,36.9257839687331,5342.6512979333,0,0,0.28991634786,800,2018-04-03 07:41:50,14,0,17.094,5342.6512979333,0,0,0.28991634786,0,0,0,46.1, 2.9, 6.6,0,0,364,364,364,1684,50.3,0,98,4.274,4.275,4.274,4.275,0,0,1.55,84.11,41,Motors_Started,
0.364692927154634,36.9257838982498,5342.6512979333,0,0,0.321577110028,900,2018-04-03 07:41:50,14,0,17.094,5342.6512979333,0,0,0.321577110028,0,0,0,46.1, 2.9, 6.6,0,0,385,364,364,1684,50.3,0,98,4.274,4.275,4.274,4.275,0,0,1.55,84.11,41,Motors_Started,
0.364692979216395,36.9257838446138,5342.6512979333,0,0,0.3482447618,1000,2018-04-03 07:41:50,14,0,17.094,5342.6512979333,0,0,0.3482447618,0,0,0,46.1, 3, 6.6,0,0,416,364,364,1684,50.3,0,98,4.274,4.275,4.274,4.275,0,0,1.55,84.11,41,Motors_Started,
0.364693029521473,36.9257837906427,5342.6512979333,0,0,0.37474738732,1100,2018-04-03 07:41:50,14,0,17.094,5342.6512979333,0,0,0.37474738732,0,0,0,46.1, 3, 6.6,0,0,472,368,368,1684,50.3,0,98,4.274,4.275,4.274,4.275,0,0,1.55,84.11,41,Motors_Started,
0.364693060866984,36.9257837510629,5342.6512979333,0,0,0.39310040628,1200,2018-04-03 07:41:50,14,0,17.094,5342.6512979333,0,0,0.39310040628,0,0,0,46.1, 2.9, 6.6,0,0,712,612,600,1543,50.3,0,98,4.274,4.275,4.274,4.275,0,0,1.55,84.11,41,Motors_Started,
0.364693086134736,36.9257837086727,5342.6512979333,0,0,0.41108597116,1300,2018-04-03 07:41:50,14,0,17.094,5342.6512979333,0,0,0.41108597116,0,0,0,46.1, 2.9, 6.6,0,0,816,755,1024,1148,49.9,0,98,4.274,4.275,4.274,4.275,0,0,1.55,84.11,41,Motors_Started,
0.36469310462246,36.9257836777692,5342.6512979333,0,0,0.42420933116,1400,2018-04-03 07:41:50,14,0,17.094,5342.6512979333,0,0,0.42420933116,0,0,0,46.1, 3, 6.6,0,0,1024,1024,1024,1024,48.6,0,98,4.274,4.275,4.274,4.275,0,0,1.55,84.11,41,Motors_Started,
0.364693138075993,36.9257836378114,5342.6512979333,0,0,0.44310368872,1500,2018-04-03 07:41:50,14,0,17.094,5342.6512979333,0,0,0.44310368872,0,0,0,46.1, 3, 6.6,0,0,1024,1024,1024,1024,47.6,0,98,4.274,4.275,4.274,4.275,0,0,1.55,84.11,10,Assisted_Takeoff,
0.364693174868242,36.9257835836797,5342.6512979333,0,0,0.46698164224,1600,2018-04-03 07:41:51,14,0,17.094,5342.6512979333,0,0,0.46698164224,0,0,0,46, 2.9, 6.6,0,0,1024,1024,1024,1024,47.1,0,98,4.274,4.275,4.274,4.275,0,0,1.55,84.11,10,Assisted_Takeoff,
0.364693218452324,36.9257835163301,5342.6512979333,0,0,0.49624673504,1700,2018-04-03 07:41:51,14,0,17.094,5342.6512979333,0,0,0.49624673504,0,0,0,46, 2.8, 6.5,0,0,1024,1024,1024,1024,46.8,0,98,4.272,4.274,4.273,4.271,0,0,1.804,84.11,10,Assisted_Takeoff,
0.364693239601334,36.9257834722943,5342.6512979333,0,0,0.51390421592,1800,2018-04-03 07:41:51,14,0,17.094,5342.6512979333,0,0,0.51390421592,0,0,0,46, 2.8, 6.6,0,0,1024,1024,1024,1024,46.6,0,98,4.272,4.274,4.273,4.271,0,0,1.804,84.11,10,Assisted_Takeoff,
0.364693256589261,36.9257834427045,5342.6512979333,0,0,0.52633203784,1900,2018-04-03 07:41:51,14,0,17.094,5342.6512979333,0,0,0.52633203784,0,0,0,46, 2.8, 6.5,0,0,1024,1024,1024,1024,46.5,0,98,4.272,4.274,4.273,4.271,0,0,1.804,84.11,10,Assisted_Takeoff,
0.364693274551406,36.9257834204848,5342.6512979333,0,0,0.53670605392,2000,2018-04-03 07:41:51,14,0,17.094,5342.6512979333,0,0,0.53670605392,0,0,0,46, 2.8, 6.5,0,0,1024,1024,1024,1024,46.4,0,98,4.272,4.274,4.273,4.271,0,0,1.804,84.11,10,Assisted_Takeoff,
0.364693303326418,36.9257833867506,5342.6512979333,0,0,0.55276248488,2100,2018-04-03 07:41:51,14,0,17.094,5342.6512979333,0,0,0.55276248488,0,0,0,46, 2.8, 6.5,0,0,1024,1024,1024,1024,46.4,0,98,4.272,4.274,4.273,4.271,0,0,1.804,84.11,10,Assisted_Takeoff,
0.364693315927318,36.9257833565622,5342.6512979333,0,0,0.5644849262,2200,2018-04-03 07:41:51,14,0,17.094,5342.6512979333,0,0,0.5644849262,0,0,0,46, 2.8, 6.5,0,0,1024,1024,1024,1024,46.3,0,98,4.272,4.274,4.273,4.271,0,0,1.804,84.11,10,Assisted_Takeoff,
0.364693324996937,36.925783319099,5342.6512979333,0,0,0.57774280064,2300,2018-04-03 07:41:51,14,0,17.094,5342.6512979333,0,0,0.57774280064,0,0,0,46, 2.8, 6.5,0,0,1024,1024,1039,1024,46.3,0,98,4.272,4.274,4.273,4.271,0,0,1.804,84.11,10,Assisted_Takeoff,
0.364693341596888,36.9257832817814,5342.6512979333,0,0,0.5924704914,2400,2018-04-03 07:41:51,14,0,17.094,5342.6512979333,0,0,0.5924704914,0,0,0,46, 2.8, 6.5,0,0,1024,1024,1076,1024,46.2,0,98,4.272,4.274,4.273,4.271,0,0,1.804,84.11,10,Assisted_Takeoff,
0.364693369513303,36.9257832399169,5342.6512979333,0,0,0.6108267912,2500,2018-04-03 07:41:51,14,0,17.094,5342.6512979333,0,0,0.6108267912,0,0,0,46, 2.8, 6.5,0,0,1024,1024,1141,1024,46.2,0,98,4.272,4.274,4.273,4.271,0,0,1.804,84.11,10,Assisted_Takeoff,
0.364693385292925,36.9257832194916,5342.6512979333,0,0,0.62020671276,2600,2018-04-03 07:41:51,14,0,17.094,5342.6512979333,0,0,0.62020671276,0,0,0,46, 2.7, 6.5,0,0,1024,1024,1147,1024,46.2,0,98,4.272,4.274,4.273,4.271,0,0,1.804,84.11,10,Assisted_Takeoff,
0.364693396298357,36.9257832045468,5342.6512979333,0,0,0.62696524316,2700,2018-04-03 07:41:52,14,0,17.121,5342.6512979333,0,0,0.62696524316,0,0,0,46, 2.7, 6.5,0,0,1024,1024,1140,1024,46.1,0,98,4.268,4.267,4.262,4.262,0,0,3.786,84.11,10,Assisted_Takeoff,
0.364693416195907,36.9257831877616,5342.6512979333,0,0,0.63604988912,2800,2018-04-03 07:41:52,14,0,17.121,5342.6512979333,0,0,0.63604988912,0,0,0,46, 2.8, 6.5,0,0,1024,1024,1149,1024,46.1,0,98,4.268,4.267,4.262,4.262,0,0,3.786,84.11,10,Assisted_Takeoff,
0.364693445750537,36.9257831589854,5342.6512979333,0,0,0.6507382098,2900,2018-04-03 07:41:52,14,0,17.121,5342.6512979333,0,0,0.6507382098,0,0,0,45.9, 2.7, 6.5,0,0,1024,1024,1174,1024,46.1,0,98,4.268,4.267,4.262,4.262,0,0,3.786,84.11,10,Assisted_Takeoff,
0.364693465854086,36.9257831248754,5342.6512979333,0,0,0.66516734412,3000,2018-04-03 07:41:52,14,0,17.121,5342.6512979333,0,0,0.66516734412,0,0,0,46, 2.8, 6.5,0,0,1024,1024,1177,1024,46.1,0,98,4.268,4.267,4.262,4.262,0,0,3.786,84.11,10,Assisted_Takeoff,
0.364693478573862,36.9257830856456,5342.6512979333,0,0,0.6796916228,3100,2018-04-03 07:41:52,14,0,17.121,5342.6512979333,0,0,0.6796916228,0,0,0,46, 2.7, 6.5,0,0,1024,1024,1168,1024,46.1,0,98,4.268,4.267,4.262,4.262,0,0,3.786,84.11,10,Assisted_Takeoff,
0.364693502164723,36.9257830392299,5342.6512979333,0,0,0.69858598036,3200,2018-04-03 07:41:52,14,0,17.121,5342.6512979333,0,0,0.69858598036,0,0,0,46, 2.8, 6.4,0,0,1024,1024,1155,1024,46.1,0,98,4.268,4.267,4.262,4.262,0,0,3.786,84.11,10,Assisted_Takeoff,
0.364693522985601,36.9257829977155,5342.6512979333,0,0,0.7154363746,3300,2018-04-03 07:41:52,14,0,17.121,5342.6512979333,0,0,0.7154363746,0,0,0,46.3, 2.5, 6.2,0,0,1024,1024,1162,1024,46.1,0,98,4.268,4.267,4.262,4.262,0,0,3.786,84.11,10,Assisted_Takeoff,
0.364693508394335,36.9257829726586,5342.6512979333,0,0.223694,0.72032810704,3400,2018-04-03 07:41:52,14,0,17.121,5342.6512979333,0,0.223694,0.72032810704,-0.223694,0,0,46.4, 2.2, 4.5,0,0,1024,1024,1181,1024,46.1,0,98,4.268,4.267,4.262,4.262,0,0,3.786,84.11,10,Assisted_Takeoff,
0.364693424268104,36.9257829789207,5342.6512979333,0,0.223694,0.70261813272,3500,2018-04-03 07:41:52,14,0,17.121,5342.6512979333,0,0.223694,0.72032810704,-0.223694,0,0,46.4, 2.1, 1.4,0,0,1024,1024,1214,1024,46.1,0,98,4.268,4.267,4.262,4.262,0,0,3.786,84.11,10,Assisted_Takeoff,
0.364693258127327,36.9257829690902,5342.6512979333,0,0.223694,0.67774608468,3600,2018-04-03 07:41:53,14,0,17.121,5342.6512979333,0,0.223694,0.72032810704,-0.223694,0,-0.223694,46.4, 1.8, 0.4,0,0,1024,1024,1244,1024,46.1,0,98,4.268,4.267,4.262,4.262,0,0,3.786,84.11,6,P-GPS,Obstacle Avoided. Revise Flight Route
0.364693048558391,36.9257829412166,5342.6512979333,0,0.223694,0.6584481838,3700,2018-04-03 07:41:53,14,0,17.067,5342.6512979333,0,0.223694,0.72032810704,-0.223694,0,-0.671082,46.4, 0.3, -0.2,0,0,1024,1024,1226,1024,46.1,0,98,4.268,4.267,4.262,4.262,0,0,3.786,84.11,6,P-GPS,
0.364692846913463,36.925782886647,5342.6512979333,0,0.223694,0.65794621528,3800,2018-04-03 07:41:53,14,0,17.067,5342.6512979333,0,0.223694,0.72032810704,-0.223694,0,-0.894776,46.4, -0.1, -0.6,0,0,1024,1024,1227,1023,46.1,0,98,4.268,4.267,4.262,4.262,0,0,3.786,84.11,6,P-GPS,Home Point Recorded. RTH Altitude:  45m.
0.364692692101363,36.9257828334339,5342.9793819333,0.328084,0.223694,0.66762469328,3900,2018-04-03 07:41:53,14,0,17.067,5342.9793819333,0.328084,0.223694,0.72032810704,-0.223694,0,-1.11847,46.4, -0.4, -0.9,0,0,1024,1024,1245,1024,46.1,0,98,4.268,4.267,4.262,4.262,0,0,3.786,84.11,6,P-GPS,
0.364692577916906,36.9257827861017,5342.9793819333,0.328084,0.223694,0.68099739712,4000,2018-04-03 07:41:53,14,0,17.067,5342.9793819333,0.328084,0.223694,0.72032810704,-0.223694,0,-1.342164,46.5, -0.4, -1,0,0,1024,1024,1234,1017,46.1,0,98,4.268,4.267,4.262,4.262,0,0,3.786,84.11,6,P-GPS,
0.364692505411251,36.9257827591927,5343.3074659333,0.656168,0.223694,0.68973755488,4100,2018-04-03 07:41:53,14,0,17.067,5343.3074659333,0.656168,0.223694,0.72032810704,-0.223694,0,-1.342164,46.5, -0.4, -0.9,0,0,1024,1024,1351,979,46.1,0,98,4.268,4.267,4.262,4.262,0,0,3.786,84.11,6,P-GPS,
0.364692467837755,36.9257826710719,5343.6355499333,0.984252,0,0.7217355874,4300,2018-04-03 07:41:53,14,0,17.067,5343.6355499333,0.984252,0.223694,0.7217355874,0,0,-1.565858,46.3, -0.1, -1.7,0,0,1024,1024,1351,979,46.1,0,98,4.268,4.267,4.262,4.262,0,0,3.786,84.11,6,P-GPS,
0.364692522681714,36.925782606037,5343.9636339333,1.312336,0,0.7457513362,4400,2018-04-03 07:41:53,14,0,17.067,5343.9636339333,1.312336,0.223694,0.7457513362,0,0,-1.789552,46, 0.3, -1.3,0,0,1024,1024,1404,962,46,0,98,4.268,4.267,4.262,4.262,0,0,3.786,84.11,6,P-GPS,
0.364692600657719,36.9257825108052,5344.2917179333,1.64042,0,0.7817585552,4500,2018-04-03 07:41:53,14,0,17.067,5344.2917179333,1.64042,0.223694,0.7817585552,0,0,-2.460634,45.7, 0.4, -0.5,0,0,1024,1024,1376,988,45.9,0,98,4.268,4.267,4.262,4.262,0,0,3.786,84.11,6,P-GPS,
0.364692685893327,36.9257823775791,5344.6198019333,1.968504,0,0.8326935962,4600,2018-04-03 07:41:53,14,0,17.067,5344.6198019333,1.968504,0.223694,0.8326935962,0,0,-3.131716,45.4, -0.1, 0.2,0,0,1024,1024,1333,1024,45.9,0,98,4.268,4.267,4.262,4.262,0,0,3.786,84.11,6,P-GPS,
0.364692749602535,36.9257822235305,5345.2759699333,2.624672,0,0.89105317812,4700,2018-04-03 07:41:54,14,0,16.628,5345.2759699333,2.624672,0.223694,0.89105317812,0,0,-3.579104,45.3, -0.7, 0.5,0,0,1024,1024,1358,1024,45.9,0,98,4.232,4.233,4.224,4.225,0,0,5.936,84.11,6,P-GPS,
0.364692793634032,36.9257820935506,5345.9321379333,3.28084,0,0.94007877024,4800,2018-04-03 07:41:54,14,0,16.628,5345.9321379333,3.28084,0.223694,0.94007877024,0,0,-3.802798,45.3, -1, 0.3,0,0,1024,1024,1358,1024,45.8,0,98,4.232,4.233,4.224,4.225,0,0,5.936,84.11,6,P-GPS,
0.364692825120811,36.925781970291,5346.5883059333,3.937008,0,0.98616144888,4900,2018-04-03 07:41:54,14,0,16.628,5346.5883059333,3.937008,0.223694,0.98616144888,0,0,-4.026492,45.2, -1.2, 0.2,0,0,1024,1024,1363,1024,45.8,0,98,4.232,4.233,4.224,4.225,0,0,5.936,84.11,6,P-GPS,
0.364692823949146,36.9257818447777,5347.2444739333,4.593176,0,1.0315125002,5000,2018-04-03 07:41:54,14,0,16.628,5347.2444739333,4.593176,0.223694,1.0315125002,0,0,-4.250186,45.2, -1.4, 0.1,0,0,1024,1024,1351,1024,45.8,0,98,4.232,4.233,4.224,4.225,0,0,5.936,84.11,6,P-GPS,
0.364692831534031,36.9257817031366,5347.9006419333,5.249344,0,1.08312995592,5100,2018-04-03 07:41:54,14,0,16.628,5347.9006419333,5.249344,0.223694,1.08312995592,0,0,-4.250186,45.2, -2.2, 0.4,0,0,1024,1024,1334,1024,45.8,0,98,4.232,4.233,4.224,4.225,0,0,5.936,84.11,6,P-GPS,
0.364692872245538,36.9257816094379,5348.5568099333,5.905512,0,1.11893376284,5200,2018-04-03 07:41:54,14,0,16.628,5348.5568099333,5.905512,0.223694,1.11893376284,0,0,-4.250186,45.2, -1.9, 1.5,0,0,1024,1024,1353,1024,45.8,0,98,4.232,4.233,4.224,4.225,0,0,5.936,84.11,6,P-GPS,
0.364692962219104,36.9257815391697,5348.8848939333,6.233596,0,1.1490649974,5300,2018-04-03 07:41:54,14,0,16.628,5348.8848939333,6.233596,0.223694,1.1490649974,0,0,-4.026492,45.3, -1.2, 2,0,0,1024,1024,1376,1020,45.8,0,98,4.232,4.233,4.224,4.225,0,0,5.936,84.11,6,P-GPS,
0.364693030544136,36.9257815608766,5349.5410619333,6.889764,0,1.14546591592,5400,2018-04-03 07:41:54,14,0,16.628,5349.5410619333,6.889764,0.223694,1.1490649974,0,0,-4.026492,45.3, -0.6, 1.9,0,0,1024,1024,1383,1017,45.8,0,98,4.232,4.233,4.224,4.225,0,0,5.936,84.11,6,P-GPS,
0.364693076144232,36.9257815859538,5350.1972299333,7.545932,0,1.139599774,5500,2018-04-03 07:41:54,14,0,16.628,5350.1972299333,7.545932,0.223694,1.1490649974,0,0,-4.026492,45.3, -0.2, 1.2,0,0,1024,1024,1376,1023,45.8,0,98,4.232,4.233,4.224,4.225,0,0,5.936,84.11,6,P-GPS,
0.364693059114372,36.9257816583696,5350.8533979333,8.2021,0,1.11247378888,5600,2018-04-03 07:41:55,14,0,16.628,5350.8533979333,8.2021,0.223694,1.1490649974,0,0,-4.026492,45.2, -1.2, 0.6,0,0,1024,1024,1368,1024,45.8,0,98,4.232,4.233,4.224,4.225,0,0,5.936,84.11,6,P-GPS,
0.364693032316697,36.925781690166,5351.5095659333,8.858268,0,1.09921919528,5700,2018-04-03 07:41:55,14,0,16.464,5351.5095659333,8.858268,0.223694,1.1490649974,0,0,-4.026492,45.2, -1.8, 1,0,0,1024,1024,1378,1020,45.8,0,98,4.147,4.151,4.144,4.15,0,0,14.93,84.11,6,P-GPS,
0.364692955495666,36.9257817411854,5352.1657339333,9.514436,0,1.0759350738,5800,2018-04-03 07:41:55,14,0,16.464,5352.1657339333,9.514436,0.223694,1.1490649974,0,0,-4.026492,45.2, -1.4, 0.5,0,0,1024,1024,1395,1023,45.8,0,98,4.147,4.151,4.144,4.15,0,0,14.93,84.11,6,P-GPS,
0.364692867838561,36.9257817489613,5352.8219019333,10.170604,0,1.06827759324,5900,2018-04-03 07:41:55,14,0,16.464,5352.8219019333,10.170604,0.223694,1.1490649974,0,0,-4.250186,45.3, -1.6, 0.2,0,0,1024,1024,1392,1022,45.8,0,98,4.147,4.151,4.144,4.15,0,0,14.93,84.11,6,P-GPS,
0.364692762882903,36.9257817537813,5353.4780699333,10.826772,0.223694,1.06194885288,6000,2018-04-03 07:41:55,14,0,16.464,5353.4780699333,10.826772,0.223694,1.1490649974,0,-0.223694,-4.250186,45.3, -1.9, 0.9,0,0,1024,1024,1396,1022,45.8,0,98,4.147,4.151,4.144,4.15,0,0,14.93,84.11,6,P-GPS,
0.364692684863337,36.9257817277437,5354.1342379333,11.48294,0.223694,1.06889439116,6100,2018-04-03 07:41:55,14,0,16.464,5354.1342379333,11.48294,0.223694,1.1490649974,0,-0.223694,-4.47388,45.3, -2.2, 1.5,0,0,1024,1024,1399,1020,45.8,0,98,4.147,4.151,4.144,4.15,0,0,14.93,84.11,6,P-GPS,
0.364692605826807,36.9257816791396,5354.7904059333,12.139108,0.223694,1.08483927356,6200,2018-04-03 07:41:55,14,0,16.464,5354.7904059333,12.139108,0.223694,1.1490649974,0,-0.223694,-4.47388,45.3, -2.6, 1.3,0,0,1024,1024,1398,1017,45.8,0,98,4.147,4.151,4.144,4.15,0,0,14.93,84.11,6,P-GPS,
0.3646925524342,36.925781591506,5355.4465739333,12.795276,0.223694,1.11605646616,6300,2018-04-03 07:41:55,14,0,16.464,5355.4465739333,12.795276,0.223694,1.1490649974,0,-0.223694,-4.697574,45.3, -3.2, 1.6,0,0,1024,1024,1399,1019,45.8,0,98,4.147,4.151,4.144,4.15,0,0,14.93,84.11,6,P-GPS,
0.364692521116372,36.9257814869544,5356.1027419333,13.451444,0.223694,1.15393048312,6400,2018-04-03 07:41:55,14,0,16.464,5356.1027419333,13.451444,0.223694,1.15393048312,0,-0.223694,-4.697574,45.4, -3.6, 1.5,0,1,1024,1024,1402,1017,45.8,0,98,4.147,4.151,4.144,4.15,0,0,14.93,84.11,6,P-GPS,
0.364692503215701,36.9257813795261,5356.7589099333,14.107612,0.223694,1.19302497256,6500,2018-04-03 07:41:55,14,0,16.464,5356.7589099333,14.107612,0.223694,1.19302497256,0,-0.223694,-4.697574,45.4, -3.8, 1.8,0,1,1024,1024,1404,1019,45.8,0,98,4.147,4.151,4.144,4.15,0,0,14.93,84.11,6,P-GPS,
0.364692511565955,36.9257812404566,5357.4150779333,14.76378,0.223694,1.24379597156,6600,2018-04-03 07:41:56,14,0,16.464,5357.4150779333,14.76378,0.223694,1.24379597156,0,-0.223694,-4.697574,45.3, -4.1, 2.6,0,1,1024,1024,1404,1020,45.8,0,98,4.147,4.151,4.144,4.15,0,0,14.93,84.11,6,P-GPS,
0.36469251834191,36.9257811232417,5358.3993299333,15.748032,0,1.28659452936,6700,2018-04-03 07:41:56,14,0,16.656,5358.3993299333,15.748032,0.223694,1.28659452936,0,0,-4.921268,45.2, -3.9, 2.3,0,1,1024,1024,1404,1021,45.8,0,98,4.15,4.144,4.13,4.145,0,0,13.942,84.11,6,P-GPS,
0.364692536352501,36.9257810226214,5359.0554979333,16.4042,0,1.32341211584,6800,2018-04-03 07:41:56,14,0,16.656,5359.0554979333,16.4042,0.223694,1.32341211584,0,0,-4.921268,45.3, -3.8, 1.9,0,1,1024,1024,1409,1020,45.8,0,98,4.15,4.144,4.13,4.145,0,0,13.942,84.11,6,P-GPS,
0.364692538403119,36.9257809556701,5359.7116659333,17.060368,0,1.34784781216,6900,2018-04-03 07:41:56,14,0,16.656,5359.7116659333,17.060368,0.223694,1.34784781216,0,0,-4.921268,45.3, -3.7, 1.4,0,1,1024,1024,1407,1017,45.8,0,98,4.15,4.144,4.13,4.145,0,0,13.942,84.11,6,P-GPS,
0.364692523675472,36.925780898804,5360.3678339333,17.716536,0,1.36849741912,7000,2018-04-03 07:41:56,14,0,16.656,5360.3678339333,17.716536,0.223694,1.36849741912,0,0,-4.921268,45.4, -4, 1.5,0,1,1024,1024,1412,1017,45.8,0,98,4.15,4.144,4.13,4.145,0,0,13.942,84.11,6,P-GPS,
0.364692488377727,36.9257808555295,5361.3520859333,18.700788,0,1.38414702592,7100,2018-04-03 07:41:56,14,0,16.656,5361.3520859333,18.700788,0.223694,1.38414702592,0,0,-4.921268,45.3, -4.8, 1.6,0,1,1024,1024,1415,1017,45.8,0,98,4.15,4.144,4.13,4.145,0,0,13.942,84.11,6,P-GPS,
0.364692467093149,36.9257808164732,5362.0082539333,19.356956,0,1.39837274816,7200,2018-04-03 07:41:56,14,0,16.656,5362.0082539333,19.356956,0.223694,1.39837274816,0,0,-4.921268,45.4, -3.7, 1.4,0,1,1024,1024,1419,1022,45.8,0,98,4.15,4.144,4.13,4.145,0,0,13.942,84.11,6,P-GPS,
0.364692447646271,36.9257807797144,5362.6644219333,20.013124,0,1.41179794544,7300,2018-04-03 07:41:56,14,0,16.656,5362.6644219333,20.013124,0.223694,1.41179794544,0,0,-4.921268,45.4, -3.5, 0.9,0,1,1024,1024,1421,1024,45.8,0,98,4.15,4.144,4.13,4.145,0,0,13.942,84.11,6,P-GPS,
0.364692409193416,36.9257807499619,5363.6486739333,20.997376,0,1.42278875944,7400,2018-04-03 07:41:56,14,0,16.656,5363.6486739333,20.997376,0.223694,1.42278875944,0,0,-4.921268,45.4, -3.7, 0.7,0,1,1024,1024,1420,1024,45.8,0,98,4.15,4.144,4.13,4.145,0,0,13.942,84.11,6,P-GPS,
0.36469236055098,36.9257807328415,5364.3048419333,21.653544,0,1.42939965204,7500,2018-04-03 07:41:56,14,0,16.656,5364.3048419333,21.653544,0.223694,1.42939965204,-0.223694,0,-5.144962,45.3, -4.2, 0.3,0,1,1024,1024,1420,1024,45.8,0,98,4.15,4.144,4.13,4.145,0,0,13.942,84.11,6,P-GPS,
0.364692314569014,36.9257806975849,5364.9610099333,22.309712,0,1.44280188344,7600,2018-04-03 07:41:56,14,0,16.656,5364.9610099333,22.309712,0.223694,1.44280188344,0,0,-5.144962,45.3, -4.7, 0.3,0,1,1024,1024,1427,1024,45.8,0,98,4.15,4.144,4.13,4.145,0,0,13.942,84.11,6,P-GPS,
0.364692289584612,36.9257806534967,5365.9452619333,23.293964,0,1.45924873436,7700,2018-04-03 07:41:57,14,0,16.491,5365.9452619333,23.293964,0.223694,1.45924873436,0,0,-5.144962,45.3, -5, 0.6,0,1,1024,1024,1431,1024,45.8,0,98,4.15,4.144,4.13,4.145,0,0,13.942,84.11,6,P-GPS,
0.364692284579996,36.9257806230493,5366.6014299333,23.950132,0,1.47042983708,7800,2018-04-03 07:41:57,14,0,16.491,5366.6014299333,23.950132,0.223694,1.47042983708,0,0,-5.144962,45.3, -4.7, 1.2,0,1,1024,1024,1419,1024,45.8,0,98,4.15,4.144,4.13,4.145,0,0,13.942,84.11,6,P-GPS,
0.364692293882075,36.9257806144168,5367.2575979333,24.6063,0,1.47342852484,7900,2018-04-03 07:41:57,14,0,16.491,5367.2575979333,24.6063,0.223694,1.47342852484,0,0,-5.144962,45.3, -4.4, 1.1,0,1,1024,1024,1412,1024,45.7,0,98,4.15,4.144,4.13,4.145,0,0,13.942,84.11,6,P-GPS,
0.364692310508896,36.925780596515,5368.2418499333,25.590552,0,1.4797080526,8000,2018-04-03 07:41:57,14,0,16.491,5368.2418499333,25.590552,0.223694,1.4797080526,0,0,-5.368656,45.3, -4.5, 0.9,0,1,1024,1024,1488,1024,45.7,0,98,4.15,4.144,4.13,4.145,0,0,13.942,84.11,6,P-GPS,
0.364692343314307,36.9257805650173,5368.8980179333,26.24672,0,1.49078416844,8100,2018-04-03 07:41:57,14,0,16.491,5368.8980179333,26.24672,0.223694,1.49078416844,0,0,-5.144962,45.3, -4.7, 1.3,0,1,1024,1024,1519,1024,45.7,0,98,4.15,4.144,4.13,4.145,0,0,13.942,84.11,6,P-GPS,
0.364692377750605,36.9257805475158,5369.8822699333,27.230972,0,1.49684387992,8200,2018-04-03 07:41:57,14,0,16.491,5369.8822699333,27.230972,0.223694,1.49684387992,0,0,-5.368656,45.3, -3.5, 0.8,0,1,1024,1024,1482,1024,45.8,0,98,4.15,4.144,4.13,4.145,0,0,13.942,84.11,6,P-GPS,
0.364692418568368,36.9257805358867,5370.5384379333,27.88714,0,1.50083994304,8300,2018-04-03 07:41:57,14,0,16.491,5370.5384379333,27.88714,0.223694,1.50083994304,0,0,-6.039738,45.4, -2.8, 0.7,0,1,1024,1024,1500,1024,45.7,0,98,4.15,4.144,4.13,4.145,0,0,13.942,84.11,6,P-GPS,
0.364692463573675,36.925780485318,5371.5226899333,28.871392,0,1.519192962,8400,2018-04-03 07:41:57,14,0,16.491,5371.5226899333,28.871392,0.223694,1.519192962,0,0,-6.263432,45.3, -4.3, 2.2,0,1,1024,1024,1480,1024,45.7,0,98,4.15,4.144,4.13,4.145,0,0,13.942,84.11,6,P-GPS,
0.364692514394155,36.9257804247562,5372.5069419333,29.855644,0,1.5413878446,8500,2018-04-03 07:41:57,14,0,16.491,5372.5069419333,29.855644,0.223694,1.5413878446,0,0,-6.487126,45.3, -5.1, 3.1,0,1,1024,1024,1471,1024,45.8,0,98,4.15,4.144,4.13,4.145,0,0,13.942,84.11,6,P-GPS,
0.364692581155067,36.9257804125425,5373.4911939333,30.839896,0,1.54631566628,8600,2018-04-03 07:41:58,14,0,16.491,5373.4911939333,30.839896,0.223694,1.54631566628,0,0,-6.487126,45.3, -4.8, 2.9,0,1,1024,1024,1485,1024,45.7,0,98,4.15,4.144,4.13,4.145,0,0,13.942,84.11,6,P-GPS,
0.364692648319832,36.9257804257187,5374.4754459333,31.824148,0,1.54237537744,8700,2018-04-03 07:41:58,14,0,16.519,5374.4754459333,31.824148,0.223694,1.54631566628,0,0,-6.487126,45.2, -4.7, 2.9,0,1,1024,1024,1490,1024,45.7,0,98,4.142,4.142,4.127,4.138,0,0,13.862,84.11,6,P-GPS,
0.364692689297997,36.9257804873897,5375.4596979333,32.8084,0,1.52062340824,8800,2018-04-03 07:41:58,14,0,16.519,5375.4596979333,32.8084,0.223694,1.54631566628,0,0,-6.487126,45.3, -4, 1.9,0,1,1024,1024,1519,1024,45.7,0,98,4.142,4.142,4.127,4.138,0,0,13.862,84.11,6,P-GPS,
0.364692702992397,36.9257805596096,5376.4439499333,33.792652,0,1.49459322368,8900,2018-04-03 07:41:58,14,0,16.519,5376.4439499333,33.792652,0.223694,1.54631566628,0,0,-6.487126,45.3, -3.6, 1.6,0,1,1024,1024,1524,1024,45.7,0,98,4.142,4.142,4.127,4.138,0,0,13.862,84.11,6,P-GPS,
0.364692716209662,36.9257806222474,5377.4282019333,34.776904,0,1.47207025708,9000,2018-04-03 07:41:58,14,0,16.519,5377.4282019333,34.776904,0.223694,1.54631566628,0,0,-6.71082,45.3, -3.7, 1.4,0,1,1024,1024,1519,1024,45.7,0,98,4.142,4.142,4.127,4.138,0,0,13.862,84.11,6,P-GPS,
0.364692737351751,36.9257806672178,5378.4124539333,35.761156,0,1.456200834,9100,2018-04-03 07:41:58,14,0,16.519,5378.4124539333,35.761156,0.223694,1.54631566628,0,0,-6.934514,45.3, -3.5, 1.1,0,1,1024,1024,1522,1024,45.7,0,98,4.142,4.142,4.127,4.138,0,0,13.862,84.11,6,P-GPS,
0.364692756138702,36.9257807009927,5379.3967059333,36.745408,0,1.44439309084,9200,2018-04-03 07:41:58,14,0,16.519,5379.3967059333,36.745408,0.223694,1.54631566628,0,0,-7.158208,45.2, -3.9, 1.9,0,1,1024,1024,1522,1024,45.7,0,98,4.142,4.142,4.127,4.138,0,0,13.862,84.11,6,P-GPS,
0.364692772499679,36.9257807317988,5380.3809579333,37.72966,0,1.43363849732,9300,2018-04-03 07:41:58,14,0,16.519,5380.3809579333,37.72966,0.223694,1.54631566628,0,0,-7.158208,45.3, -3.7, 2.2,0,1,1024,1024,1535,1024,45.7,0,98,4.142,4.142,4.127,4.138,0,0,13.862,84.11,6,P-GPS,
0.364692771677315,36.9257807604058,5381.6932939333,39.041996,0,1.42320870696,9400,2018-04-03 07:41:58,14,0,16.519,5381.6932939333,39.041996,0.223694,1.54631566628,0,0,-7.158208,45.2, -3.6, 2.4,0,1,1024,1024,1534,1024,45.7,0,98,4.142,4.142,4.127,4.138,0,0,13.862,84.11,6,P-GPS,
0.364692757058773,36.9257807849455,5382.6775459333,40.026248,0,1.41387471716,9500,2018-04-03 07:41:58,14,0,16.519,5382.6775459333,40.026248,0.223694,1.54631566628,0,0,-7.381902,45.3, -3.5, 1.6,0,1,1024,1024,1540,1024,45.7,0,98,4.142,4.142,4.127,4.138,0,0,13.862,84.11,6,P-GPS,
0.364692742892939,36.9257808144379,5383.9898819333,41.338584,0,1.40276251208,9600,2018-04-03 07:41:58,14,0,16.519,5383.9898819333,41.338584,0.223694,1.54631566628,0,0,-7.605596,45.3, -3.3, 0.9,0,1,1024,1024,1530,1024,45.7,0,98,4.142,4.142,4.127,4.138,0,0,13.862,84.11,6,P-GPS,
0.36469275139708,36.9257808236967,5384.9741339333,42.322836,0,1.39961946736,9700,2018-04-03 07:41:59,14,0,16.245,5384.9741339333,42.322836,0.223694,1.54631566628,0,0,-7.82929,45.3, -3.7, 1.5,0,1,1024,1024,1504,1024,45.7,0,98,4.137,4.151,4.141,4.118,0,0,15.824,84.11,6,P-GPS,
0.36469273705456,36.9257808072872,5386.2864699333,43.635172,0,1.40521329956,9800,2018-04-03 07:41:59,14,0,16.245,5386.2864699333,43.635172,0.223694,1.54631566628,0,0,-7.82929,45.2, -3.6, 2.1,0,1,1024,1024,1486,1024,45.7,0,98,4.137,4.151,4.141,4.118,0,0,15.824,84.11,6,P-GPS,
0.364692699827516,36.9257807759309,5387.5988059333,44.947508,0,1.41574151512,9900,2018-04-03 07:41:59,14,0,16.245,5387.5988059333,44.947508,0.223694,1.54631566628,0,0,-7.82929,45.2, -4.2, 2.1,0,1,1024,1024,1515,1024,45.7,0,98,4.137,4.151,4.141,4.118,0,0,15.824,84.11,6,P-GPS,
0.36469264865692,36.9257807200112,5388.5830579333,45.93176,0,1.43511815616,10000,2018-04-03 07:41:59,14,0,16.245,5388.5830579333,45.93176,0.223694,1.54631566628,0,0,-7.605596,45.2, -4.4, 2,0,1,1024,1024,1520,1024,45.7,0,98,4.137,4.151,4.141,4.118,0,0,15.824,84.11,6,P-GPS,
0.364692604597332,36.9257806618047,5389.8953939333,47.244096,0,1.45568246128,10100,2018-04-03 07:41:59,14,0,16.245,5389.8953939333,47.244096,0.223694,1.54631566628,0,0,-7.605596,45.2, -4.2, 1.9,0,1,1024,1024,1505,1024,45.7,0,98,4.137,4.151,4.141,4.118,0,0,15.824,84.11,6,P-GPS,
0.364692564031978,36.9257805936082,5391.2077299333,48.556432,0,1.48011487676,10200,2018-04-03 07:41:59,14,0,16.245,5391.2077299333,48.556432,0.223694,1.54631566628,0,0,-7.605596,45.3, -3.4, 1.5,0,1,1024,1024,1505,1024,45.7,0,98,4.137,4.151,4.141,4.118,0,0,15.824,84.11,6,P-GPS,
0.364692514379092,36.9257805143115,5392.1919819333,49.540684,0,1.50871723988,10300,2018-04-03 07:41:59,14,0,16.245,5392.1919819333,49.540684,0.223694,1.54631566628,0,0,-7.605596,45.2, -4.3, 2,0,1,1024,1024,1519,1024,45.7,0,98,4.137,4.151,4.141,4.118,0,0,15.824,84.11,6,P-GPS,
0.364692419981043,36.9257804148872,5393.5043179333,50.85302,0,1.54497708356,10400,2018-04-03 07:41:59,14,0,16.245,5393.5043179333,50.85302,0.223694,1.54631566628,0,0,-7.381902,45.3, -4.8, 1.8,0,1,1024,1024,1542,1024,45.7,0,98,4.137,4.151,4.141,4.118,0,0,15.824,84.11,6,P-GPS,
0.364692306566026,36.9257803296046,5394.4885699333,51.837272,0,1.57707354128,10500,2018-04-03 07:41:59,14,0,16.245,5394.4885699333,51.837272,0.223694,1.57707354128,0,0,-7.381902,45.3, -4.7, 1.6,0,1,1024,1024,1526,1024,45.7,0,98,4.137,4.151,4.141,4.118,0,0,15.824,84.11,6,P-GPS,
0.364692194996035,36.9257802469794,5395.8009059333,53.149608,0,1.60918312236,10600,2018-04-03 07:42:00,14,0,16.245,5395.8009059333,53.149608,0.223694,1.60918312236,0,0,-7.605596,45.3, -4.9, 1.2,0,1,1024,1024,1529,1024,45.7,0,98,4.137,4.151,4.141,4.118,0,0,15.824,84.11,6,P-GPS,
0.364692100671266,36.9257801576328,5397.1132419333,54.461944,0,1.64415031508,10700,2018-04-03 07:42:00,14,0,16.327,5397.1132419333,54.461944,0.223694,1.64415031508,0,0,-7.605596,45.2, -6.1, 0.9,0,1,1024,1024,1527,1024,45.7,0,97,4.118,4.121,4.114,4.12,0,0,14.496,85.91,6,P-GPS,
0.364692025376494,36.9257800500042,5398.0974939333,55.446196,0,1.68568903032,10800,2018-04-03 07:42:00,14,0,16.327,5398.0974939333,55.446196,0.223694,1.68568903032,0,0,-7.605596,45.2, -6.4, 1.3,0,1,1024,1024,1521,1024,45.7,0,97,4.118,4.121,4.114,4.12,0,0,14.496,85.91,6,P-GPS,
0.364691986248242,36.9257799411605,5399.4098299333,56.758532,0,1.72661094764,10900,2018-04-03 07:42:00,14,0,16.327,5399.4098299333,56.758532,0.223694,1.72661094764,0,0,-7.605596,45.1, -6, 2.3,0,1,1024,1024,1522,1024,45.7,0,97,4.118,4.121,4.114,4.12,0,0,14.496,85.91,6,P-GPS,
0.364691945194761,36.9257798606069,5400.7221659333,58.070868,0,1.75740819272,11000,2018-04-03 07:42:00,14,0,16.327,5400.7221659333,58.070868,0.223694,1.75740819272,0,0,-7.82929,45.1, -5.5, 2.5,0,1,1024,1024,1511,1024,45.7,0,97,4.118,4.121,4.114,4.12,0,0,14.496,85.91,6,P-GPS,
0.364691896678936,36.9257798096314,5402.0345019333,59.383204,0,1.77787735348,11100,2018-04-03 07:42:00,14,0,16.327,5402.0345019333,59.383204,0.223694,1.77787735348,0,0,-7.605596,45.1, -5.4, 2.2,0,1,1024,1024,1495,1024,45.7,0,97,4.118,4.121,4.114,4.12,0,0,14.496,85.91,6,P-GPS,
0.36469183778056,36.9257797506712,5403.3468379333,60.69554,0,1.80185045136,11200,2018-04-03 07:42:00,14,0,16.327,5403.3468379333,60.69554,0.223694,1.80185045136,0,0,-7.381902,45.1, -5.7, 2.1,0,1,1024,1024,1494,1024,45.7,0,97,4.118,4.121,4.114,4.12,0,0,14.496,85.91,6,P-GPS,
0.364691785134594,36.9257796851941,5404.3310899333,61.679792,0,1.82805780128,11300,2018-04-03 07:42:00,14,0,16.327,5404.3310899333,61.679792,0.223694,1.82805780128,0,0,-7.381902,45.1, -6, 2.2,0,1,1024,1024,1511,1024,45.7,0,97,4.118,4.121,4.114,4.12,0,0,14.496,85.91,6,P-GPS,
0.364691715706291,36.9257796288719,5405.6434259333,62.992128,0,1.85199152908,11400,2018-04-03 07:42:00,14,0,16.327,5405.6434259333,62.992128,0.223694,1.85199152908,0,0,-6.934514,45.1, -6.2, 2.2,0,1,1024,1024,1502,1024,45.7,0,97,4.118,4.121,4.114,4.12,0,0,14.496,85.91,6,P-GPS,
0.364691661220183,36.9257795899526,5406.6276779333,63.97638,0,1.86905517792,11500,2018-04-03 07:42:00,14,0,16.327,5406.6276779333,63.97638,0.223694,1.86905517792,0,0,-6.934514,45.1, -5.7, 2.1,0,1,1024,1024,1485,1024,45.7,0,97,4.118,4.121,4.114,4.12,0,0,14.496,85.91,6,P-GPS,
0.364691621859878,36.9257795544594,5407.9400139333,65.288716,0,1.88414048024,11600,2018-04-03 07:42:00,14,0,16.327,5407.9400139333,65.288716,0.223694,1.88414048024,0,0,-6.934514,45.1, -5.6, 2.7,0,1,1024,1024,1487,1024,45.7,0,97,4.118,4.121,4.114,4.12,0,0,14.496,85.91,6,P-GPS,
0.364691598240519,36.92577952051,5409.2523499333,66.601052,0,1.89777893212,11700,2018-04-03 07:42:01,14,0,16.409,5409.2523499333,66.601052,0.223694,1.89777893212,0,0,-6.934514,45, -6, 2.3,0,1,1024,1024,1466,1024,45.7,0,97,4.118,4.121,4.114,4.12,0,0,14.496,85.91,6,P-GPS,
0.36469159534596,36.9257794909554,5410.2366019333,67.585304,0,1.90858601908,11800,2018-04-03 07:42:01,14,0,16.409,5410.2366019333,67.585304,0.223694,1.90858601908,0,0,-6.934514,45.1, -5.6, 2.7,0,1,1024,1024,1479,1024,45.7,0,97,4.118,4.121,4.114,4.12,0,0,14.496,85.91,6,P-GPS,
0.364691616052846,36.9257794540383,5411.5489379333,68.89764,0,1.9206365444,11900,2018-04-03 07:42:01,14,0,16.409,5411.5489379333,68.89764,0.223694,1.9206365444,0,0,-6.71082,45, -5.9, 3.3,0,1,1024,1024,1478,1024,45.7,0,97,4.118,4.121,4.114,4.12,0,0,14.496,85.91,6,P-GPS,
0.364691637331317,36.9257794238521,5412.5331899333,69.881892,0,1.93027237148,12000,2018-04-03 07:42:01,14,0,16.409,5412.5331899333,69.881892,0.223694,1.93027237148,0,0,-6.71082,45.1, -5.5, 3.3,0,1,1024,1024,1476,1024,45.7,0,97,4.118,4.121,4.114,4.12,0,0,14.496,85.91,6,P-GPS,
0.36469166452796,36.9257794024064,5413.8455259333,71.194228,0,1.93647972076,12100,2018-04-03 07:42:01,14,0,16.409,5413.8455259333,71.194228,0.223694,1.93647972076,0,0,-6.487126,45.1, -5.2, 3.4,0,1,1024,1024,1479,1024,45.7,0,97,4.118,4.121,4.114,4.12,0,0,14.496,85.91,6,P-GPS,
0.364691672799234,36.9257793768432,5414.8297779333,72.17848,0,1.94524940608,12200,2018-04-03 07:42:01,14,0,16.409,5414.8297779333,72.17848,0.223694,1.94524940608,0,0,-6.263432,45.2, -5.4, 3.5,0,1,1024,1024,1479,1024,45.7,0,97,4.118,4.121,4.114,4.12,0,0,14.496,85.91,6,P-GPS,
0.364691663703968,36.9257793666616,5415.8140299333,73.162732,0,1.94941607288,12300,2018-04-03 07:42:01,14,0,16.409,5415.8140299333,73.162732,0.223694,1.94941607288,0,0,-6.263432,45.2, -5.2, 3.1,0,1,1024,1024,1473,1024,45.7,0,97,4.118,4.121,4.114,4.12,0,0,14.496,85.91,6,P-GPS,
0.364691602875478,36.925779355737,5416.7982819333,74.146984,0,1.95680452456,12400,2018-04-03 07:42:01,14,0,16.409,5416.7982819333,74.146984,0.223694,1.95680452456,0,0,-6.487126,45.2, -5.7, 2.5,0,1,1024,1024,1468,1024,45.7,0,97,4.118,4.121,4.114,4.12,0,0,14.496,85.91,6,P-GPS,
0.364691540022425,36.9257793469407,5418.1106179333,75.45932,0,1.96378615208,12500,2018-04-03 07:42:01,14,0,16.409,5418.1106179333,75.45932,0.223694,1.96378615208,0,0,-6.263432,45.2, -6.1, 2.6,0,1,1024,1024,1481,1024,45.7,0,97,4.118,4.121,4.114,4.12,0,0,14.496,85.91,6,P-GPS,
0.364691486220263,36.9257793479824,5419.0948699333,76.443572,0,1.96688326504,12600,2018-04-03 07:42:02,14,0,16.409,5419.0948699333,76.443572,0.223694,1.96688326504,0,0,-6.039738,45.2, -5.7, 2.7,0,1,1024,1024,1489,1024,45.7,0,97,4.118,4.121,4.114,4.12,0,0,14.496,85.91,6,P-GPS,
0.364691462095273,36.9257793831117,5420.0791219333,77.427824,0,1.95591213608,12700,2018-04-03 07:42:02,14,0,16.464,5420.0791219333,77.427824,0.223694,1.96688326504,0,0,-6.263432,45.2, -5.5, 1.9,0,1,1024,1024,1488,1024,45.7,0,97,4.118,4.124,4.104,4.108,0,0,15.432,85.91,6,P-GPS,
0.364691438571992,36.9257794184272,5421.0633739333,78.412076,0,1.94489179452,12800,2018-04-03 07:42:02,14,0,16.464,5421.0633739333,78.412076,0.223694,1.96688326504,0,0,-6.487126,45.2, -5.5, 1.9,0,1,1024,1024,1484,1024,45.7,0,97,4.118,4.124,4.104,4.108,0,0,15.432,85.91,6,P-GPS,
0.364691438507261,36.9257794539119,5422.0476259333,79.396328,0,1.93219494372,12900,2018-04-03 07:42:02,14,0,16.464,5422.0476259333,79.396328,0.223694,1.96688326504,0,0,-6.487126,45.2, -4.7, 2.5,0,1,1024,1024,1481,1024,45.7,0,97,4.118,4.124,4.104,4.108,0,0,15.432,85.91,6,P-GPS,
0.364691427485545,36.925779493117,5423.3599619333,80.708664,0,1.91895347348,13000,2018-04-03 07:42:02,14,0,16.464,5423.3599619333,80.708664,0.223694,1.96688326504,0,0,-6.487126,45.2, -4.3, 2.3,0,1,1024,1024,1462,1024,45.7,0,97,4.118,4.124,4.104,4.108,0,0,15.432,85.91,6,P-GPS,
0.364691405226751,36.9257795374258,5424.3442139333,81.692916,0,1.90474415544,13100,2018-04-03 07:42:02,14,0,16.464,5424.3442139333,81.692916,0.223694,1.96688326504,0,0,-6.71082,45.2, -4.9, 2.2,0,1,1024,1024,1469,1024,45.7,0,97,4.118,4.124,4.104,4.108,0,0,15.432,85.91,6,P-GPS,
0.364691363270706,36.9257795723195,5425.6565499333,83.005252,0,1.89546922076,13200,2018-04-03 07:42:02,14,0,16.464,5425.6565499333,83.005252,0.223694,1.96688326504,0,0,-6.487126,45.2, -5.3, 2.2,0,1,1024,1024,1476,1024,45.7,0,97,4.118,4.124,4.104,4.108,0,0,15.432,85.91,6,P-GPS,
0.36469131334872,36.9257796163499,5426.6408019333,83.989504,0,1.88375662196,13300,2018-04-03 07:42:02,14,0,16.464,5426.6408019333,83.989504,0.223694,1.96688326504,0,0,-6.71082,45.2, -5.2, 1.7,0,1,1024,1024,1481,1024,45.7,0,97,4.118,4.124,4.104,4.108,0,0,15.432,85.91,6,P-GPS,
0.364691239227649,36.9257796613952,5427.9531379333,85.30184,0,1.87401252716,13400,2018-04-03 07:42:02,14,0,16.464,5427.9531379333,85.30184,0.223694,1.96688326504,0,0,-6.71082,45.2, -5.7, 1.2,0,1,1024,1024,1468,1024,45.7,0,97,4.118,4.124,4.104,4.108,0,0,15.432,85.91,6,P-GPS,
0.364691165468499,36.9257797039653,5428.9373899333,86.286092,0,1.86559717256,13500,2018-04-03 07:42:02,14,0,16.464,5428.9373899333,86.286092,0.223694,1.96688326504,0,0,-6.71082,45.2, -5.7, 1,0,1,1024,1024,1487,1024,45.7,0,97,4.118,4.124,4.104,4.108,0,0,15.432,85.91,6,P-GPS,
0.364691071004091,36.9257797372595,5430.2497259333,87.598428,0,1.86296921972,13600,2018-04-03 07:42:02,14,0,16.464,5430.2497259333,87.598428,0.223694,1.96688326504,0,0,-6.934514,45.2, -6.2, 0.8,0,1,1024,1024,1481,1024,45.7,0,97,4.118,4.124,4.104,4.108,0,0,15.432,85.91,6,P-GPS,
0.364690987113985,36.9257797539473,5431.2339779333,88.58268,0,1.865731687,13700,2018-04-03 07:42:03,14,0,16.382,5431.2339779333,88.58268,0.223694,1.96688326504,0,0,-6.487126,45.2, -6.2, 1.2,0,1,1024,1024,1460,1024,45.7,0,97,4.118,4.124,4.104,4.108,0,0,16.614,85.91,6,P-GPS,
0.364690911826948,36.9257797615883,5432.2182299333,89.566932,0,1.87120412812,13800,2018-04-03 07:42:03,14,0,16.382,5432.2182299333,89.566932,0.223694,1.96688326504,0,0,-6.71082,45.2, -5.9, 1.6,0,1,1024,1024,1463,1024,45.6,0,97,4.118,4.124,4.104,4.108,0,0,16.614,85.91,6,P-GPS,
0.364690837990447,36.9257797576645,5433.2024819333,90.551184,0,1.88089901032,13900,2018-04-03 07:42:03,14,0,16.382,5433.2024819333,90.551184,0.223694,1.96688326504,0,0,-6.263432,45.2, -6.9, 1.7,0,1,1024,1024,1393,1024,45.7,0,97,4.118,4.124,4.104,4.108,0,0,16.614,85.91,6,P-GPS,
0.364690753888235,36.9257797802204,5434.1867339333,91.535436,0,1.88304796052,14000,2018-04-03 07:42:03,14,0,16.382,5434.1867339333,91.535436,0.223694,1.96688326504,0,0,-6.263432,45.2, -6.9, 1.2,0,1,1024,1024,1415,1024,45.6,0,97,4.118,4.124,4.104,4.108,0,0,16.614,85.91,6,P-GPS,
0.364690676973568,36.9257798238268,5435.1709859333,92.519688,0,1.87761488948,14100,2018-04-03 07:42:03,14,0,16.382,5435.1709859333,92.519688,0.223694,1.96688326504,0,0,-5.59235,45.2, -8.6, 1.2,0,1,1024,1024,1427,1024,45.7,0,97,4.118,4.124,4.104,4.108,0,0,16.614,85.91,6,P-GPS,
0.364690585675874,36.9257798945317,5436.1552379333,93.50394,0,1.86543969224,14200,2018-04-03 07:42:03,14,0,16.382,5436.1552379333,93.50394,0.223694,1.96688326504,0,0,-5.144962,45.1, -7.2, 0.1,0,1,1024,1024,1410,1024,45.6,0,97,4.118,4.124,4.104,4.108,0,0,16.614,85.91,6,P-GPS,
0.364690512776339,36.9257799829148,5437.1394899333,94.488192,0,1.84559717192,14300,2018-04-03 07:42:03,14,0,16.382,5437.1394899333,94.488192,0.223694,1.96688326504,0,0,-5.59235,45.2, -5.1, 0.1,0,1,1024,1024,1473,1024,45.6,0,97,4.118,4.124,4.104,4.108,0,0,16.614,85.91,6,P-GPS,
0.36469039691662,36.9257800332394,5437.7956579333,95.14436,0.223694,1.845554521,14400,2018-04-03 07:42:03,14,0,16.382,5437.7956579333,95.14436,0.223694,1.96688326504,-0.223694,0,-5.368656,45.2, -7.2, 0.5,0,1,1024,1024,1429,1024,45.6,0,97,4.118,4.124,4.104,4.108,0,0,16.614,85.91,6,P-GPS,
0.364690261055741,36.9257800693482,5438.7799099333,96.128612,0.223694,1.85449809084,14500,2018-04-03 07:42:03,14,0,16.382,5438.7799099333,96.128612,0.223694,1.96688326504,-0.223694,0,-5.368656,45.2, -6.3, -0.8,0,1,1024,1024,1452,1024,45.6,0,97,4.118,4.124,4.104,4.108,0,0,16.614,85.91,6,P-GPS,
0.364690117578629,36.9257800924341,5439.7641619333,97.112864,0.223694,1.87030517796,14600,2018-04-03 07:42:04,14,0,16.382,5439.7641619333,97.112864,0.223694,1.96688326504,-0.223694,0,-5.816044,45.3, -7, -0.3,0,1,1024,1024,1462,1024,45.6,0,97,4.118,4.124,4.104,4.108,0,0,16.614,85.91,6,P-GPS,
0.36468998139715,36.925780083656,5440.4203299333,97.769032,0.223694,1.89639441764,14700,2018-04-03 07:42:04,14,0,16.19,5440.4203299333,97.769032,0.223694,1.96688326504,-0.223694,0,-5.368656,45.3, -8.5, 0.4,0,1,1024,1024,1456,1024,45.6,0,97,4.118,4.124,4.104,4.108,0,0,14.418,85.91,6,P-GPS,
0.364689871434841,36.925780099938,5441.4045819333,98.753284,0,1.91073168844,14800,2018-04-03 07:42:04,14,0,16.19,5441.4045819333,98.753284,0.223694,1.96688326504,0,0,-5.59235,45.2, -8, 0,0,1,1024,1024,1451,1024,45.6,0,97,4.118,4.124,4.104,4.108,0,0,14.418,85.91,6,P-GPS,
0.364689795134097,36.9257801290782,5442.3888339333,99.737536,0,1.91551515316,14900,2018-04-03 07:42:04,14,0,16.19,5442.3888339333,99.737536,0.223694,1.96688326504,0,0,-6.039738,45.3, -8, -0.6,0,1,1024,1024,1455,1024,45.6,0,97,4.118,4.124,4.104,4.108,0,0,14.418,85.91,6,P-GPS,
0.364689762481759,36.9257801679236,5443.3730859333,100.721788,0,1.90945216084,15000,2018-04-03 07:42:04,14,0,16.19,5443.3730859333,100.721788,0.223694,1.96688326504,0,0,-5.816044,45.2, -8.4, 0,0,1,1024,1024,1460,1024,45.6,0,97,4.118,4.124,4.104,4.108,0,0,14.418,85.91,6,P-GPS,
0.36468975845706,36.9257802231859,5444.3573379333,101.70604,0,1.89298234404,15100,2018-04-03 07:42:04,14,0,16.19,5444.3573379333,101.70604,0.223694,1.96688326504,0,0,-5.816044,45.2, -7.7, -0.1,0,1,1024,1024,1463,1024,45.6,0,97,4.118,4.124,4.104,4.108,0,0,14.418,85.91,6,P-GPS,
0.364689777853864,36.9257802855004,5445.3415899333,102.690292,0,1.86990491548,15200,2018-04-03 07:42:04,14,0,16.19,5445.3415899333,102.690292,0.223694,1.96688326504,0,0,-6.263432,45.3, -7.7, -0.5,0,1,1024,1024,1468,1024,45.6,0,97,4.118,4.124,4.104,4.108,0,0,14.418,85.91,6,P-GPS,
0.364689812067268,36.9257803214519,5445.9977579333,103.34646,0,1.85219494116,15300,2018-04-03 07:42:04,14,0,16.19,5445.9977579333,103.34646,0.223694,1.96688326504,0,0,-5.816044,45.2, -7.5, 0.8,0,1,1024,1024,1475,1024,45.6,0,97,4.118,4.124,4.104,4.108,0,0,14.418,85.91,6,P-GPS,
0.364689852339096,36.9257803723567,5446.9820099333,104.330712,0,1.82868116088,15400,2018-04-03 07:42:04,14,0,16.19,5446.9820099333,104.330712,0.223694,1.96688326504,0,0,-5.816044,45.2, -7, 0.9,0,1,1024,1024,1464,1024,45.6,0,97,4.118,4.124,4.104,4.108,0,0,14.418,85.91,6,P-GPS,
0.364689866975957,36.9257804222167,5447.9662619333,105.314964,0,1.8103839162,15500,2018-04-03 07:42:04,14,0,16.19,5447.9662619333,105.314964,0.223694,1.96688326504,0,0,-5.816044,45.2, -7, 0.7,0,1,1024,1024,1474,1024,45.6,0,97,4.118,4.124,4.104,4.108,0,0,14.418,85.91,6,P-GPS,
0.364689855937753,36.9257804813642,5448.9505139333,106.299216,0,1.79417000492,15600,2018-04-03 07:42:04,14,0,16.19,5448.9505139333,106.299216,0.223694,1.96688326504,0,0,-6.039738,45.2, -7.5, 0,0,1,1024,1024,1500,1024,45.6,0,97,4.118,4.124,4.104,4.108,0,0,14.418,85.91,6,P-GPS,
0.364689832420172,36.9257805233358,5449.9347659333,107.283468,0,1.7858104246,15700,2018-04-03 07:42:05,14,0,16.382,5449.9347659333,107.283468,0.223694,1.96688326504,0,0,-6.263432,45.2, -7.9, -1.1,0,1,1024,1024,1521,1024,45.6,0,97,4.166,4.146,4.092,4.066,0,0,14.418,85.91,6,P-GPS,
0.364689855494002,36.9257805203595,5451.2471019333,108.595804,0,1.78221462396,15800,2018-04-03 07:42:05,14,0,16.382,5451.2471019333,108.595804,0.223694,1.96688326504,0,0,-6.487126,45.3, -8, -0.2,0,1,1024,1024,1534,1024,45.6,0,97,4.166,4.146,4.092,4.066,0,0,14.418,85.91,6,P-GPS,
0.364689930428074,36.9257804730776,5452.2313539333,109.580056,0.223694,1.78247709116,15900,2018-04-03 07:42:05,14,0,16.382,5452.2313539333,109.580056,0.223694,1.96688326504,0.223694,0,-6.934514,45.3, -7, 0.4,0,1,1024,1024,1542,1024,45.6,0,97,4.166,4.146,4.092,4.066,0,0,14.418,85.91,6,P-GPS,
0.364690040589664,36.9257804109269,5453.5436899333,110.892392,0.3131716,1.78160110688,16000,2018-04-03 07:42:05,14,0,16.382,5453.5436899333,110.892392,0.3131716,1.96688326504,0.223694,-0.223694,-7.158208,45.2, -7, 1.5,0,1,1024,1024,1547,1024,45.6,0,97,4.166,4.146,4.092,4.066,0,0,14.418,85.91,6,P-GPS,
0.364690163117047,36.9257803326463,5454.8560259333,112.204728,0.3131716,1.7849738104,16100,2018-04-03 07:42:05,14,0,16.382,5454.8560259333,112.204728,0.3131716,1.96688326504,0.223694,-0.223694,-7.605596,45.2, -7.7, 2.9,0,1,1024,1024,1547,1024,45.6,0,97,4.166,4.146,4.092,4.066,0,0,14.418,85.91,6,P-GPS,
0.364690299296898,36.9257802391339,5456.1683619333,113.517064,0.3131716,1.79269034608,16200,2018-04-03 07:42:05,14,0,16.382,5456.1683619333,113.517064,0.3131716,1.96688326504,0.223694,-0.223694,-8.052984,45.1, -8, 3.6,0,1,1024,1024,1543,1024,45.6,0,97,4.166,4.146,4.092,4.066,0,0,14.418,85.91,6,P-GPS,
0.364690442869884,36.9257801497498,5457.4806979333,114.8294,0.223694,1.79990819408,16300,2018-04-03 07:42:05,14,0,16.382,5457.4806979333,114.8294,0.3131716,1.96688326504,0.223694,0,-8.052984,45, -7.9, 3.9,0,1,1024,1024,1545,1024,45.6,0,97,4.166,4.146,4.092,4.066,0,0,14.418,85.91,6,P-GPS,
0.364690599546552,36.925780094313,5458.7930339333,116.141736,0.223694,1.795931816,16400,2018-04-03 07:42:05,14,0,16.382,5458.7930339333,116.141736,0.3131716,1.96688326504,0.223694,0,-8.052984,45, -7.9, 4.3,0,1,1024,1024,1544,1024,45.6,0,97,4.166,4.146,4.092,4.066,0,0,14.418,85.91,6,P-GPS,
0.364690754583988,36.9257800755428,5460.1053699333,117.454072,0.223694,1.78167000452,16500,2018-04-03 07:42:05,14,0,16.382,5460.1053699333,117.454072,0.3131716,1.96688326504,0.223694,0,-7.82929,45, -7.5, 4.5,0,1,1024,1024,1547,1024,45.6,0,97,4.166,4.146,4.092,4.066,0,0,14.418,85.91,6,P-GPS,
0.364690900267845,36.9257800917981,5461.0896219333,118.438324,0.223694,1.7581365392,16600,2018-04-03 07:42:06,14,0,16.382,5461.0896219333,118.438324,0.3131716,1.96688326504,0.223694,0,-7.82929,45.1, -6.9, 4.2,0,1,1024,1024,1556,1024,45.6,0,97,4.166,4.146,4.092,4.066,0,0,14.418,85.91,6,P-GPS,
0.364691020735246,36.9257801215924,5462.4019579333,119.75066,0.223694,1.73399283764,16700,2018-04-03 07:42:06,14,0,16.327,5462.4019579333,119.75066,0.3131716,1.96688326504,0.223694,0,-7.82929,45.1, -6.6, 3.6,0,1,1024,1024,1548,1024,45.6,0,97,4.113,4.117,4.094,4.098,0,0,14.938,85.91,6,P-GPS,
0.364691112704064,36.9257801658712,5463.3862099333,120.734912,0.223694,1.70861554024,16800,2018-04-03 07:42:06,14,0,16.327,5463.3862099333,120.734912,0.3131716,1.96688326504,0.223694,0,-7.82929,45.1, -6.3, 3.1,0,1,1024,1024,1546,1024,45.6,0,97,4.113,4.117,4.094,4.098,0,0,14.938,85.91,6,P-GPS,
0.364691178970743,36.9257802114144,5464.6985459333,122.047248,0,1.68582354476,16900,2018-04-03 07:42:06,14,0,16.327,5464.6985459333,122.047248,0.3131716,1.96688326504,0,0,-7.82929,45.2, -6.1, 3,0,1,1024,1024,1548,1024,45.6,0,97,4.113,4.117,4.094,4.098,0,0,14.938,85.91,6,P-GPS,
0.364691222949315,36.9257802446379,5466.0108819333,123.359584,0,1.66975399044,17000,2018-04-03 07:42:06,14,0,16.327,5466.0108819333,123.359584,0.3131716,1.96688326504,0,0,-7.605596,45.1, -6.3, 2.9,0,1,1024,1024,1549,1024,45.6,0,97,4.113,4.117,4.094,4.098,0,0,14.938,85.91,6,P-GPS,
0.364691250648741,36.9257802691413,5467.3232179333,124.67192,0,1.65842196908,17100,2018-04-03 07:42:06,14,0,16.327,5467.3232179333,124.67192,0.3131716,1.96688326504,0,0,-7.82929,45.2, -6.1, 2.5,0,1,1024,1024,1545,1024,45.6,0,97,4.113,4.117,4.094,4.098,0,0,14.938,85.91,6,P-GPS,
0.364691249413159,36.9257802685878,5468.3074699333,125.656172,0,1.65873692972,17200,2018-04-03 07:42:06,14,0,16.327,5468.3074699333,125.656172,0.3131716,1.96688326504,0,0,-7.605596,45.1, -6.8, 2.5,0,1,1024,1024,1545,1024,45.6,0,97,4.113,4.117,4.094,4.098,0,0,14.938,85.91,6,P-GPS,
0.364691232169565,36.9257802646918,5469.6198059333,126.968508,0,1.66180123428,17300,2018-04-03 07:42:06,14,0,16.327,5469.6198059333,126.968508,0.3131716,1.96688326504,0,0,-7.605596,45.2, -7.3, 2.7,0,1,1024,1024,1546,1024,45.6,0,97,4.113,4.117,4.094,4.098,0,0,14.938,85.91,6,P-GPS,
0.364691185462127,36.9257802648866,5470.6040579333,127.95276,0,1.66643049952,17400,2018-04-03 07:42:06,14,0,16.327,5470.6040579333,127.95276,0.3131716,1.96688326504,0,0,-7.605596,45.2, -7.2, 2.2,0,1,1024,1024,1544,1024,45.6,0,97,4.113,4.117,4.094,4.098,0,0,14.938,85.91,6,P-GPS,
0.364691119958782,36.9257802804406,5471.9163939333,129.265096,0,1.66786094576,17500,2018-04-03 07:42:06,14,0,16.327,5471.9163939333,129.265096,0.3131716,1.96688326504,0,0,-7.605596,45.2, -7.4, 1.2,0,1,1024,1024,1544,1024,45.6,0,97,4.113,4.117,4.094,4.098,0,0,14.938,85.91,6,P-GPS,
0.364691040322985,36.9257802989538,5472.9006459333,130.249348,0,1.6702264314,17600,2018-04-03 07:42:06,14,0,16.327,5472.9006459333,130.249348,0.3131716,1.96688326504,0,0,-7.605596,45.2, -8.5, 0.6,0,1,1024,1024,1544,1024,45.6,0,97,4.113,4.117,4.094,4.098,0,0,14.938,85.91,6,P-GPS,
0.364690992537924,36.9257803343368,5474.2129819333,131.561684,0,1.66351383276,17700,2018-04-03 07:42:07,14,0,16.382,5474.2129819333,131.561684,0.3131716,1.96688326504,0,0,-7.605596,45.2, -8.1, 1.2,0,1,1024,1024,1549,1024,45.6,0,97,4.093,4.099,4.087,4.094,0,0,16.132,85.91,6,P-GPS,
0.364690987517432,36.925780371345,5475.1972339333,132.545936,0,1.65133863552,17800,2018-04-03 07:42:07,14,0,16.382,5475.1972339333,132.545936,0.3131716,1.96688326504,0,0,-7.381902,45.1, -7, 2.2,0,1,1024,1024,1554,1024,45.6,0,97,4.093,4.099,4.087,4.094,0,0,16.132,85.91,6,P-GPS,
0.364690990215356,36.9257804237894,5476.5095699333,133.858272,0,1.63294296564,17900,2018-04-03 07:42:07,14,0,16.382,5476.5095699333,133.858272,0.3131716,1.96688326504,0,0,-7.605596,45.2, -6.4, 2,0,1,1024,1024,1559,1024,45.6,0,97,4.093,4.099,4.087,4.094,0,0,16.132,85.91,6,P-GPS,
0.364690947400714,36.9257804999277,5477.4938219333,134.842524,0,1.61204401484,18000,2018-04-03 07:42:07,14,0,16.382,5477.4938219333,134.842524,0.3131716,1.96688326504,0,0,-7.82929,45.2, -6.5, 0,0,1,1024,1024,1564,1024,45.6,0,97,4.093,4.099,4.087,4.094,0,0,16.132,85.91,6,P-GPS,
0.364690900324433,36.9257805732846,5478.8061579333,136.15486,0,1.59301514284,18100,2018-04-03 07:42:07,14,0,16.382,5478.8061579333,136.15486,0.3131716,1.96688326504,0,0,-7.82929,45.2, -6.8, -0.2,0,1,1024,1024,1564,1024,45.6,0,97,4.093,4.099,4.087,4.094,0,0,16.132,85.91,6,P-GPS,
0.364690877970783,36.9257806126289,5480.1184939333,137.467196,0,1.58259191416,18200,2018-04-03 07:42:07,14,0,16.382,5480.1184939333,137.467196,0.3131716,1.96688326504,0,0,-8.052984,45.2, -7.2, 0.4,0,1,1024,1024,1575,1024,45.6,0,97,4.093,4.099,4.087,4.094,0,0,16.132,85.91,6,P-GPS,
0.364690885562588,36.9257806367243,5481.1027459333,138.451448,0,1.57339571964,18300,2018-04-03 07:42:07,14,0,16.382,5481.1027459333,138.451448,0.3131716,1.96688326504,0,0,-8.052984,45.2, -7.4, 1.3,0,1,1024,1024,1578,1024,45.6,0,97,4.093,4.099,4.087,4.094,0,0,16.132,85.91,6,P-GPS,
0.364690921037427,36.9257806816337,5482.4150819333,139.763784,0,1.55341868488,18400,2018-04-03 07:42:07,14,0,16.382,5482.4150819333,139.763784,0.3131716,1.96688326504,0,0,-8.276678,45.2, -6.6, 1.9,0,1,1024,1024,1584,1024,45.6,0,97,4.093,4.099,4.087,4.094,0,0,16.132,85.91,6,P-GPS,
0.364690969612283,36.925780752602,5483.7274179333,141.07612,0,1.52287734532,18500,2018-04-03 07:42:07,14,0,16.382,5483.7274179333,141.07612,0.3131716,1.96688326504,0,0,-8.500372,45.2, -5.9, 1.7,0,1,1024,1024,1571,1024,45.6,0,97,4.093,4.099,4.087,4.094,0,0,16.132,85.91,6,P-GPS,
0.364690991484321,36.9257808281483,5485.0397539333,142.388456,0,1.49428810556,18600,2018-04-03 07:42:08,14,0,16.382,5485.0397539333,142.388456,0.3131716,1.96688326504,0,0,-8.94776,45.2, -5.9, 1.5,0,1,1024,1024,1576,1024,45.6,0,97,4.093,4.099,4.087,4.094,0,0,16.132,85.91,6,P-GPS,
0.364690988414704,36.925780872502,5486.3520899333,143.700792,0,1.4796096274,18700,2018-04-03 07:42:08,14,0,16.3,5486.3520899333,143.700792,0.3131716,1.96688326504,0,0,-8.724066,45.2, -7.4, 1.6,0,1,1024,1024,1574,1024,45.6,0,97,4.093,4.099,4.087,4.094,0,0,17.42,85.91,6,P-GPS,
0.364690967928065,36.9257809128634,5487.6644259333,145.013128,0,1.46867130684,18800,2018-04-03 07:42:08,14,0,16.3,5487.6644259333,145.013128,0.3131716,1.96688326504,0,0,-8.500372,45.3, -7.3, 2.1,0,1,1024,1024,1554,1024,45.6,0,97,4.093,4.099,4.087,4.094,0,0,17.42,85.91,6,P-GPS,
0.364690941761412,36.9257809747582,5488.9767619333,146.325464,0,1.45136815668,18900,2018-04-03 07:42:08,14,0,16.3,5488.9767619333,146.325464,0.3131716,1.96688326504,0,0,-8.500372,45.2, -6.3, 2,0,1,1024,1024,1558,1024,45.6,0,97,4.093,4.099,4.087,4.094,0,0,17.42,85.91,6,P-GPS,
0.364690853444788,36.9257810554296,5490.2890979333,147.6378,0,1.43711290688,19000,2018-04-03 07:42:08,14,0,16.3,5490.2890979333,147.6378,0.3131716,1.96688326504,0,0,-8.276678,45.2, -7, 1,0,1,1024,1024,1561,1024,45.6,0,97,4.093,4.099,4.087,4.094,0,0,17.42,85.91,6,P-GPS,
0.364690742300431,36.9257811333312,5491.6014339333,148.950136,0,1.4286089696,19100,2018-04-03 07:42:08,14,0,16.3,5491.6014339333,148.950136,0.3131716,1.96688326504,0,0,-8.052984,45.2, -7.4, 0.3,0,1,1024,1024,1555,1024,45.6,0,97,4.093,4.099,4.087,4.094,0,0,17.42,85.91,6,P-GPS,
0.364690608478771,36.9257812190891,5492.5856859333,149.934388,0,1.42317261772,19200,2018-04-03 07:42:08,14,0,16.3,5492.5856859333,149.934388,0.3131716,1.96688326504,0,0,-8.052984,45.3, -7, -0.2,0,1,1024,1024,1558,1024,45.6,0,97,4.093,4.099,4.087,4.094,0,0,17.42,85.91,6,P-GPS,
0.364690486510962,36.9257812961525,5493.8980219333,151.246724,0,1.42060700084,19300,2018-04-03 07:42:08,14,0,16.3,5493.8980219333,151.246724,0.3131716,1.96688326504,0,0,-8.052984,45.3, -7.3, -0.4,0,1,1024,1024,1556,1024,45.6,0,97,4.093,4.099,4.087,4.094,0,0,17.42,85.91,6,P-GPS,
0.364690356549936,36.9257813827979,5494.8822739333,152.230976,0,1.41862865432,19400,2018-04-03 07:42:08,14,0,16.3,5494.8822739333,152.230976,0.3131716,1.96688326504,0,0,-7.82929,45.3, -6.9, -0.8,0,1,1024,1024,1546,1024,45.6,-0.1,97,4.093,4.099,4.087,4.094,0,0,17.42,85.91,6,P-GPS,
0.364690266554996,36.9257814740363,5495.8665259333,153.215228,0,1.40921592436,19500,2018-04-03 07:42:08,14,0,16.3,5495.8665259333,153.215228,0.3131716,1.96688326504,0,0,-7.82929,45.3, -6.6, -0.9,0,1,1024,1024,1549,1024,45.6,-0.3,97,4.093,4.099,4.087,4.094,0,0,17.42,85.91,6,P-GPS,
0.36469016585609,36.9257815514423,5497.1788619333,154.527564,0,1.40768049124,19600,2018-04-03 07:42:08,14,0,16.3,5497.1788619333,154.527564,0.3131716,1.96688326504,0,0,-7.82929,45.3, -7.3, -0.4,0,1,1024,1024,1548,1024,45.6,-0.6,97,4.093,4.099,4.087,4.094,0,0,17.42,85.91,6,P-GPS,
0.364690087074616,36.9257816199888,5498.1631139333,155.511816,0,1.4052493888,19700,2018-04-03 07:42:09,14,0,16.245,5498.1631139333,155.511816,0.3131716,1.96688326504,0,0,-7.82929,45.2, -6.9, -0.3,0,1,1024,1024,1551,1024,45.6,-1.3,97,4.074,4.078,4.07,4.083,0,0,17.42,85.91,6,P-GPS,
0.364689998315055,36.9257816990072,5499.4754499333,156.824152,0,1.40324479556,19800,2018-04-03 07:42:09,14,0,16.245,5499.4754499333,156.824152,0.3131716,1.96688326504,0,0,-8.052984,45.2, -7.2, -0.9,0,1,1024,1024,1549,1024,45.6,-2.4,97,4.074,4.078,4.07,4.083,0,0,17.42,85.91,6,P-GPS,
0.364689926461388,36.9257817487686,5500.7877859333,158.136488,0,1.406496108,19900,2018-04-03 07:42:09,14,0,16.245,5500.7877859333,158.136488,0.3131716,1.96688326504,0,0,-8.052984,45.3, -7.8, -1.1,0,1,1024,1024,1550,1024,45.6,-4.2,97,4.074,4.078,4.07,4.083,0,0,17.42,85.91,6,P-GPS,
0.364689849332581,36.9257817699166,5502.1001219333,159.448824,0,1.41946854936,20000,2018-04-03 07:42:09,14,0,16.245,5502.1001219333,159.448824,0.3131716,1.96688326504,0,0,-8.276678,45.3, -8.1, -0.8,0,1,1024,1024,1548,1024,45.6,-6.2,97,4.074,4.078,4.07,4.083,0,0,17.42,85.91,6,P-GPS,
0.364689779052602,36.9257817593538,5503.4124579333,160.76116,0,1.43965883872,20100,2018-04-03 07:42:09,14,0,16.245,5503.4124579333,160.76116,0.3131716,1.96688326504,0,0,-8.276678,45.3, -8.6, -0.5,0,1,1024,1024,1544,1024,45.6,-8.1,97,4.074,4.078,4.07,4.083,0,0,17.42,85.91,6,P-GPS,
0.364689724561609,36.9257817384135,5504.7247939333,162.073496,0,1.45882222516,20200,2018-04-03 07:42:09,14,0,16.245,5504.7247939333,162.073496,0.3131716,1.96688326504,0,0,-8.500372,45.3, -8.7, 0,0,1,1024,1024,1538,1024,45.6,-9.7,97,4.074,4.078,4.07,4.083,0,0,17.42,85.91,6,P-GPS,
0.364689697846782,36.9257817105624,5506.0371299333,163.385832,0,1.4729003096,20300,2018-04-03 07:42:09,14,0,16.245,5506.0371299333,163.385832,0.3131716,1.96688326504,0,0,-8.276678,45.3, -8.9, 0.3,0,1,1024,1024,1540,1024,45.6,-9.9,97,4.074,4.078,4.07,4.083,0,0,17.42,85.91,6,P-GPS,
0.364689644189755,36.9257816957503,5507.0213819333,164.370084,0,1.49029532328,20400,2018-04-03 07:42:09,14,0,16.245,5507.0213819333,164.370084,0.3131716,1.96688326504,0,0,-8.052984,45.2, -8.7, 0.1,0,1,1024,1024,1544,1024,45.6,-9.9,97,4.074,4.078,4.07,4.083,0,0,17.42,85.91,6,P-GPS,
0.364689592828632,36.9257816845559,5508.3337179333,165.68242,0,1.50623036316,20500,2018-04-03 07:42:09,14,0,16.245,5508.3337179333,165.68242,0.3131716,1.96688326504,0,0,-8.052984,45.2, -8.5, -0.1,0,1,1024,1024,1545,1024,45.6,-9.9,97,4.074,4.078,4.07,4.083,0,0,17.42,85.91,6,P-GPS,
0.364689534850733,36.9257816530893,5509.6460539333,166.994756,0,1.52921264736,20600,2018-04-03 07:42:10,14,0,16.245,5509.6460539333,166.994756,0.3131716,1.96688326504,0,0,-8.052984,45.2, -8.7, -0.1,0,1,1024,1024,1545,1024,45.6,-9.9,97,4.074,4.078,4.07,4.083,0,0,17.42,85.91,6,P-GPS,
0.364689505092344,36.9257816001984,5510.6303059333,167.979008,0,1.55061028584,20700,2018-04-03 07:42:10,14,0,16.245,5510.6303059333,167.979008,0.3131716,1.96688326504,0,0,-8.276678,45.3, -9, 0,0,1,1024,1024,1547,1024,45.6,-9.9,97,4.094,4.089,4.071,4.083,0,0,15.424,85.91,6,P-GPS,
0.364689472169481,36.9257815259957,5511.9426419333,169.291344,0,1.57843508988,20800,2018-04-03 07:42:10,14,0,16.245,5511.9426419333,169.291344,0.3131716,1.96688326504,0,0,-8.276678,45.2, -9.5, 0.3,0,1,1024,1024,1546,1024,45.6,-10,97,4.094,4.089,4.071,4.083,0,0,15.424,85.91,6,P-GPS,
0.364689473273159,36.9257814498424,5513.2549779333,170.60368,0,1.59833338448,20900,2018-04-03 07:42:10,14,0,16.245,5513.2549779333,170.60368,0.3131716,1.96688326504,0,0,-8.276678,45, -9.5, -0.1,0,1,1024,1024,1546,1024,45.6,-10.2,97,4.094,4.089,4.071,4.083,0,0,15.424,85.91,6,P-GPS,
0.364689503722212,36.9257813604305,5514.8953979333,172.2441,0,1.61485241388,21000,2018-04-03 07:42:10,14,0,16.245,5514.8953979333,172.2441,0.3131716,1.96688326504,0.223694,-0.223694,-8.500372,45.1, -8.8, 0.1,0,1,1024,1024,1546,1024,45.5,-10.5,97,4.094,4.089,4.071,4.083,0,0,15.424,85.91,6,P-GPS,
0.364689600387869,36.925781237082,5516.2077339333,173.556436,0.3131716,1.62566606252,21100,2018-04-03 07:42:10,14,0,16.245,5516.2077339333,173.556436,0.3131716,1.96688326504,0.223694,-0.223694,-8.500372,45.1, -8.7, 2.1,0,1,1024,1024,1546,1024,45.6,-10.9,97,4.094,4.089,4.071,4.083,0,0,15.424,85.91,6,P-GPS,
0.364689712828873,36.9257810877827,5517.5200699333,174.868772,0.3131716,1.64234257224,21200,2018-04-03 07:42:10,14,0,16.245,5517.5200699333,174.868772,0.3131716,1.96688326504,0.223694,-0.223694,-8.276678,45, -9.1, 3.7,0,1,1024,1024,1546,1024,45.6,-11.5,97,4.094,4.089,4.071,4.083,0,0,15.424,85.91,6,P-GPS,
0.364689850206852,36.9257809644171,5518.5043219333,175.853024,0.223694,1.64866803176,21300,2018-04-03 07:42:10,14,0,16.245,5518.5043219333,175.853024,0.3131716,1.96688326504,0.223694,0,-8.052984,45, -8.1, 4.2,0,1,1024,1024,1546,1024,45.5,-12,97,4.094,4.089,4.071,4.083,0,0,15.424,85.91,6,P-GPS,
0.364689950612637,36.9257808833078,5519.8166579333,177.16536,0.223694,1.65226055156,21400,2018-04-03 07:42:10,14,0,16.245,5519.8166579333,177.16536,0.3131716,1.96688326504,0.223694,0,-8.052984,45, -7.6, 3.6,0,1,1024,1024,1546,1024,45.6,-12.6,97,4.094,4.089,4.071,4.083,0,0,15.424,85.91,6,P-GPS,
0.364690027410871,36.9257808324929,5521.1289939333,178.477696,0.223694,1.65245740196,21500,2018-04-03 07:42:10,14,0,16.245,5521.1289939333,178.477696,0.3131716,1.96688326504,0.223694,0,-7.82929,45, -7.7, 3.3,0,1,1024,1024,1545,1024,45.6,-13.2,97,4.094,4.089,4.071,4.083,0,0,15.424,85.91,6,P-GPS,
