latitude,longitude,altitude(feet),ascent(feet),speed(mph),distance(feet),time(millisecond),datetime(utc),satellites,gpslevel,voltage(v),max_altitude(feet),max_ascent(feet),max_speed(mph),max_distance(feet), xSpeed(mph), ySpeed(mph), zSpeed(mph), compass_heading(degrees), pitch(degrees), roll(degrees),isPhoto,isVideo,rc_elevator,rc_aileron,rc_throttle,rc_rudder,gimbal_heading(degrees),gimbal_pitch(degrees),battery_percent,voltageCell1,voltageCell2,voltageCell3,voltageCell4,voltageCell5,voltageCell6,current(A),battery_temperature(f),flycStateRaw,flycState,message
0.313743121252111,36.884666560767,5835.8906687039,0,0,0,0,2018-03-31 06:37:21,11,0,0,5835.8906687039,0,0,0,0,0,0,71.8, -0.7, 3.3,0,0,364,364,364,1684,0,0,99,4.298,4.3,4.299,4.298,0,0,0,82.31,6,P-GPS,
0.313743122392989,36.8846665265493,5835.8906687039,0,0,0.0124910765152,100,2018-03-31 06:37:21,11,0,0,5835.8906687039,0,0,0.0124910765152,0,0,0,71.8, -0.7, 3.3,0,0,364,364,364,1684,76.4,0,99,4.298,4.3,4.299,4.298,0,0,0,82.31,41,Motors_Started,
0.313743123574755,36.8846665044014,5835.8906687039,0,0,0.0205820872728,200,2018-03-31 06:37:21,11,0,0,5835.8906687039,0,0,0.0205820872728,0,0,0,71.8, -0.7, 3.3,0,0,364,364,364,1684,76.4,0,99,4.298,4.3,4.299,4.298,0,0,0,82.31,41,Motors_Started,
0.313743123481425,36.8846664853099,5835.8906687039,0,0,0.0275420612488,300,2018-03-31 06:37:21,11,0,0,5835.8906687039,0,0,0.0275420612488,0,0,0,71.9, -0.7, 3.3,0,0,364,364,364,1684,76.4,0,99,4.298,4.3,4.299,4.298,0,0,0,82.31,41,Motors_Started,
0.313743124299591,36.8846664727554,5835.8906687039,0,0,0.0321297254376,400,2018-03-31 06:37:22,11,0,0,5835.8906687039,0,0,0.0321297254376,0,0,0,71.8, -0.7, 3.4,0,0,364,364,364,1684,76.4,0,99,4.298,4.3,4.299,4.298,0,0,0,82.31,41,Motors_Started,
0.313743151534706,36.8846664637232,5835.8906687039,0,0,0.037089568116,500,2018-03-31 06:37:22,11,0,0,5835.8906687039,0,0,0.037089568116,0,0,0,71.8, -0.7, 3.4,0,0,364,364,364,1684,76.4,0,99,4.298,4.3,4.299,4.298,0,0,0,82.31,41,Motors_Started,
0.313743181197755,36.8846664568799,5835.8906687039,0,0,0.043760172004,600,2018-03-31 06:37:22,11,0,0,5835.8906687039,0,0,0.043760172004,0,0,0,71.8, -0.7, 3.3,0,0,364,364,364,1684,76.4,0,99,4.298,4.3,4.299,4.298,0,0,0,82.31,41,Motors_Started,
0.313743209046158,36.8846664542725,5835.8906687039,0,0,0.050355316572,700,2018-03-31 06:37:22,12,0,0,5835.8906687039,0,0,0.050355316572,0,0,0,71.8, -0.7, 3.3,0,0,364,364,364,1684,76.4,0,99,4.298,4.3,4.299,4.298,0,0,0,82.31,41,Motors_Started,
0.313743227698635,36.884666451791,5835.8906687039,0,0,0.055579726188,800,2018-03-31 06:37:22,12,0,0,5835.8906687039,0,0,0.055579726188,0,0,0,71.8, -0.7, 3.4,0,0,364,364,463,1623,76.4,0,99,4.298,4.3,4.299,4.298,0,0,0,82.31,41,Motors_Started,
0.313743241511937,36.8846664545048,5835.8906687039,0,0,0.058550854892,900,2018-03-31 06:37:22,12,0,17.176,5835.8906687039,0,0,0.058550854892,0,0,0,71.8, -0.7, 3.4,0,0,390,377,568,1549,76.3,0,99,4.298,4.3,4.299,4.298,0,0,1.474,82.31,41,Motors_Started,Setting new Return-To-Home altitude to 30m (98 ft). Setting new Maximum Flight Altitude to 120m (394 ft)
0.313743250097679,36.8846664551377,5835.8906687039,0,0,0.060787075436,1000,2018-03-31 06:37:22,12,0,17.176,5835.8906687039,0,0,0.060787075436,0,0,0,71.8, -0.7, 3.4,0,0,891,843,662,1475,76.1,0,99,4.298,4.3,4.299,4.298,0,0,1.474,82.31,41,Motors_Started,
0.313743252488667,36.8846664595236,5835.8906687039,0,0,0.060473755216,1100,2018-03-31 06:37:22,12,0,17.176,5835.8906687039,0,0,0.060787075436,0,0,0,71.8, -0.7, 3.5,0,0,961,939,1024,1178,75.9,0,99,4.298,4.3,4.299,4.298,0,0,1.474,82.31,41,Motors_Started,
0.313743255277912,36.8846664604902,5835.8906687039,0,0,0.061070540012,1200,2018-03-31 06:37:23,12,0,17.176,5835.8906687039,0,0,0.061070540012,0,0,0,71.8, -0.7, 3.3,0,0,1024,1004,1047,1024,74.9,0,99,4.298,4.3,4.299,4.298,0,0,1.474,82.31,41,Motors_Started,
0.313743253623311,36.8846664668077,5835.8906687039,0,0,0.059225067512,1300,2018-03-31 06:37:23,12,0,17.176,5835.8906687039,0,0,0.061070540012,0,0,0,71.8, -0.6, 3.4,0,0,1024,1024,1024,1024,73.9,0,99,4.298,4.3,4.299,4.298,0,0,1.474,82.31,41,Motors_Started,
0.31374325351764,36.884666467387,5835.8906687039,0,0,0.0590715242,1400,2018-03-31 06:37:23,12,0,17.176,5835.8906687039,0,0,0.061070540012,0,0,0,71.8, -0.7, 3.4,0,0,1024,1024,1024,1024,73.4,0,99,4.298,4.3,4.299,4.298,0,0,1.474,82.31,41,Motors_Started,
0.313743247718242,36.8846664720914,5835.8906687039,0,0,0.05635334826,1500,2018-03-31 06:37:23,12,0,17.176,5835.8906687039,0,0,0.061070540012,0,0,0,71.8, -0.6, 3.5,0,0,1024,1024,1024,1024,73.4,0,99,4.298,4.3,4.299,4.298,0,0,1.474,82.31,41,Motors_Started,
0.313743242588949,36.8846664737617,5835.8906687039,0,0,0.054474411192,1600,2018-03-31 06:37:23,12,0,17.176,5835.8906687039,0,0,0.061070540012,0,0,0,71.7, -0.6, 3.4,0,0,1024,1024,1024,1024,73,0,99,4.298,4.3,4.299,4.298,0,0,1.474,82.31,10,Assisted_Takeoff,
0.313743267967867,36.884666476921,5835.8906687039,0,0,0.06165354528,1700,2018-03-31 06:37:23,12,0,17.176,5835.8906687039,0,0,0.06165354528,0,0,0,71.8, -0.7, 3.4,0,0,1024,1024,1024,1024,72.8,0,99,4.298,4.3,4.299,4.298,0,0,1.474,82.31,10,Assisted_Takeoff,
0.313743295091917,36.884666478187,5835.8906687039,0,0,0.070217521932,1800,2018-03-31 06:37:23,12,0,17.176,5835.8906687039,0,0,0.070217521932,0,0,0,71.7, -0.7, 3.4,0,0,1024,1024,1024,1024,72.7,0,99,4.298,4.3,4.299,4.298,0,0,1.474,82.31,10,Assisted_Takeoff,
0.313743320475873,36.8846664845125,5835.8906687039,0,0,0.077829070732,1900,2018-03-31 06:37:23,12,0,17.176,5835.8906687039,0,0,0.077829070732,0,0,0,71.8, -0.7, 3.3,0,0,1024,1024,1024,1024,72.6,0,99,4.295,4.295,4.295,4.294,0,0,1.822,82.31,10,Assisted_Takeoff,
0.313743336167267,36.8846664867488,5835.8906687039,0,0,0.082931761184,2000,2018-03-31 06:37:23,12,0,17.176,5835.8906687039,0,0,0.082931761184,0,0,0,71.7, -0.8, 3.3,0,0,1024,1024,1024,1024,72.5,0,99,4.295,4.295,4.295,4.294,0,0,1.822,82.31,10,Assisted_Takeoff,
0.313743349404125,36.8846664640424,5835.8906687039,0,0,0.090412404468,2100,2018-03-31 06:37:23,12,0,17.176,5835.8906687039,0,0,0.090412404468,0,0,0,71.7, -0.7, 3.3,0,0,1024,1024,1024,1024,72.5,0,99,4.295,4.295,4.295,4.294,0,0,1.822,82.31,10,Assisted_Takeoff,
0.313743360856971,36.884666436075,5835.8906687039,0,0,0.098548559584,2200,2018-03-31 06:37:23,12,0,17.176,5835.8906687039,0,0,0.098548559584,0,0,0,71.7, -0.8, 3.4,0,0,1024,1024,1024,1024,72.4,0,99,4.295,4.295,4.295,4.294,0,0,1.822,82.31,10,Assisted_Takeoff,
0.313743365092122,36.8846664083994,5835.8906687039,0,0,0.104904859,2300,2018-03-31 06:37:23,10,0,17.176,5835.8906687039,0,0,0.104904859,0,0,0,71.7, -0.7, 3.4,0,0,1024,1024,1024,1024,72.4,0,99,4.295,4.295,4.295,4.294,0,0,1.822,82.31,10,Assisted_Takeoff,
0.313743370252164,36.8846663917842,5835.8906687039,0,0,0.109791998264,2400,2018-03-31 06:37:24,10,0,17.176,5835.8906687039,0,0,0.109791998264,0,0,0,71.7, -0.7, 3.4,0,0,1024,1024,1024,1024,72.3,0,99,4.295,4.295,4.295,4.294,0,0,1.822,82.31,10,Assisted_Takeoff,
0.313743367990866,36.8846663760715,5835.8906687039,0,0,0.11244915058,2500,2018-03-31 06:37:24,10,0,17.176,5835.8906687039,0,0,0.11244915058,0,0,0,71.7, -0.7, 3.4,0,0,1024,1024,1024,1024,72.3,0,99,4.295,4.295,4.295,4.294,0,0,1.822,82.31,10,Assisted_Takeoff,
0.313743369372334,36.8846663662122,5835.8906687039,0,0,0.115037077172,2600,2018-03-31 06:37:24,10,0,17.176,5835.8906687039,0,0,0.115037077172,0,0,0,71.7, -0.7, 3.3,0,0,1024,1024,1024,1024,72.3,0,99,4.295,4.295,4.295,4.294,0,0,1.822,82.31,10,Assisted_Takeoff,
0.31374336510422,36.8846663610334,5835.8906687039,0,0,0.115003612604,2700,2018-03-31 06:37:24,10,0,17.176,5835.8906687039,0,0,0.115037077172,0,0,0,71.7, -0.7, 3.3,0,0,1024,1024,1024,1024,72.3,0,99,4.295,4.295,4.295,4.294,0,0,1.822,82.31,10,Assisted_Takeoff,
0.313743363465166,36.8846663566469,5835.8906687039,0,0,0.115566276664,2800,2018-03-31 06:37:24,10,0,17.176,5835.8906687039,0,0,0.115566276664,0,0,0,71.7, -0.7, 3.3,0,0,1024,1024,1024,1024,72.2,0,99,4.295,4.295,4.295,4.294,0,0,1.822,82.31,10,Assisted_Takeoff,
0.313743385138865,36.8846663588552,5835.8906687039,0,0,0.12122867842,2900,2018-03-31 06:37:24,10,0,16.96,5835.8906687039,0,0,0.12122867842,0,0,0,71.7, -0.7, 3.3,0,0,1024,1024,1024,1024,72.2,0,99,4.295,4.295,4.295,4.294,0,0,1.822,82.31,10,Assisted_Takeoff,
0.313743412081325,36.8846663578927,5835.8906687039,0,0,0.129374019888,3000,2018-03-31 06:37:24,10,0,16.96,5835.8906687039,0,0,0.129374019888,0,0,0,71.7, -0.7, 3.4,0,0,1024,1024,1024,1024,72.2,0,99,4.295,4.295,4.295,4.294,0,0,1.822,82.31,10,Assisted_Takeoff,
0.313743435159779,36.8846663345293,5835.8906687039,0,0,0.141173560948,3100,2018-03-31 06:37:24,11,0,16.96,5835.8906687039,0,0,0.141173560948,0,0,0,71.7, -0.7, 3.4,0,0,1024,1024,1024,1024,72.2,0,99,4.295,4.295,4.295,4.294,0,0,1.822,82.31,10,Assisted_Takeoff,
0.3137434516088,36.8846663066427,5835.8906687039,0,0,0.152064965496,3200,2018-03-31 06:37:24,11,0,16.96,5835.8906687039,0,0,0.152064965496,0,0,0,71.7, -0.7, 3.4,0,0,1024,1024,1024,1024,72.2,0,99,4.295,4.295,4.295,4.294,0,0,1.822,82.31,10,Assisted_Takeoff,
0.313743460980915,36.8846662829552,5835.8906687039,0,0,0.160115490688,3300,2018-03-31 06:37:25,11,0,16.96,5835.8906687039,0,0,0.160115490688,0,0,0,71.7, -0.7, 3.4,0,0,1024,1024,1024,1024,72.2,0,99,4.295,4.295,4.295,4.294,0,0,1.822,82.31,10,Assisted_Takeoff,
0.313743469764971,36.884666267544,5835.8906687039,0,0,0.166172249412,3400,2018-03-31 06:37:25,11,0,16.96,5835.8906687039,0,0,0.166172249412,0,0,0,71.7, -0.7, 3.3,0,0,1024,1024,1024,1024,72.2,0,99,4.295,4.295,4.295,4.294,0,0,1.822,82.31,10,Assisted_Takeoff,
0.313743499192039,36.8846662577163,5835.8906687039,0,0,0.176745084396,3500,2018-03-31 06:37:25,11,0,16.96,5835.8906687039,0,0,0.176745084396,0,0,0,71.7, -0.7, 3.4,0,0,1024,1024,1024,1024,72.2,0,99,4.295,4.295,4.295,4.294,0,0,1.822,82.31,10,Assisted_Takeoff,
0.31374353213718,36.8846662510996,5835.8906687039,0,0,0.187717525692,3600,2018-03-31 06:37:25,11,0,16.96,5835.8906687039,0,0,0.187717525692,0,0,0,71.7, -0.7, 3.4,0,0,1024,1024,1024,1024,72.2,0,99,4.295,4.295,4.295,4.294,0,0,1.822,82.31,10,Assisted_Takeoff,
0.313743556704339,36.8846662502478,5835.8906687039,0,0,0.195130583672,3700,2018-03-31 06:37:25,11,0,16.96,5835.8906687039,0,0,0.195130583672,0,0,0,71.7, -0.7, 3.3,0,0,1024,1024,1024,1024,72.2,0,99,4.295,4.295,4.295,4.294,0,0,1.822,82.31,10,Assisted_Takeoff,
0.313743574978643,36.8846662487203,5835.8906687039,0,0,0.200911751836,3800,2018-03-31 06:37:25,11,0,16.96,5835.8906687039,0,0,0.200911751836,0,0,0,71.7, -0.7, 3.3,0,0,1024,1024,1024,1024,72.2,0,99,4.295,4.295,4.295,4.294,0,0,1.822,82.31,10,Assisted_Takeoff,
0.313743583627499,36.8846662538763,5835.8906687039,0,0,0.202473431676,3900,2018-03-31 06:37:25,11,0,17.149,5835.8906687039,0,0,0.202473431676,0,0,0,71.7, -0.7, 3.3,0,0,1024,1024,1024,1024,72.2,0,99,4.288,4.289,4.288,4.294,0,0,2.794,82.31,10,Assisted_Takeoff,
0.313743592057407,36.8846662554631,5835.8906687039,0,0,0.204727368756,4000,2018-03-31 06:37:25,11,0,17.149,5835.8906687039,0,0,0.204727368756,0,0,0,71.7, -0.8, 3.3,0,0,1024,1024,1024,1024,72.1,0,99,4.288,4.289,4.288,4.294,0,0,2.794,82.31,10,Assisted_Takeoff,
0.313743591255786,36.8846662616433,5835.8906687039,0,0,0.203262473696,4100,2018-03-31 06:37:25,11,0,17.149,5835.8906687039,0,0,0.204727368756,0,0,0,71.7, -0.7, 3.3,0,0,1024,1024,1024,1024,72.1,0,99,4.288,4.289,4.288,4.294,0,0,2.794,82.31,10,Assisted_Takeoff,
0.313743593901849,36.884666265061,5835.8906687039,0,0,0.20341372042,4200,2018-03-31 06:37:25,11,0,17.149,5835.8906687039,0,0,0.204727368756,0,0,0,71.7, -0.7, 3.3,0,0,1024,1024,1024,1024,72.1,0,99,4.288,4.289,4.288,4.294,0,0,2.794,82.31,10,Assisted_Takeoff,
0.313743616613026,36.8846662420297,5835.8906687039,0,0,0.214912408452,4300,2018-03-31 06:37:25,11,0,17.149,5835.8906687039,0,0,0.214912408452,0,0,0,71.7, -0.7, 3.3,0,0,1024,1024,1024,1024,72.1,0,99,4.288,4.289,4.288,4.294,0,0,2.794,82.31,10,Assisted_Takeoff,
0.313743646760492,36.8846662153821,5835.8906687039,0,0,0.229433734376,4400,2018-03-31 06:37:26,11,0,17.149,5835.8906687039,0,0,0.229433734376,0,0,0,71.7, -0.7, 3.3,0,0,1024,1024,1024,1024,72.1,0,99,4.288,4.289,4.288,4.294,0,0,2.794,82.31,10,Assisted_Takeoff,
0.313743668571629,36.8846661915205,5835.8906687039,0,0,0.240882881724,4500,2018-03-31 06:37:26,11,0,17.149,5835.8906687039,0,0,0.240882881724,0,0,0,71.7, -0.8, 3.3,0,0,1024,1024,1024,1024,72.1,0,99,4.288,4.289,4.288,4.294,0,0,2.794,82.31,10,Assisted_Takeoff,
0.313743687005679,36.8846661759591,5835.8906687039,0,0,0.249635178592,4600,2018-03-31 06:37:26,11,0,17.149,5835.8906687039,0,0,0.249635178592,0,0,0,71.7, -0.8, 3.3,0,0,1024,1024,1024,1024,72.1,0,99,4.288,4.289,4.288,4.294,0,0,2.794,82.31,10,Assisted_Takeoff,
0.313743695169425,36.884666166392,5835.8906687039,0,0,0.254063984508,4700,2018-03-31 06:37:26,11,0,17.149,5835.8906687039,0,0,0.254063984508,0,0,0,71.7, -0.8, 3.3,0,0,1024,1024,1024,1024,72.1,0,99,4.288,4.289,4.288,4.294,0,0,2.794,82.31,10,Assisted_Takeoff,
0.313743704885294,36.8846661597221,5835.8906687039,0,0,0.258363853412,4800,2018-03-31 06:37:26,11,0,17.149,5835.8906687039,0,0,0.258363853412,0,0,0,71.6, -0.8, 3.3,0,0,1024,1024,1024,1024,72.1,0,99,4.288,4.289,4.288,4.294,0,0,2.794,82.31,10,Assisted_Takeoff,
0.313743704154161,36.884666158419,5835.8906687039,0,0,0.25841372218,4900,2018-03-31 06:37:26,11,0,17.149,5835.8906687039,0,0,0.25841372218,0,0,0,71.7, -0.8, 3.3,0,0,1024,1024,1024,1024,72.1,0,99,4.293,4.295,4.294,4.292,0,0,1.914,82.31,10,Assisted_Takeoff,
0.313743708208376,36.8846661568775,5835.8906687039,0,0,0.25995079572,5000,2018-03-31 06:37:26,11,0,17.149,5835.8906687039,0,0,0.25995079572,0,0,0,71.7, -0.8, 3.3,0,0,1024,1024,1024,1024,72.1,0,99,4.293,4.295,4.294,4.292,0,0,1.914,82.31,10,Assisted_Takeoff,
0.313743730085083,36.884666159528,5835.8906687039,0,0,0.266031504576,5100,2018-03-31 06:37:26,11,0,17.149,5835.8906687039,0,0,0.266031504576,0,0,0,71.7, -0.8, 3.3,0,0,1024,1024,1024,1024,72.1,0,99,4.293,4.295,4.294,4.292,0,0,1.914,82.31,10,Assisted_Takeoff,
0.31374375948379,36.8846661608715,5835.8906687039,0,0,0.274790363124,5200,2018-03-31 06:37:26,11,0,17.149,5835.8906687039,0,0,0.274790363124,0,0,0,71.6, -0.8, 3.3,0,0,1024,1024,1024,1024,72.1,0,99,4.293,4.295,4.294,4.292,0,0,1.914,82.31,10,Assisted_Takeoff,
0.313743778667038,36.8846661389334,5835.8906687039,0,0,0.284987541928,5300,2018-03-31 06:37:27,11,0,17.149,5835.8906687039,0,0,0.284987541928,0,0,0,71.6, -0.8, 3.3,0,0,1024,1024,1024,1024,72.1,0,99,4.293,4.295,4.294,4.292,0,0,1.914,82.31,10,Assisted_Takeoff,
0.313743794728611,36.8846661125373,5835.8906687039,0,0,0.295161754852,5400,2018-03-31 06:37:27,11,0,17.149,5835.8906687039,0,0,0.295161754852,0,0,0,71.6, -0.8, 3.3,0,0,1024,1024,1024,1024,72.1,0,99,4.293,4.295,4.294,4.292,0,0,1.914,82.31,10,Assisted_Takeoff,
0.313743799595088,36.8846660892257,5835.8906687039,0,0,0.301413723556,5500,2018-03-31 06:37:27,11,0,17.149,5835.8906687039,0,0,0.301413723556,0,0,0,71.6, -0.8, 3.3,0,0,1024,1024,1024,1024,72.1,0,99,4.293,4.295,4.294,4.292,0,0,1.914,82.31,10,Assisted_Takeoff,
0.31374380716888,36.8846660753246,5835.8906687039,0,0,0.306588264404,5600,2018-03-31 06:37:27,11,0,17.149,5835.8906687039,0,0,0.306588264404,0,0,0,71.6, -0.8, 3.3,0,0,1024,1024,1024,1024,72.1,0,99,4.293,4.295,4.294,4.292,0,0,1.914,82.31,10,Assisted_Takeoff,
0.313743803668641,36.8846660671443,5835.8906687039,0,0,0.307286427156,5700,2018-03-31 06:37:27,11,0,17.149,5835.8906687039,0,0,0.307286427156,0,0,0,71.6, -0.8, 3.3,0,0,1024,1024,1024,1024,72.1,0,99,4.293,4.295,4.294,4.292,0,0,1.914,82.31,10,Assisted_Takeoff,
0.313743805649796,36.884666061957,5835.8906687039,0,0,0.308983277604,5800,2018-03-31 06:37:27,11,0,17.149,5835.8906687039,0,0,0.308983277604,0,0,0,71.6, -0.8, 3.3,0,0,1024,1024,1024,1024,72.1,0,99,4.293,4.295,4.294,4.292,0,0,1.914,82.31,10,Assisted_Takeoff,
0.313743797822451,36.8846660329694,5835.8906687039,0,0,0.313071532328,5900,2018-03-31 06:37:27,11,0,17.149,5835.8906687039,0,0,0.313071532328,0,0,0,71.6, -0.8, 3.3,0,0,1024,1024,1024,1024,72.1,0,99,4.293,4.295,4.294,4.292,0,0,1.926,82.31,10,Assisted_Takeoff,
0.313743797513326,36.8846660037297,5835.8906687039,0,0,0.319656834376,6000,2018-03-31 06:37:27,11,0,17.149,5835.8906687039,0,0,0.319656834376,0,0,0,71.6, -0.8, 3.3,0,0,1024,1024,1024,1024,72.1,0,99,4.293,4.295,4.294,4.292,0,0,1.926,82.31,10,Assisted_Takeoff,
0.313743790868817,36.8846659812786,5835.8906687039,0,0,0.323089249184,6100,2018-03-31 06:37:27,12,0,17.149,5835.8906687039,0,0,0.323089249184,0,0,0,71.6, -0.8, 3.3,0,0,1024,1024,1024,1024,72.1,0,99,4.293,4.295,4.294,4.292,0,0,1.926,82.31,10,Assisted_Takeoff,
0.313743789358104,36.8846659660095,5835.8906687039,0,0,0.326349747976,6200,2018-03-31 06:37:27,12,0,17.149,5835.8906687039,0,0,0.326349747976,0,0,0,71.6, -0.8, 3.3,0,0,1024,1024,1024,1024,72.1,0,99,4.293,4.295,4.294,4.292,0,0,1.926,82.31,10,Assisted_Takeoff,
0.313743781516739,36.8846659578967,5835.8906687039,0,0,0.326207031436,6300,2018-03-31 06:37:27,11,0,17.149,5835.8906687039,0,0,0.326349747976,0,0,0,71.6, -0.8, 3.3,0,0,1024,1024,1024,1024,72.1,0,99,4.293,4.295,4.294,4.292,0,0,1.926,82.31,10,Assisted_Takeoff,
0.313743779811351,36.8846659529096,5835.8906687039,0,0,0.326979013088,6400,2018-03-31 06:37:28,11,0,17.149,5835.8906687039,0,0,0.326979013088,0,0,0,71.6, -0.8, 3.3,0,0,1024,1024,1024,1024,72.1,0,99,4.293,4.295,4.294,4.292,0,0,1.926,82.31,10,Assisted_Takeoff,
0.313743772413992,36.8846659546055,5835.8906687039,0,0,0.324579078628,6500,2018-03-31 06:37:28,11,0,17.149,5835.8906687039,0,0,0.326979013088,0,0,0,71.6, -0.8, 3.3,0,0,1024,1024,1024,1024,72.1,0,99,4.293,4.295,4.294,4.292,0,0,1.926,82.31,10,Assisted_Takeoff,
0.313743770886918,36.8846659565199,5835.8906687039,0,0,0.323695548416,6600,2018-03-31 06:37:28,11,0,17.149,5835.8906687039,0,0,0.326979013088,0,0,0,71.6, -0.8, 3.3,0,0,1024,1024,1024,1024,72.1,0,99,4.293,4.295,4.294,4.292,0,0,1.926,82.31,10,Assisted_Takeoff,
0.313743764932233,36.8846659362275,5835.8906687039,0,0,0.327219826744,6700,2018-03-31 06:37:28,11,0,17.149,5835.8906687039,0,0,0.327219826744,0,0,0,71.6, -0.8, 3.3,0,0,1024,1024,1024,1024,72.1,0,99,4.293,4.295,4.294,4.292,0,0,1.926,82.31,10,Assisted_Takeoff,
0.313743764424947,36.8846659116467,5835.8906687039,0,0,0.33339567996,6800,2018-03-31 06:37:28,11,0,17.149,5835.8906687039,0,0,0.33339567996,0,0,0,71.6, -0.8, 3.3,0,0,1024,1024,1024,1024,72.1,0,99,4.293,4.295,4.294,4.292,0,0,1.926,82.31,10,Assisted_Takeoff,
0.313743760326968,36.8846658901118,5835.8906687039,0,0,0.33798885596,6900,2018-03-31 06:37:28,11,0,17.149,5835.8906687039,0,0,0.33798885596,0,0,0,71.6, -0.8, 3.3,0,0,1024,1024,1024,1024,72.1,0,99,4.293,4.295,4.294,4.293,0,0,1.926,82.31,10,Assisted_Takeoff,
0.313743761486878,36.8846658776504,5835.8906687039,0,0,0.3415846566,7000,2018-03-31 06:37:28,11,0,17.149,5835.8906687039,0,0,0.3415846566,0,0,0,71.6, -0.8, 3.3,0,0,1024,1024,1024,1024,72.1,0,99,4.293,4.295,4.294,4.293,0,0,1.926,82.31,10,Assisted_Takeoff,
0.313743759421604,36.8846658437695,5835.8906687039,0,0,0.35020342328,7100,2018-03-31 06:37:28,10,0,17.149,5835.8906687039,0,0,0.35020342328,0,0,0,71.6, -0.8, 3.3,0,0,1024,1024,1024,1024,72.1,0,99,4.293,4.295,4.294,4.293,0,0,1.926,82.31,10,Assisted_Takeoff,
0.313743761748192,36.8846658107139,5835.8906687039,0,0,0.35985237372,7200,2018-03-31 06:37:28,10,0,17.149,5835.8906687039,0,0,0.35985237372,0,0,0,71.6, -0.8, 3.3,0,1,1024,1024,1024,1024,72.1,0,99,4.293,4.295,4.294,4.293,0,0,1.926,82.31,10,Assisted_Takeoff,
0.313743760200789,36.8846657835615,5835.8906687039,0,0,0.36708334508,7300,2018-03-31 06:37:29,10,0,17.149,5835.8906687039,0,0,0.36708334508,0,0,0,71.6, -0.8, 3.3,0,1,1024,1024,1024,1024,72.1,0,99,4.293,4.295,4.294,4.293,0,0,1.926,82.31,10,Assisted_Takeoff,
0.313743763629401,36.8846657673068,5835.8906687039,0,0,0.37247048436,7400,2018-03-31 06:37:29,10,0,17.149,5835.8906687039,0,0,0.37247048436,0,0,0,71.6, -0.8, 3.3,0,1,1024,1024,1024,1024,72.1,0,99,4.293,4.295,4.294,4.293,0,0,1.926,82.31,10,Assisted_Takeoff,
0.313743790000602,36.8846657316196,5835.8906687039,0,0,0.38864502556,7500,2018-03-31 06:37:29,10,0,17.149,5835.8906687039,0,0,0.38864502556,0,0,0,71.6, -0.8, 3.3,0,1,1024,1024,1024,1024,72.1,0,99,4.293,4.295,4.294,4.293,0,0,1.926,82.31,10,Assisted_Takeoff,
0.313743823656315,36.8846656977126,5835.8906687039,0,0,0.4059875458,7600,2018-03-31 06:37:29,10,0,17.149,5835.8906687039,0,0,0.4059875458,0,0,0,71.6, -0.8, 3.3,0,1,1024,1024,1024,1024,72.1,0,99,4.293,4.295,4.294,4.293,0,0,1.926,82.31,10,Assisted_Takeoff,
0.313743851749366,36.8846656708246,5835.8906687039,0,0,0.42006891108,7700,2018-03-31 06:37:29,10,0,17.149,5835.8906687039,0,0,0.42006891108,0,0,0,71.6, -0.8, 3.3,0,1,1024,1024,1024,1024,72.1,0,99,4.293,4.295,4.294,4.293,0,0,1.926,82.31,10,Assisted_Takeoff,
0.313743874538473,36.8846656558286,5835.8906687039,0,0,0.42958334708,7800,2018-03-31 06:37:29,10,0,17.149,5835.8906687039,0,0,0.42958334708,0,0,0,71.6, -0.8, 3.3,0,1,1024,1024,1024,1024,72,0,99,4.293,4.295,4.294,4.293,0,0,1.926,82.31,10,Assisted_Takeoff,
0.313743888683392,36.8846656220512,5835.8906687039,0,0,0.4423720614,7900,2018-03-31 06:37:29,10,0,17.149,5835.8906687039,0,0,0.4423720614,0,0,0,71.5, -0.8, 3.3,0,1,1024,1024,1024,1024,72,0,99,4.293,4.295,4.293,4.292,0,0,1.928,82.31,10,Assisted_Takeoff,
0.313743903410963,36.8846655893998,5835.8906687039,0,0,0.45500985708,8000,2018-03-31 06:37:29,10,0,17.149,5835.8906687039,0,0,0.45500985708,0,0,0,71.6, -0.8, 3.3,0,1,1024,1024,1024,1024,72,0,99,4.293,4.295,4.293,4.292,0,0,1.928,82.31,10,Assisted_Takeoff,
0.313743907473829,36.8846655645033,5835.8906687039,0,0,0.46303479172,8100,2018-03-31 06:37:29,10,0,17.149,5835.8906687039,0,0,0.46303479172,0,0,0,71.6, -0.9, 3.2,0,1,1024,1024,1024,1024,72,0,99,4.293,4.295,4.293,4.292,0,0,1.928,82.31,10,Assisted_Takeoff,
0.313743915162247,36.8846655496387,5835.8906687039,0,0,0.46903216724,8200,2018-03-31 06:37:29,10,0,17.149,5835.8906687039,0,0,0.46903216724,0,0,0,71.6, -0.8, 3.2,0,1,1024,1024,1024,1024,72,0,99,4.293,4.295,4.293,4.292,0,0,1.928,82.31,10,Assisted_Takeoff,
0.313743911788569,36.8846655445775,5835.8906687039,0,0,0.46973098616,8300,2018-03-31 06:37:29,10,0,17.149,5835.8906687039,0,0,0.46973098616,0,0,0,71.5, -0.8, 3.2,0,1,1024,1024,1024,1024,72,0,99,4.293,4.295,4.293,4.292,0,0,1.928,82.31,10,Assisted_Takeoff,
0.313743914521633,36.8846655417925,5835.8906687039,0,0,0.4711450282,8400,2018-03-31 06:37:30,10,0,17.149,5835.8906687039,0,0,0.4711450282,0,0,0,71.5, -0.8, 3.2,0,1,1024,1024,1024,1024,72,0,99,4.293,4.295,4.293,4.292,0,0,1.928,82.31,10,Assisted_Takeoff,
0.313743907135952,36.8846655479884,5835.8906687039,0,0,0.46770670788,8500,2018-03-31 06:37:30,10,0,17.149,5835.8906687039,0,0,0.4711450282,0,0,0,71.5, -0.8, 3.3,0,1,1024,1024,1024,1024,72,0,99,4.293,4.295,4.293,4.292,0,0,1.928,82.31,10,Assisted_Takeoff,
0.313743908544684,36.8846655530879,5835.8906687039,0,0,0.4665518522,8600,2018-03-31 06:37:30,10,0,17.149,5835.8906687039,0,0,0.4711450282,0,0,0,71.5, -0.8, 3.3,0,1,1024,1024,1024,1024,72,0,99,4.293,4.295,4.293,4.292,0,0,1.928,82.31,10,Assisted_Takeoff,
0.313743900958297,36.8846655350751,5835.8906687039,0,0,0.47006891268,8700,2018-03-31 06:37:30,10,0,17.149,5835.8906687039,0,0,0.4711450282,0,0,0,71.5, -0.8, 3.3,0,1,1024,1024,1024,1024,72,0,99,4.293,4.295,4.293,4.292,0,0,1.928,82.31,10,Assisted_Takeoff,
0.31374390138584,36.8846655137337,5835.8906687039,0,0,0.47638452968,8800,2018-03-31 06:37:30,10,0,17.149,5835.8906687039,0,0,0.47638452968,0,0,0,71.5, -0.9, 3.3,0,1,1024,1024,1024,1024,72,0,99,4.293,4.295,4.293,4.292,0,0,1.928,82.31,10,Assisted_Takeoff,
0.313743893673021,36.884665495067,5835.8906687039,0,0,0.48020670828,8900,2018-03-31 06:37:30,10,0,17.149,5835.8906687039,0,0,0.48020670828,0,0,0,71.5, -0.8, 3.2,0,1,1024,1024,1024,1024,72,0,99,4.292,4.294,4.293,4.292,0,0,1.916,82.31,10,Assisted_Takeoff,
0.313743894100894,36.8846654852503,5835.8906687039,0,0,0.4832021152,9000,2018-03-31 06:37:30,10,0,17.149,5835.8906687039,0,0,0.4832021152,0,0,0,71.5, -0.8, 3.2,0,1,1024,1024,1024,1024,72,0,99,4.292,4.294,4.293,4.292,0,0,1.916,82.31,10,Assisted_Takeoff,
0.313743887387532,36.8846654796732,5835.8906687039,0,0,0.48343505484,9100,2018-03-31 06:37:30,10,0,17.149,5835.8906687039,0,0,0.48343505484,0,0,0,71.5, -0.8, 3.2,0,1,1024,1024,1024,1024,72,0,99,4.292,4.294,4.293,4.292,0,0,1.916,82.31,10,Assisted_Takeoff,
0.31374388822814,36.8846654779739,5835.8906687039,0,0,0.48411746956,9200,2018-03-31 06:37:30,10,0,17.149,5835.8906687039,0,0,0.48411746956,0,0,0,71.5, -0.8, 3.2,0,1,1024,1024,1024,1024,72,0,99,4.292,4.294,4.293,4.292,0,0,1.916,82.31,10,Assisted_Takeoff,
0.313743882985568,36.88466548029,5835.8906687039,0,0,0.48232285008,9300,2018-03-31 06:37:31,10,0,17.149,5835.8906687039,0,0,0.48411746956,0,0,0,71.5, -0.8, 3.2,0,1,1024,1024,1024,1024,72,0,99,4.292,4.294,4.293,4.292,0,0,1.916,82.31,10,Assisted_Takeoff,
0.313743884334352,36.8846654840368,5835.8906687039,0,0,0.48149279756,9400,2018-03-31 06:37:31,10,0,17.149,5835.8906687039,0,0,0.48411746956,0,0,0,71.5, -0.8, 3.3,0,1,1024,1024,1024,1024,72,0,99,4.292,4.294,4.293,4.292,0,0,1.916,82.31,10,Assisted_Takeoff,
0.313743880798695,36.8846654632588,5835.8906687039,0,0,0.48696195784,9500,2018-03-31 06:37:31,10,0,17.149,5835.8906687039,0,0,0.48696195784,0,0,0,71.5, -0.9, 3.2,0,1,1024,1024,1024,1024,72,0,99,4.292,4.294,4.293,4.292,0,0,1.916,82.31,10,Assisted_Takeoff,
0.313743882909286,36.8846654398766,5835.8906687039,0,0,0.49443243052,9600,2018-03-31 06:37:31,10,0,17.149,5835.8906687039,0,0,0.49443243052,0,0,0,71.5, -0.9, 3.2,0,1,1024,1024,1024,1024,72,0,99,4.292,4.294,4.293,4.292,0,0,1.916,82.31,10,Assisted_Takeoff,
0.31374387955263,36.8846654180796,5835.8906687039,0,0,0.50035106588,9700,2018-03-31 06:37:31,10,0,17.149,5835.8906687039,0,0,0.50035106588,0,0,0,71.5, -0.9, 3.3,0,1,1024,1024,1056,1024,72,0,99,4.292,4.294,4.293,4.292,0,0,1.916,82.31,10,Assisted_Takeoff,
0.313743882294217,36.8846654071132,5835.8906687039,0,0,0.50423886128,9800,2018-03-31 06:37:31,10,0,17.149,5835.8906687039,0,0,0.50423886128,0,0,0,71.5, -0.9, 3.2,0,1,1024,1024,1084,1024,72,0,99,4.292,4.294,4.293,4.292,0,0,1.916,82.31,10,Assisted_Takeoff,
0.31374387896265,36.8846653983429,5835.8906687039,0,0,0.5062500162,9900,2018-03-31 06:37:31,10,0,17.149,5835.8906687039,0,0,0.5062500162,0,0,0,71.5, -0.9, 3.2,0,1,1024,1024,1084,1024,72,0,99,4.292,4.294,4.293,4.292,0,0,1.916,82.31,10,Assisted_Takeoff,
0.313743882469173,36.8846653967104,5835.8906687039,0,0,0.5074475228,10000,2018-03-31 06:37:31,10,0,17.149,5835.8906687039,0,0,0.5074475228,0,0,0,71.5, -0.9, 3.3,0,1,1024,1024,1082,1024,72,0,99,4.292,4.294,4.293,4.292,0,0,1.916,82.31,10,Assisted_Takeoff,
0.313743880633408,36.8846653968801,5835.8906687039,0,0,0.50703085612,10100,2018-03-31 06:37:31,10,0,17.149,5835.8906687039,0,0,0.5074475228,0,0,0,71.5, -0.9, 3.3,0,1,1024,1024,1100,1024,72,0,99,4.292,4.294,4.293,4.292,0,0,1.916,82.31,10,Assisted_Takeoff,
0.313743883776432,36.8846654009312,5835.8906687039,0,0,0.50642061988,10200,2018-03-31 06:37:31,10,0,17.149,5835.8906687039,0,0,0.5074475228,0,0,0,71.5, -0.9, 3.3,0,1,1024,1024,1104,1024,72,0,99,4.292,4.294,4.293,4.292,0,0,1.916,82.31,10,Assisted_Takeoff,
0.313743881186494,36.8846654064028,5835.8906687039,0,0,0.50423558044,10300,2018-03-31 06:37:31,10,0,17.149,5835.8906687039,0,0,0.5074475228,0,0,0,71.5, -0.9, 3.3,0,1,1024,1024,1104,1024,72,0,99,4.292,4.294,4.293,4.292,0,0,1.916,82.31,10,Assisted_Takeoff,
0.313743884312343,36.8846654140468,5835.8906687039,0,0,0.50253938616,10400,2018-03-31 06:37:32,10,0,17.149,5835.8906687039,0,0,0.5074475228,0,0,0,71.5, -0.9, 3.3,0,1,1024,1024,1092,1024,72,0,99,4.292,4.294,4.293,4.292,0,0,1.916,82.31,10,Assisted_Takeoff,
0.313743881946621,36.884665421075,5835.8906687039,0,0,0.49992455668,10500,2018-03-31 06:37:32,10,0,17.149,5835.8906687039,0,0,0.5074475228,0,0,0,71.4, -0.9, 3.3,0,1,1024,1024,1070,1024,72,0,99,4.292,4.294,4.293,4.292,0,0,1.916,82.31,10,Assisted_Takeoff,
0.313743885296915,36.8846654299751,5835.8906687039,0,0,0.49791012092,10600,2018-03-31 06:37:32,10,0,17.149,5835.8906687039,0,0,0.5074475228,0,0,0,71.5, -0.8, 3.3,0,1,1024,1024,1080,1024,72,0,99,4.292,4.294,4.293,4.292,0,0,1.916,82.31,10,Assisted_Takeoff,
0.313743882761148,36.8846654369125,5835.8906687039,0,0,0.49529529144,10700,2018-03-31 06:37:32,10,0,17.149,5835.8906687039,0,0,0.5074475228,0,0,0,71.5, -0.9, 3.3,0,1,1024,1024,1100,1024,72,0,99,4.292,4.294,4.293,4.292,0,0,1.916,82.31,10,Assisted_Takeoff,
0.313743887088,36.8846654477449,5835.8906687039,0,0,0.49292324412,10800,2018-03-31 06:37:32,10,0,17.149,5835.8906687039,0,0,0.5074475228,0,0,0,71.5, -0.8, 3.4,0,1,1024,1024,1104,1024,72,0,99,4.292,4.294,4.293,4.292,0,0,1.916,82.31,10,Assisted_Takeoff,
0.313743884554955,36.8846654519914,5835.8906687039,0,0,0.49112206296,10900,2018-03-31 06:37:32,10,0,17.149,5835.8906687039,0,0,0.5074475228,0,0,0,71.4, -0.8, 3.4,0,1,1024,1024,1104,1024,72,0,99,4.292,4.294,4.293,4.292,0,0,1.93,82.31,10,Assisted_Takeoff,
0.313743885934502,36.8846654638795,5835.8906687039,0,0,0.4878445038,11000,2018-03-31 06:37:32,10,0,17.149,5835.8906687039,0,0,0.5074475228,0,0,0,71.6, -0.7, 3.4,0,1,1024,1024,1109,1024,71.9,0,99,4.292,4.294,4.293,4.292,0,0,1.93,82.31,10,Assisted_Takeoff,
0.313743875999263,36.8846654764483,5835.8906687039,0,0,0.48200788944,11100,2018-03-31 06:37:32,10,0,17.149,5835.8906687039,0,0,0.5074475228,0,0,0,71.7, -0.2, 2.6,0,1,1024,1024,1102,1024,71.9,0,99,4.292,4.294,4.293,4.292,0,0,1.93,82.31,10,Assisted_Takeoff,
0.313743851537821,36.8846655250843,5835.8906687039,0,0,0.46235565784,11200,2018-03-31 06:37:32,10,0,17.149,5835.8906687039,0,0,0.5074475228,0,0,0,72, 1.1, 0.9,0,1,1024,1024,1109,1024,72,0,99,4.292,4.294,4.293,4.292,0,0,1.93,82.31,10,Assisted_Takeoff,
0.313743812566306,36.8846655650118,5835.8906687039,0,0,0.44226707452,11300,2018-03-31 06:37:33,10,0,17.149,5835.8906687039,0,0,0.5074475228,0,0,-0.223694,72.2, 1.8, 0.3,0,1,1024,1024,1106,1024,72,0,99,4.292,4.294,4.293,4.292,0,0,1.93,82.31,6,P-GPS,Obstacle Avoided. Revise Flight Route
0.313743781164537,36.8846655859579,5835.8906687039,0,0,0.42948820272,11400,2018-03-31 06:37:33,10,0,17.149,5835.8906687039,0,0,0.5074475228,0,0,-0.447388,72.2, 1.1, 0.1,0,1,1024,1024,1112,1024,72,0,99,4.292,4.294,4.293,4.292,0,0,1.93,82.31,6,P-GPS,
0.313743713395861,36.8846656181113,5835.8906687039,0,0,0.40614830696,11600,2018-03-31 06:37:33,10,0,17.149,5835.8906687039,0,0,0.5074475228,0,0,-0.447388,72.3, 0.2, -0.3,0,1,1024,1024,1111,1024,72,0,99,4.292,4.294,4.293,4.292,0,0,1.93,82.31,6,P-GPS,
0.313743733840784,36.8846656588926,5835.8906687039,0,0,0.39777232244,11700,2018-03-31 06:37:33,10,0,17.149,5835.8906687039,0,0,0.5074475228,0,0,-0.447388,72.3, 0.6, -0.2,0,1,1024,1024,1146,1024,72,0,99,4.292,4.294,4.293,4.292,0,0,1.93,82.31,6,P-GPS,
0.313743792816741,36.8846657026093,5835.8906687039,0,0,0.3975721912,11800,2018-03-31 06:37:33,10,0,17.149,5835.8906687039,0,0,0.5074475228,0,0,-0.223694,72.3, 0.8, 0.3,0,1,1024,1024,1221,1024,72,0,99,4.292,4.294,4.293,4.292,0,0,1.93,82.31,6,P-GPS,
0.313743865353005,36.8846657310854,5835.8906687039,0,0,0.40661418624,11900,2018-03-31 06:37:33,10,0,17.014,5835.8906687039,0,0,0.5074475228,0,0,-0.223694,72.2, 1, 0.7,0,1,1024,1024,1265,1024,72,0,99,4.283,4.284,4.284,4.28,0,0,3.296,82.31,6,P-GPS,
0.31374394646117,36.8846657562685,5835.8906687039,0,0,0.42047573524,12000,2018-03-31 06:37:33,10,0,17.014,5835.8906687039,0,0,0.5074475228,0,0,-0.447388,72.3, 1.1, 1,0,1,1024,1024,1244,1024,72,0,99,4.283,4.284,4.284,4.28,0,0,3.296,82.31,6,P-GPS,Home Point Recorded. RTH Altitude:  30m.
0.313743995071496,36.8846657593556,5835.8906687039,0,0,0.43258859652,12100,2018-03-31 06:37:33,10,0,17.014,5835.8906687039,0,0,0.5074475228,0,0,-0.671082,72.2, 1.2, 1.1,0,1,1024,1024,1202,1024,72,0,99,4.283,4.284,4.284,4.28,0,0,3.296,82.31,6,P-GPS,
0.313744045671881,36.884665764097,5836.2187527039,0.328084,0,0.44523951556,12200,2018-03-31 06:37:33,10,0,17.014,5836.2187527039,0.328084,0,0.5074475228,0,0,-1.11847,72.2, 1.2, 1.4,0,1,1024,1024,1201,1024,72,0,99,4.283,4.284,4.284,4.28,0,0,3.296,82.31,6,P-GPS,
0.31374407515313,36.8846657510511,5836.2187527039,0.328084,0,0.45650592012,12300,2018-03-31 06:37:33,10,0,17.014,5836.2187527039,0.328084,0,0.5074475228,0,0,-1.342164,72.2, 1, 1.9,0,1,1024,1024,1176,1024,72,0,99,4.283,4.284,4.284,4.28,0,0,3.296,82.31,6,P-GPS,
0.313744100020233,36.8846657502795,5836.5468367039,0.656168,0,0.46363846628,12400,2018-03-31 06:37:34,10,0,17.014,5836.5468367039,0.656168,0,0.5074475228,0,0,-1.565858,72.2, 0.8, 1.7,0,1,1024,1024,1176,1024,72,0,99,4.283,4.284,4.284,4.28,0,0,3.296,82.31,6,P-GPS,
0.31374409715753,36.8846657761808,5836.8749207039,0.984252,0,0.45685697,12500,2018-03-31 06:37:34,12,0,17.014,5836.8749207039,0.984252,0,0.5074475228,0,0,-1.565858,72.2, 1.2, 1.2,0,1,1024,1024,1189,1024,72,0,99,4.283,4.284,4.284,4.28,0,0,3.296,82.31,6,P-GPS,
0.313744101582623,36.8846658220399,5837.2030047039,1.312336,0,0.4478510642,12600,2018-03-31 06:37:34,12,0,17.014,5837.2030047039,1.312336,0,0.5074475228,0,0,-1.565858,72.2, 1.4, 1,0,1,1024,1024,1210,1024,72,0,99,4.283,4.284,4.284,4.28,0,0,3.296,82.31,6,P-GPS,
0.313744106273153,36.8846658490141,5837.2030047039,1.312336,0,0.44338584096,12700,2018-03-31 06:37:34,12,0,17.014,5837.2030047039,1.312336,0,0.5074475228,0,0,-1.565858,72.1, 1.6, 0.8,0,1,1024,1024,1226,1024,72,0,99,4.283,4.284,4.284,4.28,0,0,3.296,82.31,6,P-GPS,
0.313744126742439,36.884665868446,5837.5310887039,1.64042,0,0.44540027672,12800,2018-03-31 06:37:34,12,0,17.014,5837.5310887039,1.64042,0,0.5074475228,0,0,-1.565858,72.1, 1.4, 0.9,0,1,1024,1024,1217,1024,72,0,99,4.283,4.284,4.284,4.28,0,0,3.296,82.31,6,P-GPS,
0.313744160886279,36.8846658605809,5837.8591727039,1.968504,0,0.45731300676,12900,2018-03-31 06:37:34,12,0,16.88,5837.8591727039,1.968504,0,0.5074475228,0,0,-1.565858,72.1, 1.2, 0.8,0,1,1024,1024,1237,1024,72,0,99,4.231,4.234,4.233,4.221,0,0,11.008,82.31,6,P-GPS,
0.313744208519436,36.8846658604005,5838.1872567039,2.296588,0,0.47186353216,13000,2018-03-31 06:37:34,12,0,16.88,5838.1872567039,2.296588,0,0.5074475228,0,0,-1.565858,72, 1, 1.1,0,1,1024,1024,1214,1024,72,0,99,4.231,4.234,4.233,4.221,0,0,11.008,82.31,6,P-GPS,
0.313744268765554,36.8846658780048,5838.1872567039,2.296588,0,0.4871719316,13100,2018-03-31 06:37:34,12,0,16.88,5838.1872567039,2.296588,0,0.5074475228,0,0,-1.789552,72.1, 0.9, 1.1,0,1,1024,1024,1248,1024,72,0,99,4.231,4.234,4.233,4.221,0,0,11.008,82.31,6,P-GPS,
0.313744330207458,36.8846659221355,5838.5153407039,2.624672,0,0.49884516032,13200,2018-03-31 06:37:34,12,0,16.88,5838.5153407039,2.624672,0,0.5074475228,0,0,-1.789552,72.1, 1.3, 1.1,0,1,1024,1024,1252,1024,72,0,99,4.231,4.234,4.233,4.221,0,0,11.008,82.31,6,P-GPS,
0.313744366992685,36.8846659611907,5838.8434247039,2.952756,0,0.50440946496,13300,2018-03-31 06:37:35,12,0,16.88,5838.8434247039,2.952756,0,0.5074475228,0,0,-2.013246,72.2, 1.8, 0.9,0,1,1024,1024,1248,1024,72,0,99,4.231,4.234,4.233,4.221,0,0,11.008,82.31,6,P-GPS,
0.313744393881501,36.8846660005764,5839.1715087039,3.28084,0,0.50730972752,13400,2018-03-31 06:37:35,12,0,16.88,5839.1715087039,3.28084,0,0.5074475228,0,0,-2.013246,72.2, 1.8, 0.6,0,1,1024,1024,1252,1024,72,0,99,4.231,4.234,4.233,4.221,0,0,11.008,82.31,6,P-GPS,
0.313744401260796,36.8846660068753,5839.4995927039,3.608924,0,0.508858284,13500,2018-03-31 06:37:35,11,0,16.88,5839.4995927039,3.608924,0,0.508858284,0,0,-2.013246,72.2, 1.8, 0.7,0,1,1024,1024,1242,1024,72,0,99,4.231,4.234,4.233,4.221,0,0,11.008,82.31,6,P-GPS,
0.313744421103284,36.884666013656,5839.8276767039,3.937008,0,0.51454397972,13600,2018-03-31 06:37:35,11,0,16.88,5839.8276767039,3.937008,0,0.51454397972,0,0,-2.23694,72.2, 1.8, 1.1,0,1,1024,1024,1244,1024,72,0,99,4.231,4.234,4.233,4.221,0,0,11.008,82.31,6,P-GPS,
0.313744472188081,36.8846660206414,5840.1557607039,4.265092,0,0.5308235078,13700,2018-03-31 06:37:35,12,0,16.88,5840.1557607039,4.265092,0,0.5308235078,0,0,-2.23694,72.2, 2, 1.2,0,1,1024,1024,1244,1024,72,0,99,4.231,4.234,4.233,4.221,0,0,11.008,82.31,6,P-GPS,
0.313744537859258,36.8846660413177,5840.4838447039,4.593176,0,0.55049870528,13800,2018-03-31 06:37:35,12,0,16.88,5840.4838447039,4.593176,0,0.55049870528,0,0,-2.23694,72.2, 1.9, 1.2,0,1,1024,1024,1239,1024,72,0,99,4.231,4.234,4.233,4.221,0,0,11.008,82.31,6,P-GPS,
0.313744575578092,36.8846660461996,5840.8119287039,4.92126,0,0.56284122536,13900,2018-03-31 06:37:35,12,0,16.691,5840.8119287039,4.92126,0,0.56284122536,0,0,-2.23694,72.2, 1.7, 1.1,0,1,1024,1024,1241,1024,72,0,99,4.231,4.234,4.233,4.221,0,0,11.008,82.31,6,P-GPS,
0.313744605776059,36.8846660568533,5841.1400127039,5.249344,0,0.5719816456,14000,2018-03-31 06:37:35,12,0,16.691,5841.1400127039,5.249344,0,0.5719816456,0,0,-2.013246,72.2, 2, 1.2,0,1,1024,1024,1247,1024,72,0,99,4.231,4.234,4.233,4.221,0,0,11.008,82.31,6,P-GPS,
0.313744636239259,36.8846660250305,5841.4680967039,5.577428,0,0.58628282716,14100,2018-03-31 06:37:35,12,0,16.691,5841.4680967039,5.577428,0,0.58628282716,0,0,-2.013246,72.2, 2, 1.4,0,1,1024,1024,1249,1024,72,0,99,4.231,4.234,4.233,4.221,0,0,11.008,82.31,6,P-GPS,
0.313744669979194,36.8846659942939,5841.7961807039,5.905512,0,0.60166340508,14200,2018-03-31 06:37:35,12,0,16.691,5841.7961807039,5.905512,0,0.60166340508,0,0,-2.013246,72.2, 1.8, 1.3,0,1,1024,1024,1246,1024,72,0,99,4.231,4.234,4.233,4.221,0,0,11.008,82.31,6,P-GPS,
0.313744648168935,36.8846659546684,5842.1242647039,6.233596,0,0.5993766596,14300,2018-03-31 06:37:35,12,0,16.691,5842.1242647039,6.233596,0,0.60166340508,0,0,-2.013246,72.2, 1.8, 1,0,1,1024,1024,1250,1024,72,0,99,4.231,4.234,4.233,4.221,0,0,11.008,82.31,6,P-GPS,
0.313744621102771,36.8846659413771,5842.4523487039,6.56168,0,0.5920439822,14400,2018-03-31 06:37:36,12,0,16.691,5842.4523487039,6.56168,0,0.60166340508,0,0,-2.013246,72.2, 1.7, 0.9,0,1,1024,1024,1260,1024,72,0,99,4.231,4.234,4.233,4.221,0,0,11.008,82.31,6,P-GPS,
0.313744619082177,36.8846658731775,5843.1085167039,7.217848,0,0.6013123552,14600,2018-03-31 06:37:36,12,0,16.691,5843.1085167039,7.217848,0,0.60166340508,0,0,-2.23694,72.1, 1.9, 0.5,0,1,1024,1024,1261,1024,72,0,99,4.231,4.234,4.233,4.221,0,0,11.008,82.31,6,P-GPS,
0.313744615312329,36.8846658376834,5843.4366007039,7.545932,0,0.60559057056,14700,2018-03-31 06:37:36,12,0,16.691,5843.4366007039,7.545932,0,0.60559057056,0,0,-2.23694,72.1, 1.9, 1.3,0,1,1024,1024,1262,1024,72,0,99,4.231,4.234,4.233,4.221,0,0,11.008,82.31,6,P-GPS,
0.313744627652779,36.8846658191358,5843.7646847039,7.874016,0,0.61260500648,14800,2018-03-31 06:37:36,12,0,16.691,5843.7646847039,7.874016,0,0.61260500648,0,0,-2.23694,72, 1.9, 2.2,0,1,1024,1024,1277,1024,72,0,99,4.231,4.234,4.233,4.221,0,0,11.008,82.31,6,P-GPS,
0.313744608080918,36.8846657743154,5844.0927687039,8.2021,0,0.61367784116,14900,2018-03-31 06:37:36,12,0,16.745,5844.0927687039,8.2021,0,0.61367784116,0,0,-2.23694,72.1, 1.6, 2,0,1,1024,1024,1283,1024,72,0,99,4.21,4.216,4.219,4.21,0,0,13.054,82.31,6,P-GPS,
0.313744591296342,36.8846657526284,5844.4208527039,8.530184,0,0.61204398284,15000,2018-03-31 06:37:36,12,0,16.745,5844.4208527039,8.530184,0,0.61367784116,0,0,-2.460634,72.1, 1.7, 1.6,0,1,1024,1024,1289,1024,72,0,99,4.21,4.216,4.219,4.21,0,0,13.054,82.31,6,P-GPS,
0.313744549949335,36.8846657379764,5845.0770207039,9.186352,0,0.60151904812,15100,2018-03-31 06:37:36,12,0,16.745,5845.0770207039,9.186352,0,0.61367784116,0,0,-2.460634,72.1, 2.1, 1.6,0,1,1024,1024,1292,1024,72,0,99,4.21,4.216,4.219,4.21,0,0,13.054,82.31,6,P-GPS,
0.313744515681886,36.884665747672,5845.4051047039,9.514436,0,0.5889271842,15200,2018-03-31 06:37:36,12,0,16.745,5845.4051047039,9.514436,0,0.61367784116,0,0,-2.684328,72.1, 2.4, 1.6,0,1,1024,1024,1301,1024,72,0,99,4.21,4.216,4.219,4.21,0,0,13.054,82.31,6,P-GPS,
0.313744464276387,36.8846657205919,5845.7331887039,9.84252,0,0.57798230196,15300,2018-03-31 06:37:37,12,0,16.745,5845.7331887039,9.84252,0,0.61367784116,0,0,-2.684328,72.1, 2.5, 1.6,0,1,1024,1024,1302,1024,72,0,99,4.21,4.216,4.219,4.21,0,0,13.054,82.31,6,P-GPS,
0.313744411966186,36.8846657001943,5846.0612727039,10.170604,0,0.56598755092,15400,2018-03-31 06:37:37,12,0,16.745,5846.0612727039,10.170604,0,0.61367784116,0,0,-2.908022,72, 2.3, 1.3,0,1,1024,1024,1306,1024,72,0,99,4.21,4.216,4.219,4.21,0,0,13.054,82.31,6,P-GPS,
0.313744323970925,36.8846656390479,5846.7174407039,10.826772,0,0.55284778672,15500,2018-03-31 06:37:37,12,0,16.745,5846.7174407039,10.826772,0,0.61367784116,0,0,-2.908022,72, 2.1, 0.8,0,1,1024,1024,1314,1024,72,0,99,4.21,4.216,4.219,4.21,0,0,13.054,82.31,6,P-GPS,
0.313744240733366,36.8846655957449,5847.0455247039,11.154856,0,0.53924542408,15600,2018-03-31 06:37:37,12,0,16.745,5847.0455247039,11.154856,0,0.61367784116,0,0,-3.131716,72, 2, 0.4,0,1,1024,1024,1318,1024,72,0,99,4.21,4.216,4.219,4.21,0,0,13.054,82.31,6,P-GPS,
0.3137441568656,36.8846655697958,5847.7016927039,11.811024,0,0.52295605348,15700,2018-03-31 06:37:37,12,0,16.745,5847.7016927039,11.811024,0,0.61367784116,0,0,-3.131716,72.1, 2, 0.4,0,1,1024,1024,1315,1024,72,0,99,4.21,4.216,4.219,4.21,0,0,13.054,82.31,6,P-GPS,
0.313744096979012,36.8846655684033,5848.0297767039,12.139108,0,0.50775592176,15800,2018-03-31 06:37:37,12,0,16.745,5848.0297767039,12.139108,0,0.61367784116,0,0,-3.131716,72.1, 2.2, 0.4,0,1,1024,1024,1314,1024,72,0,99,4.21,4.216,4.219,4.21,0,0,13.054,82.31,6,P-GPS,
0.313744073813327,36.8846655825922,5848.6859447039,12.795276,0,0.4981463414,15900,2018-03-31 06:37:37,12,0,16.745,5848.6859447039,12.795276,0,0.61367784116,0,0,-3.35541,72.1, 2.1, 0.5,0,1,1024,1024,1314,1024,72,0,99,4.209,4.211,4.21,4.202,0,0,12.684,82.31,6,P-GPS,
0.313744071904231,36.8846655976289,5849.0140287039,13.12336,0,0.49374017328,16000,2018-03-31 06:37:37,12,0,16.745,5849.0140287039,13.12336,0,0.61367784116,0,0,-3.35541,72.1, 1.8, 0.7,0,1,1024,1024,1315,1024,72,0,99,4.209,4.211,4.21,4.202,0,0,12.684,82.31,6,P-GPS,
0.313744069399735,36.8846656078391,5849.6701967039,13.779528,0,0.4904527716,16100,2018-03-31 06:37:37,12,0,16.745,5849.6701967039,13.779528,0,0.61367784116,0,0,-3.35541,72.1, 1.7, 0.7,0,1,1024,1024,1316,1024,72,0,99,4.209,4.211,4.21,4.202,0,0,12.684,82.31,6,P-GPS,
0.313744066622526,36.8846656114627,5849.9982807039,14.107612,0,0.48879922824,16200,2018-03-31 06:37:37,12,0,16.745,5849.9982807039,14.107612,0,0.61367784116,0,0,-3.35541,72.1, 1.6, 0.7,0,1,1024,1024,1315,1024,72,0,99,4.209,4.211,4.21,4.202,0,0,12.684,82.31,6,P-GPS,
0.313744055406872,36.8846655870305,5850.6544487039,14.76378,0,0.49231300788,16300,2018-03-31 06:37:37,12,0,16.745,5850.6544487039,14.76378,0,0.61367784116,0,0,-3.35541,72.1, 1.5, 0.9,0,1,1024,1024,1319,1024,72,0,99,4.209,4.211,4.21,4.202,0,0,12.684,82.31,6,P-GPS,
0.313744046601214,36.8846655635896,5850.9825327039,15.091864,0,0.49632875604,16400,2018-03-31 06:37:38,12,0,16.745,5850.9825327039,15.091864,0,0.61367784116,0,0,-3.35541,72, 1.6, 0.9,0,1,1024,1024,1319,1024,72,0,99,4.209,4.211,4.21,4.202,0,0,12.684,82.31,6,P-GPS,
0.313744042728113,36.8846655444833,5851.6387007039,15.748032,0,0.50051182704,16500,2018-03-31 06:37:38,12,0,16.745,5851.6387007039,15.748032,0,0.61367784116,0,0,-3.35541,72, 1.4, 0.8,0,1,1024,1024,1310,1024,72,0,99,4.209,4.211,4.21,4.202,0,0,12.684,82.31,6,P-GPS,
0.313744055384379,36.8846655413373,5851.9667847039,16.076116,0,0.50447180092,16600,2018-03-31 06:37:38,12,0,16.745,5851.9667847039,16.076116,0,0.61367784116,0,0,-3.35541,72, 1.3, 1.1,0,1,1024,1024,1309,1024,72,0,99,4.209,4.211,4.21,4.202,0,0,12.684,82.31,6,P-GPS,
0.313744099329467,36.8846655489673,5852.6229527039,16.732284,0,0.51343177496,16700,2018-03-31 06:37:38,12,0,16.745,5852.6229527039,16.732284,0,0.61367784116,0,0,-3.35541,72, 1.8, 1.4,0,1,1024,1024,1310,1024,72,0,99,4.209,4.211,4.21,4.202,0,0,12.684,82.31,6,P-GPS,
0.313744147721022,36.8846655678448,5852.9510367039,17.060368,0,0.5210466046,16800,2018-03-31 06:37:38,12,0,16.745,5852.9510367039,17.060368,0,0.61367784116,0,0,-3.35541,72, 1.9, 1.5,0,1,1024,1024,1309,1024,72,0,99,4.209,4.211,4.21,4.202,0,0,12.684,82.31,6,P-GPS,
0.313744180645564,36.8846655764564,5853.6072047039,17.716536,0,0.52760172292,16900,2018-03-31 06:37:38,12,0,16.718,5853.6072047039,17.716536,0,0.61367784116,0,0,-3.131716,72.1, 1.6, 1.9,0,1,1024,1024,1308,1024,72,0,99,4.199,4.204,4.204,4.194,0,0,13.464,82.31,6,P-GPS,
0.313744195442369,36.8846655908855,5853.9352887039,18.04462,0,0.52802823212,17000,2018-03-31 06:37:38,12,0,16.718,5853.9352887039,18.04462,0,0.61367784116,0,0,-3.131716,72.2, 1.6, 1.8,0,1,1024,1024,1310,1024,72,0,99,4.199,4.204,4.204,4.194,0,0,13.464,82.31,6,P-GPS,
0.313744178290732,36.8846655722687,5854.5914567039,18.700788,0,0.52801510876,17100,2018-03-31 06:37:38,12,0,16.718,5854.5914567039,18.700788,0,0.61367784116,0,0,-3.131716,72.3, 1.4, 1.7,0,1,1024,1024,1310,1024,72,0,99,4.199,4.204,4.204,4.194,0,0,13.464,82.31,6,P-GPS,
0.313744145253064,36.8846655613349,5854.9195407039,19.028872,0,0.52205382248,17200,2018-03-31 06:37:38,12,0,16.718,5854.9195407039,19.028872,0,0.61367784116,0,0,-3.131716,72.4, 1.5, 1.3,0,1,1024,1024,1311,1024,72,0,99,4.199,4.204,4.204,4.194,0,0,13.464,82.31,6,P-GPS,
0.313744086964336,36.8846655250463,5855.5757087039,19.68504,0,0.51665684068,17300,2018-03-31 06:37:39,12,0,16.718,5855.5757087039,19.68504,0,0.61367784116,0,0,-3.131716,72.4, 1.7, 0.8,0,1,1024,1024,1311,1024,72,0,99,4.199,4.204,4.204,4.194,0,0,13.464,82.31,6,P-GPS,
0.313744021445266,36.8846655089513,5855.9037927039,20.013124,0,0.50510500304,17400,2018-03-31 06:37:39,12,0,16.718,5855.9037927039,20.013124,0,0.61367784116,0,0,-3.131716,72.4, 2.2, 0.1,0,1,1024,1024,1310,1024,72,0,99,4.199,4.204,4.204,4.194,0,0,13.464,82.31,6,P-GPS,
0.313743938159642,36.8846654767638,5856.2318767039,20.341208,0,0.49522311296,17500,2018-03-31 06:37:39,12,0,16.718,5856.2318767039,20.341208,0,0.61367784116,0,0,-3.131716,72.3, 2.2, -0.3,0,1,1024,1024,1307,1024,72,0,99,4.199,4.204,4.204,4.194,0,0,13.464,82.31,6,P-GPS,
0.313743862619535,36.8846654570922,5856.8880447039,20.997376,0,0.48508203652,17600,2018-03-31 06:37:39,12,0,16.718,5856.8880447039,20.997376,0,0.61367784116,0,0,-3.131716,72.4, 2.2, -0.3,0,1,1024,1024,1307,1024,72,0,99,4.199,4.204,4.204,4.194,0,0,13.464,82.31,6,P-GPS,
0.313743793175304,36.8846653900161,5857.2161287039,21.32546,0,0.49249345408,17700,2018-03-31 06:37:39,12,0,16.718,5857.2161287039,21.32546,0,0.61367784116,0,0,-3.131716,72.4, 2.2, -0.6,0,1,1024,1024,1308,1024,72,0,99,4.199,4.204,4.204,4.194,0,0,13.464,82.31,6,P-GPS,
0.313743739483852,36.8846653255553,5857.8722967039,21.981628,0,0.50395670904,17800,2018-03-31 06:37:39,12,0,16.718,5857.8722967039,21.981628,0,0.61367784116,0,0,-3.131716,72.3, 2, -1,0,1,1024,1024,1314,1024,72,0,99,4.199,4.204,4.204,4.194,0,0,13.464,82.31,6,P-GPS,
0.313743709877887,36.884665196349,5858.2003807039,22.309712,0,0.54214896748,17900,2018-03-31 06:37:39,12,0,16.745,5858.2003807039,22.309712,0,0.61367784116,0,0,-3.131716,72.4, 1.5, -0.7,0,1,1024,1024,1314,1024,72,0,99,4.199,4.204,4.204,4.194,0,0,13.464,82.31,6,P-GPS,
0.313743702677837,36.8846650885834,5858.8565487039,22.96588,0,0.57749017596,18000,2018-03-31 06:37:39,12,0,16.745,5858.8565487039,22.96588,0,0.61367784116,0,0,-3.35541,72.4, 1.5, -0.7,0,1,1024,1024,1309,1024,72,0,99,4.199,4.204,4.204,4.194,0,0,13.464,82.31,6,P-GPS,
0.313743684477685,36.8846649776701,5859.5127167039,23.622048,0,0.61304791988,18100,2018-03-31 06:37:39,12,0,16.745,5859.5127167039,23.622048,0,0.61367784116,0,0,-3.35541,72.3, 1.6, -0.6,0,1,1024,1024,1309,1024,72,0,99,4.199,4.204,4.204,4.194,0,0,13.464,82.31,6,P-GPS,
0.313743683831829,36.8846649004831,5859.8408007039,23.950132,0,0.63957679212,18200,2018-03-31 06:37:39,12,0,16.745,5859.8408007039,23.950132,0,0.63957679212,0,0,-3.35541,72.3, 1.7, -0.2,0,1,1024,1024,1310,1024,72,0,99,4.199,4.204,4.204,4.194,0,0,13.464,82.31,6,P-GPS,
0.313743704232365,36.8846647950065,5860.4969687039,24.6063,0,0.67843178024,18300,2018-03-31 06:37:39,12,0,16.745,5860.4969687039,24.6063,0,0.67843178024,0,0,-3.35541,72.2, 1.5, 0.3,0,1,1024,1024,1310,1024,72,0,99,4.199,4.204,4.204,4.194,0,0,13.464,82.31,6,P-GPS,
0.313743742647409,36.8846647161761,5860.8250527039,24.934384,0,0.71015094136,18400,2018-03-31 06:37:40,12,0,16.745,5860.8250527039,24.934384,0,0.71015094136,0,0,-3.35541,72.2, 1.3, 0.8,0,1,1024,1024,1311,1024,72,0,99,4.199,4.204,4.204,4.194,0,0,13.464,82.31,6,P-GPS,
0.313743783536239,36.8846646491369,5861.4812207039,25.590552,0,0.73811682152,18500,2018-03-31 06:37:40,12,0,16.745,5861.4812207039,25.590552,0,0.73811682152,0,0,-3.35541,72.2, 1.4, 0.5,0,1,1024,1024,1304,1024,72,0,99,4.199,4.204,4.204,4.194,0,0,13.464,82.31,6,P-GPS,
0.313743826127861,36.8846646218661,5861.8093047039,25.918636,0,0.75269359364,18600,2018-03-31 06:37:40,12,0,16.745,5861.8093047039,25.918636,0,0.75269359364,0,0,-3.35541,72.3, 1.7, 0,0,1,1024,1024,1304,1024,72,0,99,4.199,4.204,4.204,4.194,0,0,13.464,82.31,6,P-GPS,
0.313743856610857,36.8846645644356,5862.4654727039,26.574804,0,0.77619425056,18700,2018-03-31 06:37:40,12,0,16.745,5862.4654727039,26.574804,0,0.77619425056,0,0,-3.131716,72.3, 1.5, 0.1,0,1,1024,1024,1307,1024,72,0,99,4.199,4.204,4.204,4.194,0,0,13.464,82.31,6,P-GPS,
0.313743891430068,36.8846645241209,5862.7935567039,26.902888,0,0.79441603592,18800,2018-03-31 06:37:40,12,0,16.745,5862.7935567039,26.902888,0,0.79441603592,0,0,-3.131716,72.2, 1.5, 0.4,0,1,1024,1024,1306,1024,72,0,99,4.199,4.204,4.204,4.194,0,0,13.464,82.31,6,P-GPS,
0.313743909869423,36.8846644466097,5863.4497247039,27.559056,0,0.82325461952,18900,2018-03-31 06:37:40,12,0,16.718,5863.4497247039,27.559056,0,0.82325461952,0,0,-3.131716,72.2, 1.6, 0.7,0,1,1024,1024,1306,1024,72,0,99,4.2,4.2,4.198,4.19,0,0,12.84,82.31,6,P-GPS,
0.313743937682178,36.884664404293,5863.7778087039,27.88714,0,0.84127627364,19000,2018-03-31 06:37:40,12,0,16.718,5863.7778087039,27.88714,0,0.84127627364,0,0,-3.131716,72.1, 1.8, 1,0,1,1024,1024,1305,1024,72,0,99,4.2,4.2,4.198,4.19,0,0,12.84,82.31,6,P-GPS,
0.313743958737704,36.8846643679957,5864.4339767039,28.543308,0,0.85638454184,19100,2018-03-31 06:37:40,12,0,16.718,5864.4339767039,28.543308,0,0.85638454184,0,0,-3.131716,72.1, 1.9, 1.2,0,1,1024,1024,1296,1024,72,0,99,4.2,4.2,4.198,4.19,0,0,12.84,82.31,6,P-GPS,
0.313743980545622,36.8846643707873,5864.7620607039,28.871392,0,0.85830711408,19200,2018-03-31 06:37:40,12,0,16.718,5864.7620607039,28.871392,0,0.85830711408,0,0,-3.131716,72.1, 1.7, 1.2,0,1,1024,1024,1303,1024,72,0,99,4.2,4.2,4.198,4.19,0,0,12.84,82.31,6,P-GPS,
0.313743963013642,36.8846643756906,5865.0901447039,29.199476,0,0.85432417432,19300,2018-03-31 06:37:41,12,0,16.718,5865.0901447039,29.199476,0,0.85830711408,0,0,-3.131716,72, 1.7, 0.9,0,1,1024,1024,1330,1024,72,0,99,4.2,4.2,4.198,4.19,0,0,12.84,82.31,6,P-GPS,
0.313743941127074,36.8846644051586,5865.7463127039,29.855644,0,0.84142719228,19400,2018-03-31 06:37:41,12,0,16.718,5865.7463127039,29.855644,0,0.85830711408,0,0,-3.131716,72, 1.8, 0.9,0,1,1024,1024,1314,1024,72,0,99,4.2,4.2,4.198,4.19,0,0,12.84,82.31,6,P-GPS,
0.313743859316974,36.8846644027952,5866.7305647039,30.839896,0,0.83209976416,19600,2018-03-31 06:37:41,12,0,16.718,5866.7305647039,30.839896,0,0.85830711408,0,0,-3.35541,72, 1.9, 0.6,0,1,1024,1024,1307,1024,72,0,99,4.2,4.2,4.198,4.19,0,0,12.84,82.31,6,P-GPS,
0.313743790367917,36.8846643852244,5867.3867327039,31.496064,0,0.83042653576,19700,2018-03-31 06:37:41,12,0,16.718,5867.3867327039,31.496064,0,0.85830711408,0,0,-3.35541,72, 1.8, 0.4,0,1,1024,1024,1307,1024,72,0,99,4.2,4.2,4.198,4.19,0,0,12.84,82.31,6,P-GPS,
0.31374373172882,36.8846643909976,5867.7148167039,31.824148,0,0.82236551188,19800,2018-03-31 06:37:41,12,0,16.718,5867.7148167039,31.824148,0,0.85830711408,0,0,-3.35541,72, 1.8, 0.5,0,1,1024,1024,1289,1024,72,0,99,4.2,4.2,4.198,4.19,0,0,12.84,82.31,6,P-GPS,
0.313743653608214,36.8846644014929,5868.3709847039,32.480316,0,0.81138782124,19900,2018-03-31 06:37:41,12,0,16.664,5868.3709847039,32.480316,0,0.85830711408,0,0,-3.35541,72, 1.9, 0.4,0,1,1024,1024,1289,1024,72,0,99,4.196,4.197,4.197,4.192,0,0,12.466,82.31,6,P-GPS,
0.313743589164254,36.884664437432,5868.6990687039,32.8084,0,0.7932743036,20000,2018-03-31 06:37:41,12,0,16.664,5868.6990687039,32.8084,0,0.85830711408,0,0,-3.131716,72, 1.8, 0.4,0,1,1024,1024,1293,1024,72,0,99,4.196,4.197,4.197,4.192,0,0,12.466,82.31,6,P-GPS,
0.313743538641028,36.8846644470475,5869.3552367039,33.464568,0,0.78606957896,20100,2018-03-31 06:37:41,12,0,16.664,5869.3552367039,33.464568,0,0.85830711408,0,0,-3.131716,72, 1.8, 0.3,0,1,1024,1024,1293,1024,72,0,99,4.196,4.197,4.197,4.192,0,0,12.466,82.31,6,P-GPS,
0.313743505435985,36.8846644671626,5869.6833207039,33.792652,0,0.77659451304,20200,2018-03-31 06:37:41,12,0,16.664,5869.6833207039,33.792652,0,0.85830711408,0,0,-3.131716,72, 1.7, 0.1,0,1,1024,1024,1299,1024,72,0,99,4.196,4.197,4.197,4.192,0,0,12.466,82.31,6,P-GPS,
0.313743467673156,36.8846644600504,5870.3394887039,34.44882,0,0.77678480176,20300,2018-03-31 06:37:41,12,0,16.664,5870.3394887039,34.44882,0,0.85830711408,0,0,-2.908022,72, 1.6, 0.1,0,1,1024,1024,1300,1024,72,0,99,4.196,4.197,4.197,4.192,0,0,12.466,82.31,6,P-GPS,
0.313743436473323,36.8846644686383,5870.6675727039,34.776904,0,0.7719160352,20400,2018-03-31 06:37:42,12,0,16.664,5870.6675727039,34.776904,0,0.85830711408,0,0,-2.908022,72, 1.7, 0,0,1,1024,1024,1284,1024,72,0,99,4.196,4.197,4.197,4.192,0,0,12.466,82.31,6,P-GPS,
0.313743377181079,36.8846644500639,5870.9956567039,35.104988,0,0.77571852876,20500,2018-03-31 06:37:42,12,0,16.664,5870.9956567039,35.104988,0,0.85830711408,0,0,-3.131716,72, 1.7, 0,0,1,1024,1024,1287,1024,72,0,99,4.196,4.197,4.197,4.192,0,0,12.466,82.31,6,P-GPS,
0.313743325860285,36.8846644473875,5871.6518247039,35.761156,0,0.77465881744,20600,2018-03-31 06:37:42,12,0,16.664,5871.6518247039,35.761156,0,0.85830711408,0,0,-2.908022,72, 1.7, 0.1,0,1,1024,1024,1300,1024,72,0,99,4.196,4.197,4.197,4.192,0,0,12.466,82.31,6,P-GPS,
0.313743266265532,36.8846644245111,5871.9799087039,36.08924,0,0.78119425072,20700,2018-03-31 06:37:42,12,0,16.664,5871.9799087039,36.08924,0,0.85830711408,0,0,-2.908022,72, 1.7, 0,0,1,1024,1024,1312,1024,72,0,99,4.196,4.197,4.197,4.192,0,0,12.466,82.31,6,P-GPS,
0.313743230989135,36.884664420654,5872.6360767039,36.745408,0,0.78183401452,20800,2018-03-31 06:37:42,12,0,16.664,5872.6360767039,36.745408,0,0.85830711408,0,0,-2.908022,72.1, 1.7, 0.1,0,1,1024,1024,1337,1024,72,0,99,4.196,4.197,4.197,4.192,0,0,12.466,82.31,6,P-GPS,
0.313743212968163,36.8846644271169,5872.9641607039,37.073492,0,0.7791666916,20900,2018-03-31 06:37:42,12,0,16.664,5872.9641607039,37.073492,0,0.85830711408,0,0,-2.908022,72.1, 1.7, 0.1,0,1,1024,1024,1337,1024,72,0,99,4.196,4.197,4.197,4.192,0,0,12.466,82.31,6,P-GPS,
0.313743216229707,36.8846644564523,5873.6203287039,37.72966,0,0.76852692748,21000,2018-03-31 06:37:42,12,0,16.664,5873.6203287039,37.72966,0,0.85830711408,0,0,-3.35541,72.1, 1.8, 0.1,0,1,1024,1024,1357,1024,72,0,99,4.196,4.197,4.197,4.192,0,0,12.466,82.31,6,P-GPS,
0.313743207849175,36.8846644486703,5873.9484127039,38.057744,0,0.77123362048,21100,2018-03-31 06:37:42,12,0,16.664,5873.9484127039,38.057744,0,0.85830711408,0,0,-3.579104,72.1, 1.8, 0,0,1,1024,1024,1360,1024,72,0,99,4.196,4.197,4.197,4.192,0,0,12.466,82.31,6,P-GPS,
0.313743210465957,36.8846644386025,5874.6045807039,38.713912,0,0.77494425052,21200,2018-03-31 06:37:42,12,0,16.664,5874.6045807039,38.713912,0,0.85830711408,0,0,-3.579104,72, 1.8, 0.1,0,1,1024,1024,1361,1024,72,0,99,4.196,4.197,4.197,4.192,0,0,12.466,82.31,6,P-GPS,
0.313743220840494,36.8846643961477,5875.2607487039,39.37008,0,0.7905840148,21300,2018-03-31 06:37:42,12,0,16.664,5875.2607487039,39.37008,0,0.85830711408,0,0,-3.802798,72, 1.8, 0.5,0,1,1024,1024,1351,1024,72,0,99,4.196,4.197,4.197,4.192,0,0,12.466,82.31,6,P-GPS,
0.313743242647522,36.8846643630019,5875.9169167039,40.026248,0,0.80306433016,21400,2018-03-31 06:37:43,12,0,16.664,5875.9169167039,40.026248,0,0.85830711408,0,0,-4.026492,71.9, 1.8, 0.9,0,1,1024,1024,1358,1024,72,0,99,4.196,4.197,4.197,4.192,0,0,12.466,82.31,6,P-GPS,
0.313743240653441,36.8846643180949,5876.2450007039,40.354332,0,0.81938322832,21500,2018-03-31 06:37:43,12,0,16.664,5876.2450007039,40.354332,0,0.85830711408,0,0,-3.802798,72, 1.9, 0.7,0,1,1024,1024,1354,1024,72,0,99,4.196,4.197,4.197,4.192,0,0,12.466,82.31,6,P-GPS,
0.313743239855427,36.8846643204778,5876.9011687039,41.0105,0,0.81850068236,21600,2018-03-31 06:37:43,12,0,16.664,5876.9011687039,41.0105,0,0.85830711408,0,0,-4.026492,72, 2.1, 0.5,0,1,1024,1024,1355,1024,72,0,99,4.196,4.197,4.197,4.192,0,0,12.466,82.31,6,P-GPS,
0.313743244394028,36.8846643139764,5877.5573367039,41.666668,0,0.82095803152,21700,2018-03-31 06:37:43,12,0,16.664,5877.5573367039,41.666668,0,0.85830711408,0,0,-4.026492,72, 2.2, 0.1,0,1,1024,1024,1355,1024,72,0,99,4.196,4.197,4.197,4.192,0,0,12.466,82.31,6,P-GPS,
0.313743262821984,36.8846643214454,5878.2135047039,42.322836,0,0.8186351968,21800,2018-03-31 06:37:43,12,0,16.664,5878.2135047039,42.322836,0,0.85830711408,0,0,-4.026492,72, 2.2, 0.1,0,1,1024,1024,1349,1024,72,0,99,4.196,4.197,4.197,4.192,0,0,12.466,82.31,6,P-GPS,
0.313743252161273,36.8846643080111,5878.8696727039,42.979004,0,0.82329070876,21900,2018-03-31 06:37:43,12,0,16.664,5878.8696727039,42.979004,0,0.85830711408,0,0,-4.026492,72, 2.3, 0,0,1,1024,1024,1346,1024,72,0,99,4.197,4.199,4.2,4.196,0,0,12.416,82.31,6,P-GPS,
0.313743238976755,36.8846643040708,5879.5258407039,43.635172,0,0.82446196864,22000,2018-03-31 06:37:43,12,0,16.664,5879.5258407039,43.635172,0,0.85830711408,0,0,-4.026492,72, 2.2, 0,0,1,1024,1024,1338,1024,72,0,99,4.197,4.199,4.2,4.196,0,0,12.416,82.31,6,P-GPS,
0.31374322588895,36.8846642563438,5880.1820087039,44.29134,0,0.84162076184,22100,2018-03-31 06:37:43,12,0,16.664,5880.1820087039,44.29134,0,0.85830711408,0,0,-3.802798,72, 2.1, 0,0,1,1024,1024,1345,1024,72,0,99,4.197,4.199,4.2,4.196,0,0,12.416,82.31,6,P-GPS,
0.313743237220605,36.8846642175585,5880.8381767039,44.947508,0,0.85595147096,22200,2018-03-31 06:37:43,12,0,16.664,5880.8381767039,44.947508,0,0.85830711408,0,0,-3.802798,72, 2.1, 0.4,0,1,1024,1024,1350,1024,72,0,99,4.197,4.199,4.2,4.196,0,0,12.416,82.31,6,P-GPS,
0.313743243408489,36.8846641897866,5881.4943447039,45.603676,0,0.86618441092,22300,2018-03-31 06:37:44,12,0,16.664,5881.4943447039,45.603676,0,0.86618441092,0,0,-4.026492,72, 2.1, 1,0,1,1024,1024,1351,1024,72,0,99,4.197,4.199,4.2,4.196,0,0,12.416,82.31,6,P-GPS,
0.3137432521771,36.884664197748,5882.1505127039,46.259844,0,0.86345475204,22400,2018-03-31 06:37:44,12,0,16.664,5882.1505127039,46.259844,0,0.86618441092,0,0,-4.026492,72, 2.1, 1.2,0,1,1024,1024,1348,1024,72,0,99,4.197,4.199,4.2,4.196,0,0,12.416,82.31,6,P-GPS,
0.313743254135813,36.8846641836981,5882.8066807039,46.916012,0,0.86861223252,22500,2018-03-31 06:37:44,12,0,16.664,5882.8066807039,46.916012,0,0.86861223252,0,0,-4.026492,72.1, 2.3, 1,0,1,1024,1024,1357,1024,72,0,99,4.197,4.199,4.2,4.196,0,0,12.416,82.31,6,P-GPS,
0.313743253513671,36.8846641743596,5883.4628487039,47.57218,0,0.87200134024,22600,2018-03-31 06:37:44,12,0,16.664,5883.4628487039,47.57218,0,0.87200134024,0,0,-4.026492,72.1, 2.5, 0.8,0,1,1024,1024,1363,1024,72,0,99,4.197,4.199,4.2,4.196,0,0,12.416,82.31,6,P-GPS,
0.313743234215922,36.8846641284361,5884.1190167039,48.228348,0,0.88837929352,22700,2018-03-31 06:37:44,12,0,16.664,5884.1190167039,48.228348,0,0.88837929352,0,0,-4.026492,72, 2.3, 0.7,0,1,1024,1024,1362,1024,72,0,99,4.197,4.199,4.2,4.196,0,0,12.416,82.31,6,P-GPS,
0.3137432036813,36.884664094484,5884.4471007039,48.556432,0,0.9003117086,22800,2018-03-31 06:37:44,12,0,16.664,5884.4471007039,48.556432,0,0.9003117086,0,0,-3.802798,72, 2, 0.5,0,1,1024,1024,1360,1024,72,0,99,4.197,4.199,4.2,4.196,0,0,12.416,82.31,6,P-GPS,
0.313743145463765,36.884664034908,5885.1032687039,49.2126,0,0.921587956,22900,2018-03-31 06:37:44,12,0,16.664,5885.1032687039,49.2126,0,0.921587956,0,0,-4.026492,72, 2, 0.1,0,1,1024,1024,1360,1024,72,0,99,4.192,4.194,4.188,4.181,0,0,13.544,82.31,6,P-GPS,
0.313743092638034,36.884663999991,5885.7594367039,49.868768,0,0.93434058108,23000,2018-03-31 06:37:44,12,0,16.664,5885.7594367039,49.868768,0,0.93434058108,0,0,-4.026492,72.1, 2.1, 0.2,0,1,1024,1024,1359,1024,72,0,99,4.192,4.194,4.188,4.181,0,0,13.544,82.31,6,P-GPS,
