latitude,longitude,altitude(feet),ascent(feet),speed(mph),distance(feet),time(millisecond),datetime(utc),satellites,gpslevel,voltage(v),max_altitude(feet),max_ascent(feet),max_speed(mph),max_distance(feet), xSpeed(mph), ySpeed(mph), zSpeed(mph), compass_heading(degrees), pitch(degrees), roll(degrees),isPhoto,isVideo,rc_elevator,rc_aileron,rc_throttle,rc_rudder,gimbal_heading(degrees),gimbal_pitch(degrees),battery_percent,voltageCell1,voltageCell2,voltageCell3,voltageCell4,voltageCell5,voltageCell6,current(A),battery_temperature(f),flycStateRaw,flycState,message
0.289297467526587,36.8890189209124,5623.7306166392,0,0,0,3800,2018-04-14 13:03:17,15,0,0,5623.7306166392,0,0,0,0,0,0,267.4, -3, 0.2,0,0,364,364,364,1684,272,0,99,4.295,4.295,4.295,4.295,0,0,0,87.71,41,Motors_Started,
0.289297558746168,36.8890188189491,5623.7306166392,0,0,0.049915355928,3900,2018-04-14 13:03:17,15,0,0,5623.7306166392,0,0,0.049915355928,0,0,0,267.4, -3, 0.2,0,0,364,364,364,1684,272,0,99,4.295,4.295,4.295,4.295,0,0,0,87.71,41,Motors_Started,
0.289297663857139,36.8890187439291,5623.7306166392,0,0,0.096438979464,4000,2018-04-14 13:03:17,15,0,0,5623.7306166392,0,0,0.096438979464,0,0,0,267.4, -3, 0.2,0,0,364,364,364,1684,272,0,99,4.295,4.295,4.295,4.295,0,0,0,87.71,41,Motors_Started,
0.28929774497487,36.8890186874196,5623.7306166392,0,0,0.132302497672,4100,2018-04-14 13:03:17,15,0,0,5623.7306166392,0,0,0.132302497672,0,0,0,267.4, -3.1, 0.2,0,0,364,364,364,1684,272,0,99,4.295,4.295,4.295,4.295,0,0,0,87.71,41,Motors_Started,
0.289297832781436,36.8890186908702,5623.7306166392,0,0,0.157490490604,4200,2018-04-14 13:03:17,15,0,0,5623.7306166392,0,0,0.157490490604,0,0,0,267.4, -3, 0.2,0,0,364,364,364,1684,272,0,99,4.295,4.295,4.295,4.295,0,0,0,87.71,41,Motors_Started,
0.289297904727058,36.8890186959304,5623.7306166392,0,0,0.17939305036,4300,2018-04-14 13:03:17,15,0,0,5623.7306166392,0,0,0.17939305036,0,0,0,267.4, -3.1, 0.2,0,0,364,364,364,1684,272,0,99,4.295,4.295,4.295,4.295,0,0,0,87.71,41,Motors_Started,
0.289297978954615,36.8890187059651,5623.7306166392,0,0,0.202404205952,4400,2018-04-14 13:03:17,15,0,17.13,5623.7306166392,0,0,0.202404205952,0,0,0,267.4, -3.1, 0.2,0,0,364,364,364,1684,272,0,99,4.295,4.295,4.295,4.295,0,0,1.52,87.71,41,Motors_Started,Setting new Return-To-Home altitude to 30m (98 ft). Setting new Maximum Flight Altitude to 150m (492 ft)
0.289298043365554,36.8890186899537,5623.7306166392,0,0,0.226362868136,4500,2018-04-14 13:03:17,15,0,17.13,5623.7306166392,0,0,0.226362868136,0,0,0,267.4, -3.1, 0.2,0,0,364,364,364,1684,272,0,99,4.295,4.295,4.295,4.295,0,0,1.52,87.71,41,Motors_Started,
0.289298134014212,36.8890187265966,5623.7306166392,0,0,0.253291674772,4600,2018-04-14 13:03:17,15,0,17.13,5623.7306166392,0,0,0.253291674772,0,0,0,267.4, -3.1, 0.1,0,0,364,364,364,1684,272,0,99,4.295,4.295,4.295,4.295,0,0,1.52,87.71,41,Motors_Started,
0.289298221636706,36.8890187532079,5623.7306166392,0,0,0.281857948652,4700,2018-04-14 13:03:17,15,0,17.13,5623.7306166392,0,0,0.281857948652,0,0,0,267.4, -3.1, 0.1,0,0,364,364,366,1663,272,0,99,4.295,4.295,4.295,4.295,0,0,1.52,87.71,41,Motors_Started,
0.289298333016188,36.8890188012388,5623.7306166392,0,0,0.318777569256,4800,2018-04-14 13:03:18,15,0,17.13,5623.7306166392,0,0,0.318777569256,0,0,0,267.4, -3.2, 0,0,0,364,364,496,1564,272,0,99,4.295,4.295,4.295,4.295,0,0,1.52,87.71,41,Motors_Started,
0.289298434165053,36.8890188238246,5623.7306166392,0,0,0.35445211108,4900,2018-04-14 13:03:18,15,0,17.13,5623.7306166392,0,0,0.35445211108,0,0,0,267.4, -3.1, 0.1,0,0,466,442,661,1386,272,0,99,4.295,4.295,4.295,4.295,0,0,1.52,87.71,41,Motors_Started,
0.289298531856185,36.8890188663199,5623.7306166392,0,0,0.38883203344,5000,2018-04-14 13:03:18,15,0,17.13,5623.7306166392,0,0,0.38883203344,0,0,0,267.4, -3.1, 0.1,0,0,577,552,847,1193,271.7,0,99,4.295,4.295,4.295,4.295,0,0,1.52,87.71,41,Motors_Started,
0.289298609280733,36.8890188831744,5623.7306166392,0,0,0.41679463276,5100,2018-04-14 13:03:18,15,0,17.13,5623.7306166392,0,0,0.41679463276,0,0,0,267.4, -3.1, 0.1,0,0,895,991,1024,1024,271,0,99,4.295,4.295,4.295,4.295,0,0,1.52,87.71,41,Motors_Started,
0.289298703974522,36.8890189390034,5623.7306166392,0,0,0.4511647126,5200,2018-04-14 13:03:18,15,0,17.13,5623.7306166392,0,0,0.4511647126,0,0,0,267.4, -3.2, 0.1,0,0,1024,1024,1024,1024,270.1,0,99,4.295,4.295,4.295,4.295,0,0,1.52,87.71,41,Motors_Started,
0.289298793597591,36.889018979312,5623.7306166392,0,0,0.4842847924,5300,2018-04-14 13:03:18,15,0,17.104,5623.7306166392,0,0,0.4842847924,0,0,0,267.4, -3.3, 0,0,0,1024,1024,1024,1024,268.8,0,99,4.293,4.293,4.294,4.289,0,0,1.856,87.71,10,Assisted_Takeoff,
0.289298890195566,36.8890190580556,5623.7306166392,0,0,0.52146655212,5500,2018-04-14 13:03:18,15,0,17.104,5623.7306166392,0,0,0.52146655212,0,0,0,267.4, -3.1, 0.1,0,0,1024,1024,1024,1024,268.5,0,99,4.293,4.293,4.294,4.289,0,0,1.856,87.71,10,Assisted_Takeoff,
0.289298920854892,36.8890190850529,5623.7306166392,0,0,0.53361550264,5600,2018-04-14 13:03:18,15,0,17.104,5623.7306166392,0,0,0.53361550264,0,0,0,267.4, -3, 0.2,0,0,1024,1024,1024,1024,268.4,0,99,4.293,4.293,4.294,4.289,0,0,1.856,87.71,10,Assisted_Takeoff,
0.289298956324132,36.8890190993711,5623.7306166392,0,0,0.54707678916,5700,2018-04-14 13:03:19,15,0,17.104,5623.7306166392,0,0,0.54707678916,0,0,0,267.4, -3.1, 0.1,0,0,1024,1024,1024,1024,268.2,0,99,4.293,4.293,4.294,4.289,0,0,1.856,87.71,10,Assisted_Takeoff,
0.289298983125827,36.8890191392044,5623.7306166392,0,0,0.55867127772,5800,2018-04-14 13:03:19,15,0,17.104,5623.7306166392,0,0,0.55867127772,0,0,0,267.4, -3, 0.2,0,0,1024,1024,1024,1024,268.1,0,99,4.293,4.293,4.294,4.289,0,0,1.856,87.71,10,Assisted_Takeoff,
0.289299020847969,36.88901917203,5623.7306166392,0,0,0.57408794488,5900,2018-04-14 13:03:19,15,0,17.104,5623.7306166392,0,0,0.57408794488,0,0,0,267.4, -3.1, 0.1,0,0,1024,1024,1024,1024,268.1,0,99,4.293,4.293,4.294,4.289,0,0,1.856,87.71,10,Assisted_Takeoff,
0.289299026295368,36.8890192057801,5623.7306166392,0,0,0.5781332206,6000,2018-04-14 13:03:19,15,0,17.104,5623.7306166392,0,0,0.5781332206,0,0,0,267.4, -3, 0.2,0,0,1024,1024,1024,1024,268,0,99,4.293,4.293,4.294,4.289,0,0,1.856,87.71,10,Assisted_Takeoff,
0.289299048171936,36.8890192634608,5623.7306166392,0,0,0.59008532072,6200,2018-04-14 13:03:19,15,0,17.104,5623.7306166392,0,0,0.59008532072,0,0,0,267.4, -3.1, 0.1,0,0,1024,1024,1024,1024,267.9,0,99,4.293,4.293,4.294,4.289,0,0,1.856,87.71,10,Assisted_Takeoff,
0.289299067693214,36.8890192996663,5623.7306166392,0,0,0.5999508066,6300,2018-04-14 13:03:19,15,0,17.104,5623.7306166392,0,0,0.5999508066,0,0,0,267.3, -3.1, 0.1,0,0,1024,1024,1026,1024,267.9,0,99,4.293,4.293,4.294,4.289,0,0,1.856,87.71,10,Assisted_Takeoff,
0.289299092472126,36.8890193596899,5623.7306166392,0,0,0.61409450784,6400,2018-04-14 13:03:19,15,0,17.211,5623.7306166392,0,0,0.61409450784,0,0,0,267.3, -3, 0.2,0,0,1024,1024,1035,1024,267.9,0,99,4.293,4.293,4.294,4.289,0,0,1.856,87.71,10,Assisted_Takeoff,
0.289299124029387,36.8890194069419,5623.7306166392,0,0,0.62985238236,6500,2018-04-14 13:03:19,15,0,17.211,5623.7306166392,0,0,0.62985238236,0,0,0,267.3, -3, 0.2,0,0,1024,1024,1101,1024,267.9,0,99,4.293,4.293,4.294,4.289,0,0,1.856,87.71,10,Assisted_Takeoff,
0.289299135196543,36.8890194446762,5623.7306166392,0,0,0.63774936424,6600,2018-04-14 13:03:19,15,0,17.211,5623.7306166392,0,0,0.63774936424,0,0,0,267.4, -3, 0.2,0,0,1024,1024,1182,1024,267.9,0,99,4.293,4.293,4.294,4.289,0,0,1.856,87.71,10,Assisted_Takeoff,
0.289299144882935,36.8890194677797,5623.7306166392,0,0,0.6436844038,6700,2018-04-14 13:03:19,15,0,17.211,5623.7306166392,0,0,0.6436844038,0,0,0,267.4, -3.1, 0.1,0,0,1024,1024,1282,1024,267.8,0,99,4.293,4.293,4.294,4.289,0,0,1.856,87.71,10,Assisted_Takeoff,
0.289299163018712,36.8890194787443,5623.7306166392,0,0,0.65122049328,6800,2018-04-14 13:03:20,15,0,17.211,5623.7306166392,0,0,0.65122049328,0,0,0,267.4, -3.1, 0.1,0,0,1024,1024,1365,1024,267.8,0,99,4.293,4.293,4.294,4.289,0,0,1.856,87.71,10,Assisted_Takeoff,
0.289299187662159,36.8890194844971,5623.7306166392,0,0,0.6604166878,6900,2018-04-14 13:03:20,15,0,17.211,5623.7306166392,0,0,0.6604166878,0,0,0,267.5, -3.1, 0,0,0,1024,1024,1433,1024,267.8,0,99,4.293,4.293,4.294,4.289,0,0,1.856,87.71,10,Assisted_Takeoff,
0.289299197381221,36.889019478573,5623.7306166392,0,0,0.66312009996,7000,2018-04-14 13:03:20,15,0,17.211,5623.7306166392,0,0,0.66312009996,0,0,0,267.2, -2.7, 0.3,0,0,1024,1024,1459,1024,267.8,0,99,4.293,4.293,4.294,4.289,0,0,1.856,87.71,10,Assisted_Takeoff,
0.289299208211799,36.8890194586309,5623.7306166392,0,0,0.664698184,7100,2018-04-14 13:03:20,15,0,17.211,5623.7306166392,0,0,0.664698184,0,0,0,267.2, -0.2, 0.7,0,0,1024,1024,1458,1024,267.8,0,99,4.293,4.293,4.294,4.289,0,0,1.856,87.71,10,Assisted_Takeoff,
0.289299231440535,36.889019435377,5623.7306166392,0,0,0.67037731804,7200,2018-04-14 13:03:20,15,0,17.211,5623.7306166392,0,0,0.67037731804,0,0,-0.223694,267.2, 3.5, 0.9,0,0,1024,1024,1446,1024,267.8,0,99,4.293,4.293,4.294,4.289,0,0,1.856,87.71,10,Assisted_Takeoff,
0.289299267901294,36.8890194656878,5623.7306166392,0,0,0.68627954952,7300,2018-04-14 13:03:20,15,0,17.211,5623.7306166392,0,0,0.68627954952,0,0,-0.671082,267.2, 2.8, 0.6,0,0,1024,1024,1446,1024,267.7,0,99,4.293,4.293,4.294,4.289,0,0,1.856,87.71,6,P-GPS,Obstacle Avoided. Revise Flight Route
0.289299322162575,36.8890195352965,5623.7306166392,0,0.223694,0.71282482596,7400,2018-04-14 13:03:20,15,0,17.104,5623.7306166392,0,0.223694,0.71282482596,0,0.223694,-1.342164,267.2, 1.2, -0.3,0,0,1024,1024,1447,1024,267.7,0,99,4.288,4.286,4.283,4.28,0,0,3.714,87.71,6,P-GPS,
0.289299346354332,36.8890196085592,5624.0587006392,0.328084,0,0.72995737244,7500,2018-04-14 13:03:20,15,0,17.104,5624.0587006392,0.328084,0.223694,0.72995737244,0,0,-2.013246,267.2, 0.1, -0.5,0,0,1024,1024,1447,1024,267.7,0,99,4.288,4.286,4.283,4.28,0,0,3.714,87.71,6,P-GPS,Home Point Recorded. RTH Altitude:  30m.
0.289299301618023,36.8890196725666,5624.3867846392,0.656168,0,0.72318243784,7600,2018-04-14 13:03:20,15,0,17.104,5624.3867846392,0.656168,0.223694,0.72995737244,0,0,-2.908022,267.3, -0.3, -0.1,0,0,1024,1024,1449,1024,267.7,0,99,4.288,4.286,4.283,4.28,0,0,3.714,87.71,6,P-GPS,
0.289299202159992,36.8890197179407,5625.0429526392,1.312336,0.223694,0.6964895236,7700,2018-04-14 13:03:20,15,0,17.104,5625.0429526392,1.312336,0.223694,0.72995737244,-0.223694,0,-3.802798,267.1, -0.1, 0.6,0,0,1024,1024,1449,1024,267.7,0,99,4.288,4.286,4.283,4.28,0,0,3.714,87.71,6,P-GPS,
0.28929904251233,36.8890197216396,5625.3710366392,1.64042,0.223694,0.64463256656,7800,2018-04-14 13:03:21,15,0,17.104,5625.3710366392,1.64042,0.223694,0.72995737244,-0.223694,0,-4.250186,267.1, 0, 2,0,0,1024,1024,1453,1024,267.7,0,99,4.288,4.286,4.283,4.28,0,0,3.714,87.71,6,P-GPS,
0.289298881087068,36.8890197036611,5626.0272046392,2.296588,0.223694,0.58952757792,7900,2018-04-14 13:03:21,15,0,17.104,5626.0272046392,2.296588,0.223694,0.72995737244,-0.223694,0,-4.921268,267, -0.2, 2.5,0,0,1024,1024,1461,1024,267.7,0,99,4.288,4.286,4.283,4.28,0,0,3.714,87.71,6,P-GPS,
0.289298730470553,36.8890196347065,5627.0114566392,3.28084,0.223694,0.52928479384,8000,2018-04-14 13:03:21,15,0,17.104,5627.0114566392,3.28084,0.223694,0.72995737244,-0.223694,0,-5.368656,267, 0, 2.8,0,0,1024,1024,1470,1024,267.7,0,99,4.288,4.286,4.283,4.28,0,0,3.714,87.71,6,P-GPS,
0.289298610288943,36.8890195320981,5627.6676246392,3.937008,0.3131716,0.47282153744,8100,2018-04-14 13:03:21,15,0,17.104,5627.6676246392,3.937008,0.3131716,0.72995737244,-0.223694,-0.223694,-5.816044,266.9, 0.3, 2.5,0,0,1024,1024,1467,1024,267.7,0,99,4.288,4.286,4.283,4.28,0,0,3.714,87.71,6,P-GPS,
0.289298508838052,36.889019374901,5628.6518766392,4.92126,0.3131716,0.41445867468,8200,2018-04-14 13:03:21,15,0,17.104,5628.6518766392,4.92126,0.3131716,0.72995737244,-0.223694,-0.223694,-6.263432,266.9, 1.3, 2.4,0,0,1024,1024,1442,1024,267.7,0,99,4.288,4.286,4.283,4.28,0,0,3.714,87.71,6,P-GPS,
0.289298409540028,36.889019207978,5629.6361286392,5.905512,0.3131716,0.35929791176,8300,2018-04-14 13:03:21,15,0,17.104,5629.6361286392,5.905512,0.3131716,0.72995737244,-0.223694,-0.223694,-6.487126,267, 1.8, 2.5,0,0,1024,1024,1435,1024,267.7,0,99,4.288,4.286,4.283,4.28,0,0,3.714,87.71,6,P-GPS,
0.289298308838403,36.8890190547694,5630.6203806392,6.889764,0.3131716,0.310813002072,8400,2018-04-14 13:03:21,15,0,16.997,5630.6203806392,6.889764,0.3131716,0.72995737244,-0.223694,-0.223694,-6.487126,267.1, 2.4, 3.5,0,0,1024,1024,1446,1024,267.6,0,99,4.253,4.249,4.246,4.239,0,0,6.12,87.71,6,P-GPS,
0.289298213396691,36.8890189085331,5631.6046326392,7.874016,0.3131716,0.272167659628,8500,2018-04-14 13:03:21,15,0,16.997,5631.6046326392,7.874016,0.3131716,0.72995737244,-0.223694,-0.223694,-6.263432,267.2, 3.1, 4,0,0,1024,1024,1450,1024,267.6,0,99,4.253,4.249,4.246,4.239,0,0,6.12,87.71,6,P-GPS,
0.289298155154481,36.8890187246224,5632.5888846392,8.858268,0.223694,0.260901911236,8600,2018-04-14 13:03:21,15,0,16.997,5632.5888846392,8.858268,0.3131716,0.72995737244,0,-0.223694,-6.039738,267.1, 3.5, 3.4,0,0,1024,1024,1487,1024,267.6,0,99,4.253,4.249,4.246,4.239,0,0,6.12,87.71,6,P-GPS,
0.289298119343535,36.8890185422839,5633.2450526392,9.514436,0.223694,0.275025271268,8700,2018-04-14 13:03:21,15,0,16.997,5633.2450526392,9.514436,0.3131716,0.72995737244,0,-0.223694,-6.039738,267.1, 4, 2.4,0,0,1024,1024,1471,1024,267.6,0,99,4.253,4.249,4.246,4.239,0,0,6.12,87.71,6,P-GPS,
0.289298087278773,36.8890183892948,5634.2293046392,10.498688,0.223694,0.297906505596,8800,2018-04-14 13:03:22,15,0,16.997,5634.2293046392,10.498688,0.3131716,0.72995737244,0,-0.223694,-6.039738,267.1, 3.7, 2.1,0,0,1024,1024,1435,1024,267.6,0,99,4.253,4.249,4.246,4.239,0,0,6.12,87.71,6,P-GPS,
0.289298046557457,36.889018266959,5635.2135566392,11.48294,0,0.318678815972,8900,2018-04-14 13:03:22,15,0,16.997,5635.2135566392,11.48294,0.3131716,0.72995737244,0,0,-6.039738,267.1, 3.5, 2.4,0,0,1024,1024,1468,1024,267.6,0,99,4.253,4.249,4.246,4.239,0,0,6.12,87.71,6,P-GPS,
0.289298002322023,36.889018154908,5636.1978086392,12.467192,0,0.3408464676,9000,2018-04-14 13:03:22,15,0,16.997,5636.1978086392,12.467192,0.3131716,0.72995737244,0,0,-6.039738,267.1, 3.1, 2.4,0,0,1024,1024,1464,1024,267.6,0,99,4.253,4.249,4.246,4.239,0,0,6.12,87.71,6,P-GPS,
0.289297953846451,36.8890180475623,5636.8539766392,13.12336,0,0.36470801692,9100,2018-04-14 13:03:22,15,0,16.997,5636.8539766392,13.12336,0.3131716,0.72995737244,0,0,-5.816044,267.1, 3.3, 2.5,0,0,1024,1024,1459,1024,267.6,0,99,4.253,4.249,4.246,4.239,0,0,6.12,87.71,6,P-GPS,
0.289297897401503,36.8890179774423,5637.8382286392,14.107612,0,0.37826772864,9200,2018-04-14 13:03:22,15,0,16.997,5637.8382286392,14.107612,0.3131716,0.72995737244,0,0,-6.039738,267.1, 3.4, 2.9,0,0,1024,1024,1451,1024,267.6,0,99,4.253,4.249,4.246,4.239,0,0,6.12,87.71,6,P-GPS,
0.289297841546586,36.8890179224446,5638.8224806392,15.091864,0,0.38900591796,9300,2018-04-14 13:03:22,15,0,16.997,5638.8224806392,15.091864,0.3131716,0.72995737244,0,0,-6.039738,267.1, 3, 2.7,0,0,1024,1024,1446,1024,267.6,0,99,4.253,4.249,4.246,4.239,0,0,6.12,87.71,6,P-GPS,
0.289297782089959,36.8890178935421,5639.4786486392,15.748032,0,0.39200788656,9400,2018-04-14 13:03:22,15,0,16.488,5639.4786486392,15.748032,0.3131716,0.72995737244,0,0,-6.039738,267.1, 3, 2.7,0,0,1024,1024,1442,1024,267.6,0,99,4.253,4.249,4.246,4.239,0,0,18.046,87.71,6,P-GPS,
0.289297720301705,36.8890178538438,5640.4629006392,16.732284,0,0.40008859548,9500,2018-04-14 13:03:22,15,0,16.488,5640.4629006392,16.732284,0.3131716,0.72995737244,0,0,-5.816044,267.1, 3.3, 2.8,0,0,1024,1024,1491,1024,267.6,0,99,4.253,4.249,4.246,4.239,0,0,18.046,87.71,6,P-GPS,
0.289297657363108,36.889017811167,5641.4471526392,17.716536,0,0.41076772968,9600,2018-04-14 13:03:22,15,0,16.488,5641.4471526392,17.716536,0.3131716,0.72995737244,0,0,-5.816044,267.2, 3.3, 2.7,0,0,1024,1024,1458,1024,267.6,0,99,4.253,4.249,4.246,4.239,0,0,18.046,87.71,6,P-GPS,
0.289297589105249,36.8890177658272,5642.1033206392,18.372704,0,0.4237532944,9700,2018-04-14 13:03:23,15,0,16.488,5642.1033206392,18.372704,0.3131716,0.72995737244,0,0,-6.039738,267.2, 3.3, 3.6,0,0,1024,1024,1467,1024,267.6,0,99,4.253,4.249,4.246,4.239,0,0,18.046,87.71,6,P-GPS,
0.289297533674288,36.8890177419882,5643.0875726392,19.356956,0,0.43080053872,9800,2018-04-14 13:03:23,15,0,16.488,5643.0875726392,19.356956,0.3131716,0.72995737244,0,0,-6.039738,267.2, 2.7, 4,0,0,1024,1024,1468,1024,267.6,0,99,4.253,4.249,4.246,4.239,0,0,18.046,87.71,6,P-GPS,
0.289297501699281,36.8890177115082,5644.0718246392,20.341208,0,0.4414206178,9900,2018-04-14 13:03:23,15,0,16.488,5644.0718246392,20.341208,0.3131716,0.72995737244,0,0,-6.039738,267.2, 2.5, 4,0,0,1024,1024,1509,1024,267.6,0,99,4.253,4.249,4.246,4.239,0,0,18.046,87.71,6,P-GPS,
0.289297474383609,36.8890176667122,5645.0560766392,21.32546,0,0.457595159,10000,2018-04-14 13:03:23,15,0,16.488,5645.0560766392,21.32546,0.3131716,0.72995737244,0,0,-6.039738,267.2, 2.7, 3.2,0,0,1024,1024,1540,1024,267.6,0,99,4.253,4.249,4.246,4.239,0,0,18.046,87.71,6,P-GPS,
0.289297456528382,36.8890176057475,5646.0403286392,22.309712,0,0.47984909672,10100,2018-04-14 13:03:23,15,0,16.488,5646.0403286392,22.309712,0.3131716,0.72995737244,0,0,-6.263432,267.1, 3, 2.5,0,0,1024,1024,1556,1024,267.5,0,99,4.253,4.249,4.246,4.239,0,0,18.046,87.71,6,P-GPS,
0.289297452482716,36.8890175674634,5646.6964966392,22.96588,0,0.49382875596,10200,2018-04-14 13:03:23,15,0,16.488,5646.6964966392,22.96588,0.3131716,0.72995737244,0,0,-6.71082,267.1, 3, 2.3,0,0,1024,1024,1528,1024,267.5,0,99,4.253,4.249,4.246,4.239,0,0,18.046,87.71,6,P-GPS,
0.289297445084033,36.8890175285487,5648.0088326392,24.278216,0,0.50806103988,10300,2018-04-14 13:03:23,15,0,16.488,5648.0088326392,24.278216,0.3131716,0.72995737244,0,0,-7.158208,267.1, 3, 2.7,0,0,1024,1024,1511,1024,267.5,0,99,4.253,4.249,4.246,4.239,0,0,18.046,87.71,6,P-GPS,
0.289297406844759,36.8890174661537,5648.9930846392,25.262468,0,0.53122377028,10400,2018-04-14 13:03:23,15,0,16.488,5648.9930846392,25.262468,0.3131716,0.72995737244,0,0,-7.381902,267.2, 2.9, 3.3,0,0,1024,1024,1525,1024,267.5,0,99,4.253,4.249,4.246,4.239,0,0,18.046,87.71,6,P-GPS,
0.289297369262205,36.8890173837451,5649.9773366392,26.24672,0,0.56197180276,10500,2018-04-14 13:03:23,15,0,16.488,5649.9773366392,26.24672,0.3131716,0.72995737244,0,0,-7.381902,267.2, 2.9, 3.3,0,0,1024,1024,1520,1024,267.5,0,99,4.253,4.249,4.246,4.239,0,0,18.046,87.71,6,P-GPS,
0.289297321203769,36.8890173255557,5651.2896726392,27.559056,0,0.58450133104,10600,2018-04-14 13:03:23,15,0,16.488,5651.2896726392,27.559056,0.3131716,0.72995737244,0,0,-7.381902,267.2, 3.2, 2.9,0,0,1024,1024,1520,1024,267.5,0,99,4.253,4.249,4.246,4.239,0,0,18.046,87.71,6,P-GPS,
0.289297281001355,36.8890172664798,5652.2739246392,28.543308,0,0.60743440264,10700,2018-04-14 13:03:23,15,0,16.488,5652.2739246392,28.543308,0.3131716,0.72995737244,0,0,-7.605596,267.1, 3.4, 2.6,0,0,1024,1024,1575,1024,267.5,0,99,4.253,4.249,4.246,4.239,0,0,18.046,87.71,6,P-GPS,
0.289297243500732,36.889017195847,5653.5862606392,29.855644,0,0.63466537464,10800,2018-04-14 13:03:24,15,0,16.488,5653.5862606392,29.855644,0.3131716,0.72995737244,0,0,-7.605596,267.2, 3.5, 3.7,0,0,1024,1024,1575,1024,267.5,0,99,4.253,4.249,4.246,4.239,0,0,18.046,87.71,6,P-GPS,
0.289297229789844,36.8890171123397,5654.5705126392,30.839896,0,0.66552495568,10900,2018-04-14 13:03:24,15,0,16.488,5654.5705126392,30.839896,0.3131716,0.72995737244,0,0,-7.82929,267.2, 3.5, 4,0,0,1024,1024,1584,1024,267.5,0,99,4.253,4.249,4.246,4.239,0,0,18.046,87.71,6,P-GPS,
0.289297241175721,36.8890170502455,5655.8828486392,32.152232,0,0.68748033696,11000,2018-04-14 13:03:24,15,0,16.488,5655.8828486392,32.152232,0.3131716,0.72995737244,0,0,-8.052984,267.2, 3.3, 3,0,0,1024,1024,1596,1024,267.5,0,99,4.253,4.249,4.246,4.239,0,0,18.046,87.71,6,P-GPS,
0.289297265992699,36.8890169873671,5656.8671006392,33.136484,0,0.70926511456,11100,2018-04-14 13:03:24,15,0,16.488,5656.8671006392,33.136484,0.3131716,0.72995737244,0,0,-8.276678,267.2, 3.4, 2.3,0,0,1024,1024,1596,1024,267.5,0,99,4.253,4.249,4.246,4.239,0,0,18.046,87.71,6,P-GPS,
0.289297285963733,36.8890169096087,5658.1794366392,34.44882,0,0.73679792384,11200,2018-04-14 13:03:24,15,0,16.488,5658.1794366392,34.44882,0.3131716,0.73679792384,0,0,-8.500372,267.3, 3.6, 2.4,0,0,1024,1024,1615,1024,267.5,0,99,4.253,4.249,4.246,4.239,0,0,18.046,87.71,6,P-GPS,
0.289297300762014,36.8890168249966,5659.4917726392,35.761156,0,0.76709976208,11300,2018-04-14 13:03:24,15,0,16.488,5659.4917726392,35.761156,0.3131716,0.76709976208,0,0,-8.724066,267.2, 3.7, 2.8,0,0,1024,1024,1633,1024,267.5,0,99,4.253,4.249,4.246,4.239,0,0,18.046,87.71,6,P-GPS,
0.289297328553955,36.8890167609601,5660.8041086392,37.073492,0,0.78967522212,11400,2018-04-14 13:03:24,15,0,16.702,5660.8041086392,37.073492,0.3131716,0.78967522212,0,0,-9.171454,267.3, 3.7, 2.9,0,0,1024,1024,1636,1024,267.5,0,99,4.159,4.138,4.151,4.166,0,0,15.046,87.71,6,P-GPS,
0.289297364311125,36.8890166971906,5662.1164446392,38.385828,0,0.8121883462,11500,2018-04-14 13:03:24,15,0,16.702,5662.1164446392,38.385828,0.3131716,0.8121883462,0,0,-9.395148,267.3, 4.2, 2.7,0,0,1024,1024,1622,1024,267.5,0,99,4.159,4.138,4.151,4.166,0,0,15.046,87.71,6,P-GPS,
0.289297388494943,36.8890166556886,5663.7568646392,40.026248,0,0.82695868788,11600,2018-04-14 13:03:24,15,0,16.702,5663.7568646392,40.026248,0.3131716,0.82695868788,0,0,-9.618842,267.3, 4.4, 2.5,0,0,1024,1024,1629,1024,267.5,0,99,4.159,4.138,4.151,4.166,0,0,15.046,87.71,6,P-GPS,
0.289297399858123,36.8890166246886,5665.0692006392,41.338584,0,0.83812994808,11700,2018-04-14 13:03:24,15,0,16.702,5665.0692006392,41.338584,0.3131716,0.83812994808,0,0,-9.618842,267.3, 4.3, 2.3,0,0,1024,1024,1629,1024,267.5,0,99,4.159,4.138,4.151,4.166,0,0,15.046,87.71,6,P-GPS,
0.289297404662542,36.8890166210076,5666.3815366392,42.65092,0,0.83942259904,11800,2018-04-14 13:03:25,15,0,16.702,5666.3815366392,42.65092,0.3131716,0.83942259904,0,0,-9.842536,267.3, 4.1, 3,0,0,1024,1024,1629,1024,267.5,0,99,4.159,4.138,4.151,4.166,0,0,15.046,87.71,6,P-GPS,
0.289297405810595,36.8890166239619,5668.0219566392,44.29134,0,0.83833336016,11900,2018-04-14 13:03:25,15,0,16.702,5668.0219566392,44.29134,0.3131716,0.83942259904,0,0,-9.842536,267.3, 3.5, 3.6,0,0,1024,1024,1627,1024,267.5,0,99,4.159,4.138,4.151,4.166,0,0,15.046,87.71,6,P-GPS,
0.289297411817111,36.8890166554707,5669.3342926392,45.603676,0,0.82678480336,12000,2018-04-14 13:03:25,15,0,16.702,5669.3342926392,45.603676,0.3131716,0.83942259904,0,0,-9.842536,267.3, 3.1, 3.3,0,0,1024,1024,1628,1024,267.5,-1.3,99,4.159,4.138,4.151,4.166,0,0,15.046,87.71,6,P-GPS,
0.289297425331008,36.8890166755485,5670.9747126392,47.244096,0,0.81935370076,12100,2018-04-14 13:03:25,15,0,16.702,5670.9747126392,47.244096,0.3131716,0.83942259904,0,0,-9.842536,267.2, 3, 2.9,0,0,1024,1024,1628,1024,267.5,-1.3,99,4.159,4.138,4.151,4.166,0,0,15.046,87.71,6,P-GPS,
0.289297411918481,36.8890166927701,5672.2870486392,48.556432,0,0.81317915988,12200,2018-04-14 13:03:25,15,0,16.702,5672.2870486392,48.556432,0.3131716,0.83942259904,0,0,-9.618842,267.2, 3.4, 3,0,0,1024,1024,1635,1024,267.5,-3.9,99,4.159,4.138,4.151,4.166,0,0,15.046,87.71,6,P-GPS,
0.289297398122304,36.889016693393,5673.9274686392,50.196852,0,0.81309385804,12300,2018-04-14 13:03:25,15,0,16.702,5673.9274686392,50.196852,0.3131716,0.83942259904,0,0,-9.618842,267.3, 3.5, 3.1,0,0,1024,1024,1637,1024,267.5,-7.8,99,4.159,4.138,4.151,4.166,0,0,15.046,87.71,6,P-GPS,
0.289297380761361,36.8890166970825,5675.2398046392,51.509188,0,0.81196852992,12400,2018-04-14 13:03:25,15,0,16.381,5675.2398046392,51.509188,0.3131716,0.83942259904,0,0,-9.842536,267.3, 3.6, 3.2,0,0,1024,1024,1633,1024,267.5,-11.7,99,4.13,4.137,4.146,4.131,0,0,17.6,87.71,6,P-GPS,
0.289297387034941,36.8890166922097,5676.8802246392,53.149608,0,0.81366144336,12500,2018-04-14 13:03:25,15,0,16.381,5676.8802246392,53.149608,0.3131716,0.83942259904,0,0,-10.06623,267.2, 3.7, 2.8,0,0,1024,1024,1632,1024,267.5,-13.3,99,4.13,4.137,4.146,4.131,0,0,17.6,87.71,6,P-GPS,
0.289297393970993,36.8890167239995,5678.1925606392,54.461944,0,0.80198165296,12600,2018-04-14 13:03:25,15,0,16.381,5678.1925606392,54.461944,0.3131716,0.83942259904,0,0,-9.842536,267.2, 3.7, 2.5,0,0,1024,1024,1638,1024,267.5,-13.3,99,4.13,4.137,4.146,4.131,0,0,17.6,87.71,6,P-GPS,
0.289297404976323,36.8890167544639,5679.8329806392,56.102364,0,0.7907480568,12700,2018-04-14 13:03:25,15,0,16.381,5679.8329806392,56.102364,0.3131716,0.83942259904,0,0,-9.842536,267.3, 3.7, 2.5,0,0,1024,1024,1639,1024,267.5,-13.3,99,4.13,4.137,4.146,4.131,0,0,17.6,87.71,6,P-GPS,
0.289297399151786,36.8890167931093,5681.1453166392,57.4147,0,0.77671918496,12800,2018-04-14 13:03:26,15,0,16.381,5681.1453166392,57.4147,0.3131716,0.83942259904,0,0,-9.842536,267.3, 3.8, 2.5,0,0,1024,1024,1641,1024,267.5,-13.3,99,4.13,4.137,4.146,4.131,0,0,17.6,87.71,6,P-GPS,
0.289297396039524,36.889016821284,5682.7857366392,59.05512,0,0.76648296416,12900,2018-04-14 13:03:26,15,0,16.381,5682.7857366392,59.05512,0.3131716,0.83942259904,0,0,-10.06623,267.2, 3.5, 2.2,0,0,1024,1024,1649,1024,267.5,-13.3,99,4.13,4.137,4.146,4.131,0,0,17.6,87.71,6,P-GPS,
0.289297400241927,36.8890168491592,5684.4261566392,60.69554,0,0.7562664284,13000,2018-04-14 13:03:26,15,0,16.381,5684.4261566392,60.69554,0.3131716,0.83942259904,0,0,-10.06623,267.2, 3.5, 2.3,0,0,1024,1024,1652,1024,267.5,-13.3,99,4.13,4.137,4.146,4.131,0,0,17.6,87.71,6,P-GPS,
0.289297404056557,36.8890168621161,5685.7384926392,62.007876,0,0.75149936788,13100,2018-04-14 13:03:26,15,0,16.381,5685.7384926392,62.007876,0.3131716,0.83942259904,0,0,-10.289924,267.2, 3.7, 2.6,0,0,1024,1024,1650,1024,267.5,-13.3,99,4.13,4.137,4.146,4.131,0,0,17.6,87.71,6,P-GPS,
0.289297401484023,36.8890169001098,5687.3789126392,63.648296,0,0.73767390812,13200,2018-04-14 13:03:26,15,0,16.381,5687.3789126392,63.648296,0.3131716,0.83942259904,0,0,-10.513618,267.2, 3.8, 2.4,0,0,1024,1024,1649,1024,267.5,-13.3,99,4.13,4.137,4.146,4.131,0,0,17.6,87.71,6,P-GPS,
0.289297393824026,36.8890169389244,5689.0193326392,65.288716,0,0.72361878956,13300,2018-04-14 13:03:26,15,0,16.381,5689.0193326392,65.288716,0.3131716,0.83942259904,0,0,-10.513618,267.2, 3.9, 2.3,0,0,1024,1024,1649,1024,267.5,-13.4,99,4.13,4.137,4.146,4.131,0,0,17.6,87.71,6,P-GPS,
0.289297346148275,36.889017008327,5690.6597526392,66.929136,0,0.69919949744,13400,2018-04-14 13:03:26,15,0,16.301,5690.6597526392,66.929136,0.3131716,0.83942259904,0,0,-10.289924,267.2, 4.1, 2.7,0,0,1024,1024,1644,1024,267.5,-13.4,99,4.13,4.137,4.146,4.131,0,0,16.534,87.71,6,P-GPS,
0.289297285389706,36.8890170766912,5692.3001726392,68.569556,0,0.67612863056,13500,2018-04-14 13:03:26,15,0,16.301,5692.3001726392,68.569556,0.3131716,0.83942259904,0,0,-10.289924,267.2, 3.9, 3.4,0,0,1024,1024,1640,1024,267.4,-13.7,99,4.13,4.137,4.146,4.131,0,0,16.534,87.71,6,P-GPS,
0.289297239024547,36.889017167702,5693.6125086392,69.881892,0,0.64505907576,13600,2018-04-14 13:03:26,15,0,16.301,5693.6125086392,69.881892,0.3131716,0.83942259904,0,0,-10.06623,267.2, 3.6, 3.5,0,0,1024,1024,1637,1024,267.4,-14.1,99,4.13,4.137,4.146,4.131,0,0,16.534,87.71,6,P-GPS,
0.28929721785681,36.8890172463755,5695.2529286392,71.522312,0,0.617700151,13700,2018-04-14 13:03:26,15,0,16.301,5695.2529286392,71.522312,0.3131716,0.83942259904,0,0,-10.06623,267.2, 3.4, 3.4,0,0,1024,1024,1637,1024,267.4,-14.6,99,4.13,4.137,4.146,4.131,0,0,16.534,87.71,6,P-GPS,
0.289297198016765,36.8890173563862,5696.8933486392,73.162732,0,0.5792158978,13800,2018-04-14 13:03:27,15,0,16.301,5696.8933486392,73.162732,0.3131716,0.83942259904,0,0,-10.06623,267.2, 3.5, 3.3,0,0,1024,1024,1635,1024,267.4,-15.2,99,4.13,4.137,4.146,4.131,0,0,16.534,87.71,6,P-GPS,
0.289297190499765,36.8890174557287,5698.5337686392,74.803152,0,0.54403545048,13900,2018-04-14 13:03:27,15,0,16.301,5698.5337686392,74.803152,0.3131716,0.83942259904,0,0,-10.06623,267.2, 3.4, 3.1,0,0,1024,1024,1629,1024,267.4,-15.7,99,4.13,4.137,4.146,4.131,0,0,16.534,87.71,6,P-GPS,
0.289297202955326,36.8890175534321,5699.8461046392,76.115488,0,0.5081693076,14000,2018-04-14 13:03:27,15,0,16.301,5699.8461046392,76.115488,0.3131716,0.83942259904,0,0,-9.842536,267.2, 3.1, 2.8,0,0,1024,1024,1620,1024,267.4,-16.3,99,4.13,4.137,4.146,4.131,0,0,16.534,87.71,6,P-GPS,
0.289297228463375,36.8890176301818,5701.4865246392,77.755908,0,0.47892718068,14100,2018-04-14 13:03:27,15,0,16.301,5701.4865246392,77.755908,0.3131716,0.83942259904,0,0,-9.842536,267.2, 3, 2.5,0,0,1024,1024,1621,1024,267.4,-16.6,99,4.13,4.137,4.146,4.131,0,0,16.534,87.71,6,P-GPS,
0.28929725376166,36.8890177493009,5702.7988606392,79.068244,0,0.4345144496,14200,2018-04-14 13:03:27,15,0,16.301,5702.7988606392,79.068244,0.3131716,0.83942259904,0,0,-9.618842,267.2, 3, 2.3,0,0,1024,1024,1619,1024,267.4,-16.6,99,4.13,4.137,4.146,4.131,0,0,16.534,87.71,6,P-GPS,
0.289297271911686,36.8890178598557,5704.4392806392,80.708664,0,0.39364502572,14300,2018-04-14 13:03:27,15,0,16.301,5704.4392806392,80.708664,0.3131716,0.83942259904,0,0,-9.618842,267.2, 2.9, 2.5,0,0,1024,1024,1615,1024,267.4,-16.6,99,4.13,4.137,4.146,4.131,0,0,16.534,87.71,6,P-GPS,
0.289297273618397,36.8890179604048,5705.7516166392,82.021,0,0.35750657312,14400,2018-04-14 13:03:27,15,0,16.408,5705.7516166392,82.021,0.3131716,0.83942259904,0,0,-9.618842,267.2, 3, 2.3,0,0,1024,1024,1609,1024,267.4,-16.7,99,4.133,4.133,4.139,4.13,0,0,16.534,87.71,6,P-GPS,
0.289297268628946,36.8890180344983,5707.3920366392,83.66142,0,0.331446861,14500,2018-04-14 13:03:27,15,0,16.408,5707.3920366392,83.66142,0.3131716,0.83942259904,0,0,-9.618842,267.2, 2.9, 2.7,0,0,1024,1024,1604,1024,267.4,-17.4,99,4.133,4.133,4.139,4.13,0,0,16.534,87.71,6,P-GPS,
0.289297254858111,36.8890181242921,5708.7043726392,84.973756,0,0.30082186002,14600,2018-04-14 13:03:27,15,0,16.408,5708.7043726392,84.973756,0.3131716,0.83942259904,0,0,-9.395148,267.3, 3.1, 3,0,0,1024,1024,1603,1024,267.4,-18.7,99,4.133,4.133,4.139,4.13,0,0,16.534,87.71,6,P-GPS,
0.289297260148417,36.8890181986077,5710.3447926392,86.614176,0,0.274175533708,14700,2018-04-14 13:03:28,15,0,16.408,5710.3447926392,86.614176,0.3131716,0.83942259904,0,0,-9.618842,267.3, 3.6, 2.8,0,0,1024,1024,1604,1024,267.4,-20.8,99,4.133,4.133,4.139,4.13,0,0,16.534,87.71,6,P-GPS,
0.289297298738367,36.8890183081498,5711.6571286392,87.926512,0,0.2318897712,14800,2018-04-14 13:03:28,15,0,16.408,5711.6571286392,87.926512,0.3131716,0.83942259904,0,0,-9.395148,267.3, 2.9, 2.6,0,0,1024,1024,1597,1024,267.4,-22.9,99,4.133,4.133,4.139,4.13,0,0,16.534,87.71,6,P-GPS,
0.289297357068722,36.8890184141664,5713.2975486392,89.566932,0,0.189225071672,14900,2018-04-14 13:03:28,15,0,16.408,5713.2975486392,89.566932,0.3131716,0.83942259904,0,0,-9.395148,267.2, 2.2, 2.2,0,0,1024,1024,1594,1024,267.4,-22.9,99,4.133,4.133,4.139,4.13,0,0,16.534,87.71,6,P-GPS,
0.289297405505873,36.8890185299522,5714.6098846392,90.879268,0,0.144423561052,15000,2018-04-14 13:03:28,15,0,16.408,5714.6098846392,90.879268,0.3131716,0.83942259904,0,0,-9.171454,267.2, 1.9, 1.8,0,0,1024,1024,1586,1024,267.4,-25.1,99,4.133,4.133,4.139,4.13,0,0,16.534,87.71,6,P-GPS,
0.289297436807162,36.8890186165412,5715.9222206392,92.191604,0,0.11161253638,15100,2018-04-14 13:03:28,15,0,16.408,5715.9222206392,92.191604,0.3131716,0.83942259904,0,0,-9.171454,267.2, 2, 1.9,0,0,1024,1024,1584,1024,267.4,-26.2,99,4.133,4.133,4.139,4.13,0,0,16.534,87.71,6,P-GPS,
0.289297431958622,36.8890187038228,5717.2345566392,93.50394,0,0.080260173172,15200,2018-04-14 13:03:28,15,0,16.408,5717.2345566392,93.50394,0.3131716,0.83942259904,0,0,-8.94776,267.2, 2.4, 2.3,0,0,1024,1024,1584,1024,267.4,-26.2,99,4.133,4.133,4.139,4.13,0,0,16.534,87.71,6,P-GPS,
0.289297421289973,36.8890187677044,5718.8749766392,95.14436,0,0.058387140976,15300,2018-04-14 13:03:28,15,0,16.408,5718.8749766392,95.14436,0.3131716,0.83942259904,0,0,-8.94776,267.2, 2.6, 2.6,0,0,1024,1024,1584,1024,267.4,-26.2,99,4.133,4.133,4.139,4.13,0,0,16.534,87.71,6,P-GPS,
0.289297424958247,36.8890188570865,5720.1873126392,96.456696,0,0.027990650502,15400,2018-04-14 13:03:28,15,0,16.434,5720.1873126392,96.456696,0.3131716,0.83942259904,0,0,-8.94776,267.2, 2.4, 2.7,0,0,1024,1024,1584,1024,267.4,-26.2,98,4.14,4.137,4.138,4.133,0,0,15.576,87.71,6,P-GPS,
0.289297444248387,36.8890189343404,5721.4996486392,97.769032,0,0.0098047575316,15500,2018-04-14 13:03:28,15,0,16.434,5721.4996486392,97.769032,0.3131716,0.83942259904,0,0,-8.94776,267.2, 2.2, 2.8,0,0,1024,1024,1585,1024,267.4,-26.2,98,4.14,4.137,4.138,4.133,0,0,15.576,87.71,6,P-GPS,
0.289297465074659,36.8890190107721,5722.8119846392,99.081368,0,0.0327970154852,15600,2018-04-14 13:03:28,15,0,16.434,5722.8119846392,99.081368,0.3131716,0.83942259904,0,0,-8.94776,267.2, 2.1, 2.3,0,0,1024,1024,1584,1024,267.4,-26.2,98,4.14,4.137,4.138,4.133,0,0,15.576,87.71,6,P-GPS,
0.289297485445934,36.8890190618172,5724.1243206392,100.393704,0,0.05182250822,15700,2018-04-14 13:03:28,15,0,16.434,5724.1243206392,100.393704,0.3131716,0.83942259904,0,0,-8.94776,267.2, 2.2, 2.3,0,0,1024,1024,1579,1024,267.4,-26.2,98,4.14,4.137,4.138,4.133,0,0,15.576,87.71,6,P-GPS,
0.289297484658785,36.8890191366017,5725.7647406392,102.034124,0,0.078940947408,15800,2018-04-14 13:03:29,15,0,16.434,5725.7647406392,102.034124,0.3131716,0.83942259904,0,0,-8.94776,267.2, 2.2, 2.8,0,0,1024,1024,1580,1024,267.4,-26.2,98,4.14,4.137,4.138,4.133,0,0,15.576,87.71,6,P-GPS,
0.289297488467614,36.8890191974535,5727.0770766392,103.34646,0,0.101183402188,15900,2018-04-14 13:03:29,15,0,16.434,5727.0770766392,103.34646,0.3131716,0.83942259904,0,0,-8.724066,267.2, 2.4, 2.8,0,0,1024,1024,1579,1024,267.4,-26.2,98,4.14,4.137,4.138,4.133,0,0,15.576,87.71,6,P-GPS,
0.28929748783018,36.8890192623516,5728.3894126392,104.658796,0,0.124792326828,16000,2018-04-14 13:03:29,15,0,16.434,5728.3894126392,104.658796,0.3131716,0.83942259904,0,0,-8.724066,267.2, 2.2, 2.6,0,0,1024,1024,1575,1024,267.4,-26.2,98,4.14,4.137,4.138,4.133,0,0,15.576,87.71,6,P-GPS,
0.289297493547952,36.8890193090982,5729.7017486392,105.971132,0,0.1419455426,16100,2018-04-14 13:03:29,15,0,16.434,5729.7017486392,105.971132,0.3131716,0.83942259904,0,0,-8.724066,267.2, 2, 2.6,0,0,1024,1024,1575,1024,267.4,-26.2,98,4.14,4.137,4.138,4.133,0,0,15.576,87.71,6,P-GPS,
0.289297519291616,36.8890193910649,5731.0140846392,107.283468,0,0.172569231244,16200,2018-04-14 13:03:29,15,0,16.434,5731.0140846392,107.283468,0.3131716,0.83942259904,0,0,-8.500372,267.2, 1.7, 2.4,0,0,1024,1024,1578,1024,267.4,-26.2,98,4.14,4.137,4.138,4.133,0,0,15.576,87.71,6,P-GPS,
0.289297557523919,36.8890194564046,5732.3264206392,108.595804,0,0.198111554896,16300,2018-04-14 13:03:29,15,0,16.434,5732.3264206392,108.595804,0.3131716,0.83942259904,0,0,-8.500372,267.2, 1.7, 2.3,0,0,1024,1024,1581,1024,267.4,-26.2,98,4.14,4.137,4.138,4.133,0,0,15.576,87.71,6,P-GPS,
0.289297581915363,36.88901952694,5733.6387566392,109.90814,0,0.225010177804,16400,2018-04-14 13:03:29,15,0,16.434,5733.6387566392,109.90814,0.3131716,0.83942259904,0,0,-8.724066,267.2, 1.9, 2.5,0,0,1024,1024,1582,1024,267.4,-26.2,98,4.139,4.143,4.143,4.134,0,0,14.922,87.71,6,P-GPS,
0.289297605676804,36.889019565436,5734.9510926392,111.220476,0,0.240492461764,16500,2018-04-14 13:03:29,15,0,16.434,5734.9510926392,111.220476,0.3131716,0.83942259904,0,0,-8.724066,267.2, 2, 2.4,0,0,1024,1024,1582,1024,267.4,-26.2,98,4.139,4.143,4.143,4.134,0,0,14.922,87.71,6,P-GPS,
0.289297643747128,36.8890196115125,5736.2634286392,112.532812,0,0.260035441392,16600,2018-04-14 13:03:29,15,0,16.434,5736.2634286392,112.532812,0.3131716,0.83942259904,0,0,-8.500372,267.2, 2.1, 2.3,0,0,1024,1024,1579,1024,267.4,-26.2,98,4.139,4.143,4.143,4.134,0,0,14.922,87.71,6,P-GPS,
0.289297685699407,36.8890196469172,5737.5757646392,113.845148,0,0.276581045596,16700,2018-04-14 13:03:30,15,0,16.434,5737.5757646392,113.845148,0.3131716,0.83942259904,0,0,-8.500372,267.2, 2, 2.3,0,0,1024,1024,1582,1024,267.4,-26.2,98,4.139,4.143,4.143,4.134,0,0,14.922,87.71,6,P-GPS,
0.289297737370393,36.8890197024615,5738.8881006392,115.157484,0,0.301662083144,16800,2018-04-14 13:03:30,15,0,16.434,5738.8881006392,115.157484,0.3131716,0.83942259904,0,0,-8.500372,267.2, 1.8, 2.2,0,0,1024,1024,1581,1024,267.4,-26.2,98,4.139,4.143,4.143,4.134,0,0,14.922,87.71,6,P-GPS,
0.28929778742866,36.8890197389159,5740.2004366392,116.46982,0,0.320455390832,16900,2018-04-14 13:03:30,15,0,16.434,5740.2004366392,116.46982,0.3131716,0.83942259904,0,0,-8.724066,267.2, 1.6, 2.1,0,0,1024,1024,1581,1024,267.4,-26.2,98,4.139,4.143,4.143,4.134,0,0,14.922,87.71,6,P-GPS,
0.289297842176998,36.8890197845475,5741.5127726392,117.782156,0,0.34346457792,17000,2018-04-14 13:03:30,15,0,16.434,5741.5127726392,117.782156,0.3131716,0.83942259904,0,0,-8.94776,267.2, 1.6, 2.2,0,0,1024,1136,1580,1024,267.4,-26.2,98,4.139,4.143,4.143,4.134,0,0,14.922,87.71,6,P-GPS,
0.289297893916455,36.8890198025014,5742.8251086392,119.094492,0,0.35729003768,17100,2018-04-14 13:03:30,15,0,16.434,5742.8251086392,119.094492,0.3131716,0.83942259904,0,0,-8.724066,267.2, 1.8, 1.8,0,0,1024,1195,1577,1024,267.4,-26.2,98,4.139,4.143,4.143,4.134,0,0,14.922,87.71,6,P-GPS,
0.289297942703492,36.8890198347987,5744.1374446392,120.406828,0,0.37580709864,17200,2018-04-14 13:03:30,15,0,16.434,5744.1374446392,120.406828,0.3131716,0.83942259904,0,0,-8.724066,267.2, 2.2, 2.5,0,0,1024,1222,1576,1024,267.4,-26.2,98,4.139,4.143,4.143,4.134,0,0,14.922,87.71,6,P-GPS,
0.289297976431061,36.8890198511329,5745.4497806392,121.719164,0,0.38685696776,17300,2018-04-14 13:03:30,15,0,16.434,5745.4497806392,121.719164,0.3131716,0.83942259904,0,0,-8.500372,267.3, 2.3, 4.3,0,0,1024,1235,1576,1024,267.4,-26.2,98,4.139,4.143,4.143,4.134,0,0,14.922,87.71,6,P-GPS,
0.289298038327377,36.8890198773791,5746.7621166392,123.0315,0,0.4063812466,17400,2018-04-14 13:03:30,15,0,16.434,5746.7621166392,123.0315,0.3131716,0.83942259904,0,0,-8.500372,267.2, 1.8, 5.8,0,0,1024,1252,1576,1024,267.4,-26.2,98,4.139,4.143,4.143,4.134,0,0,14.922,87.71,6,P-GPS,
0.289298140693123,36.8890198760874,5748.0744526392,124.343836,0.223694,0.42634187716,17500,2018-04-14 13:03:30,15,0,16.434,5748.0744526392,124.343836,0.3131716,0.83942259904,0.223694,0,-8.500372,267.3, 1.8, 7.5,0,0,1024,1268,1573,1024,267.4,-26.2,98,4.139,4.143,4.143,4.134,0,0,14.922,87.71,6,P-GPS,
0.289298303917537,36.8890198651882,5749.0587046392,125.328088,0.447388,0.46022967352,17600,2018-04-14 13:03:30,15,0,16.434,5749.0587046392,125.328088,0.447388,0.83942259904,0.447388,0,-8.500372,267.3, 1.6, 9.3,0,0,1024,1269,1572,1024,267.4,-26.2,98,4.139,4.143,4.143,4.134,0,0,14.922,87.71,6,P-GPS,
0.289298552854868,36.8890198269272,5750.3710406392,126.640424,0.671082,0.51581694564,17700,2018-04-14 13:03:30,15,0,16.434,5750.3710406392,126.640424,0.671082,0.83942259904,0.671082,0,-8.500372,267.3, 1.9, 11.1,0,0,1024,1206,1569,1024,267.4,-26.2,98,4.139,4.143,4.143,4.134,0,0,14.922,87.71,6,P-GPS,
0.289298929257917,36.8890197791784,5751.6833766392,127.95276,0.894776,0.61844490168,17800,2018-04-14 13:03:31,15,0,16.434,5751.6833766392,127.95276,0.894776,0.83942259904,0.894776,0,-8.500372,267.4, 2.3, 12.5,0,0,1024,1206,1569,1024,267.4,-26.2,98,4.139,4.143,4.143,4.134,0,0,14.922,87.71,6,P-GPS,
0.289299452223954,36.8890197125668,5752.9957126392,129.265096,1.342164,0.7795932008,17900,2018-04-14 13:03:31,15,0,16.434,5752.9957126392,129.265096,1.342164,0.83942259904,1.342164,0,-8.500372,267.4, 2.5, 12.7,0,0,1024,1031,1558,1024,267.4,-26.2,98,4.139,4.143,4.143,4.134,0,0,14.922,87.71,6,P-GPS,
0.289300212979353,36.8890196689174,5754.3080486392,130.577432,1.8119214,1.0381890096,18000,2018-04-14 13:03:31,15,0,16.434,5754.3080486392,130.577432,1.8119214,1.0381890096,1.789552,-0.223694,-8.500372,267.3, 2.4, 10.1,0,0,1024,1024,1570,1024,267.4,-26.2,98,4.139,4.143,4.143,4.134,0,0,14.922,87.71,6,P-GPS,
0.289301101559971,36.8890195977253,5755.6203846392,131.889768,2.0356154,1.34867458384,18100,2018-04-14 13:03:31,15,0,16.434,5755.6203846392,131.889768,2.0356154,1.34867458384,2.013246,-0.223694,-8.500372,267.2, 2.5, 4.9,0,0,1024,1024,1562,1024,267.4,-26.2,98,4.139,4.143,4.143,4.134,0,0,14.922,87.71,6,P-GPS,
0.289302061503281,36.8890195403556,5756.9327206392,133.202104,2.0356154,1.69127630084,18200,2018-04-14 13:03:31,15,0,16.434,5756.9327206392,133.202104,2.0356154,1.69127630084,2.013246,-0.223694,-8.500372,267.1, 2.8, -0.8,0,0,1024,1024,1500,1024,267.4,-26.2,98,4.139,4.143,4.143,4.134,0,0,14.922,87.71,6,P-GPS,
0.28930292423744,36.8890194762343,5758.2450566392,134.51444,1.789552,2.00116148136,18300,2018-04-14 13:03:31,15,0,16.434,5758.2450566392,134.51444,2.0356154,2.00116148136,1.789552,0,-8.724066,267.2, 3.1, -3.9,0,0,1024,1024,1499,1024,267.4,-26.2,98,4.139,4.143,4.143,4.134,0,0,14.922,87.71,6,P-GPS,
0.289303639851862,36.8890194877651,5759.5573926392,135.826776,1.342164,2.26144692276,18400,2018-04-14 13:03:31,15,0,16.408,5759.5573926392,135.826776,2.0356154,2.26144692276,1.342164,0,-8.276678,267.2, 2.7, -4.2,0,0,1024,1024,1514,1024,267.4,-26.2,98,4.134,4.131,4.135,4.129,0,0,14.912,87.71,6,P-GPS,
0.289304213084912,36.8890194999234,5760.8697286392,137.139112,1.11847,2.47016412104,18500,2018-04-14 13:03:31,15,0,16.408,5760.8697286392,137.139112,2.0356154,2.47016412104,1.11847,0,-7.82929,267.1, 2.6, -4.6,0,0,1024,1024,1517,1024,267.4,-26.2,98,4.134,4.131,4.135,4.129,0,0,14.912,87.71,6,P-GPS,
0.289304601159401,36.8890195376738,5762.1820646392,138.451448,0.671082,2.61241150092,18600,2018-04-14 13:03:31,15,0,16.408,5762.1820646392,138.451448,2.0356154,2.61241150092,0.671082,0,-7.82929,267.1, 2.9, -4.4,0,0,1024,1024,1501,1024,267.4,-26.2,98,4.134,4.131,4.135,4.129,0,0,14.912,87.71,6,P-GPS,
0.289304833148347,36.8890195709673,5763.1663166392,139.4357,0.447388,2.69778880024,18700,2018-04-14 13:03:31,15,0,16.408,5763.1663166392,139.4357,2.0356154,2.69778880024,0.447388,0,-7.605596,267.1, 2.6, -2.7,0,0,1024,1024,1505,1024,267.4,-26.2,98,4.134,4.131,4.135,4.129,0,0,14.912,87.71,6,P-GPS,
0.28930494938383,36.8890196438917,5764.4786526392,140.748036,0.223694,2.74246727936,18800,2018-04-14 13:03:32,15,0,16.408,5764.4786526392,140.748036,2.0356154,2.74246727936,0.223694,0,-7.381902,267.2, 2.3, -0.4,0,0,1024,1024,1514,1024,267.4,-26.2,98,4.134,4.131,4.135,4.129,0,0,14.912,87.71,6,P-GPS,
0.289305014745093,36.8890196927988,5765.4629046392,141.732288,0,2.767962687,18900,2018-04-14 13:03:32,15,0,16.408,5765.4629046392,141.732288,2.0356154,2.767962687,0,0,-7.381902,267.2, 2.5, 0.9,0,0,1024,1024,1519,1024,267.4,-26.2,98,4.134,4.131,4.135,4.129,0,0,14.912,87.71,6,P-GPS,
0.289305067576295,36.8890197500415,5766.7752406392,143.044624,0,2.78932423624,19000,2018-04-14 13:03:32,15,0,16.408,5766.7752406392,143.044624,2.0356154,2.78932423624,0,0,-7.381902,267.2, 2.4, 1.4,0,0,1024,1024,1509,1024,267.4,-26.2,98,4.134,4.131,4.135,4.129,0,0,14.912,87.71,6,P-GPS,
0.28930509622836,36.8890197992639,5767.7594926392,144.028876,0,2.80171596892,19100,2018-04-14 13:03:32,15,0,16.408,5767.7594926392,144.028876,2.0356154,2.80171596892,0,0,-7.158208,267.3, 2.2, 1.7,0,0,1024,1024,1501,1024,267.4,-26.2,98,4.134,4.131,4.135,4.129,0,0,14.912,87.71,6,P-GPS,
0.289305148912187,36.8890198446916,5768.7437446392,145.013128,0,2.82274287248,19200,2018-04-14 13:03:32,15,0,16.408,5768.7437446392,145.013128,2.0356154,2.82274287248,0,0,-6.934514,267.3, 2.1, 2.5,0,0,1024,1024,1503,1024,267.4,-26.2,98,4.134,4.131,4.135,4.129,0,0,14.912,87.71,6,P-GPS,
0.289305189847198,36.8890198824259,5769.7279966392,145.99738,0,2.839238936,19300,2018-04-14 13:03:32,15,0,16.408,5769.7279966392,145.99738,2.0356154,2.839238936,0,0,-6.71082,267.3, 2, 2.9,0,0,1024,1024,1501,1024,267.4,-26.2,98,4.134,4.131,4.135,4.129,0,0,14.912,87.71,6,P-GPS,
0.289305284190287,36.8890199010105,5770.7122486392,146.981632,0,2.87423565628,19400,2018-04-14 13:03:32,15,0,16.408,5770.7122486392,146.981632,2.0356154,2.87423565628,0,0,-6.71082,267.2, 1.9, 2.8,0,0,1024,1024,1513,1024,267.4,-26.2,98,4.132,4.132,4.137,4.132,0,0,14.95,87.71,6,P-GPS,
0.289305342631885,36.8890199103579,5771.6965006392,147.965884,0,2.8958170218,19500,2018-04-14 13:03:32,15,0,16.408,5771.6965006392,147.965884,2.0356154,2.8958170218,0,0,-6.71082,267.2, 2.1, 2.8,0,0,1024,1024,1521,1024,267.4,-26.2,98,4.132,4.132,4.137,4.132,0,0,14.95,87.71,6,P-GPS,
0.289305455843754,36.8890199257365,5772.6807526392,148.950136,0,2.937500094,19600,2018-04-14 13:03:32,15,0,16.408,5772.6807526392,148.950136,2.0356154,2.937500094,0,0,-6.71082,267.2, 2, 2.7,0,0,1024,1024,1516,1024,267.4,-26.2,98,4.132,4.132,4.137,4.132,0,0,14.95,87.71,6,P-GPS,
0.289305538984777,36.889019946148,5773.6650046392,149.934388,0,2.96852699788,19700,2018-04-14 13:03:32,15,0,16.408,5773.6650046392,149.934388,2.0356154,2.96852699788,0,0,-7.158208,267.2, 1.6, 2.1,0,0,1024,1024,1516,1024,267.4,-26.2,98,4.132,4.132,4.137,4.132,0,0,14.95,87.71,6,P-GPS,
0.289305660142639,36.8890199432665,5774.9773406392,151.246724,0,3.0122540334,19800,2018-04-14 13:03:33,15,0,16.408,5774.9773406392,151.246724,2.0356154,3.0122540334,0,0,-7.381902,267.2, 1.7, 2.2,0,0,1024,1024,1509,1024,267.4,-26.2,98,4.132,4.132,4.137,4.132,0,0,14.95,87.71,6,P-GPS,
0.289305716735139,36.8890199244758,5775.9615926392,152.230976,0,3.03190954584,19900,2018-04-14 13:03:33,15,0,16.408,5775.9615926392,152.230976,2.0356154,3.03190954584,0,0,-7.381902,267, 2, 3.1,0,0,1024,1024,1511,1024,267.4,-26.2,98,4.132,4.132,4.137,4.132,0,0,14.95,87.71,6,P-GPS,
0.289305815354521,36.8890198910089,5776.9458446392,153.215228,0,3.06619760468,20000,2018-04-14 13:03:33,15,0,16.408,5776.9458446392,153.215228,2.0356154,3.06619760468,0,0,-7.158208,267, 2, 3.1,0,0,1024,1024,1522,1024,267.4,-26.2,98,4.132,4.132,4.137,4.132,0,0,14.95,87.71,6,P-GPS,
0.289305875058978,36.8890198412186,5778.2581806392,154.527564,0,3.08580390452,20100,2018-04-14 13:03:33,15,0,16.408,5778.2581806392,154.527564,2.0356154,3.08580390452,0,0,-6.934514,267.1, 2.4, 3,0,0,1024,1024,1534,1024,267.3,-26.2,98,4.132,4.132,4.137,4.132,0,0,14.95,87.71,6,P-GPS,
0.289305986382666,36.8890198190379,5779.2424326392,155.511816,0,3.12532490316,20200,2018-04-14 13:03:33,15,0,16.408,5779.2424326392,155.511816,2.0356154,3.12532490316,0,0,-7.158208,267.2, 2.8, 2.7,0,0,1024,1024,1548,1024,267.4,-26.2,98,4.132,4.132,4.137,4.132,0,0,14.95,87.71,6,P-GPS,
0.289306046171802,36.8890198105261,5780.2266846392,156.496068,0,3.14669629492,20300,2018-04-14 13:03:33,15,0,16.408,5780.2266846392,156.496068,2.0356154,3.14669629492,0,0,-7.158208,267.2, 3, 2.9,0,0,1024,1024,1554,1024,267.4,-26.2,98,4.132,4.132,4.137,4.132,0,0,14.95,87.71,6,P-GPS,
0.289306114626702,36.889019837623,5781.5390206392,157.808404,0,3.17256899916,20400,2018-04-14 13:03:33,15,0,16.408,5781.5390206392,157.808404,2.0356154,3.17256899916,0,0,-7.605596,267.2, 2.6, 3.1,0,0,1024,1024,1561,1024,267.3,-26.2,98,4.137,4.143,4.144,4.13,0,0,13.932,87.71,6,P-GPS,
0.289306131598346,36.8890198658129,5782.5232726392,158.792656,0,3.1798229364,20500,2018-04-14 13:03:33,15,0,16.408,5782.5232726392,158.792656,2.0356154,3.1798229364,0,0,-7.605596,267.2, 2.3, 3.3,0,0,1024,1024,1571,1024,267.3,-26.2,98,4.137,4.143,4.144,4.13,0,0,13.932,87.71,6,P-GPS,
0.289306148214174,36.8890199015302,5783.8356086392,160.104992,0.223694,3.1872868474,20600,2018-04-14 13:03:33,15,0,16.408,5783.8356086392,160.104992,2.0356154,3.1872868474,-0.223694,0,-7.82929,267.2, 2.4, 3.8,0,0,1024,1024,1577,1024,267.3,-26.2,98,4.137,4.143,4.144,4.13,0,0,13.932,87.71,6,P-GPS,
0.289306128207111,36.889019926147,5784.8198606392,161.089244,0,3.18105653224,20700,2018-04-14 13:03:33,15,0,16.408,5784.8198606392,161.089244,2.0356154,3.1872868474,0,0,-8.052984,267.1, 1.9, 4.2,0,0,1024,1024,1590,1024,267.3,-26.2,98,4.137,4.143,4.144,4.13,0,0,13.932,87.71,6,P-GPS,
0.28930611873201,36.8890199433457,5786.1321966392,162.40158,0,3.17835312008,20800,2018-04-14 13:03:34,15,0,16.408,5786.1321966392,162.40158,2.0356154,3.1872868474,0,0,-8.052984,267.1, 1.6, 4,0,0,1024,1024,1618,1024,267.3,-26.2,98,4.137,4.143,4.144,4.13,0,0,13.932,87.71,6,P-GPS,
0.289306099487058,36.8890199266063,5787.4445326392,163.713916,0,3.1706693928,20900,2018-04-14 13:03:34,15,0,16.408,5787.4445326392,163.713916,2.0356154,3.1872868474,0,0,-8.276678,267.2, 2.2, 3.5,0,0,1024,1024,1684,1024,267.3,-26.2,98,4.137,4.143,4.144,4.13,0,0,13.932,87.71,6,P-GPS,
0.28930611153103,36.889019890639,5788.4287846392,164.698168,0,3.17354340864,21000,2018-04-14 13:03:34,15,0,16.408,5788.4287846392,164.698168,2.0356154,3.1872868474,0,0,-8.724066,267.2, 3, 3.1,0,0,1024,1024,1684,1024,267.3,-26.2,98,4.137,4.143,4.144,4.13,0,0,13.932,87.71,6,P-GPS,
0.289306110325982,36.8890198503952,5789.7411206392,166.010504,0,3.17150272616,21100,2018-04-14 13:03:34,15,0,16.408,5789.7411206392,166.010504,2.0356154,3.1872868474,0,0,-9.171454,267.1, 3.3, 3.1,0,0,1024,1024,1684,1024,267.3,-26.2,98,4.137,4.143,4.144,4.13,0,0,13.932,87.71,6,P-GPS,
0.28930612842288,36.8890198376669,5791.3815406392,167.650924,0,3.177575561,21200,2018-04-14 13:03:34,15,0,16.408,5791.3815406392,167.650924,2.0356154,3.1872868474,0,0,-9.842536,267.2, 3, 3.3,0,0,1024,1024,1684,1024,267.3,-26.2,98,4.137,4.143,4.144,4.13,0,0,13.932,87.71,6,P-GPS,
0.289306126760238,36.8890198246853,5792.6938766392,168.96326,0,3.1764764796,21300,2018-04-14 13:03:34,15,0,16.408,5792.6938766392,168.96326,2.0356154,3.1872868474,0,0,-10.289924,267.3, 3.2, 3.6,0,0,1024,1024,1684,1024,267.3,-26.2,98,4.137,4.143,4.144,4.13,0,0,13.932,87.71,6,P-GPS,
0.289306120125143,36.8890198392728,5794.3342966392,170.60368,0,3.17462608584,21400,2018-04-14 13:03:34,15,0,16.408,5794.3342966392,170.60368,2.0356154,3.1872868474,0,0,-10.737312,267.3, 3.3, 3.5,0,0,1024,1024,1684,1024,267.3,-26.2,98,4.137,4.143,4.144,4.13,0,0,13.932,87.71,6,P-GPS,
0.289306096812339,36.8890198634485,5795.9747166392,172.2441,0,3.16711296224,21500,2018-04-14 13:03:34,15,0,16.408,5795.9747166392,172.2441,2.0356154,3.1872868474,0,0,-10.961006,267.3, 2.5, 3.3,0,0,1024,1024,1684,1024,267.3,-26.2,98,4.137,4.143,4.144,4.13,0,0,13.932,87.71,6,P-GPS,
0.289306082044795,36.889019901261,5797.9432206392,174.212604,0,3.1632875028,21600,2018-04-14 13:03:34,15,0,16.408,5797.9432206392,174.212604,2.0356154,3.1872868474,0,0,-10.961006,267.3, 2, 3.2,0,0,1024,1024,1684,1024,267.3,-26.2,98,4.137,4.143,4.144,4.13,0,0,13.932,87.71,6,P-GPS,
0.289306052680693,36.8890199039953,5799.5836406392,175.853024,0,3.1527560064,21700,2018-04-14 13:03:34,15,0,16.408,5799.5836406392,175.853024,2.0356154,3.1872868474,0,0,-11.1847,267.3, 2, 3.1,0,0,1024,1024,1684,1024,267.3,-26.2,98,4.137,4.143,4.144,4.13,0,0,13.932,87.71,6,P-GPS,
0.289306022354994,36.8890199064957,5801.2240606392,177.493444,0,3.14187017928,21800,2018-04-14 13:03:35,15,0,16.408,5801.2240606392,177.493444,2.0356154,3.1872868474,0,0,-11.1847,267.4, 2.9, 3.4,0,0,1024,1024,1684,1024,267.3,-26.2,98,4.137,4.143,4.144,4.13,0,0,13.932,87.71,6,P-GPS,
0.289305992397324,36.8890198885096,5802.8644806392,179.133864,0,3.13026256736,21900,2018-04-14 13:03:35,15,0,16.408,5802.8644806392,179.133864,2.0356154,3.1872868474,0,0,-10.961006,267.4, 4, 2.6,0,0,1024,1024,1684,1024,267.3,-26.2,98,4.137,4.143,4.144,4.13,0,0,13.932,87.71,6,P-GPS,
0.289305984742009,36.8890199017925,5804.5049006392,180.774284,0,3.12803815784,22000,2018-04-14 13:03:35,15,0,16.408,5804.5049006392,180.774284,2.0356154,3.1872868474,0,0,-10.737312,267.4, 3.9, 2.4,0,0,1024,1024,1684,1024,267.3,-26.2,98,4.137,4.143,4.144,4.13,0,0,13.932,87.71,6,P-GPS,
0.289305948125632,36.8890199217041,5805.8172366392,182.08662,0,3.11561033592,22100,2018-04-14 13:03:35,15,0,16.408,5805.8172366392,182.08662,2.0356154,3.1872868474,0,0,-10.737312,267.3, 3.1, 2.6,0,0,1024,1024,1684,1024,267.3,-26.2,98,4.137,4.143,4.144,4.13,0,0,13.932,87.71,6,P-GPS,
0.289305898551725,36.8890199699913,5807.4576566392,183.72704,0,3.09977700208,22200,2018-04-14 13:03:35,15,0,16.408,5807.4576566392,183.72704,2.0356154,3.1872868474,0,0,-10.737312,267.3, 2.5, 2.7,0,0,1024,1024,1684,1024,267.3,-26.2,98,4.137,4.143,4.144,4.13,0,0,13.932,87.71,6,P-GPS,
0.289305825855542,36.8890200024743,5809.0980766392,185.36746,0,3.07495416664,22300,2018-04-14 13:03:35,15,0,16.408,5809.0980766392,185.36746,2.0356154,3.1872868474,0,0,-10.737312,267.2, 2.2, 2.5,0,0,1024,1024,1684,1024,267.3,-26.2,98,4.137,4.143,4.144,4.13,0,0,13.932,87.71,6,P-GPS,
0.289305752578005,36.8890200265371,5810.7384966392,187.00788,0,3.04959327344,22400,2018-04-14 13:03:35,15,0,16.327,5810.7384966392,187.00788,2.0356154,3.1872868474,0,0,-10.961006,267.3, 2.1, 2.3,0,0,1024,1024,1684,1024,267.3,-26.2,98,4.113,4.108,4.108,4.102,0,0,15.66,87.71,6,P-GPS,
0.28930564196269,36.8890200190263,5812.3789166392,188.6483,0.223694,3.00922909892,22500,2018-04-14 13:03:35,15,0,16.327,5812.3789166392,188.6483,2.0356154,3.1872868474,-0.223694,0,-11.1847,267.3, 3, 2.6,0,0,1024,1024,1684,1024,267.3,-26.2,98,4.113,4.108,4.108,4.102,0,0,15.66,87.71,6,P-GPS,
0.289305487371244,36.889020040039,5814.0193366392,190.28872,0.223694,2.95438657748,22600,2018-04-14 13:03:35,15,0,16.327,5814.0193366392,190.28872,2.0356154,3.1872868474,-0.223694,0,-11.1847,267.4, 3.1, 3.9,0,0,1024,1024,1684,1024,267.3,-26.2,98,4.113,4.108,4.108,4.102,0,0,15.66,87.71,6,P-GPS,
0.289305310458717,36.8890200603456,5815.6597566392,191.92914,0.223694,2.89152896392,22700,2018-04-14 13:03:35,15,0,16.327,5815.6597566392,191.92914,2.0356154,3.1872868474,-0.223694,0,-10.961006,267.4, 2.6, 4.9,0,0,1024,1024,1684,1024,267.3,-26.2,98,4.113,4.108,4.108,4.102,0,0,15.66,87.71,6,P-GPS,
0.28930516932799,36.8890200735428,5817.3001766392,193.56956,0.223694,2.841289461,22800,2018-04-14 13:03:36,15,0,16.327,5817.3001766392,193.56956,2.0356154,3.1872868474,-0.223694,0,-11.1847,267.3, 2.4, 4.7,0,0,1024,1024,1684,1024,267.3,-26.2,98,4.113,4.108,4.108,4.102,0,0,15.66,87.71,6,P-GPS,
0.289305041603834,36.8890200459369,5818.9405966392,195.20998,0.223694,2.79371400016,22900,2018-04-14 13:03:36,15,0,16.327,5818.9405966392,195.20998,2.0356154,3.1872868474,-0.223694,0,-11.1847,267.3, 2.6, 4.5,0,0,1024,1024,1684,1024,267.3,-26.2,98,4.113,4.108,4.108,4.102,0,0,15.66,87.71,6,P-GPS,
0.289304937225867,36.8890199992748,5820.5810166392,196.8504,0.223694,2.75356636108,23000,2018-04-14 13:03:36,15,0,16.327,5820.5810166392,196.8504,2.0356154,3.1872868474,-0.223694,0,-11.1847,267.3, 3.5, 4.4,0,0,1024,1024,1684,1024,267.3,-26.2,98,4.113,4.108,4.108,4.102,0,0,15.66,87.71,6,P-GPS,
0.289304837167754,36.8890199328378,5822.2214366392,198.49082,0,2.71403880076,23100,2018-04-14 13:03:36,15,0,16.327,5822.2214366392,198.49082,2.0356154,3.1872868474,0,0,-10.961006,267.3, 4.1, 4.1,0,0,1024,1024,1684,1024,267.3,-26.2,98,4.113,4.108,4.108,4.102,0,0,15.66,87.71,6,P-GPS,
0.2893047425633,36.8890199041323,5823.8618566392,200.13124,0,2.67842200172,23200,2018-04-14 13:03:36,15,0,16.327,5823.8618566392,200.13124,2.0356154,3.1872868474,0,0,-11.1847,267.3, 4.1, 4.2,0,0,1024,1024,1684,1024,267.3,-26.2,98,4.113,4.108,4.108,4.102,0,0,15.66,87.71,6,P-GPS,
0.289304648405854,36.8890198783132,5825.5022766392,201.77166,0,2.64312344416,23300,2018-04-14 13:03:36,15,0,16.327,5825.5022766392,201.77166,2.0356154,3.1872868474,0,0,-10.961006,267.3, 4.1, 4,0,0,1024,1024,1671,1024,267.3,-26.2,98,4.113,4.108,4.108,4.102,0,0,15.66,87.71,6,P-GPS,
0.289304571532305,36.8890198975969,5827.1426966392,203.41208,0,2.6162730496,23400,2018-04-14 13:03:36,15,0,16.327,5827.1426966392,203.41208,2.0356154,3.1872868474,0,0,-10.961006,267.4, 4.2, 3.7,0,0,1024,1024,1669,1024,267.3,-26.2,98,4.106,4.105,4.105,4.1,0,0,16.926,89.51,6,P-GPS,
0.289304480492922,36.8890199170534,5828.7831166392,205.0525,0,2.58436031892,23500,2018-04-14 13:03:36,15,0,16.327,5828.7831166392,205.0525,2.0356154,3.1872868474,0,0,-10.961006,267.3, 4, 3.8,0,0,1024,1024,1667,1024,267.3,-26.2,98,4.106,4.105,4.105,4.1,0,0,16.926,89.51,6,P-GPS,
0.289304379258665,36.8890199693232,5830.4235366392,206.69292,0.223694,2.55058735196,23600,2018-04-14 13:03:36,15,0,16.327,5830.4235366392,206.69292,2.0356154,3.1872868474,-0.223694,0,-10.961006,267.3, 3.5, 4.2,0,0,1024,1024,1664,1024,267.3,-26.2,98,4.106,4.105,4.105,4.1,0,0,16.926,89.51,6,P-GPS,
0.289304268938098,36.8890200092068,5832.0639566392,208.33334,0.223694,2.5130578232,23700,2018-04-14 13:03:37,15,0,16.327,5832.0639566392,208.33334,2.0356154,3.1872868474,-0.223694,0,-10.737312,267.3, 3.4, 4.6,0,0,1024,1024,1661,1024,267.3,-26.2,98,4.106,4.105,4.105,4.1,0,0,16.926,89.51,6,P-GPS,
0.289304136540309,36.8890200873241,5833.7043766392,209.97376,0.223694,2.47012147012,23800,2018-04-14 13:03:37,15,0,16.327,5833.7043766392,209.97376,2.0356154,3.1872868474,-0.223694,0,-10.737312,267.3, 3.3, 4.8,0,0,1024,1024,1662,1024,267.3,-26.2,98,4.106,4.105,4.105,4.1,0,0,16.926,89.51,6,P-GPS,
0.289304002902459,36.8890201411769,5835.3447966392,211.61418,0.223694,2.42563656056,23900,2018-04-14 13:03:37,15,0,16.327,5835.3447966392,211.61418,2.0356154,3.1872868474,-0.223694,0,-10.737312,267.3, 3.1, 5.1,0,0,1024,1024,1662,1024,267.3,-26.2,98,4.106,4.105,4.105,4.1,0,0,16.926,89.51,6,P-GPS,
0.289303861361771,36.8890202190694,5836.6571326392,212.926516,0,2.3803806536,24000,2018-04-14 13:03:37,15,0,16.327,5836.6571326392,212.926516,2.0356154,3.1872868474,0,0,-10.737312,267.3, 3.3, 5.3,0,0,1024,1024,1665,1024,267.3,-26.2,98,4.106,4.105,4.105,4.1,0,0,16.926,89.51,6,P-GPS,
0.289303742824076,36.8890202729815,5838.2975526392,214.566936,0,2.3420768466,24100,2018-04-14 13:03:37,15,0,16.327,5838.2975526392,214.566936,2.0356154,3.1872868474,0,0,-10.737312,267.3, 3.4, 5.1,0,0,1024,1024,1669,1024,267.3,-26.2,98,4.106,4.105,4.105,4.1,0,0,16.926,89.51,6,P-GPS,
0.289303643239026,36.8890203317761,5839.9379726392,216.207356,0,2.3112533548,24200,2018-04-14 13:03:37,15,0,16.327,5839.9379726392,216.207356,2.0356154,3.1872868474,0,0,-10.961006,267.3, 3, 5,0,0,1024,1024,1671,1024,267.3,-26.2,98,4.106,4.105,4.105,4.1,0,0,16.926,89.51,6,P-GPS,
0.289303566674882,36.8890203634953,5841.5783926392,217.847776,0,2.28666673984,24300,2018-04-14 13:03:37,15,0,16.327,5841.5783926392,217.847776,2.0356154,3.1872868474,0,0,-10.737312,267.3, 2.8, 5,0,0,1024,1024,1669,1024,267.3,-26.2,98,4.106,4.105,4.105,4.1,0,0,16.926,89.51,6,P-GPS,
0.289303504756963,36.8890204060179,5843.2188126392,219.488196,0,2.26834324844,24400,2018-04-14 13:03:37,15,0,16.354,5843.2188126392,219.488196,2.0356154,3.1872868474,0,0,-10.961006,267.3, 2.8, 5,0,0,1024,1024,1670,1024,267.3,-26.2,98,4.119,4.118,4.119,4.108,0,0,15.78,89.51,6,P-GPS,
0.28930345922974,36.8890204329932,5844.8592326392,221.128616,0,2.25460637136,24500,2018-04-14 13:03:37,15,0,16.354,5844.8592326392,221.128616,2.0356154,3.1872868474,0,0,-10.737312,267.3, 2.9, 4.9,0,0,1024,1024,1671,1024,267.3,-26.2,98,4.119,4.118,4.119,4.108,0,0,15.78,89.51,6,P-GPS,
0.289303412262158,36.889020470462,5846.4996526392,222.769036,0,2.2414042712,24600,2018-04-14 13:03:37,15,0,16.354,5846.4996526392,222.769036,2.0356154,3.1872868474,0,0,-10.737312,267.3, 3, 4.6,0,0,1024,1024,1668,1024,267.3,-26.2,98,4.119,4.118,4.119,4.108,0,0,15.78,89.51,6,P-GPS,
0.289303377704541,36.8890204876419,5848.1400726392,224.409456,0,2.23080387716,24700,2018-04-14 13:03:37,15,0,16.354,5848.1400726392,224.409456,2.0356154,3.1872868474,0,0,-10.513618,267.3, 3.1, 4.3,0,0,1024,1024,1669,1024,267.3,-26.2,98,4.119,4.118,4.119,4.108,0,0,15.78,89.51,6,P-GPS,
0.289303344470848,36.8890205257628,5849.4524086392,225.721792,0,2.22270676404,24800,2018-04-14 13:03:38,15,0,16.354,5849.4524086392,225.721792,2.0356154,3.1872868474,0,0,-10.513618,267.3, 3.1, 4.1,0,0,1024,1024,1669,1024,267.3,-26.2,98,4.119,4.118,4.119,4.108,0,0,15.78,89.51,6,P-GPS,
0.289303314401223,36.8890205456224,5851.0928286392,227.362212,0,2.21405518896,24900,2018-04-14 13:03:38,15,0,16.354,5851.0928286392,227.362212,2.0356154,3.1872868474,0,0,-10.737312,267.3, 3.3, 4.3,0,0,1024,1024,1667,1024,267.3,-26.2,98,4.119,4.118,4.119,4.108,0,0,15.78,89.51,6,P-GPS,
0.289303292211231,36.8890205710395,5852.7332486392,229.002632,0,2.20876319404,25000,2018-04-14 13:03:38,15,0,16.354,5852.7332486392,229.002632,2.0356154,3.1872868474,0,0,-10.737312,267.2, 2.7, 4.6,0,0,1024,1024,1665,1024,267.3,-26.2,98,4.119,4.118,4.119,4.108,0,0,15.78,89.51,6,P-GPS,
0.289303287293737,36.8890205671789,5854.3736686392,230.643052,0,2.20665361392,25100,2018-04-14 13:03:38,15,0,16.354,5854.3736686392,230.643052,2.0356154,3.1872868474,0,0,-10.513618,267.2, 2.9, 4.4,0,0,1024,1024,1665,1024,267.3,-26.2,98,4.119,4.118,4.119,4.108,0,0,15.78,89.51,6,P-GPS,
