latitude,longitude,altitude(feet),ascent(feet),speed(mph),distance(feet),time(millisecond),datetime(utc),satellites,gpslevel,voltage(v),max_altitude(feet),max_ascent(feet),max_speed(mph),max_distance(feet), xSpeed(mph), ySpeed(mph), zSpeed(mph), compass_heading(degrees), pitch(degrees), roll(degrees),isPhoto,isVideo,rc_elevator,rc_aileron,rc_throttle,rc_rudder,gimbal_heading(degrees),gimbal_pitch(degrees),battery_percent,voltageCell1,voltageCell2,voltageCell3,voltageCell4,voltageCell5,voltageCell6,current(A),battery_temperature(f),flycStateRaw,flycState,message
0.353929173760132,36.9196977688534,5485.8151886694,0,0,0,0,2018-04-08 05:58:42,15,0,0,5485.8151886694,0,0,0,0,0,0,294.2, -2.9, -3,0,0,364,364,364,1684,298.5,0,99,4.3,4.298,4.298,4.296,0,0,0,80.51,41,Motors_Started,
0.353929144630526,36.9196978118471,5485.8151886694,0,0,0.0189473103176,100,2018-04-08 05:58:42,15,0,0,5485.8151886694,0,0,0.0189473103176,0,0,0,294.2, -2.9, -3,0,0,364,364,364,1684,298.5,0,99,4.3,4.298,4.298,4.296,0,0,0,80.51,41,Motors_Started,
0.353929114535252,36.9196978594593,5485.8151886694,0,0,0.039492783416,200,2018-04-08 05:58:42,15,0,0,5485.8151886694,0,0,0.039492783416,0,0,0,294.2, -2.9, -3,0,0,364,364,364,1684,298.6,0,99,4.3,4.298,4.298,4.296,0,0,0,80.51,41,Motors_Started,
0.35392909912203,36.9196978999756,5485.8151886694,0,0,0.055046589688,300,2018-04-08 05:58:42,15,0,0,5485.8151886694,0,0,0.055046589688,0,0,0,294.2, -2.9, -3,0,0,364,364,364,1684,298.6,0,99,4.3,4.298,4.298,4.296,0,0,0,80.51,41,Motors_Started,
0.353929083270756,36.9196979465451,5485.8151886694,0,0,0.072751970832,400,2018-04-08 05:58:42,15,0,0,5485.8151886694,0,0,0.072751970832,0,0,0,294.2, -2.9, -3,0,0,390,364,364,1684,298.6,0,99,4.3,4.298,4.298,4.296,0,0,0,80.51,41,Motors_Started,
0.353929082267634,36.9196979873569,5485.8151886694,0,0,0.086426183868,500,2018-04-08 05:58:42,15,0,0,5485.8151886694,0,0,0.086426183868,0,0,0,294.2, -2.9, -3,0,0,495,427,374,1680,298.6,0,99,4.3,4.298,4.298,4.296,0,0,0,80.51,41,Motors_Started,
0.353929077470238,36.9196980323526,5485.8151886694,0,0,0.102353677816,600,2018-04-08 05:58:43,15,0,0,5485.8151886694,0,0,0.102353677816,0,0,0,294.2, -2.9, -3,0,0,800,717,642,1475,298.6,0,99,4.3,4.298,4.298,4.296,0,0,0,80.51,41,Motors_Started,
0.353929049750865,36.9196980742178,5485.8151886694,0,0,0.120246723008,700,2018-04-08 05:58:43,15,0,0,5485.8151886694,0,0,0.120246723008,0,0,0,294.2, -2.9, -3,0,0,1006,947,934,1226,298.4,0,99,4.3,4.298,4.298,4.296,0,0,0,80.51,41,Motors_Started,
0.353929021759541,36.9196981204255,5485.8151886694,0,0,0.139743770876,800,2018-04-08 05:58:43,15,0,17.13,5485.8151886694,0,0,0.139743770876,0,0,0,294.2, -2.9, -3,0,0,1024,1024,1024,1024,297.7,0,99,4.3,4.298,4.298,4.296,0,0,1.514,80.51,41,Motors_Started,Setting new Return-To-Home altitude to 30m (98 ft). Setting new Maximum Flight Altitude to 150m (492 ft)
0.353929008684764,36.9196981637318,5485.8151886694,0,0,0.156150923632,900,2018-04-08 05:58:43,15,0,17.13,5485.8151886694,0,0,0.156150923632,0,0,0,294.2, -2.8, -3,0,0,1024,1024,1024,1024,296.5,0,99,4.3,4.298,4.298,4.296,0,0,1.514,80.51,41,Motors_Started,
0.353928995285927,36.9196982085498,5485.8151886694,0,0,0.173131895304,1000,2018-04-08 05:58:43,15,0,17.13,5485.8151886694,0,0,0.173131895304,0,0,0,294.2, -2.9, -3,0,0,1024,1024,1024,1024,295.7,0,99,4.3,4.298,4.298,4.296,0,0,1.514,80.51,41,Motors_Started,
0.353928995118197,36.9196982531536,5485.8151886694,0,0,0.188331042772,1100,2018-04-08 05:58:43,15,0,17.13,5485.8151886694,0,0,0.188331042772,0,0,0,294.2, -2.9, -3,0,0,1024,1024,1024,1024,295.3,0,99,4.3,4.298,4.298,4.296,0,0,1.514,80.51,41,Motors_Started,
0.353928990778394,36.9196982987468,5485.8151886694,0,0,0.204530190272,1200,2018-04-08 05:58:43,15,0,17.13,5485.8151886694,0,0,0.204530190272,0,0,0,294.2, -2.9, -3,0,0,1024,1024,1024,1024,295.1,0,99,4.3,4.298,4.298,4.296,0,0,1.514,80.51,41,Motors_Started,
0.353928998049396,36.9196983822995,5485.8151886694,0,0,0.23281168724,1300,2018-04-08 05:58:43,15,0,17.13,5485.8151886694,0,0,0.23281168724,0,0,0,294.2, -2.8, -3,0,0,1024,1024,1024,1024,294.9,0,99,4.3,4.298,4.298,4.296,0,0,1.514,80.51,41,Motors_Started,
0.3539289989141,36.9196984598847,5485.8151886694,0,0,0.260063000448,1400,2018-04-08 05:58:43,15,0,17.13,5485.8151886694,0,0,0.260063000448,0,0,0,294.2, -2.8, -2.9,0,0,1024,1024,1024,1024,294.8,0,99,4.3,4.298,4.298,4.296,0,0,1.514,80.51,41,Motors_Started,
0.353929009586922,36.9196985344015,5485.8151886694,0,0,0.285655192868,1500,2018-04-08 05:58:43,15,0,17.13,5485.8151886694,0,0,0.285655192868,0,0,0,294.2, -2.9, -3,0,0,1024,1024,1024,1024,294.7,0,99,4.3,4.298,4.298,4.296,0,0,1.514,80.51,10,Assisted_Takeoff,
0.353929013337228,36.9196986018372,5485.8151886694,0,0,0.309492792056,1600,2018-04-08 05:58:44,15,0,17.13,5485.8151886694,0,0,0.309492792056,0,0,0,294.2, -2.9, -3,0,0,1024,1024,1024,1024,294.7,0,99,4.3,4.298,4.298,4.296,0,0,1.514,80.51,10,Assisted_Takeoff,
0.353929021674862,36.919698662556,5485.8151886694,0,0,0.33074804208,1700,2018-04-08 05:58:44,15,0,17.13,5485.8151886694,0,0,0.33074804208,0,0,0,294.2, -2.9, -3,0,0,1024,1024,1024,1024,294.6,0,99,4.3,4.298,4.298,4.296,0,0,1.514,80.51,10,Assisted_Takeoff,
0.353929025669435,36.9196987210243,5485.8151886694,0,0,0.35156825272,1800,2018-04-08 05:58:44,15,0,17.077,5485.8151886694,0,0,0.35156825272,0,0,0,294.2, -2.9, -3,0,0,1024,1024,1024,1024,294.6,0,99,4.3,4.298,4.298,4.296,0,0,1.508,80.51,10,Assisted_Takeoff,
0.353929034314844,36.9196987736042,5485.8151886694,0,0,0.37008859452,1900,2018-04-08 05:58:44,15,0,17.077,5485.8151886694,0,0,0.37008859452,0,0,0,294.2, -2.9, -3,0,0,1024,1024,1024,1024,294.6,0,99,4.3,4.298,4.298,4.296,0,0,1.508,80.51,10,Assisted_Takeoff,
0.353929037977215,36.919698827122,5485.8151886694,0,0,0.38926510432,2000,2018-04-08 05:58:44,15,0,17.077,5485.8151886694,0,0,0.38926510432,0,0,0,294.2, -2.9, -3,0,0,1024,1024,1024,1024,294.6,0,99,4.3,4.298,4.298,4.296,0,0,1.508,80.51,10,Assisted_Takeoff,
0.353929007250105,36.9196988755972,5485.8151886694,0,0,0.40833006556,2100,2018-04-08 05:58:44,15,0,17.077,5485.8151886694,0,0,0.40833006556,0,0,0,294.2, -2.9, -3,0,0,1024,1024,1024,1024,294.5,0,99,4.3,4.298,4.298,4.296,0,0,1.508,80.51,10,Assisted_Takeoff,
0.353928980042062,36.9196989258689,5485.8151886694,0,0,0.42800526304,2200,2018-04-08 05:58:44,15,0,17.077,5485.8151886694,0,0,0.42800526304,0,0,0,294.2, -2.9, -3,0,0,1024,1024,1024,1024,294.5,0,99,4.3,4.298,4.298,4.296,0,0,1.508,80.51,10,Assisted_Takeoff,
0.353928959070961,36.9196989716247,5485.8151886694,0,0,0.44575788828,2300,2018-04-08 05:58:44,15,0,17.077,5485.8151886694,0,0,0.44575788828,0,0,0,294.2, -2.9, -3,0,0,1024,1024,1024,1024,294.5,0,99,4.3,4.298,4.298,4.296,0,0,1.508,80.51,10,Assisted_Takeoff,
0.353928941511449,36.9196990192071,5485.8151886694,0,0,0.46398623532,2400,2018-04-08 05:58:44,15,0,17.077,5485.8151886694,0,0,0.46398623532,0,0,0,294.2, -2.9, -3,0,0,1024,1024,1024,1024,294.5,0,99,4.3,4.298,4.298,4.296,0,0,1.508,80.51,10,Assisted_Takeoff,
0.35392893255175,36.9196991005586,5485.8151886694,0,0,0.49376970084,2500,2018-04-08 05:58:44,15,0,17.077,5485.8151886694,0,0,0.49376970084,0,0,0,294.2, -2.9, -3,0,0,1024,1024,1024,1024,294.5,0,99,4.3,4.298,4.298,4.296,0,0,1.508,80.51,10,Assisted_Takeoff,
0.353928922470053,36.9196991767028,5485.8151886694,0,0,0.52176182772,2600,2018-04-08 05:58:45,15,0,17.077,5485.8151886694,0,0,0.52176182772,0,0,0,294.2, -2.9, -3,0,0,1024,1024,1024,1024,294.5,0,99,4.3,4.298,4.298,4.296,0,0,1.508,80.51,10,Assisted_Takeoff,
0.353928921506015,36.9196992092751,5485.8151886694,0,0,0.53352363912,2700,2018-04-08 05:58:45,15,0,17.077,5485.8151886694,0,0,0.53352363912,0,0,0,294.3, -2.9, -3,0,0,1024,1024,1024,1024,294.4,0,99,4.3,4.298,4.298,4.296,0,0,1.508,80.51,10,Assisted_Takeoff,
0.353928917446304,36.9196992433034,5485.8151886694,0,0,0.54601051616,2800,2018-04-08 05:58:45,15,0,16.97,5485.8151886694,0,0,0.54601051616,0,0,0,294.3, -2.9, -3,0,0,1024,1024,1024,1024,294.4,0,99,4.272,4.262,4.273,4.274,0,0,4.12,80.51,10,Assisted_Takeoff,
0.353928920470324,36.919699313056,5485.8151886694,0,0,0.57091865344,2900,2018-04-08 05:58:45,15,0,16.97,5485.8151886694,0,0,0.57091865344,0,0,0,294.2, -2.9, -3,0,1,1024,1024,1024,1024,294.4,0,99,4.272,4.262,4.273,4.274,0,0,4.12,80.51,10,Assisted_Takeoff,
0.353928919097546,36.9196993811705,5485.8151886694,0,0,0.59553479596,3000,2018-04-08 05:58:45,15,0,16.97,5485.8151886694,0,0,0.59553479596,0,0,0,294.3, -2.9, -3,0,1,1024,1024,1024,1024,294.4,0,99,4.272,4.262,4.273,4.274,0,0,4.12,80.51,10,Assisted_Takeoff,
0.353928924020332,36.9196994453002,5485.8151886694,0,0,0.6183891274,3100,2018-04-08 05:58:45,15,0,16.97,5485.8151886694,0,0,0.6183891274,0,0,0,294.3, -2.9, -3,0,1,1024,1024,1024,1024,294.4,0,99,4.272,4.262,4.273,4.274,0,0,4.12,80.51,10,Assisted_Takeoff,
0.353928924096869,36.9196995053809,5485.8151886694,0,0,0.64007219896,3200,2018-04-08 05:58:45,15,0,16.97,5485.8151886694,0,0,0.64007219896,0,0,0,294.3, -2.9, -3,0,1,1024,1024,1024,1024,294.4,0,99,4.272,4.262,4.273,4.274,0,0,4.12,80.51,10,Assisted_Takeoff,
0.353928930091171,36.9196995599072,5485.8151886694,0,0,0.65947180588,3300,2018-04-08 05:58:45,15,0,16.97,5485.8151886694,0,0,0.65947180588,0,0,0,294.3, -2.9, -3,0,1,1024,1024,1024,1024,294.4,0,99,4.272,4.262,4.273,4.274,0,0,4.12,80.51,10,Assisted_Takeoff,
0.353928932167437,36.9196996131252,5485.8151886694,0,0,0.67861878812,3400,2018-04-08 05:58:45,15,0,16.97,5485.8151886694,0,0,0.67861878812,0,0,0,294.3, -2.9, -3,0,1,1024,1024,1024,1024,294.4,0,99,4.272,4.262,4.273,4.274,0,0,4.12,80.51,10,Assisted_Takeoff,
0.35392890162597,36.9196996624376,5485.8151886694,0,0,0.69795933992,3500,2018-04-08 05:58:45,16,0,16.97,5485.8151886694,0,0,0.69795933992,0,0,0,294.3, -2.9, -3,0,1,1024,1024,1024,1024,294.4,0,99,4.272,4.262,4.273,4.274,0,0,4.12,80.51,10,Assisted_Takeoff,
0.353928874901576,36.9196997114053,5485.8151886694,0,0,0.71706367124,3600,2018-04-08 05:58:46,16,0,16.97,5485.8151886694,0,0,0.71706367124,0,0,0,294.3, -2.9, -3,0,1,1024,1024,1024,1024,294.4,0,99,4.272,4.262,4.273,4.274,0,0,4.12,80.51,10,Assisted_Takeoff,
0.353928855104582,36.9196997575337,5485.8151886694,0,0,0.7348097348,3700,2018-04-08 05:58:46,16,0,16.97,5485.8151886694,0,0,0.7348097348,0,0,0,294.3, -2.9, -3,0,1,1024,1024,1024,1024,294.4,0,99,4.272,4.262,4.273,4.274,0,0,4.12,80.51,10,Assisted_Takeoff,
0.353928838401632,36.9196998046921,5485.8151886694,0,0,0.7527723338,3800,2018-04-08 05:58:46,16,0,17.13,5485.8151886694,0,0,0.7527723338,0,0,0,294.3, -2.9, -3,0,1,1024,1024,1024,1024,294.4,0,99,4.272,4.262,4.273,4.274,0,0,1.982,80.51,10,Assisted_Takeoff,
0.35392883133907,36.9196998501974,5485.8151886694,0,0,0.7695702346,3900,2018-04-08 05:58:46,16,0,17.13,5485.8151886694,0,0,0.7695702346,0,0,0,294.3, -2.9, -3,0,1,1024,1024,1024,1024,294.4,0,99,4.272,4.262,4.273,4.274,0,0,1.982,80.51,10,Assisted_Takeoff,
0.353928823081231,36.9196998959426,5485.8151886694,0,0,0.78652889656,4000,2018-04-08 05:58:46,16,0,17.13,5485.8151886694,0,0,0.78652889656,0,0,0,294.3, -2.9, -3,0,1,1024,1024,1024,1024,294.4,0,99,4.272,4.262,4.273,4.274,0,0,1.982,80.51,10,Assisted_Takeoff,
0.353928823400406,36.919699943056,5485.8151886694,0,0,0.80347443516,4100,2018-04-08 05:58:46,16,0,17.13,5485.8151886694,0,0,0.80347443516,0,0,0,294.3, -2.9, -3,0,1,1024,1024,1024,1024,294.4,0,99,4.272,4.262,4.273,4.274,0,0,1.982,80.51,10,Assisted_Takeoff,
0.353928820299849,36.9196999892786,5485.8151886694,0,0,0.82030514436,4200,2018-04-08 05:58:46,16,0,17.13,5485.8151886694,0,0,0.82030514436,0,0,0,294.3, -2.9, -3,0,1,1024,1024,1024,1024,294.4,0,99,4.272,4.262,4.273,4.274,0,0,1.982,80.51,10,Assisted_Takeoff,
0.353928823750521,36.9197000726943,5485.8151886694,0,0,0.85018375424,4300,2018-04-08 05:58:46,16,0,17.13,5485.8151886694,0,0,0.85018375424,0,0,0,294.3, -2.9, -3,0,1,1024,1024,1024,1024,294.4,0,99,4.272,4.262,4.273,4.274,0,0,1.982,80.51,10,Assisted_Takeoff,
0.353928823012836,36.9197001475687,5485.8151886694,0,0,0.87724084172,4400,2018-04-08 05:58:46,16,0,17.13,5485.8151886694,0,0,0.87724084172,0,0,0,294.3, -2.9, -3,0,1,1024,1024,1024,1024,294.4,0,99,4.272,4.262,4.273,4.274,0,0,1.982,80.51,10,Assisted_Takeoff,
0.353928828337848,36.9197002188415,5485.8151886694,0,0,0.90270016012,4500,2018-04-08 05:58:46,16,0,17.13,5485.8151886694,0,0,0.90270016012,0,0,0,294.3, -2.9, -3,0,1,1024,1024,1024,1024,294.4,0,99,4.272,4.262,4.273,4.274,0,0,1.982,80.51,10,Assisted_Takeoff,
0.353928828564202,36.9197002825516,5485.8151886694,0,0,0.92571197188,4600,2018-04-08 05:58:47,16,0,17.13,5485.8151886694,0,0,0.92571197188,0,0,0,294.3, -2.9, -3,0,1,1024,1024,1024,1024,294.4,0,99,4.272,4.262,4.273,4.274,0,0,1.982,80.51,10,Assisted_Takeoff,
0.35392883377848,36.9197003426622,5485.8151886694,0,0,0.94719163136,4700,2018-04-08 05:58:47,16,0,17.13,5485.8151886694,0,0,0.94719163136,0,0,0,294.3, -2.9, -3,0,1,1024,1024,1024,1024,294.4,0,99,4.272,4.262,4.273,4.274,0,0,1.982,80.51,10,Assisted_Takeoff,
0.353928834556876,36.9197003988265,5485.8151886694,0,0,0.96747378424,4800,2018-04-08 05:58:47,16,0,17.104,5485.8151886694,0,0,0.96747378424,0,0,0,294.3, -2.9, -3,0,1,1024,1024,1024,1024,294.4,0,99,4.292,4.291,4.291,4.289,0,0,1.982,80.51,10,Assisted_Takeoff,
0.353928838904821,36.9197004502374,5485.8151886694,0,0,0.98588257748,4900,2018-04-08 05:58:47,16,0,17.104,5485.8151886694,0,0,0.98588257748,0,0,0,294.3, -2.9, -3,0,1,1024,1024,1024,1024,294.4,0,99,4.292,4.291,4.291,4.289,0,0,1.982,80.51,10,Assisted_Takeoff,
0.353928840132668,36.9197004998517,5485.8151886694,0,0,1.00379268304,5000,2018-04-08 05:58:47,16,0,17.104,5485.8151886694,0,0,1.00379268304,0,0,0,294.3, -2.9, -3,0,1,1024,1024,1024,1024,294.4,0,99,4.292,4.291,4.291,4.289,0,0,1.982,80.51,10,Assisted_Takeoff,
0.353928844332425,36.9197005472948,5485.8151886694,0,0,1.02079399592,5100,2018-04-08 05:58:47,16,0,17.104,5485.8151886694,0,0,1.02079399592,0,0,0,294.3, -2.9, -3,0,1,1024,1024,1024,1024,294.4,0,99,4.292,4.291,4.291,4.289,0,0,1.982,80.51,10,Assisted_Takeoff,
0.353928844729765,36.9197005945281,5485.8151886694,0,0,1.03789045316,5200,2018-04-08 05:58:47,16,0,17.104,5485.8151886694,0,0,1.03789045316,0,0,0,294.3, -2.9, -3,0,1,1024,1024,1024,1024,294.4,0,99,4.292,4.291,4.291,4.289,0,0,1.982,80.51,10,Assisted_Takeoff,
0.353928847529061,36.9197006410912,5485.8151886694,0,0,1.05465226472,5300,2018-04-08 05:58:47,16,0,17.104,5485.8151886694,0,0,1.05465226472,0,0,0,294.3, -2.9, -3,0,1,1024,1024,1024,1024,294.4,0,99,4.292,4.291,4.291,4.289,0,0,1.982,80.51,10,Assisted_Takeoff,
0.353928847371102,36.9197006872089,5485.8151886694,0,0,1.07137798704,5400,2018-04-08 05:58:47,16,0,17.104,5485.8151886694,0,0,1.07137798704,0,0,0,294.4, -2.9, -3,0,1,1024,1024,1024,1024,294.4,0,99,4.292,4.291,4.291,4.289,0,0,1.982,80.51,10,Assisted_Takeoff,
0.353928813271484,36.9197007340632,5485.8151886694,0,0,1.08979990364,5500,2018-04-08 05:58:47,16,0,17.104,5485.8151886694,0,0,1.08979990364,0,0,0,294.3, -2.9, -3,0,1,1024,1024,1024,1024,294.4,0,99,4.292,4.291,4.291,4.289,0,0,1.982,80.51,10,Assisted_Takeoff,
0.353928783755937,36.9197007789219,5485.8151886694,0,0,1.1073819252,5600,2018-04-08 05:58:48,16,0,17.104,5485.8151886694,0,0,1.1073819252,0,0,0,294.3, -2.9, -3,0,1,1024,1024,1024,1024,294.4,0,99,4.292,4.291,4.291,4.289,0,0,1.982,80.51,10,Assisted_Takeoff,
0.353928797236196,36.9197007879022,5485.8151886694,0,0,1.11000987804,5700,2018-04-08 05:58:48,15,0,17.104,5485.8151886694,0,0,1.11000987804,0,0,0,294.4, -2.9, -3,0,1,1024,1024,1070,1024,294.4,0,99,4.292,4.291,4.291,4.289,0,0,1.982,80.51,10,Assisted_Takeoff,
0.353928806674658,36.9197008028265,5485.8151886694,0,0,1.11499675484,5800,2018-04-08 05:58:48,15,0,17.104,5485.8151886694,0,0,1.11499675484,0,0,0,294.4, -2.9, -3,0,1,1024,1024,1079,1024,294.4,0,99,4.293,4.291,4.291,4.289,0,0,2.004,80.51,10,Assisted_Takeoff,
0.353928820169573,36.9197008251552,5485.8151886694,0,0,1.1225065976,5900,2018-04-08 05:58:48,15,0,17.104,5485.8151886694,0,0,1.1225065976,0,0,0,294.3, -2.9, -3,0,1,1024,1024,1099,1024,294.4,0,99,4.293,4.291,4.291,4.289,0,0,2.004,80.51,10,Assisted_Takeoff,
0.3539288258447,36.9197008517792,5485.8151886694,0,0,1.1319226084,6000,2018-04-08 05:58:48,15,0,17.104,5485.8151886694,0,0,1.1319226084,0,0,0,294.4, -2.9, -3,0,1,1024,1024,1102,1024,294.4,0,99,4.293,4.291,4.291,4.289,0,0,2.004,80.51,10,Assisted_Takeoff,
0.353928834076485,36.919700888846,5485.8151886694,0,0,1.14503284504,6100,2018-04-08 05:58:48,15,0,17.104,5485.8151886694,0,0,1.14503284504,0,0,0,294.4, -2.9, -3,0,1,1024,1024,1110,1024,294.4,0,99,4.293,4.291,4.291,4.289,0,0,2.004,80.51,10,Assisted_Takeoff,
0.35392883776491,36.9197009238657,5485.8151886694,0,0,1.15759190056,6200,2018-04-08 05:58:48,15,0,17.104,5485.8151886694,0,0,1.15759190056,0,0,0,294.4, -2.9, -3,0,1,1024,1024,1127,1024,294.4,0,99,4.293,4.291,4.291,4.289,0,0,2.004,80.51,10,Assisted_Takeoff,
0.353928842655128,36.9197009711718,5485.8151886694,0,0,1.17457024756,6300,2018-04-08 05:58:48,15,0,17.104,5485.8151886694,0,0,1.17457024756,0,0,0,294.4, -2.8, -3,0,1,1024,1024,1134,1024,294.4,0,99,4.293,4.291,4.291,4.289,0,0,2.004,80.51,10,Assisted_Takeoff,
0.353928843467721,36.9197010132683,5485.8151886694,0,0,1.18981959188,6400,2018-04-08 05:58:48,15,0,17.104,5485.8151886694,0,0,1.18981959188,0,0,0,294.4, -2.8, -3.1,0,1,1024,1024,1110,1024,294.4,0,99,4.293,4.291,4.291,4.289,0,0,2.004,80.51,10,Assisted_Takeoff,
0.353928846382636,36.9197010642937,5485.8151886694,0,0,1.2082349468,6500,2018-04-08 05:58:48,15,0,17.104,5485.8151886694,0,0,1.2082349468,0,0,0,294.3, -2.9, -3,0,1,1024,1024,1109,1024,294.4,0,99,4.293,4.291,4.291,4.289,0,0,2.004,80.51,10,Assisted_Takeoff,
0.353928845127106,36.9197011099275,5485.8151886694,0,0,1.22484912056,6600,2018-04-08 05:58:49,15,0,17.104,5485.8151886694,0,0,1.22484912056,0,0,0,294.3, -2.8, -3,0,1,1024,1024,1132,1024,294.4,0,99,4.293,4.291,4.291,4.289,0,0,2.004,80.51,10,Assisted_Takeoff,
0.353928847180574,36.9197011296118,5485.8151886694,0,0,1.2319226116,6700,2018-04-08 05:58:49,15,0,17.104,5485.8151886694,0,0,1.2319226116,0,0,0,294.5, -2.8, -3,0,1,1024,1024,1151,1024,294.4,0,99,4.293,4.291,4.291,4.289,0,0,2.004,80.51,10,Assisted_Takeoff,
0.353928844754192,36.919701150583,5485.8151886694,0,0,1.23962274308,6800,2018-04-08 05:58:49,15,0,17.104,5485.8151886694,0,0,1.23962274308,0,0,0,294.4, -2.6, -3,0,1,1024,1024,1160,1024,294.4,0,99,4.292,4.29,4.29,4.288,0,0,2,82.31,10,Assisted_Takeoff,
0.353928839854204,36.9197011809948,5485.8151886694,0,0,1.25083993504,6900,2018-04-08 05:58:49,15,0,17.104,5485.8151886694,0,0,1.25083993504,0,0,0,294.5, -1.2, -2.6,0,1,1024,1024,1147,1024,294.4,0,99,4.292,4.29,4.29,4.288,0,0,2,82.31,10,Assisted_Takeoff,
0.353928815984472,36.9197011925767,5485.8151886694,0,0,1.2559219562,7000,2018-04-08 05:58:49,15,0,17.104,5485.8151886694,0,0,1.2559219562,0,0,0,294.3, 2.7, -0.5,0,1,1024,1024,1145,1024,294.4,0,99,4.292,4.29,4.29,4.288,0,0,2,82.31,10,Assisted_Takeoff,
0.353928774097636,36.9197012362341,5485.8151886694,0,0,1.2734252376,7100,2018-04-08 05:58:49,15,0,17.104,5485.8151886694,0,0,1.2734252376,0,0,-0.223694,294.3, 4.9, 1.5,0,1,1024,1024,1156,1024,294.4,0,99,4.292,4.29,4.29,4.288,0,0,2,82.31,6,P-GPS,Obstacle Avoided. Revise Flight Route
0.353928722391282,36.9197013774351,5485.8151886694,0,0.223694,1.32682418944,7200,2018-04-08 05:58:49,15,0,17.104,5485.8151886694,0,0.223694,1.32682418944,0,0.223694,-0.447388,294.2, 2.3, 1.4,0,1,1024,1024,1162,1024,294.4,0,99,4.292,4.29,4.29,4.288,0,0,2,82.31,6,P-GPS,
0.353928704564705,36.9197015996173,5485.8151886694,0,0.223694,1.4080709112,7300,2018-04-08 05:58:49,15,0,17.104,5485.8151886694,0,0.223694,1.4080709112,0,0.223694,-0.447388,294.2, 0, 0.7,0,1,1024,1024,1165,1024,294.4,0,99,4.292,4.29,4.29,4.288,0,0,2,82.31,6,P-GPS,
0.353928708464829,36.9197018282809,5485.8151886694,0,0.447388,1.4907480792,7400,2018-04-08 05:58:49,15,0,17.104,5485.8151886694,0,0.447388,1.4907480792,0,0.447388,-0.671082,294.2, -0.8, 0.2,0,1,1024,1024,1158,1024,294.4,0,99,4.292,4.29,4.29,4.288,0,0,2,82.31,6,P-GPS,
0.353928739397122,36.9197020395899,5485.8151886694,0,0.447388,1.56618443332,7500,2018-04-08 05:58:49,15,0,17.104,5485.8151886694,0,0.447388,1.56618443332,0,0.447388,-0.671082,294.2, -1.3, -0.4,0,1,1024,1024,1147,1024,294.4,0,99,4.292,4.29,4.29,4.288,0,0,2,82.31,6,P-GPS,
0.353928790020561,36.9197022396124,5486.1432726694,0.328084,0.223694,1.63711947496,7600,2018-04-08 05:58:50,15,0,17.104,5486.1432726694,0.328084,0.447388,1.63711947496,0,0.223694,-0.671082,294.2, -1.6, -1.2,0,1,1024,1024,1151,1024,294.4,0,99,4.292,4.29,4.29,4.288,0,0,2,82.31,6,P-GPS,
0.353928863714166,36.919702378426,5486.1432726694,0.328084,0.223694,1.68556763924,7700,2018-04-08 05:58:50,16,0,17.104,5486.1432726694,0.328084,0.447388,1.68556763924,0,0.223694,-0.671082,294.2, -1.8, -1.7,0,1,1024,1024,1167,1024,294.4,0,99,4.292,4.29,4.29,4.288,0,0,2,82.31,6,P-GPS,
0.353928941566816,36.919702498416,5486.1432726694,0.328084,0,1.7276247272,7800,2018-04-08 05:58:50,16,0,16.97,5486.1432726694,0.328084,0.447388,1.7276247272,0,0,-0.447388,294.2, -1.7, -1.7,0,1,1024,1024,1182,1024,294.4,0,99,4.292,4.29,4.29,4.288,0,0,2,82.31,6,P-GPS,
0.353929068486113,36.9197025888742,5486.4713566694,0.656168,0,1.75896659172,7900,2018-04-08 05:58:50,16,0,16.97,5486.4713566694,0.656168,0.447388,1.75896659172,0,0,-0.447388,294.2, -0.9, -1.7,0,1,1024,1024,1189,1024,294.4,0,99,4.292,4.29,4.29,4.288,0,0,2,82.31,6,P-GPS,Home Point Recorded. RTH Altitude:  30m.
0.353929197203212,36.9197026700566,5486.4713566694,0.656168,0,1.7881890336,8000,2018-04-08 05:58:50,16,0,16.97,5486.4713566694,0.656168,0.447388,1.7881890336,0,0,-0.671082,294.2, -0.4, -2.1,0,1,1024,1024,1188,1024,294.4,0,99,4.292,4.29,4.29,4.288,0,0,2,82.31,6,P-GPS,
0.35392930173466,36.9197027549455,5486.4713566694,0.656168,0,1.81973759104,8100,2018-04-08 05:58:50,15,0,16.97,5486.4713566694,0.656168,0.447388,1.81973759104,0,0,-0.671082,294.1, 0.2, -2.4,0,1,1024,1024,1187,1024,294.4,0,99,4.292,4.29,4.29,4.288,0,0,2,82.31,6,P-GPS,
0.353929376960631,36.9197028505084,5486.7994406694,0.984252,0,1.85548562368,8200,2018-04-08 05:58:50,15,0,16.97,5486.7994406694,0.984252,0.447388,1.85548562368,0,0,-0.894776,294.2, 0.1, -2,0,1,1024,1024,1191,1024,294.4,0,99,4.292,4.29,4.29,4.288,0,0,2,82.31,6,P-GPS,
0.353929394987506,36.919703002347,5486.7994406694,0.984252,0.223694,1.9111057042,8300,2018-04-08 05:58:50,15,0,16.97,5486.7994406694,0.984252,0.447388,1.9111057042,0,0.223694,-1.11847,294.2, -1, -1.8,0,1,1024,1024,1199,1024,294.4,0,99,4.292,4.29,4.29,4.288,0,0,2,82.31,6,P-GPS,
0.353929418314966,36.9197031555795,5487.1275246694,1.312336,0.223694,1.96732945928,8400,2018-04-08 05:58:50,15,0,16.97,5487.1275246694,1.312336,0.447388,1.96732945928,0,0.223694,-1.11847,294.2, -1.2, -2,0,1,1024,1024,1207,1024,294.4,0,99,4.292,4.29,4.29,4.288,0,0,2,82.31,6,P-GPS,
0.353929464847753,36.9197033377914,5487.1275246694,1.312336,0.223694,2.03455715172,8500,2018-04-08 05:58:51,16,0,16.97,5487.1275246694,1.312336,0.447388,2.03455715172,0,0.223694,-1.342164,294.2, -1.1, -1.9,0,1,1024,1024,1207,1024,294.4,0,99,4.292,4.29,4.29,4.288,0,0,2,82.31,6,P-GPS,Obstacle Avoided. Revise Flight Route
0.353929510309024,36.9197035234613,5487.4556086694,1.64042,0.223694,2.10311358436,8600,2018-04-08 05:58:51,16,0,16.97,5487.4556086694,1.64042,0.447388,2.10311358436,0,0.223694,-1.342164,294.2, -1.9, -2.3,0,1,1024,1024,1207,1024,294.4,0,99,4.292,4.29,4.29,4.288,0,0,2,82.31,6,P-GPS,
0.353929561618038,36.9197037208052,5487.7836926694,1.968504,0.223694,2.1761319594,8700,2018-04-08 05:58:51,16,0,16.97,5487.7836926694,1.968504,0.447388,2.1761319594,0,0.223694,-1.342164,294.3, -2.4, -2.7,0,1,1024,1024,1213,1024,294.4,0,99,4.292,4.29,4.29,4.288,0,0,2,82.31,6,P-GPS,
0.353929614415449,36.919703881941,5487.7836926694,1.968504,0,2.23610243376,8800,2018-04-08 05:58:51,16,0,16.782,5487.7836926694,1.968504,0.447388,2.23610243376,0,0,-1.565858,294.3, -2.4, -2.6,0,1,1024,1024,1214,1024,294.4,0,99,4.24,4.228,4.225,4.221,0,0,7.422,82.31,6,P-GPS,
0.35392968528696,36.9197040177461,5488.1117766694,2.296588,0,2.28748694984,8900,2018-04-08 05:58:51,16,0,16.782,5488.1117766694,2.296588,0.447388,2.28748694984,0,0,-1.565858,294.3, -1.9, -3.1,0,1,1024,1024,1212,1024,294.4,0,99,4.24,4.228,4.225,4.221,0,0,7.422,82.31,6,P-GPS,
0.353929760885844,36.9197041289999,5488.4398606694,2.624672,0,2.33031831604,9000,2018-04-08 05:58:51,16,0,16.782,5488.4398606694,2.624672,0.447388,2.33031831604,0,0,-1.565858,294.3, -1.8, -3.2,0,1,1024,1024,1214,1024,294.4,0,99,4.24,4.228,4.225,4.221,0,0,7.422,82.31,6,P-GPS,
0.353929843345363,36.9197042364766,5488.4398606694,2.624672,0,2.3722769788,9100,2018-04-08 05:58:51,15,0,16.782,5488.4398606694,2.624672,0.447388,2.3722769788,0,0,-1.565858,294.3, -1.9, -3.4,0,1,1024,1024,1217,1024,294.4,0,99,4.24,4.228,4.225,4.221,0,0,7.422,82.31,6,P-GPS,
0.35392993113315,36.919704321843,5488.7679446694,2.952756,0.223694,2.4067257988,9200,2018-04-08 05:58:51,15,0,16.782,5488.7679446694,2.952756,0.447388,2.4067257988,0.223694,0,-1.565858,294.3, -1.4, -3.8,0,1,1024,1024,1226,1024,294.4,0,99,4.24,4.228,4.225,4.221,0,0,7.422,82.31,6,P-GPS,
0.353930002802599,36.9197044359103,5489.0960286694,3.28084,0,2.45116149576,9300,2018-04-08 05:58:51,16,0,16.782,5489.0960286694,3.28084,0.447388,2.45116149576,0,0,-1.789552,294.4, -1.1, -3.5,0,1,1024,1024,1241,1024,294.4,0,99,4.24,4.228,4.225,4.221,0,0,7.422,82.31,6,P-GPS,
0.353930074978494,36.9197045425648,5489.4241126694,3.608924,0,2.49311687768,9400,2018-04-08 05:58:51,16,0,16.782,5489.4241126694,3.608924,0.447388,2.49311687768,0,0,-1.789552,294.4, -1.1, -3.5,0,1,1024,1024,1246,1024,294.4,0,99,4.24,4.228,4.225,4.221,0,0,7.422,82.31,6,P-GPS,
0.35393016583427,36.9197046656296,5489.7521966694,3.937008,0.223694,2.54213590812,9500,2018-04-08 05:58:51,16,0,16.782,5489.7521966694,3.937008,0.447388,2.54213590812,0.223694,0,-1.789552,294.3, -1.5, -4,0,1,1024,1024,1250,1024,294.4,0,99,4.24,4.228,4.225,4.221,0,0,7.422,82.31,6,P-GPS,
0.353930265221464,36.9197047778555,5490.0802806694,4.265092,0.223694,2.58800205132,9600,2018-04-08 05:58:52,16,0,16.782,5490.0802806694,4.265092,0.447388,2.58800205132,0.223694,0,-1.789552,294.3, -1.7, -4.6,0,1,1024,1024,1252,1024,294.4,0,99,4.24,4.228,4.225,4.221,0,0,7.422,82.31,6,P-GPS,
0.353930376538639,36.9197049231676,5490.4083646694,4.593176,0.223694,2.64683079336,9700,2018-04-08 05:58:52,16,0,16.782,5490.4083646694,4.593176,0.447388,2.64683079336,0.223694,0,-2.013246,294.3, -1.3, -4.6,0,1,1024,1024,1254,1024,294.4,0,99,4.24,4.228,4.225,4.221,0,0,7.422,82.31,6,P-GPS,
0.353930475518722,36.9197050485021,5490.4083646694,4.593176,0.223694,2.69805782912,9800,2018-04-08 05:58:52,16,0,16.595,5490.4083646694,4.593176,0.447388,2.69805782912,0.223694,0,-2.013246,294.3, -1.4, -5,0,1,1024,1024,1254,1024,294.4,0,99,4.178,4.167,4.166,4.164,0,0,12.592,82.31,6,P-GPS,
0.35393057050586,36.9197051696484,5491.0645326694,5.249344,0.223694,2.74779208268,9900,2018-04-08 05:58:52,16,0,16.595,5491.0645326694,5.249344,0.447388,2.74779208268,0.223694,0,-2.23694,294.4, -1.5, -5.6,0,1,1024,1024,1271,1024,294.4,0,99,4.178,4.167,4.166,4.164,0,0,12.592,82.31,6,P-GPS,
0.353930641888703,36.9197052627917,5491.3926166694,5.577428,0,2.78608276632,10000,2018-04-08 05:58:52,16,0,16.595,5491.3926166694,5.577428,0.447388,2.78608276632,0,0,-2.23694,294.5, -2, -5.5,0,1,1024,1024,1276,1024,294.4,0,99,4.178,4.167,4.166,4.164,0,0,12.592,82.31,6,P-GPS,
0.353930701944089,36.91970532881,5491.7207006694,5.905512,0,2.81398302968,10100,2018-04-08 05:58:52,16,0,16.595,5491.7207006694,5.905512,0.447388,2.81398302968,0,0,-2.23694,294.5, -1.7, -5.3,0,1,1024,1024,1276,1024,294.4,0,99,4.178,4.167,4.166,4.164,0,0,12.592,82.31,6,P-GPS,
0.353930744456248,36.9197053500252,5492.0487846694,6.233596,0,2.82467528724,10200,2018-04-08 05:58:52,16,0,16.595,5492.0487846694,6.233596,0.447388,2.82467528724,0,0,-2.460634,294.4, -1.5, -4.8,0,1,1024,1024,1277,1024,294.4,0,99,4.178,4.167,4.166,4.164,0,0,12.592,82.31,6,P-GPS,
0.353930806599299,36.9197053673563,5492.3768686694,6.56168,0,2.83554471016,10300,2018-04-08 05:58:52,16,0,16.595,5492.3768686694,6.56168,0.447388,2.83554471016,0,0,-2.460634,294.4, -1, -5.1,0,1,1024,1024,1282,1024,294.4,0,99,4.178,4.167,4.166,4.164,0,0,12.592,82.31,6,P-GPS,
0.353930846385443,36.9197053582304,5492.7049526694,6.889764,0,2.83537738732,10400,2018-04-08 05:58:52,16,0,16.595,5492.7049526694,6.889764,0.447388,2.83554471016,0,0,-2.684328,294.4, -0.8, -5,0,1,1024,1024,1285,1024,294.4,0,99,4.178,4.167,4.166,4.164,0,0,12.592,82.31,6,P-GPS,
0.353930867144847,36.9197053112134,5493.0330366694,7.217848,0.223694,2.82027896164,10500,2018-04-08 05:58:52,16,0,16.595,5493.0330366694,7.217848,0.447388,2.83554471016,0,-0.223694,-2.684328,294.4, -0.4, -4.3,0,1,1024,1024,1285,1024,294.4,0,99,4.178,4.167,4.166,4.164,0,0,12.592,82.31,6,P-GPS,
0.353930863212155,36.9197052390155,5493.6892046694,7.874016,0.223694,2.79426518128,10600,2018-04-08 05:58:52,16,0,16.595,5493.6892046694,7.874016,0.447388,2.83554471016,0,-0.223694,-2.684328,294.4, 0, -3.9,0,1,1024,1024,1281,1024,294.4,0,99,4.178,4.167,4.166,4.164,0,0,12.592,82.31,6,P-GPS,
0.353930831141579,36.9197051815407,5494.0172886694,8.2021,0.223694,2.77124024616,10700,2018-04-08 05:58:53,16,0,16.595,5494.0172886694,8.2021,0.447388,2.83554471016,0,-0.223694,-2.684328,294.4, 0, -3.7,0,1,1024,1024,1282,1024,294.4,-0.2,99,4.178,4.167,4.166,4.164,0,0,12.592,82.31,6,P-GPS,
0.35393078853497,36.9197051081695,5494.3453726694,8.530184,0.223694,2.74174221372,10800,2018-04-08 05:58:53,16,0,16.595,5494.3453726694,8.530184,0.447388,2.83554471016,0,-0.223694,-2.684328,294.4, 0.1, -3.5,0,1,1024,1024,1286,1024,294.4,-0.5,99,4.172,4.159,4.157,4.152,0,0,13.066,82.31,6,P-GPS,
0.353930778417447,36.9197050747321,5494.6734566694,8.858268,0.223694,2.72903223956,10900,2018-04-08 05:58:53,16,0,16.595,5494.6734566694,8.858268,0.447388,2.83554471016,0,-0.223694,-2.684328,294.4, 0.7, -2.6,0,1,1024,1024,1289,1024,294.4,-1,99,4.172,4.159,4.157,4.152,0,0,13.066,82.31,6,P-GPS,
0.353930752109935,36.9197050324172,5495.3296246694,9.514436,0.223694,2.71190297392,11000,2018-04-08 05:58:53,16,0,16.595,5495.3296246694,9.514436,0.447388,2.83554471016,0,-0.223694,-2.684328,294.4, 0.6, -2.4,0,1,1024,1024,1291,1024,294.4,-1.6,99,4.172,4.159,4.157,4.152,0,0,13.066,82.31,6,P-GPS,
0.353930755407534,36.9197049906676,5495.6577086694,9.84252,0.223694,2.6972769892,11100,2018-04-08 05:58:53,16,0,16.595,5495.6577086694,9.84252,0.447388,2.83554471016,0,-0.223694,-2.684328,294.3, 0.5, -3,0,1,1024,1024,1290,1024,294.4,-2.2,99,4.172,4.159,4.157,4.152,0,0,13.066,82.31,6,P-GPS,
0.353930740987662,36.9197049416335,5495.9857926694,10.170604,0.223694,2.6786746264,11200,2018-04-08 05:58:53,16,0,16.595,5495.9857926694,10.170604,0.447388,2.83554471016,0,-0.223694,-2.684328,294.3, 0.1, -2.9,0,1,1024,1024,1284,1024,294.4,-2.9,99,4.172,4.159,4.157,4.152,0,0,13.066,82.31,6,P-GPS,
0.353930710286607,36.9197049042863,5496.6419606694,10.826772,0.223694,2.66298564952,11300,2018-04-08 05:58:53,16,0,16.595,5496.6419606694,10.826772,0.447388,2.83554471016,0,-0.223694,-2.908022,294.2, 0.1, -2.7,0,1,1024,1024,1285,1024,294.4,-3.7,99,4.172,4.159,4.157,4.152,0,0,13.066,82.31,6,P-GPS,
0.353930662416868,36.9197048551666,5496.9700446694,11.154856,0.223694,2.64182423152,11400,2018-04-08 05:58:53,16,0,16.595,5496.9700446694,11.154856,0.447388,2.83554471016,0,-0.223694,-2.684328,294.2, 0.4, -2.2,0,1,1024,1024,1283,1024,294.4,-4.4,99,4.172,4.159,4.157,4.152,0,0,13.066,82.31,6,P-GPS,
0.353930575936721,36.9197048116868,5497.2981286694,11.48294,0.223694,2.61995743292,11500,2018-04-08 05:58:53,16,0,16.595,5497.2981286694,11.48294,0.447388,2.83554471016,0,-0.223694,-2.684328,294.3, 0, -2.2,0,1,1024,1024,1277,1024,294.4,-5.1,99,4.172,4.159,4.157,4.152,0,0,13.066,82.31,6,P-GPS,
0.353930498336479,36.9197047423797,5497.6262126694,11.811024,0.223694,2.589731054,11600,2018-04-08 05:58:54,16,0,16.595,5497.6262126694,11.811024,0.447388,2.83554471016,0,-0.223694,-2.684328,294.4, 0.3, -2.1,0,1,1024,1024,1276,1024,294.4,-5.8,99,4.172,4.159,4.157,4.152,0,0,13.066,82.31,6,P-GPS,
0.353930432825805,36.9197046831919,5498.2823806694,12.467192,0.223694,2.56412737864,11700,2018-04-08 05:58:54,16,0,16.595,5498.2823806694,12.467192,0.447388,2.83554471016,0,-0.223694,-2.684328,294.4, 1.2, -2,0,1,1024,1024,1287,1024,294.4,-5.8,99,4.172,4.159,4.157,4.152,0,0,13.066,82.31,6,P-GPS,
0.353930377735545,36.9197046005021,5498.6104646694,12.795276,0.223694,2.5308891886,11800,2018-04-08 05:58:54,16,0,16.542,5498.6104646694,12.795276,0.447388,2.83554471016,0,-0.223694,-2.684328,294.4, 1.8, -2.1,0,1,1024,1024,1289,1024,294.4,-6.6,99,4.172,4.159,4.157,4.152,0,0,13.066,82.31,6,P-GPS,
0.353930360040873,36.9197044511987,5498.9385486694,13.12336,0.223694,2.47612212648,11900,2018-04-08 05:58:54,16,0,16.542,5498.9385486694,13.12336,0.447388,2.83554471016,0,-0.223694,-2.684328,294.5, 2.4, -1.4,0,1,1024,1024,1294,1024,294.4,-7.4,99,4.172,4.159,4.157,4.152,0,0,13.066,82.31,6,P-GPS,
0.353930330497642,36.919704303831,5499.2666326694,13.451444,0.223694,2.42130257092,12000,2018-04-08 05:58:54,16,0,16.542,5499.2666326694,13.451444,0.447388,2.83554471016,0,-0.223694,-2.684328,294.6, 2.5, -0.6,0,1,1024,1024,1300,1024,294.4,-8.2,99,4.172,4.159,4.157,4.152,0,0,13.066,82.31,6,P-GPS,
0.353930313666044,36.9197042212525,5499.9228006694,14.107612,0.223694,2.39056438096,12100,2018-04-08 05:58:54,16,0,16.542,5499.9228006694,14.107612,0.447388,2.83554471016,0,-0.223694,-2.684328,294.6, 2.5, -0.6,0,1,1024,1024,1311,1024,294.4,-8.9,99,4.172,4.159,4.157,4.152,0,0,13.066,82.31,6,P-GPS,
0.35393031218416,36.9197041448321,5500.2508846694,14.435696,0.223694,2.36301844832,12200,2018-04-08 05:58:54,16,0,16.542,5500.2508846694,14.435696,0.447388,2.83554471016,0,-0.223694,-2.908022,294.5, 2.5, -1.3,0,1,1024,1024,1318,1024,294.4,-9.7,99,4.172,4.159,4.157,4.152,0,0,13.066,82.31,6,P-GPS,
0.353930319587067,36.9197040827751,5500.5789686694,14.76378,0.223694,2.34121398568,12300,2018-04-08 05:58:54,16,0,16.542,5500.5789686694,14.76378,0.447388,2.83554471016,0,-0.223694,-2.908022,294.4, 2.7, -1.9,0,1,1024,1024,1331,1024,294.4,-10.5,99,4.172,4.159,4.157,4.152,0,0,13.066,82.31,6,P-GPS,
0.353930324027834,36.9197040132581,5501.2351366694,15.419948,0.223694,2.31655519224,12400,2018-04-08 05:58:54,16,0,16.542,5501.2351366694,15.419948,0.447388,2.83554471016,0,-0.223694,-3.131716,294.4, 2.7, -2,0,1,1024,1024,1339,1024,294.4,-10.9,99,4.172,4.159,4.157,4.152,0,0,13.066,82.31,6,P-GPS,
0.353930370122569,36.919703938191,5501.5632206694,15.748032,0.223694,2.29276910224,12500,2018-04-08 05:58:54,16,0,16.542,5501.5632206694,15.748032,0.447388,2.83554471016,0,-0.223694,-3.131716,294.4, 3.2, -1.6,0,1,1024,1024,1362,1024,294.4,-10.9,99,4.172,4.159,4.157,4.152,0,0,13.066,82.31,6,P-GPS,
0.353930410017819,36.9197038633209,5502.2193886694,16.4042,0.223694,2.26880584688,12600,2018-04-08 05:58:55,16,0,16.542,5502.2193886694,16.4042,0.447388,2.83554471016,0,-0.223694,-3.35541,294.3, 3.5, -1.3,0,1,1024,1024,1389,1024,294.4,-10.9,99,4.172,4.159,4.157,4.152,0,0,13.066,82.31,6,P-GPS,
0.353930456568519,36.9197038001376,5502.5474726694,16.732284,0,2.24969167304,12700,2018-04-08 05:58:55,16,0,16.542,5502.5474726694,16.732284,0.447388,2.83554471016,0,0,-3.579104,294.3, 3.4, -1.5,0,1,1024,1024,1394,1024,294.4,-10.9,99,4.172,4.159,4.157,4.152,0,0,13.066,82.31,6,P-GPS,
0.353930501637335,36.9197037537844,5503.2036406694,17.388452,0,2.23665689572,12800,2018-04-08 05:58:55,16,0,16.488,5503.2036406694,17.388452,0.447388,2.83554471016,0,0,-4.026492,294.3, 3.1, -2.2,0,1,1024,1024,1389,1024,294.4,-10.9,99,4.162,4.149,4.152,4.151,0,0,13.084,82.31,6,P-GPS,
0.353930535883512,36.9197037731582,5503.8598086694,18.04462,0,2.24628944196,12900,2018-04-08 05:58:55,16,0,16.488,5503.8598086694,18.04462,0.447388,2.83554471016,0,0,-4.250186,294.3, 3.1, -2.3,0,1,1024,1024,1365,1024,294.4,-10.9,99,4.162,4.149,4.152,4.151,0,0,13.084,82.31,6,P-GPS,
0.35393055983141,36.9197037874487,5504.5159766694,18.700788,0,2.25332028208,13000,2018-04-08 05:58:55,16,0,16.488,5504.5159766694,18.700788,0.447388,2.83554471016,0,0,-4.47388,294.3, 2.9, -2.4,0,1,1024,1024,1372,1024,294.4,-10.9,99,4.162,4.149,4.152,4.151,0,0,13.084,82.31,6,P-GPS,
0.353930600643473,36.9197037952128,5505.1721446694,19.356956,0,2.2594652954,13100,2018-04-08 05:58:55,16,0,16.488,5505.1721446694,19.356956,0.447388,2.83554471016,0,0,-4.47388,294.3, 3.2, -2.8,0,1,1024,1024,1413,1024,294.4,-10.9,99,4.162,4.149,4.152,4.151,0,0,13.084,82.31,6,P-GPS,
0.353930625307886,36.9197037907162,5505.8283126694,20.013124,0,2.25996070224,13200,2018-04-08 05:58:55,16,0,16.488,5505.8283126694,20.013124,0.447388,2.83554471016,0,0,-4.47388,294.4, 3.3, -2.1,0,1,1024,1024,1434,1024,294.4,-10.9,99,4.162,4.149,4.152,4.151,0,0,13.084,82.31,6,P-GPS,
0.353930658554199,36.9197038057005,5506.4844806694,20.669292,0,2.26813983636,13300,2018-04-08 05:58:55,16,0,16.488,5506.4844806694,20.669292,0.447388,2.83554471016,0,0,-4.47388,294.5, 3.6, -1.8,0,1,1024,1024,1456,1024,294.4,-10.9,99,4.162,4.149,4.152,4.151,0,0,13.084,82.31,6,P-GPS,
0.353930737333434,36.9197039151685,5507.7968166694,21.981628,0,2.3138616226,13500,2018-04-08 05:58:55,16,0,16.488,5507.7968166694,21.981628,0.447388,2.83554471016,0,0,-5.144962,294.4, 2.7, -2.8,0,1,1024,1024,1474,1024,294.4,-10.9,99,4.162,4.149,4.152,4.151,0,0,13.084,82.31,6,P-GPS,
0.353930768858481,36.9197039716926,5508.7810686694,22.96588,0,2.33668970732,13600,2018-04-08 05:58:56,16,0,16.488,5508.7810686694,22.96588,0.447388,2.83554471016,0,0,-5.368656,294.4, 2.8, -3.2,0,1,1024,1024,1489,1023,294.4,-10.9,99,4.162,4.149,4.152,4.151,0,0,13.084,82.31,6,P-GPS,
0.353930775196385,36.9197040367131,5509.4372366694,23.622048,0,2.36024613852,13700,2018-04-08 05:58:56,16,0,16.488,5509.4372366694,23.622048,0.447388,2.83554471016,0,0,-5.59235,294.3, 3.4, -3.7,0,1,1024,1024,1495,1022,294.4,-10.9,99,4.162,4.149,4.152,4.151,0,0,13.084,82.31,6,P-GPS,
0.353930744324344,36.9197040739019,5510.4214886694,24.6063,0,2.37064640132,13800,2018-04-08 05:58:56,16,0,16.381,5510.4214886694,24.6063,0.447388,2.83554471016,0,0,-6.039738,294.3, 3.6, -3.1,0,1,1024,1024,1496,1022,294.4,-10.9,99,4.15,4.136,4.135,4.134,0,0,13.826,82.31,6,P-GPS,
0.353930672876363,36.9197041263448,5511.4057406694,25.590552,0,2.38309718912,13900,2018-04-08 05:58:56,16,0,16.381,5511.4057406694,25.590552,0.447388,2.83554471016,0,0,-6.263432,294.3, 3.6, -1.7,0,1,1024,1024,1499,1023,294.4,-10.9,99,4.15,4.136,4.135,4.134,0,0,13.826,82.31,6,P-GPS,
0.35393059529892,36.9197041782267,5512.3899926694,26.574804,0,2.39523629712,14000,2018-04-08 05:58:56,16,0,16.381,5512.3899926694,26.574804,0.447388,2.83554471016,0,0,-6.487126,294.3, 3.4, -1.5,0,1,1024,1024,1521,1022,294.4,-10.9,99,4.15,4.136,4.135,4.134,0,0,13.826,82.31,6,P-GPS,
0.35393051382461,36.919704234421,5513.3742446694,27.559056,0,2.40904863352,14100,2018-04-08 05:58:56,16,0,16.381,5513.3742446694,27.559056,0.447388,2.83554471016,0,0,-6.71082,294.4, 3.3, -2.1,0,1,1024,1024,1540,1022,294.4,-10.9,99,4.15,4.136,4.135,4.134,0,0,13.826,82.31,6,P-GPS,
0.353930430954723,36.9197042858575,5514.3584966694,28.543308,0,2.42151910636,14200,2018-04-08 05:58:56,16,0,16.381,5514.3584966694,28.543308,0.447388,2.83554471016,0,0,-6.934514,294.3, 2.9, -2.4,0,1,1024,1024,1547,1022,294.4,-10.9,99,4.15,4.136,4.135,4.134,0,0,13.826,82.31,6,P-GPS,
0.353930358357061,36.9197043487496,5515.3427486694,29.52756,0,2.439222519,14300,2018-04-08 05:58:56,16,0,16.381,5515.3427486694,29.52756,0.447388,2.83554471016,0,0,-7.158208,294.4, 2.6, -2.3,0,1,1024,1024,1551,1022,294.4,-10.9,99,4.15,4.136,4.135,4.134,0,0,13.826,82.31,6,P-GPS,
0.353930281531959,36.9197043928246,5516.3270006694,30.511812,0,2.45026910728,14400,2018-04-08 05:58:56,16,0,16.381,5516.3270006694,30.511812,0.447388,2.83554471016,0,0,-7.381902,294.4, 2.3, -1.5,0,1,1024,1024,1551,1022,294.4,-10.9,99,4.15,4.136,4.135,4.134,0,0,13.826,82.31,6,P-GPS,
0.353930207138123,36.9197044362444,5517.6393366694,31.824148,0,2.46159128612,14500,2018-04-08 05:58:56,16,0,16.381,5517.6393366694,31.824148,0.447388,2.83554471016,0,0,-7.605596,294.4, 2, -1.9,0,1,1024,1024,1571,1023,294.4,-10.9,99,4.15,4.136,4.135,4.134,0,0,13.826,82.31,6,P-GPS,
0.353930167614159,36.9197044508475,5518.6235886694,32.8084,0,2.46469496076,14600,2018-04-08 05:58:57,16,0,16.381,5518.6235886694,32.8084,0.447388,2.83554471016,0,0,-7.82929,294.2, 3.5, -2.2,0,1,1024,1024,1582,1022,294.4,-10.9,99,4.15,4.136,4.135,4.134,0,0,13.826,82.31,6,P-GPS,
0.353930166966039,36.9197044760412,5519.9359246694,34.120736,0,2.47375336,14700,2018-04-08 05:58:57,16,0,16.381,5519.9359246694,34.120736,0.447388,2.83554471016,0,0,-8.052984,294.1, 4.8, -2.4,0,1,1024,1024,1599,1022,294.4,-10.9,99,4.15,4.136,4.135,4.134,0,0,13.826,82.31,6,P-GPS,
0.353930162855846,36.9197045363509,5521.2482606694,35.433072,0,2.49530191712,14800,2018-04-08 05:58:57,16,0,16.327,5521.2482606694,35.433072,0.447388,2.83554471016,0,0,-8.276678,294.1, 3.8, -2.6,0,1,1024,1024,1613,1019,294.4,-10.9,99,4.122,4.106,4.112,4.11,0,0,15.852,82.31,6,P-GPS,
0.353930142417245,36.9197046444357,5522.2325126694,36.417324,0,2.53327764012,14900,2018-04-08 05:58:57,16,0,16.327,5522.2325126694,36.417324,0.447388,2.83554471016,0,0,-8.500372,294.1, 2.9, -2.8,0,1,1024,1024,1620,1010,294.4,-10.9,99,4.122,4.106,4.112,4.11,0,0,15.852,82.31,6,P-GPS,
0.353930119522951,36.9197047396517,5523.5448486694,37.72966,0,2.56654535772,15000,2018-04-08 05:58:57,16,0,16.327,5523.5448486694,37.72966,0.447388,2.83554471016,0,0,-8.724066,294.2, 2.6, -2.9,0,1,1024,1024,1615,1014,294.4,-10.9,99,4.122,4.106,4.112,4.11,0,0,15.852,82.31,6,P-GPS,
0.353930105409227,36.9197048307609,5524.8571846694,39.041996,0,2.59880913828,15100,2018-04-08 05:58:57,16,0,16.327,5524.8571846694,39.041996,0.447388,2.83554471016,0,0,-9.171454,294.2, 2.9, -2.9,0,1,1024,1024,1616,1020,294.4,-10.9,99,4.122,4.106,4.112,4.11,0,0,15.852,82.31,6,P-GPS,
0.353930088191689,36.9197049146627,5526.4976046694,40.682416,0,2.62835638332,15200,2018-04-08 05:58:57,16,0,16.327,5526.4976046694,40.682416,0.447388,2.83554471016,0,0,-9.171454,294.2, 2.7, -3.2,0,1,1024,1024,1637,1020,294.4,-10.9,99,4.122,4.106,4.112,4.11,0,0,15.852,82.31,6,P-GPS,
0.353930041925966,36.9197050457528,5527.8099406694,41.994752,0,2.67375008556,15300,2018-04-08 05:58:57,16,0,16.327,5527.8099406694,41.994752,0.447388,2.83554471016,0,0,-9.395148,294.1, 2.5, -3.3,0,1,1024,1024,1649,1018,294.4,-10.9,99,4.122,4.106,4.112,4.11,0,0,15.852,82.31,6,P-GPS,
0.353929988613967,36.9197051328621,5529.1222766694,43.307088,0,2.7031004802,15400,2018-04-08 05:58:57,16,0,16.327,5529.1222766694,43.307088,0.447388,2.83554471016,0,0,-9.618842,294.1, 3.5, -2.9,0,1,1024,1024,1651,1018,294.4,-10.9,99,4.122,4.106,4.112,4.11,0,0,15.852,82.31,6,P-GPS,
0.353929939084842,36.919705191005,5530.4346126694,44.619424,0,2.72227370916,15500,2018-04-08 05:58:57,16,0,16.327,5530.4346126694,44.619424,0.447388,2.83554471016,0,0,-9.842536,294.1, 4.1, -2.4,0,1,1024,1024,1665,1019,294.4,-10.9,99,4.122,4.106,4.112,4.11,0,0,15.852,82.31,6,P-GPS,
0.353929885468324,36.9197052663418,5532.0750326694,46.259844,0,2.74770021916,15600,2018-04-08 05:58:58,16,0,16.327,5532.0750326694,46.259844,0.447388,2.83554471016,0,0,-10.06623,294.1, 3, -3,0,1,1024,1024,1670,1020,294.4,-10.9,99,4.122,4.106,4.112,4.11,0,0,15.852,82.31,6,P-GPS,
0.35392981917274,36.9197053806233,5533.7154526694,47.900264,0,2.78706373748,15700,2018-04-08 05:58:58,16,0,16.327,5533.7154526694,47.900264,0.447388,2.83554471016,0,0,-10.513618,294.2, 2.7, -3,0,1,1024,1024,1684,1020,294.4,-10.9,99,4.122,4.106,4.112,4.11,0,0,15.852,82.31,6,P-GPS,
0.353929740152495,36.9197054762248,5535.0277886694,49.2126,0,2.81956045768,15800,2018-04-08 05:58:58,16,0,16.408,5535.0277886694,49.2126,0.447388,2.83554471016,0,0,-10.513618,294.2, 2.6, -2.3,0,1,1024,1024,1684,1007,294.4,-10.9,99,4.122,4.106,4.112,4.11,0,0,15.852,82.31,6,P-GPS,
0.353929629566492,36.919705592913,5536.6682086694,50.85302,0,2.85938985528,15900,2018-04-08 05:58:58,16,0,16.408,5536.6682086694,50.85302,0.447388,2.85938985528,0,0,-10.961006,294.3, 2.5, -1.3,0,1,1024,1024,1684,1007,294.4,-10.9,99,4.122,4.106,4.112,4.11,0,0,15.852,82.31,6,P-GPS,
0.353929558826885,36.9197057071131,5538.3086286694,52.49344,0,2.89961951536,16000,2018-04-08 05:58:58,16,0,16.408,5538.3086286694,52.49344,0.447388,2.89961951536,0,0,-10.961006,294.2, 1.9, -2.9,0,1,1024,1024,1684,1007,294.4,-10.9,99,4.122,4.106,4.112,4.11,0,0,15.852,82.31,6,P-GPS,
0.353929540407555,36.9197058293557,5539.9490486694,54.13386,0,2.94385508108,16100,2018-04-08 05:58:58,16,0,16.408,5539.9490486694,54.13386,0.447388,2.94385508108,0,0,-10.961006,294.2, 2.4, -4.5,0,1,1024,1024,1684,1006,294.4,-10.9,99,4.122,4.106,4.112,4.11,0,0,15.852,82.31,6,P-GPS,
0.353929508724548,36.9197059154629,5541.9175526694,56.102364,0,2.97474090884,16200,2018-04-08 05:58:58,16,0,16.408,5541.9175526694,56.102364,0.447388,2.97474090884,0,0,-11.1847,294.2, 2.9, -4.6,0,1,1024,1024,1684,991,294.4,-10.9,99,4.122,4.106,4.112,4.11,0,0,15.852,82.31,6,P-GPS,
0.353929453718967,36.9197060057584,5543.5579726694,57.742784,0,3.00690954504,16300,2018-04-08 05:58:58,16,0,16.408,5543.5579726694,57.742784,0.447388,3.00690954504,0,0,-11.1847,294.2, 2.3, -3.9,0,1,1024,1024,1684,993,294.4,-10.9,99,4.122,4.106,4.112,4.11,0,0,15.852,82.31,6,P-GPS,
0.353929391689907,36.9197060797977,5545.1983926694,59.383204,0,3.03322844352,16400,2018-04-08 05:58:58,16,0,16.408,5545.1983926694,59.383204,0.447388,3.03322844352,0,0,-10.961006,294.1, 2, -3.7,0,1,1024,1024,1684,986,294.4,-10.9,99,4.122,4.106,4.112,4.11,0,0,15.852,82.31,6,P-GPS,
0.353929330432729,36.9197061725085,5546.8388126694,61.023624,0,3.06654209288,16500,2018-04-08 05:58:58,16,0,16.408,5546.8388126694,61.023624,0.447388,3.06654209288,0,0,-10.961006,293.9, 1.2, -4,0,1,1024,1024,1684,977,294.4,-11,99,4.122,4.106,4.112,4.11,0,0,15.852,82.31,6,P-GPS,
0.353929274145562,36.9197062197525,5548.4792326694,62.664044,0,3.0834646656,16600,2018-04-08 05:58:59,16,0,16.408,5548.4792326694,62.664044,0.447388,3.0834646656,0,0,-11.1847,293.6, 2.3, -3.8,0,1,1024,1024,1684,981,294.3,-11.6,99,4.122,4.106,4.112,4.11,0,0,15.852,82.31,6,P-GPS,
0.353929232035629,36.9197062347411,5550.1196526694,64.304464,0,3.08878946892,16700,2018-04-08 05:58:59,16,0,16.408,5550.1196526694,64.304464,0.447388,3.08878946892,0,0,-11.1847,293.2, 3.4, -3.9,0,1,1024,1024,1684,983,294.2,-12.6,99,4.122,4.106,4.112,4.11,0,0,15.852,82.31,6,P-GPS,
0.353929179378264,36.9197062417001,5551.7600726694,65.944884,0,3.09125337976,16800,2018-04-08 05:58:59,16,0,16.274,5551.7600726694,65.944884,0.447388,3.09125337976,0,0,-11.1847,292.9, 3.9, -3.7,0,1,1024,1024,1684,983,294.1,-13.6,99,4.096,4.085,4.083,4.086,0,0,17.6,82.31,6,P-GPS,
0.353929151484646,36.9197063041339,5553.7285766694,67.913388,0,3.1140420944,16900,2018-04-08 05:58:59,16,0,16.274,5553.7285766694,67.913388,0.447388,3.1140420944,0,0,-11.1847,292.6, 3.8, -3.4,0,1,1024,1024,1684,986,294,-15.1,99,4.096,4.085,4.083,4.086,0,0,17.6,82.31,6,P-GPS,
0.353929105215667,36.9197063674285,5555.3689966694,69.553808,0,3.13722450984,17000,2018-04-08 05:58:59,16,0,16.274,5555.3689966694,69.553808,0.447388,3.13722450984,0,0,-10.961006,292.4, 3.5, -3.1,0,1,1024,1024,1684,993,294,-16.7,99,4.096,4.085,4.083,4.086,0,0,17.6,82.31,6,P-GPS,
0.353929059026482,36.9197064761857,5557.0094166694,71.194228,0,3.17708015416,17100,2018-04-08 05:58:59,16,0,16.274,5557.0094166694,71.194228,0.447388,3.17708015416,0,0,-10.961006,292.1, 3, -3.4,0,1,1024,1024,1684,993,293.9,-18.3,99,4.096,4.085,4.083,4.086,0,0,17.6,82.31,6,P-GPS,
0.353929005734023,36.9197065764036,5558.6498366694,72.834648,0,3.21395351492,17200,2018-04-08 05:58:59,16,0,16.274,5558.6498366694,72.834648,0.447388,3.21395351492,0,0,-10.961006,291.9, 2.6, -4.1,0,1,1024,1024,1684,993,293.9,-19.9,99,4.096,4.085,4.083,4.086,0,0,17.6,82.31,6,P-GPS,
0.353928921159156,36.9197066768185,5560.2902566694,74.475068,0,3.25130915916,17300,2018-04-08 05:58:59,16,0,16.274,5560.2902566694,74.475068,0.447388,3.25130915916,0,0,-11.1847,291.8, 2.3, -4.3,0,1,1024,1024,1684,1002,293.8,-21.5,99,4.096,4.085,4.083,4.086,0,0,17.6,82.31,6,P-GPS,
0.353928811945931,36.9197067485838,5561.9306766694,76.115488,0,3.27884524928,17400,2018-04-08 05:58:59,16,0,16.274,5561.9306766694,76.115488,0.447388,3.27884524928,0,0,-10.961006,291.7, 2.6, -3.8,0,1,1024,1024,1684,1004,293.8,-23.1,99,4.096,4.085,4.083,4.086,0,0,17.6,82.31,6,P-GPS,
0.353928698329393,36.9197068391662,5563.5710966694,77.755908,0,3.3137796336,17500,2018-04-08 05:58:59,16,0,16.274,5563.5710966694,77.755908,0.447388,3.3137796336,0,0,-11.1847,291.6, 2.1, -3.2,0,1,1024,1024,1667,1021,293.7,-24.7,99,4.096,4.085,4.083,4.086,0,0,17.6,82.31,6,P-GPS,
0.353928576831187,36.9197069046706,5565.5396006694,79.724412,0,3.3402560124,17600,2018-04-08 05:59:00,16,0,16.274,5565.5396006694,79.724412,0.447388,3.3402560124,0,0,-11.1847,291.5, 2.3, -2.3,0,1,1024,1024,1668,1022,293.6,-24.9,99,4.096,4.085,4.083,4.086,0,0,17.6,82.31,6,P-GPS,
0.353928472472353,36.9197069657855,5567.1800206694,81.364832,0,3.365157588,17700,2018-04-08 05:59:00,16,0,16.274,5567.1800206694,81.364832,0.447388,3.365157588,0,0,-11.1847,291.6, 2.6, -2.2,0,1,1024,1024,1667,1022,293.6,-25,99,4.096,4.085,4.083,4.086,0,0,17.6,82.31,6,P-GPS,
0.353928384549405,36.9197070393494,5568.8204406694,83.005252,0,3.394521106,17800,2018-04-08 05:59:00,16,0,16.274,5568.8204406694,83.005252,0.447388,3.394521106,0,0,-10.961006,291.7, 2.2, -2.1,0,1,1024,1024,1665,1021,293.5,-25,99,4.098,4.081,4.082,4.082,0,0,17.372,82.31,6,P-GPS,
0.353928377524297,36.9197071729961,5570.4608606694,84.645672,0,3.4433071968,17900,2018-04-08 05:59:00,16,0,16.274,5570.4608606694,84.645672,0.447388,3.4433071968,0,0,-10.961006,291.7, 1.4, -2.7,0,1,1024,1024,1665,1022,293.5,-25,99,4.098,4.081,4.082,4.082,0,0,17.372,82.31,6,P-GPS,
0.353928393456993,36.9197072885966,5572.4293646694,86.614176,0,3.4848426312,18000,2018-04-08 05:59:00,16,0,16.274,5572.4293646694,86.614176,0.447388,3.4848426312,0,0,-10.961006,291.7, 1, -3.7,0,1,1024,1024,1663,1022,293.5,-25,99,4.098,4.081,4.082,4.082,0,0,17.372,82.31,6,P-GPS,
0.353928454310317,36.9197074431588,5574.0697846694,88.254596,0,3.5393373836,18100,2018-04-08 05:59:00,16,0,16.274,5574.0697846694,88.254596,0.447388,3.5393373836,0,0,-10.961006,291.6, 1, -4.8,0,1,1024,1024,1664,1022,293.4,-25,99,4.098,4.081,4.082,4.082,0,0,17.372,82.31,6,P-GPS,
0.353928493754488,36.9197075486313,5575.7102046694,89.895016,0,3.5767061512,18200,2018-04-08 05:59:00,16,0,16.274,5575.7102046694,89.895016,0.447388,3.5767061512,0,0,-10.737312,291.6, 1.2, -5.1,0,1,1024,1024,1666,1022,293.4,-24.9,99,4.098,4.081,4.082,4.082,0,0,17.372,82.31,6,P-GPS,
0.353928522555148,36.9197076171206,5577.3506246694,91.535436,0,3.6009187504,18300,2018-04-08 05:59:00,16,0,16.274,5577.3506246694,91.535436,0.447388,3.6009187504,0,0,-10.513618,291.6, 2.1, -4.7,0,1,1024,1024,1669,1022,293.3,-24.9,99,4.098,4.081,4.082,4.082,0,0,17.372,82.31,6,P-GPS,
0.353928521017897,36.91970764222,5578.9910446694,93.175856,0,3.610072294,18400,2018-04-08 05:59:00,16,0,16.274,5578.9910446694,93.175856,0.447388,3.610072294,0,0,-10.737312,291.6, 2.5, -4,0,1,1024,1024,1677,1023,293.3,-25,99,4.098,4.081,4.082,4.082,0,0,17.372,82.31,6,P-GPS,
0.353928505601418,36.9197076794688,5580.6314646694,94.816276,0,3.624015864,18500,2018-04-08 05:59:00,16,0,16.274,5580.6314646694,94.816276,0.447388,3.624015864,0,0,-10.737312,291.6, 2.9, -3.3,0,1,1024,1024,1675,1022,293.3,-24.9,99,4.098,4.081,4.082,4.082,0,0,17.372,82.31,6,P-GPS,
0.353928493241528,36.9197077076816,5582.2718846694,96.456696,0,3.6346129772,18600,2018-04-08 05:59:01,16,0,16.274,5582.2718846694,96.456696,0.447388,3.6346129772,0,0,-10.961006,291.6, 3.2, -3.4,0,1,1024,1024,1684,1022,293.2,-25,99,4.098,4.081,4.082,4.082,0,0,17.372,82.31,6,P-GPS,
0.353928508661264,36.9197077415686,5583.9123046694,98.097116,0,3.6465552348,18700,2018-04-08 05:59:01,16,0,16.274,5583.9123046694,98.097116,0.447388,3.6465552348,0,0,-10.961006,291.5, 3.1, -3.8,0,1,1024,1024,1684,1022,293.2,-24.9,99,4.098,4.081,4.082,4.082,0,0,17.372,82.31,6,P-GPS,
0.353928524351322,36.9197077626811,5585.8808086694,100.06562,0,3.653871508,18800,2018-04-08 05:59:01,16,0,16.274,5585.8808086694,100.06562,0.447388,3.653871508,0,0,-10.961006,291.5, 3, -3.9,0,1,1024,1024,1684,1022,293.1,-24.9,99,4.098,4.081,4.082,4.082,0,0,15.582,82.31,6,P-GPS,
0.353928519542527,36.9197078170725,5587.5212286694,101.70604,0,3.6737862068,18900,2018-04-08 05:59:01,16,0,16.274,5587.5212286694,101.70604,0.447388,3.6737862068,0,0,-10.961006,291.5, 3.1, -3.9,0,1,1024,1024,1684,1022,293.1,-24.9,99,4.098,4.081,4.082,4.082,0,0,15.582,82.31,6,P-GPS,
0.353928518120895,36.9197078552891,5589.1616486694,103.34646,0,3.6877297768,19000,2018-04-08 05:59:01,16,0,16.274,5589.1616486694,103.34646,0.447388,3.6877297768,0,0,-11.1847,291.5, 3, -4.2,0,1,1024,1024,1684,1021,293.1,-25,99,4.098,4.081,4.082,4.082,0,0,15.582,82.31,6,P-GPS,
0.353928517492316,36.9197078790182,5591.1301526694,105.314964,0,3.6963911944,19100,2018-04-08 05:59:01,16,0,16.274,5591.1301526694,105.314964,0.447388,3.6963911944,0,0,-11.408394,291.5, 2.9, -4.3,0,1,1024,1024,1684,1022,293,-24.9,99,4.098,4.081,4.082,4.082,0,0,15.582,82.31,6,P-GPS,
0.353928513132971,36.9197078849108,5592.7705726694,106.955384,0,3.6986221656,19200,2018-04-08 05:59:01,16,0,16.274,5592.7705726694,106.955384,0.447388,3.6986221656,0,0,-11.408394,291.5, 3.1, -4.1,0,1,1024,1024,1684,1022,293,-24.9,99,4.098,4.081,4.082,4.082,0,0,15.582,82.31,6,P-GPS,
0.353928500245465,36.9197079153248,5594.4109926694,108.595804,0,3.7100066804,19300,2018-04-08 05:59:01,16,0,16.274,5594.4109926694,108.595804,0.447388,3.7100066804,0,0,-11.1847,291.5, 3.4, -3.8,0,1,1024,1024,1684,1022,293,-25,99,4.098,4.081,4.082,4.082,0,0,15.582,82.31,6,P-GPS,
0.353928490092117,36.919707940497,5596.0514126694,110.236224,0,3.7194226912,19400,2018-04-08 05:59:01,16,0,16.274,5596.0514126694,110.236224,0.447388,3.7194226912,0,0,-10.961006,291.5, 3.4, -3.9,0,1,1024,1024,1684,1022,293,-24.9,99,4.098,4.081,4.082,4.082,0,0,15.582,82.31,6,P-GPS,
0.353928522814071,36.9197079719131,5598.0199166694,112.204728,0,3.7300854212,19500,2018-04-08 05:59:01,16,0,16.274,5598.0199166694,112.204728,0.447388,3.7300854212,0,0,-11.1847,291.5, 3.1, -4.2,0,1,1024,1024,1684,1022,293,-24.9,99,4.098,4.081,4.082,4.082,0,0,15.582,82.31,6,P-GPS,
0.353928548019127,36.9197079963916,5599.6603366694,113.845148,0,3.7384187548,19600,2018-04-08 05:59:02,16,0,16.274,5599.6603366694,113.845148,0.447388,3.7384187548,0,0,-11.1847,291.5, 3, -4.3,0,1,1024,1024,1684,1023,292.9,-25,99,4.098,4.081,4.082,4.082,0,0,15.582,82.31,6,P-GPS,
0.353928569890758,36.9197080519478,5601.3007566694,115.485568,0,3.7581694116,19700,2018-04-08 05:59:02,16,0,16.274,5601.3007566694,115.485568,0.447388,3.7581694116,0,0,-11.1847,291.5, 2.9, -4.2,0,1,1024,1024,1684,1022,292.9,-25,99,4.098,4.081,4.082,4.082,0,0,15.582,82.31,6,P-GPS,
0.353928588326373,36.9197080870297,5602.9411766694,117.125988,0,3.7705709868,19800,2018-04-08 05:59:02,16,0,16.327,5602.9411766694,117.125988,0.447388,3.7705709868,0,0,-11.1847,291.4, 2.7, -4.3,0,1,1024,1024,1684,1022,292.9,-25,99,4.111,4.099,4.099,4.099,0,0,15.582,82.31,6,P-GPS,
0.353928603539297,36.9197081313445,5604.9096806694,119.094492,0,3.7863846356,19900,2018-04-08 05:59:02,16,0,16.327,5604.9096806694,119.094492,0.447388,3.7863846356,0,0,-11.1847,291.4, 3.1, -4,0,1,1024,1024,1684,1022,292.9,-24.9,99,4.111,4.099,4.099,4.099,0,0,15.582,82.31,6,P-GPS,
0.353928623412827,36.919708167043,5606.5501006694,120.734912,0,3.7990158696,20000,2018-04-08 05:59:02,16,0,16.327,5606.5501006694,120.734912,0.447388,3.7990158696,0,0,-11.1847,291.5, 3.5, -4.2,0,1,1024,1024,1684,1021,292.8,-25,99,4.111,4.099,4.099,4.099,0,0,15.582,82.31,6,P-GPS,
0.353928679195176,36.919708206964,5608.1905206694,122.375332,0,3.8125329304,20100,2018-04-08 05:59:02,16,0,16.327,5608.1905206694,122.375332,0.447388,3.8125329304,0,0,-11.1847,291.5, 2.9, -4.6,0,1,1024,1024,1684,1021,292.8,-25,99,4.111,4.099,4.099,4.099,0,0,15.582,82.31,6,P-GPS,
0.353928726040625,36.919708239986,5609.8309406694,124.015752,0,3.82381902,20200,2018-04-08 05:59:02,16,0,16.327,5609.8309406694,124.015752,0.447388,3.82381902,0,0,-11.1847,291.5, 2.6, -4.9,0,1,1024,1024,1684,1021,292.8,-24.9,99,4.111,4.099,4.099,4.099,0,0,15.582,82.31,6,P-GPS,
0.353928747659847,36.9197082461099,5611.4713606694,125.656172,0,3.8257219072,20300,2018-04-08 05:59:02,16,0,16.327,5611.4713606694,125.656172,0.447388,3.8257219072,0,0,-11.1847,291.5, 2.8, -4.7,0,1,1024,1024,1684,1021,292.8,-25,99,4.111,4.099,4.099,4.099,0,0,15.582,82.31,6,P-GPS,
0.353928754492798,36.9197082381831,5613.4398646694,127.624676,0,3.8227035344,20400,2018-04-08 05:59:02,16,0,16.327,5613.4398646694,127.624676,0.447388,3.8257219072,0,0,-10.961006,291.5, 2.9, -4.5,0,1,1024,1024,1684,1020,292.8,-24.9,99,4.111,4.099,4.099,4.099,0,0,15.582,82.31,6,P-GPS,
0.353928774073209,36.919708245429,5615.0802846694,129.265096,0,3.8250657392,20500,2018-04-08 05:59:02,16,0,16.327,5615.0802846694,129.265096,0.447388,3.8257219072,0,0,-10.961006,291.5, 3.2, -4,0,1,1024,1024,1684,1020,292.7,-24.9,99,4.111,4.099,4.099,4.099,0,0,15.582,82.31,6,P-GPS,
0.353928792033318,36.9197082484995,5616.7207046694,130.905516,0,3.825951566,20600,2018-04-08 05:59:03,16,0,16.327,5616.7207046694,130.905516,0.447388,3.825951566,0,0,-10.961006,291.5, 3.6, -4.2,0,1,1024,1024,1684,1018,292.7,-24.9,99,4.111,4.099,4.099,4.099,0,0,15.582,82.31,6,P-GPS,
0.353928836968601,36.9197082596767,5618.3611246694,132.545936,0,3.8294620648,20700,2018-04-08 05:59:03,16,0,16.327,5618.3611246694,132.545936,0.447388,3.8294620648,0,0,-10.961006,291.5, 3.4, -4.7,0,1,1024,1024,1684,1017,292.7,-25,99,4.111,4.099,4.099,4.099,0,0,15.582,82.31,6,P-GPS,
0.353928852564209,36.9197082707425,5620.0015446694,134.186356,0,3.833333456,20800,2018-04-08 05:59:03,16,0,16.194,5620.0015446694,134.186356,0.447388,3.833333456,0,0,-10.737312,291.6, 2.8, -4.6,0,1,1024,1024,1684,1017,292.7,-25,99,4.104,4.092,4.092,4.089,0,0,15.692,82.31,6,P-GPS,
0.353928837621607,36.9197083100254,5621.6419646694,135.826776,0,3.8478347688,20900,2018-04-08 05:59:03,16,0,16.194,5621.6419646694,135.826776,0.447388,3.8478347688,0,0,-10.737312,291.5, 2.7, -4,0,1,1024,1024,1684,1008,292.7,-25,99,4.104,4.092,4.092,4.089,0,0,15.692,82.31,6,P-GPS,
0.353928807725004,36.9197083295406,5623.2823846694,137.467196,0,3.855315084,21000,2018-04-08 05:59:03,16,0,16.194,5623.2823846694,137.467196,0.447388,3.855315084,0,0,-10.961006,291.5, 2.7, -3.5,0,1,1024,1024,1684,1006,292.7,-25,99,4.104,4.092,4.092,4.089,0,0,15.692,82.31,6,P-GPS,
0.353928788085969,36.9197083401054,5624.9228046694,139.107616,0,3.859416134,21100,2018-04-08 05:59:03,16,0,16.194,5624.9228046694,139.107616,0.447388,3.859416134,0,0,-10.961006,291.5, 2.8, -2.9,0,1,1024,1024,1684,1006,292.7,-24.9,99,4.104,4.092,4.092,4.089,0,0,15.692,82.31,6,P-GPS,
0.353928793886487,36.9197083503362,5626.5632246694,140.748036,0,3.8630578664,21200,2018-04-08 05:59:03,16,0,16.194,5626.5632246694,140.748036,0.447388,3.8630578664,0,0,-11.1847,291.6, 2.8, -3.2,0,1,1024,1024,1684,1006,292.7,-25,99,4.104,4.092,4.092,4.089,0,0,15.692,82.31,6,P-GPS,
0.353928812377469,36.9197083674017,5628.2036446694,142.388456,0,3.8690618036,21300,2018-04-08 05:59:03,16,0,16.194,5628.2036446694,142.388456,0.447388,3.8690618036,0,0,-10.961006,291.5, 2.7, -3.9,0,1,1024,1024,1684,1008,292.6,-24.9,99,4.104,4.092,4.092,4.089,0,0,15.692,82.31,6,P-GPS,
0.353928846998188,36.9197083704294,5629.8440646694,144.028876,0,3.86975078,21400,2018-04-08 05:59:03,16,0,16.194,5629.8440646694,144.028876,0.447388,3.86975078,0,0,-11.1847,291.5, 3, -4.6,0,1,1024,1024,1684,1009,292.6,-25,99,4.104,4.092,4.092,4.089,0,0,15.692,82.31,6,P-GPS,
0.353928920721105,36.9197084002224,5631.4844846694,145.669296,0,3.8798885756,21500,2018-04-08 05:59:03,16,0,16.194,5631.4844846694,145.669296,0.447388,3.8798885756,0,0,-10.961006,291.5, 3.2, -5,0,1,1024,1024,1684,1010,292.6,-24.9,99,4.104,4.092,4.092,4.089,0,0,15.692,82.31,6,P-GPS,
0.353928982061333,36.9197084102734,5633.4529886694,147.6378,0,3.8830709904,21600,2018-04-08 05:59:04,16,0,16.194,5633.4529886694,147.6378,0.447388,3.8830709904,0,0,-11.1847,291.5, 3.5, -5.1,0,1,1024,1024,1684,1010,292.6,-24.9,99,4.104,4.092,4.092,4.089,0,0,15.692,82.31,6,P-GPS,
