latitude,longitude,altitude(feet),ascent(feet),speed(mph),distance(feet),time(millisecond),datetime(utc),satellites,gpslevel,voltage(v),max_altitude(feet),max_ascent(feet),max_speed(mph),max_distance(feet), xSpeed(mph), ySpeed(mph), zSpeed(mph), compass_heading(degrees), pitch(degrees), roll(degrees),isPhoto,isVideo,rc_elevator,rc_aileron,rc_throttle,rc_rudder,gimbal_heading(degrees),gimbal_pitch(degrees),battery_percent,voltageCell1,voltageCell2,voltageCell3,voltageCell4,voltageCell5,voltageCell6,current(A),battery_temperature(f),flycStateRaw,flycState,message
0.379005664494746,36.9222657050561,5318.4827367925,0,0,0,0,2018-04-15 05:05:27,15,0,0,5318.4827367925,0,0,0,0,0,0,74.7, -1.9, 3.6,0,0,364,364,364,1684,79.4,0,98,4.273,4.273,4.274,4.27,0,0,0,73.31,6,P-GPS,
0.379005641963595,36.9222656831629,5318.4827367925,0,0,0.0114620082408,100,2018-04-15 05:05:27,15,0,0,5318.4827367925,0,0,0.0114620082408,0,0,0,74.7, -1.9, 3.6,0,0,364,364,364,1684,79.4,0,98,4.273,4.273,4.274,4.27,0,0,0,73.31,41,Motors_Started,
0.379005615470847,36.9222656562265,5318.4827367925,0,0,0.025244751464,200,2018-04-15 05:05:27,15,0,0,5318.4827367925,0,0,0.025244751464,0,0,0,74.7, -1.9, 3.6,0,0,364,364,364,1684,79.4,0,98,4.273,4.273,4.274,4.27,0,0,0,73.31,41,Motors_Started,
0.379005599645628,36.9222656432253,5318.4827367925,0,0,0.032690781886,300,2018-04-15 05:05:28,15,0,0,5318.4827367925,0,0,0.032690781886,0,0,0,74.7, -1.9, 3.6,0,0,364,364,364,1684,79.4,0,98,4.273,4.273,4.274,4.27,0,0,0,73.31,41,Motors_Started,
0.37900558200673,36.9222656256283,5318.4827367925,0,0,0.041779200812,400,2018-04-15 05:05:28,15,0,0,5318.4827367925,0,0,0.041779200812,0,0,0,74.8, -1.9, 3.6,0,0,372,364,364,1684,79.4,0,98,4.273,4.273,4.274,4.27,0,0,0,73.31,41,Motors_Started,
0.379005572919198,36.9222656194704,5318.4827367925,0,0,0.045730972592,500,2018-04-15 05:05:28,15,0,17.069,5318.4827367925,0,0,0.045730972592,0,0,0,74.7, -1.9, 3.6,0,0,700,580,418,1651,79.4,0,98,4.273,4.273,4.274,4.27,0,0,1.452,73.31,41,Motors_Started,Setting new Return-To-Home altitude to 30m (98 ft). Setting new Maximum Flight Altitude to 150m (492 ft)
0.379005565060734,36.9222655977503,5318.4827367925,0,0,0.05337434554,600,2018-04-15 05:05:28,15,0,17.069,5318.4827367925,0,0,0.05337434554,0,0,0,74.7, -1.9, 3.6,0,0,1024,1024,1024,1024,79.4,0,98,4.273,4.273,4.274,4.27,0,0,1.452,73.31,41,Motors_Started,
0.379005561173638,36.9222655665654,5318.4827367925,0,0,0.063040028264,700,2018-04-15 05:05:28,15,0,17.069,5318.4827367925,0,0,0.063040028264,0,0,0,74.8, -1.9, 3.6,0,0,1024,1024,1024,1024,77.9,0,98,4.273,4.273,4.274,4.27,0,0,1.452,73.31,41,Motors_Started,
0.379005559756485,36.9222655160679,5318.4827367925,0,0,0.07883202352,800,2018-04-15 05:05:28,15,0,17.069,5318.4827367925,0,0,0.07883202352,0,0,0,74.7, -1.9, 3.6,0,0,1024,1024,1024,1024,76.7,0,98,4.273,4.273,4.274,4.27,0,0,1.452,73.31,41,Motors_Started,
0.379005559129127,36.9222654691016,5318.4827367925,0,0,0.094279530576,900,2018-04-15 05:05:28,15,0,17.069,5318.4827367925,0,0,0.094279530576,0,0,0,74.8, -1.9, 3.5,0,0,1024,1024,1024,1024,76.2,0,98,4.273,4.273,4.274,4.27,0,0,1.452,73.31,41,Motors_Started,
0.37900554709574,36.9222654058126,5318.4827367925,0,0,0.117278218976,1000,2018-04-15 05:05:28,15,0,17.069,5318.4827367925,0,0,0.117278218976,0,0,0,74.8, -1.9, 3.6,0,0,1024,1024,1024,1024,75.9,0,98,4.273,4.273,4.274,4.27,0,0,1.452,73.31,41,Motors_Started,
0.379005518081346,36.9222653500214,5318.4827367925,0,0,0.140114177712,1100,2018-04-15 05:05:28,15,0,17.069,5318.4827367925,0,0,0.140114177712,0,0,0,74.8, -2, 3.6,0,0,1024,1024,1024,1024,75.8,0,98,4.273,4.273,4.274,4.27,0,0,1.452,73.31,41,Motors_Started,
0.379005486526987,36.9222652907729,5318.4827367925,0,0,0.16450459844,1200,2018-04-15 05:05:28,15,0,17.069,5318.4827367925,0,0,0.16450459844,0,0,0,74.8, -1.9, 3.6,0,0,1024,1024,1024,1024,75.8,0,98,4.273,4.273,4.274,4.27,0,0,1.452,73.31,41,Motors_Started,
0.379005470186773,36.9222652616508,5318.4827367925,0,0,0.176624677568,1300,2018-04-15 05:05:29,15,0,17.069,5318.4827367925,0,0,0.176624677568,0,0,0,74.8, -1.9, 3.6,0,0,1024,1024,1024,1024,75.7,0,98,4.273,4.273,4.274,4.27,0,0,1.452,73.31,41,Motors_Started,
0.379005455403351,36.9222652227095,5318.4827367925,0,0,0.191803811912,1400,2018-04-15 05:05:29,15,0,17.069,5318.4827367925,0,0,0.191803811912,0,0,0,74.8, -1.9, 3.6,0,0,1024,1024,1024,1024,75.6,0,98,4.273,4.273,4.274,4.27,0,0,1.452,73.31,41,Motors_Started,
0.379005447267238,36.9222651821826,5318.4827367925,0,0,0.206574481676,1500,2018-04-15 05:05:29,15,0,17.069,5318.4827367925,0,0,0.206574481676,0,0,0,74.8, -1.9, 3.6,0,0,1024,1024,1024,1024,75.5,0,98,4.273,4.273,4.274,4.269,0,0,1.462,73.31,41,Motors_Started,
0.379005443203456,36.9222651462829,5318.4827367925,0,0,0.219269363972,1600,2018-04-15 05:05:29,15,0,17.069,5318.4827367925,0,0,0.219269363972,0,0,0,74.8, -1.9, 3.6,0,0,1024,1024,1024,1024,75.5,0,98,4.273,4.273,4.274,4.269,0,0,1.462,73.31,10,Assisted_Takeoff,
0.379005442029348,36.9222651279825,5318.4827367925,0,0,0.225644036092,1700,2018-04-15 05:05:29,15,0,17.069,5318.4827367925,0,0,0.225644036092,0,0,0,74.8, -1.9, 3.6,0,0,1024,1024,1024,1024,75.4,0,98,4.273,4.273,4.274,4.269,0,0,1.462,73.31,10,Assisted_Takeoff,
0.379005443694839,36.922265117202,5318.4827367925,0,0,0.229104009956,1800,2018-04-15 05:05:29,15,0,17.069,5318.4827367925,0,0,0.229104009956,0,0,0,74.8, -1.9, 3.6,0,0,1024,1024,1024,1024,75.4,0,98,4.273,4.273,4.274,4.269,0,0,1.462,73.31,10,Assisted_Takeoff,
0.379005444995965,36.9222651152001,5318.4827367925,0,0,0.229621726508,1900,2018-04-15 05:05:29,15,0,17.069,5318.4827367925,0,0,0.229621726508,0,0,0,74.8, -1.9, 3.6,0,0,1024,1024,1024,1024,75.4,0,98,4.273,4.273,4.274,4.269,0,0,1.462,73.31,10,Assisted_Takeoff,
0.379005449811274,36.9222651212135,5318.4827367925,0,0,0.226954731672,2000,2018-04-15 05:05:29,15,0,17.069,5318.4827367925,0,0,0.229621726508,0,0,0,74.8, -1.9, 3.6,0,0,1024,1024,1024,1024,75.3,0,98,4.273,4.273,4.274,4.269,0,0,1.462,73.31,10,Assisted_Takeoff,
0.379005452757537,36.9222651276957,5318.4827367925,0,0,0.224364180408,2100,2018-04-15 05:05:29,15,0,17.069,5318.4827367925,0,0,0.229621726508,0,0,0,74.8, -1.9, 3.6,0,0,1024,1024,1024,1024,75.3,0,98,4.273,4.273,4.274,4.269,0,0,1.462,73.31,10,Assisted_Takeoff,
0.37900545889962,36.9222651407702,5318.4827367925,0,0,0.219114508324,2200,2018-04-15 05:05:30,15,0,17.069,5318.4827367925,0,0,0.229621726508,0,0,0,74.8, -1.9, 3.6,0,0,1024,1024,1024,1024,75.3,0,98,4.273,4.273,4.274,4.269,0,0,1.462,73.31,10,Assisted_Takeoff,
0.379005463469441,36.9222651517282,5318.4827367925,0,0,0.214787408448,2300,2018-04-15 05:05:30,15,0,17.069,5318.4827367925,0,0,0.229621726508,0,0,0,74.8, -1.9, 3.6,0,0,1024,1024,1024,1024,75.3,0,98,4.273,4.273,4.274,4.269,0,0,1.462,73.31,10,Assisted_Takeoff,
0.379005469341203,36.9222651542411,5318.4827367925,0,0,0.213201122308,2400,2018-04-15 05:05:30,15,0,17.069,5318.4827367925,0,0,0.229621726508,0,0,0,74.8, -1.9, 3.5,0,0,1024,1024,1024,1024,75.3,0,98,4.273,4.273,4.274,4.269,0,0,1.462,73.31,10,Assisted_Takeoff,
0.379005473336998,36.9222651371314,5318.4827367925,0,0,0.21862533508,2500,2018-04-15 05:05:30,15,0,16.882,5318.4827367925,0,0,0.229621726508,0,0,0,74.8, -1.9, 3.5,0,0,1024,1024,1024,1024,75.3,0,98,4.236,4.236,4.264,4.258,0,0,3.786,73.31,10,Assisted_Takeoff,
0.379005465349073,36.9222651052638,5318.4827367925,0,0,0.230576122864,2600,2018-04-15 05:05:30,15,0,16.882,5318.4827367925,0,0,0.230576122864,0,0,0,74.8, -1.9, 3.5,0,0,1024,1024,1024,1024,75.3,0,98,4.236,4.236,4.264,4.258,0,0,3.786,73.31,10,Assisted_Takeoff,
0.379005439475947,36.9222650690936,5318.4827367925,0,0,0.246121727036,2700,2018-04-15 05:05:30,15,0,16.882,5318.4827367925,0,0,0.246121727036,0,0,0,74.8, -1.9, 3.5,0,0,1024,1024,1024,1024,75.3,0,98,4.236,4.236,4.264,4.258,0,0,3.786,73.31,10,Assisted_Takeoff,
0.379005409990526,36.9222650153447,5318.4827367925,0,0,0.268221137192,2800,2018-04-15 05:05:30,15,0,16.882,5318.4827367925,0,0,0.268221137192,0,0,0,74.8, -1.9, 3.5,0,0,1024,1024,1029,1024,75.3,0,98,4.236,4.236,4.264,4.258,0,0,3.786,73.31,10,Assisted_Takeoff,
0.379005394706765,36.9222649672652,5318.4827367925,0,0,0.28660926114,2900,2018-04-15 05:05:30,15,0,16.882,5318.4827367925,0,0,0.28660926114,0,0,0,74.8, -1.9, 3.5,0,0,1024,1024,1040,1024,75.3,0,98,4.236,4.236,4.264,4.258,0,0,3.786,73.31,10,Assisted_Takeoff,
0.379005380493299,36.9222649230805,5318.4827367925,0,0,0.303531177692,3000,2018-04-15 05:05:30,15,0,16.882,5318.4827367925,0,0,0.303531177692,0,0,0,74.8, -1.9, 3.5,0,0,1024,1024,1053,1024,75.2,0,98,4.236,4.236,4.264,4.258,0,0,3.786,73.31,10,Assisted_Takeoff,
0.379005372829027,36.9222648944854,5318.4827367925,0,0,0.31429298906,3100,2018-04-15 05:05:30,15,0,16.882,5318.4827367925,0,0,0.31429298906,0,0,0,74.8, -2, 3.5,0,0,1024,1024,1077,1024,75.2,0,98,4.236,4.236,4.264,4.258,0,0,3.786,73.31,10,Assisted_Takeoff,
0.379005366692643,36.9222648720801,5318.4827367925,0,0,0.322743120564,3200,2018-04-15 05:05:30,15,0,16.882,5318.4827367925,0,0,0.322743120564,0,0,0,74.8, -2, 3.5,0,0,1024,1024,1085,1024,75.2,0,98,4.236,4.236,4.264,4.258,0,0,3.786,73.31,10,Assisted_Takeoff,
0.379005366404408,36.9222648624456,5318.4827367925,0,0,0.326090233532,3300,2018-04-15 05:05:31,15,0,16.882,5318.4827367925,0,0,0.326090233532,0,0,0,74.8, -2, 3.5,0,0,1024,1024,1104,1024,75.2,0,98,4.236,4.236,4.264,4.258,0,0,3.786,73.31,10,Assisted_Takeoff,
0.379005368764838,36.9222648599173,5318.4827367925,0,0,0.326674551136,3400,2018-04-15 05:05:31,15,0,16.882,5318.4827367925,0,0,0.326674551136,0,0,0,74.8, -2, 3.5,0,0,1024,1024,1122,1024,75.2,0,98,4.236,4.236,4.264,4.258,0,0,3.786,73.31,10,Assisted_Takeoff,
0.3790053712588,36.9222648626562,5318.4827367925,0,0,0.32543144086,3500,2018-04-15 05:05:31,15,0,17.042,5318.4827367925,0,0,0.326674551136,0,0,0,74.8, -2, 3.5,0,0,1024,1024,1111,1024,75.2,0,98,4.236,4.236,4.264,4.258,0,0,1.93,75.11,10,Assisted_Takeoff,
0.379005375804601,36.9222648698358,5318.4827367925,0,0,0.32241306806,3600,2018-04-15 05:05:31,15,0,17.042,5318.4827367925,0,0,0.326674551136,0,0,0,74.8, -2, 3.5,0,0,1024,1024,1111,1024,75.2,0,98,4.236,4.236,4.264,4.258,0,0,1.93,75.11,10,Assisted_Takeoff,
0.379005380083745,36.9222648780519,5318.4827367925,0,0,0.319070220184,3700,2018-04-15 05:05:31,15,0,17.042,5318.4827367925,0,0,0.326674551136,0,0,0,74.8, -2, 3.5,0,0,1024,1024,1117,1024,75.2,0,98,4.236,4.236,4.264,4.258,0,0,1.93,75.11,10,Assisted_Takeoff,
0.379005385984412,36.9222648760866,5318.4827367925,0,0,0.319056112572,3800,2018-04-15 05:05:31,15,0,17.042,5318.4827367925,0,0,0.326674551136,0,0,0,74.7, -2, 3.5,0,0,1024,1024,1114,1024,75.2,0,98,4.236,4.236,4.264,4.258,0,0,1.93,75.11,10,Assisted_Takeoff,
0.379005390779365,36.9222648572407,5318.4827367925,0,0,0.325039708564,3900,2018-04-15 05:05:31,15,0,17.042,5318.4827367925,0,0,0.326674551136,0,0,0,74.8, -2, 3.5,0,0,1024,1024,1105,1024,75.2,0,98,4.236,4.236,4.264,4.258,0,0,1.93,75.11,10,Assisted_Takeoff,
0.379005381898646,36.9222648201504,5318.4827367925,0,0,0.33891405284,4000,2018-04-15 05:05:31,15,0,17.042,5318.4827367925,0,0,0.33891405284,0,0,0,75, -1.9, 3.5,0,0,1024,1024,1117,1024,75.2,0,98,4.236,4.236,4.264,4.258,0,0,1.93,75.11,10,Assisted_Takeoff,
0.379005357372651,36.9222647833978,5318.4827367925,0,0,0.35443898772,4100,2018-04-15 05:05:31,15,0,17.042,5318.4827367925,0,0,0.35443898772,0,0,0,75.1, -1.9, 3.5,0,0,1024,1024,1141,1024,75.2,0,98,4.236,4.236,4.264,4.258,0,0,1.93,75.11,10,Assisted_Takeoff,
0.379005342844081,36.9222647427998,5318.4827367925,0,0,0.37016733468,4200,2018-04-15 05:05:32,15,0,17.042,5318.4827367925,0,0,0.37016733468,0,0,0,75.2, -1.9, 3.5,0,0,1024,1024,1159,1024,75.2,0,98,4.236,4.236,4.264,4.258,0,0,1.93,75.11,10,Assisted_Takeoff,
0.379005343315108,36.9222647359885,5318.4827367925,0,0,0.37247048436,4300,2018-04-15 05:05:32,15,0,17.042,5318.4827367925,0,0,0.37247048436,0,0,0,75.3, -0.1, 3.3,0,0,1024,1024,1175,1024,75.2,0,98,4.236,4.236,4.264,4.258,0,0,1.93,75.11,10,Assisted_Takeoff,
0.379005293731431,36.9222647455384,5318.4827367925,0,0,0.37529856844,4400,2018-04-15 05:05:32,15,0,17.042,5318.4827367925,0,0,0.37529856844,0,0,0,75.4, 2.3, 2.3,0,0,1024,1024,1186,1024,75.2,0,98,4.236,4.236,4.264,4.258,0,0,1.93,75.11,10,Assisted_Takeoff,
0.379005178939157,36.9222647413156,5318.4827367925,0,0.223694,0.39372048504,4500,2018-04-15 05:05:32,15,0,17.042,5318.4827367925,0,0.223694,0.39372048504,-0.223694,0,-0.447388,75.4, 3.1, 1.6,0,0,1024,1024,1209,1024,75.2,0,98,4.265,4.265,4.267,4.263,0,0,1.93,75.11,6,P-GPS,Home Point Recorded. RTH Altitude:  30m.
0.379005003979134,36.9222646686851,5318.4827367925,0,0.223694,0.44837927944,4600,2018-04-15 05:05:32,15,0,17.042,5318.4827367925,0,0.223694,0.44837927944,-0.223694,0,-0.671082,75.3, 1.3, 0.5,0,0,1024,1024,1216,1024,75.2,0,98,4.265,4.265,4.267,4.263,0,0,1.93,75.11,6,P-GPS,
0.379004808462855,36.9222645764574,5318.4827367925,0,0.223694,0.51680775932,4700,2018-04-15 05:05:32,15,0,17.042,5318.4827367925,0,0.223694,0.51680775932,-0.223694,0,-0.894776,75.3, 0.2, -0.1,0,0,1024,1024,1225,1024,75.2,0,98,4.265,4.265,4.267,4.263,0,0,1.93,75.11,6,P-GPS,
0.379004609505674,36.9222644894503,5318.4827367925,0,0.223694,0.58724083244,4800,2018-04-15 05:05:32,15,0,17.042,5318.4827367925,0,0.223694,0.58724083244,-0.223694,0,-1.11847,75.3, 0, -0.7,0,0,1024,1024,1240,1024,75.2,0,98,4.265,4.265,4.267,4.263,0,0,1.93,75.11,6,P-GPS,
0.379004445213995,36.9222644459608,5318.8108207925,0.328084,0.223694,0.63946524356,4900,2018-04-15 05:05:32,15,0,17.042,5318.8108207925,0.328084,0.223694,0.63946524356,-0.223694,0,-1.11847,75.3, 0, -1,0,0,1024,1024,1259,1024,75.2,0,98,4.265,4.265,4.267,4.263,0,0,1.93,75.11,6,P-GPS,
0.379004315854882,36.9222644336146,5319.1389047925,0.656168,0.223694,0.67623361744,5000,2018-04-15 05:05:32,15,0,17.042,5319.1389047925,0.656168,0.223694,0.67623361744,0,0,-1.342164,75.4, 0, -1,0,0,1024,1024,1249,1024,75.2,0,98,4.265,4.265,4.267,4.263,0,0,1.93,75.11,6,P-GPS,
0.379004248266314,36.9222644705978,5319.1389047925,0.656168,0,0.68544293532,5100,2018-04-15 05:05:32,15,0,17.042,5319.1389047925,0.656168,0.223694,0.68544293532,0,0,-1.565858,75.4, 0.1, -1,0,0,1024,1024,1240,1024,75.2,0,98,4.265,4.265,4.267,4.263,0,0,1.93,75.11,6,P-GPS,
0.379004199168931,36.92226449726,5319.4669887925,0.984252,0,0.69281826364,5200,2018-04-15 05:05:32,15,0,17.042,5319.4669887925,0.984252,0.223694,0.69281826364,0,0,-1.789552,75.4, 0.3, -0.8,0,0,1024,1024,1271,1024,75.2,0,98,4.265,4.265,4.267,4.263,0,0,1.93,75.11,6,P-GPS,
0.379004153587562,36.9222644767688,5319.7950727925,1.312336,0,0.71042325108,5300,2018-04-15 05:05:33,15,0,17.042,5319.7950727925,1.312336,0.223694,0.71042325108,0,0,-1.789552,75.4, 0.4, -0.7,0,0,1024,1024,1290,1024,75.2,0,98,4.265,4.265,4.267,4.263,0,0,1.93,75.11,6,P-GPS,
0.37900414074321,36.9222644493449,5320.1231567925,1.64042,0,0.72038716216,5400,2018-04-15 05:05:33,14,0,17.042,5320.1231567925,1.64042,0.223694,0.72038716216,0,0,-2.013246,75.4, 0.6, -0.4,0,0,1024,1024,1281,1024,75.2,0,98,4.265,4.265,4.267,4.263,0,0,1.93,75.11,6,P-GPS,
0.379004166100526,36.9222644301281,5320.4512407925,1.968504,0,0.71779529856,5500,2018-04-15 05:05:33,14,0,16.749,5320.4512407925,1.968504,0.223694,0.72038716216,0,0,-2.23694,75.4, 0.6, -0.3,0,0,1024,1024,1305,1024,75.2,0,98,4.199,4.197,4.194,4.176,0,0,6.656,75.11,6,P-GPS,
0.379004206514842,36.9222644285163,5321.1074087925,2.624672,0,0.70701773916,5700,2018-04-15 05:05:33,14,0,16.749,5321.1074087925,2.624672,0.223694,0.72038716216,0,0,-2.460634,75.4, 0.3, -0.1,0,0,1024,1024,1324,1024,75.2,0,98,4.199,4.197,4.194,4.176,0,0,6.656,75.11,6,P-GPS,
0.379004205060234,36.9222644293014,5321.4354927925,2.952756,0,0.70722771292,5800,2018-04-15 05:05:33,14,0,16.749,5321.4354927925,2.952756,0.223694,0.72038716216,0,0,-2.684328,75.4, 0.3, -0.3,0,0,1024,1024,1331,1024,75.2,0,98,4.199,4.197,4.194,4.176,0,0,6.656,75.11,6,P-GPS,
0.379004196047204,36.9222644082864,5321.7635767925,3.28084,0,0.71475724072,5900,2018-04-15 05:05:33,14,0,16.749,5321.7635767925,3.28084,0.223694,0.72038716216,0,0,-2.908022,75.4, 0.4, -0.2,0,0,1024,1024,1387,1024,75.2,0,98,4.199,4.197,4.194,4.176,0,0,6.656,75.11,6,P-GPS,
0.379004186267787,36.9222643530036,5322.4197447925,3.937008,0,0.73089569268,6000,2018-04-15 05:05:33,15,0,16.749,5322.4197447925,3.937008,0.223694,0.73089569268,0,0,-3.131716,75.4, 0.3, -0.1,0,0,1024,1024,1417,1024,75.2,0,98,4.199,4.197,4.194,4.176,0,0,6.656,75.11,6,P-GPS,
0.37900419261709,36.9222642745345,5322.7478287925,4.265092,0,0.74885173,6100,2018-04-15 05:05:33,15,0,16.749,5322.7478287925,4.265092,0.223694,0.74885173,0,0,-3.35541,75.3, 0.2, -0.1,0,0,1024,1024,1437,1024,75.2,0,98,4.199,4.197,4.194,4.176,0,0,6.656,75.11,6,P-GPS,
0.379004193458385,36.9222641624413,5323.4039967925,4.92126,0,0.77769359444,6200,2018-04-15 05:05:34,15,0,16.749,5323.4039967925,4.92126,0.223694,0.77769359444,0,0,-3.802798,75.3, 0, -0.1,0,0,1024,1024,1444,1024,75.2,0,98,4.199,4.197,4.194,4.176,0,0,6.656,75.11,6,P-GPS,
0.37900420942426,36.9222640576784,5324.0601647925,5.577428,0,0.801919317,6300,2018-04-15 05:05:34,15,0,16.749,5324.0601647925,5.577428,0.223694,0.801919317,0,0,-4.47388,75.3, 0, -0.1,0,0,1024,1024,1464,1024,75.2,0,98,4.199,4.197,4.194,4.176,0,0,6.656,75.11,6,P-GPS,
0.379004223317534,36.9222639453228,5324.7163327925,6.233596,0,0.82986223128,6400,2018-04-15 05:05:34,14,0,16.749,5324.7163327925,6.233596,0.223694,0.82986223128,0,0,-4.921268,75.3, 0.1, 0,0,0,1024,1024,1435,1024,75.2,0,98,4.199,4.197,4.194,4.176,0,0,6.656,75.11,6,P-GPS,
0.379004245093698,36.9222638719394,5325.3725007925,6.889764,0,0.84585960712,6500,2018-04-15 05:05:34,14,0,16.482,5325.3725007925,6.889764,0.223694,0.84585960712,0,0,-5.368656,75.3, 0.2, 0,0,0,1024,1024,1401,1024,75.2,0,98,4.152,4.153,4.154,4.131,0,0,14.134,75.11,6,P-GPS,
0.379004269207697,36.9222637907938,5326.3567527925,7.874016,0,0.86424543448,6600,2018-04-15 05:05:34,14,0,16.482,5326.3567527925,7.874016,0.223694,0.86424543448,0,0,-5.816044,75.3, 0.1, 0,0,0,1024,1024,1418,1024,75.2,0,98,4.152,4.153,4.154,4.131,0,0,14.134,75.11,6,P-GPS,
0.379004312824348,36.9222637271292,5327.3410047925,8.858268,0,0.87404530356,6700,2018-04-15 05:05:34,14,0,16.482,5327.3410047925,8.858268,0.223694,0.87404530356,0,0,-5.816044,75.3, -0.1, 0.1,0,0,1024,1024,1444,1024,75.2,0,98,4.152,4.153,4.154,4.131,0,0,14.134,75.11,6,P-GPS,
0.379004345078124,36.9222636604348,5327.9971727925,9.514436,0,0.88780186568,6800,2018-04-15 05:05:34,15,0,16.482,5327.9971727925,9.514436,0.223694,0.88780186568,0,0,-5.59235,75.3, -0.2, 0.1,0,0,1024,1024,1468,1024,75.2,0,98,4.152,4.153,4.154,4.131,0,0,14.134,75.11,6,P-GPS,
0.379004369312627,36.9222636118437,5328.9814247925,10.498688,0,0.89806761404,6900,2018-04-15 05:05:34,15,0,16.482,5328.9814247925,10.498688,0.223694,0.89806761404,0,0,-5.59235,75.3, 0, 0.2,0,0,1024,1024,1507,1024,75.2,0,98,4.152,4.153,4.154,4.131,0,0,14.134,75.11,6,P-GPS,
0.379004391459873,36.9222635665965,5329.6375927925,11.154856,0,0.90798559336,7000,2018-04-15 05:05:34,15,0,16.482,5329.6375927925,11.154856,0.223694,0.90798559336,0,0,-5.59235,75.3, 0.1, 0.2,0,0,1024,1024,1511,1024,75.2,0,98,4.152,4.153,4.154,4.131,0,0,14.134,75.11,6,P-GPS,
0.379004426589888,36.9222635275623,5330.6218447925,12.139108,0,0.91384845444,7100,2018-04-15 05:05:34,15,0,16.482,5330.6218447925,12.139108,0.223694,0.91384845444,0,0,-5.816044,75.3, 0, 0.2,0,0,1024,1024,1504,1024,75.2,0,98,4.152,4.153,4.154,4.131,0,0,14.134,75.11,6,P-GPS,
0.379004464633189,36.9222634946694,5331.6060967925,13.12336,0,0.91759845456,7200,2018-04-15 05:05:34,15,0,16.482,5331.6060967925,13.12336,0.223694,0.91759845456,0,0,-6.263432,75.3, 0, 0.1,0,0,1024,1024,1537,1024,75.2,0,98,4.152,4.153,4.154,4.131,0,0,14.134,75.11,6,P-GPS,
0.379004470766317,36.9222634181777,5332.2622647925,13.779528,0,0.94118113248,7300,2018-04-15 05:05:35,16,0,16.482,5332.2622647925,13.779528,0.223694,0.94118113248,0,0,-6.487126,75.3, 0, 0.2,0,0,1024,1024,1537,1024,75.2,0,98,4.152,4.153,4.154,4.131,0,0,14.134,75.11,6,P-GPS,
0.379004474501967,36.9222633200084,5333.2465167925,14.76378,0,0.97246394188,7400,2018-04-15 05:05:35,16,0,16.482,5333.2465167925,14.76378,0.223694,0.97246394188,0,0,-6.71082,75.3, -0.1, 0.2,0,0,1024,1024,1569,1024,75.2,0,98,4.152,4.153,4.154,4.131,0,0,14.134,75.11,6,P-GPS,
0.379004485119422,36.9222632124854,5334.5588527925,16.076116,0,1.00605646264,7500,2018-04-15 05:05:35,16,0,16.269,5334.5588527925,16.076116,0.223694,1.00605646264,0,0,-7.158208,75.3, 0, 0.2,0,0,1024,1024,1576,1024,75.2,0,98,4.152,4.153,4.154,4.131,0,0,14.134,75.11,6,P-GPS,
0.379004480301263,36.9222630909254,5335.5431047925,17.060368,0,1.04704071592,7600,2018-04-15 05:05:35,16,0,16.269,5335.5431047925,17.060368,0.223694,1.04704071592,0,0,-7.381902,75.3, -0.1, 0.2,0,0,1024,1024,1576,1024,75.2,0,98,4.152,4.153,4.154,4.131,0,0,14.134,75.11,6,P-GPS,
0.379004485210208,36.9222630113436,5336.5273567925,18.04462,0,1.07283468,7700,2018-04-15 05:05:35,16,0,16.269,5336.5273567925,18.04462,0.223694,1.07283468,0,0,-7.82929,75.3, -0.2, 0.3,0,0,1024,1024,1591,1024,75.2,0,98,4.152,4.153,4.154,4.131,0,0,14.134,75.11,6,P-GPS,
0.379004476796852,36.9222629268397,5337.8396927925,19.356956,0,1.10235239748,7800,2018-04-15 05:05:35,16,0,16.269,5337.8396927925,19.356956,0.223694,1.10235239748,0,0,-8.276678,75.3, -0.2, 0.4,0,0,1024,1024,1607,1024,75.2,0,98,4.152,4.153,4.154,4.131,0,0,14.134,75.11,6,P-GPS,
0.379004476355136,36.9222628726898,5339.1520287925,20.669292,0,1.12060699124,7900,2018-04-15 05:05:35,16,0,16.269,5339.1520287925,20.669292,0.223694,1.12060699124,0,0,-8.500372,75.3, -0.1, 0.4,0,0,1024,1024,1606,1024,75.2,0,98,4.152,4.153,4.154,4.131,0,0,14.134,75.11,6,P-GPS,
0.379004478370743,36.9222628288487,5340.4643647925,21.981628,0,1.13509189984,8000,2018-04-15 05:05:35,16,0,16.269,5340.4643647925,21.981628,0.223694,1.13509189984,0,0,-8.94776,75.3, 0, 0.4,0,0,1024,1024,1605,1024,75.2,0,98,4.152,4.153,4.154,4.131,0,0,14.134,75.11,6,P-GPS,
0.37900449605768,36.9222627399408,5341.7767007925,23.293964,0,1.1627625044,8100,2018-04-15 05:05:35,16,0,16.269,5341.7767007925,23.293964,0.223694,1.1627625044,0,0,-8.94776,75.3, -0.2, 0.2,0,0,1024,1024,1606,1024,75.2,-0.6,98,4.152,4.153,4.154,4.131,0,0,14.134,75.11,6,P-GPS,
0.379004530365739,36.9222626585238,5343.0890367925,24.6063,0,1.18602366,8200,2018-04-15 05:05:35,16,0,16.269,5343.0890367925,24.6063,0.223694,1.18602366,0,0,-9.171454,75.2, -0.3, 0.6,0,0,1024,1024,1609,1024,75.2,-1.8,98,4.152,4.153,4.154,4.131,0,0,14.134,75.11,6,P-GPS,
0.379004580994469,36.9222626146552,5344.4013727925,25.918636,0,1.194799907,8300,2018-04-15 05:05:36,16,0,16.269,5344.4013727925,25.918636,0.223694,1.194799907,0,0,-9.395148,75.2, 0, 0.9,0,0,1024,1024,1607,1024,75.2,-1.8,98,4.152,4.153,4.154,4.131,0,0,14.134,75.11,6,P-GPS,
0.379004627040759,36.9222626016599,5345.7137087925,27.230972,0,1.19384190172,8400,2018-04-15 05:05:36,16,0,16.269,5345.7137087925,27.230972,0.223694,1.194799907,0,0,-9.395148,75.2, 0.1, 0.5,0,0,1024,1024,1602,1024,75.2,-6.8,98,4.152,4.153,4.154,4.131,0,0,14.134,75.11,6,P-GPS,
0.379004667875621,36.9222626407079,5347.3541287925,28.871392,0,1.17564636308,8500,2018-04-15 05:05:36,16,0,16.269,5347.3541287925,28.871392,0.223694,1.194799907,0,0,-9.395148,75.3, 0.5, 0.2,0,0,1024,1024,1600,1024,75.2,-9.6,98,4.113,4.112,4.109,4.083,0,0,15.878,75.11,6,P-GPS,
0.379004712863422,36.9222626938006,5348.6664647925,30.183728,0,1.15218835708,8600,2018-04-15 05:05:36,16,0,16.269,5348.6664647925,30.183728,0.223694,1.194799907,0,0,-9.395148,75.3, 0.6, 0.1,0,0,1024,1024,1595,1024,75.2,-12.5,98,4.113,4.112,4.109,4.083,0,0,15.878,75.11,6,P-GPS,
0.379004754966027,36.9222627385282,5349.9788007925,31.496064,0,1.13204071864,8700,2018-04-15 05:05:36,16,0,16.269,5349.9788007925,31.496064,0.223694,1.194799907,0,0,-9.171454,75.3, 0.7, 0.1,0,0,1024,1024,1594,1024,75.2,-15.6,98,4.113,4.112,4.109,4.083,0,0,15.878,75.11,6,P-GPS,
0.379004799083832,36.9222627664724,5351.2911367925,32.8084,0,1.11764439272,8800,2018-04-15 05:05:36,16,0,16.269,5351.2911367925,32.8084,0.223694,1.194799907,0,0,-9.171454,75.3, 0, 0.2,0,0,1024,1024,1588,1024,75.2,-18.7,98,4.113,4.112,4.109,4.083,0,0,15.878,75.11,6,P-GPS,
0.379004841208421,36.9222627582872,5352.6034727925,34.120736,0,1.11627628244,8900,2018-04-15 05:05:36,16,0,16.269,5352.6034727925,34.120736,0.223694,1.194799907,0,0,-8.94776,75.3, -0.4, 0.2,0,0,1024,1024,1581,1024,75.2,-21.8,98,4.113,4.112,4.109,4.083,0,0,15.878,75.11,6,P-GPS,
0.379004882578634,36.9222627550845,5353.9158087925,35.433072,0,1.11343835584,9000,2018-04-15 05:05:36,16,0,16.269,5353.9158087925,35.433072,0.223694,1.194799907,0,0,-8.94776,75.3, -0.6, 0,0,0,1024,1024,1567,1024,75.2,-24.5,98,4.113,4.112,4.109,4.083,0,0,15.878,75.11,6,P-GPS,
0.379004898386754,36.9222627190562,5355.2281447925,36.745408,0,1.12470147956,9100,2018-04-15 05:05:36,16,0,16.269,5355.2281447925,36.745408,0.223694,1.194799907,0,0,-8.724066,75.3, -0.6, 0,0,0,1024,1024,1569,1024,75.2,-24.5,98,4.113,4.112,4.109,4.083,0,0,15.878,75.11,6,P-GPS,
0.379004930752078,36.9222626952905,5356.5404807925,38.057744,0,1.13024938,9200,2018-04-15 05:05:37,16,0,16.269,5356.5404807925,38.057744,0.223694,1.194799907,0,0,-8.500372,75.3, -0.4, 0.2,0,0,1024,1024,1569,1024,75.2,-24.5,98,4.113,4.112,4.109,4.083,0,0,15.878,75.11,6,P-GPS,
0.37900498548286,36.9222626916082,5357.8528167925,39.37008,0,1.12699806756,9300,2018-04-15 05:05:37,16,0,16.269,5357.8528167925,39.37008,0.223694,1.194799907,0,0,-8.500372,75.3, -0.1, 0.4,0,0,1024,1024,1570,1024,75.2,-24.5,98,4.113,4.112,4.109,4.083,0,0,15.878,75.11,6,P-GPS,
0.379005035307139,36.922262692791,5359.1651527925,40.682416,0,1.1227198522,9400,2018-04-15 05:05:37,16,0,16.269,5359.1651527925,40.682416,0.223694,1.194799907,0,0,-8.500372,75.3, 0, 0.3,0,0,1024,1024,1566,1024,75.2,-24.5,98,4.113,4.112,4.109,4.083,0,0,15.878,75.11,6,P-GPS,
0.379005085143632,36.9222626559978,5360.4774887925,41.994752,0,1.13232615172,9500,2018-04-15 05:05:37,16,0,16.215,5360.4774887925,41.994752,0.223694,1.194799907,0,0,-8.500372,75.3, -0.1, 0.1,0,0,1024,1024,1568,1024,75.2,-24.5,98,4.117,4.11,4.105,4.085,0,0,16.89,75.11,6,P-GPS,
0.379005133241761,36.922262625763,5361.4617407925,42.979004,0,1.14005252992,9600,2018-04-15 05:05:37,16,0,16.215,5361.4617407925,42.979004,0.223694,1.194799907,0,0,-8.276678,75.3, -0.3, 0,0,0,1024,1024,1553,1024,75.2,-24.5,98,4.117,4.11,4.105,4.085,0,0,16.89,75.11,6,P-GPS,
0.379005187085041,36.9222625595253,5362.7740767925,44.29134,0,1.16076447284,9700,2018-04-15 05:05:37,16,0,16.215,5362.7740767925,44.29134,0.223694,1.194799907,0,0,-8.500372,75.3, -0.4, 0,0,0,1024,1024,1537,1024,75.2,-24.5,98,4.117,4.11,4.105,4.085,0,0,16.89,75.11,6,P-GPS,
0.379005246156847,36.9222624902136,5364.0864127925,45.603676,0,1.18279531344,9800,2018-04-15 05:05:37,16,0,16.215,5364.0864127925,45.603676,0.223694,1.194799907,0,0,-8.276678,75.3, -0.7, 0,0,0,1024,1024,1545,1024,75.2,-24.5,98,4.117,4.11,4.105,4.085,0,0,16.89,75.11,6,P-GPS,
0.379005309674712,36.9222624339594,5365.3987487925,46.916012,0,1.20043310928,9900,2018-04-15 05:05:37,16,0,16.215,5365.3987487925,46.916012,0.223694,1.20043310928,0,0,-8.276678,75.3, -0.9, 0,0,0,1024,1024,1569,1024,75.2,-24.5,98,4.117,4.11,4.105,4.085,0,0,16.89,75.11,6,P-GPS,
0.379005380026749,36.9222623680329,5366.7110847925,48.228348,0,1.2218996454,10000,2018-04-15 05:05:37,16,0,16.215,5366.7110847925,48.228348,0.223694,1.2218996454,0,0,-8.052984,75.3, -0.6, 0.3,0,0,1024,1024,1594,1024,75.2,-24.5,98,4.117,4.11,4.105,4.085,0,0,16.89,75.11,6,P-GPS,
0.379005448300078,36.9222623177013,5367.6953367925,49.2126,0,1.23836290052,10100,2018-04-15 05:05:37,16,0,16.215,5367.6953367925,49.2126,0.223694,1.23836290052,0,0,-8.052984,75.3, -0.4, 0.6,0,0,1024,1024,1595,1024,75.2,-24.5,98,4.117,4.11,4.105,4.085,0,0,16.89,75.11,6,P-GPS,
0.379005507995578,36.9222622561294,5369.0076727925,50.524936,0,1.25960633952,10200,2018-04-15 05:05:37,16,0,16.215,5369.0076727925,50.524936,0.223694,1.25960633952,0,0,-8.276678,75.3, -0.4, 0.8,0,0,1024,1024,1593,1024,75.2,-24.5,98,4.117,4.11,4.105,4.085,0,0,16.89,75.11,6,P-GPS,
0.379005548502308,36.9222622055352,5370.3200087925,51.837272,0,1.27747051332,10300,2018-04-15 05:05:38,16,0,16.215,5370.3200087925,51.837272,0.223694,1.27747051332,0,0,-8.500372,75.3, -0.6, 0.4,0,0,1024,1024,1599,1024,75.2,-24.5,98,4.117,4.11,4.105,4.085,0,0,16.89,75.11,6,P-GPS,
0.379005577994651,36.922262146854,5371.6323447925,53.149608,0,1.29856303368,10400,2018-04-15 05:05:38,16,0,16.215,5371.6323447925,53.149608,0.223694,1.29856303368,0,0,-8.724066,75.3, -0.6, 0.3,0,0,1024,1024,1595,1024,75.2,-24.5,98,4.117,4.11,4.105,4.085,0,0,16.89,75.11,6,P-GPS,
0.379005605128192,36.9222620988261,5372.9446807925,54.461944,0,1.3158793072,10500,2018-04-15 05:05:38,16,0,16.349,5372.9446807925,54.461944,0.223694,1.3158793072,0,0,-8.724066,75.3, -0.8, 0.3,0,0,1024,1024,1592,1024,75.2,-24.5,98,4.128,4.128,4.126,4.103,0,0,14.878,75.11,6,P-GPS,
0.379005628800882,36.9222620588276,5374.2570167925,55.77428,0,1.33035765412,10600,2018-04-15 05:05:38,16,0,16.349,5374.2570167925,55.77428,0.223694,1.33035765412,0,0,-8.94776,75.3, -0.6, 0.1,0,0,1024,1024,1600,1024,75.2,-24.5,98,4.128,4.128,4.126,4.103,0,0,14.878,75.11,6,P-GPS,
0.379005619429187,36.922261963593,5375.5693527925,57.086616,0,1.3651411198,10700,2018-04-15 05:05:38,16,0,16.349,5375.5693527925,57.086616,0.223694,1.3651411198,0,0,-8.94776,75.3, -0.4, 0.2,0,0,1024,1024,1609,1024,75.2,-24.5,98,4.128,4.128,4.126,4.103,0,0,14.878,75.11,6,P-GPS,
0.379005620700187,36.9222618694123,5376.8816887925,58.398952,0,1.3994915146,10800,2018-04-15 05:05:38,16,0,16.349,5376.8816887925,58.398952,0.223694,1.3994915146,0,0,-9.171454,75.3, -0.8, 0.5,0,0,1024,1024,1609,1024,75.2,-24.5,98,4.128,4.128,4.126,4.103,0,0,14.878,75.11,6,P-GPS,
0.379005638860595,36.9222618002355,5378.1940247925,59.711288,0,1.4246719616,10900,2018-04-15 05:05:38,16,0,16.349,5378.1940247925,59.711288,0.223694,1.4246719616,0,0,-9.171454,75.3, -1, 0.4,0,0,1024,1024,1610,1024,75.2,-24.5,98,4.128,4.128,4.126,4.103,0,0,14.878,75.11,6,P-GPS,
0.379005655287931,36.922261745609,5379.8344447925,61.351708,0,1.44457353704,11000,2018-04-15 05:05:38,16,0,16.349,5379.8344447925,61.351708,0.223694,1.44457353704,0,0,-9.395148,75.3, -0.9, 0.4,0,0,1024,1024,1614,1024,75.2,-24.5,98,4.128,4.128,4.126,4.103,0,0,14.878,75.11,6,P-GPS,
0.379005652474794,36.9222616458851,5381.1467807925,62.664044,0,1.48096133348,11100,2018-04-15 05:05:38,16,0,16.349,5381.1467807925,62.664044,0.223694,1.48096133348,0,0,-9.171454,75.3, -1, 0.7,0,0,1024,1024,1615,1024,75.2,-24.5,98,4.128,4.128,4.126,4.103,0,0,14.878,75.11,6,P-GPS,
0.379005653828845,36.92226157899,5382.4591167925,63.97638,0,1.5053642214,11200,2018-04-15 05:05:38,16,0,16.349,5382.4591167925,63.97638,0.223694,1.5053642214,0,0,-9.395148,75.3, -1.1, 1.1,0,0,1024,1024,1617,1024,75.2,-24.5,98,4.128,4.128,4.126,4.103,0,0,14.878,75.11,6,P-GPS,
0.379005670919365,36.92226148083,5383.7714527925,65.288716,0,1.54117459,11300,2018-04-15 05:05:39,16,0,16.349,5383.7714527925,65.288716,0.223694,1.54117459,0,0,-9.171454,75.3, -0.9, 0.9,0,0,1024,1024,1622,1024,75.2,-24.5,98,4.128,4.128,4.126,4.103,0,0,14.878,75.11,6,P-GPS,
0.379005670715809,36.9222614223637,5385.0837887925,66.601052,0,1.56250661168,11400,2018-04-15 05:05:39,16,0,16.349,5385.0837887925,66.601052,0.223694,1.56250661168,0,0,-9.171454,75.3, -0.9, 0.6,0,0,1024,1024,1625,1024,75.2,-24.5,98,4.128,4.128,4.126,4.103,0,0,14.878,75.11,6,P-GPS,
0.379005611806033,36.9222613647715,5386.7242087925,68.241472,0,1.58363194044,11500,2018-04-15 05:05:39,16,0,16.349,5386.7242087925,68.241472,0.223694,1.58363194044,0,0,-9.395148,75.3, -0.9, 0.7,0,0,1024,1024,1632,1024,75.2,-24.5,98,4.128,4.128,4.126,4.103,0,0,14.878,75.11,6,P-GPS,
0.379005556784982,36.9222613373914,5388.0365447925,69.553808,0,1.59398955232,11600,2018-04-15 05:05:39,16,0,16.349,5388.0365447925,69.553808,0.223694,1.59398955232,0,0,-9.395148,75.3, -0.9, 0.4,0,0,1024,1024,1635,1024,75.2,-24.5,98,4.128,4.128,4.126,4.103,0,0,14.878,75.11,6,P-GPS,
0.379005510351937,36.9222612541219,5389.6769647925,71.194228,0,1.62485897588,11700,2018-04-15 05:05:39,16,0,16.349,5389.6769647925,71.194228,0.223694,1.62485897588,0,0,-9.618842,75.3, -1, 0.4,0,0,1024,1024,1635,1024,75.2,-24.5,98,4.128,4.128,4.126,4.103,0,0,14.878,75.11,6,P-GPS,
0.379005465707737,36.922261215555,5390.9893007925,72.506564,0,1.63956041992,11800,2018-04-15 05:05:39,16,0,16.349,5390.9893007925,72.506564,0.223694,1.63956041992,0,0,-9.842536,75.3, -0.9, 0.2,0,0,1024,1024,1635,1024,75.2,-24.5,98,4.128,4.128,4.126,4.103,0,0,14.878,75.11,6,P-GPS,
0.37900536269522,36.9222611168535,5392.6297207925,74.146984,0,1.67758535552,11900,2018-04-15 05:05:39,16,0,16.349,5392.6297207925,74.146984,0.223694,1.67758535552,0,0,-9.842536,75.3, -0.7, 0.3,0,0,1024,1024,1614,1024,75.2,-24.5,98,4.128,4.128,4.126,4.103,0,0,14.878,75.11,6,P-GPS,
0.379005254506693,36.9222610443534,5394.2701407925,75.787404,0,1.70698496276,12000,2018-04-15 05:05:39,16,0,16.349,5394.2701407925,75.787404,0.223694,1.70698496276,0,0,-9.842536,75.4, -0.8, 0.3,0,0,1024,1024,1612,1024,75.2,-24.5,98,4.128,4.128,4.126,4.103,0,0,14.878,75.11,6,P-GPS,
0.379005147960452,36.9222610255297,5395.5824767925,77.09974,0,1.71765425444,12100,2018-04-15 05:05:39,16,0,16.349,5395.5824767925,77.09974,0.223694,1.71765425444,0,0,-9.842536,75.3, -1, 0.5,0,0,1024,1024,1615,1024,75.2,-24.5,98,4.128,4.128,4.126,4.103,0,0,14.878,75.11,6,P-GPS,
0.379005014343366,36.9222609857878,5397.2228967925,78.74016,0,1.73804795588,12200,2018-04-15 05:05:39,16,0,16.349,5397.2228967925,78.74016,0.223694,1.73804795588,0,0,-9.618842,75.3, -0.7, 0.3,0,0,1024,1024,1616,1024,75.2,-24.5,98,4.128,4.128,4.126,4.103,0,0,14.878,75.11,6,P-GPS,
0.379004883725058,36.9222609400866,5398.5352327925,80.052496,0,1.76164375716,12300,2018-04-15 05:05:40,16,0,16.349,5398.5352327925,80.052496,0.223694,1.76164375716,0,0,-9.618842,75.3, -0.7, 0,0,0,1024,1024,1633,1024,75.2,-24.5,98,4.128,4.128,4.126,4.103,0,0,14.878,75.11,6,P-GPS,
0.379004735697871,36.9222608657132,5400.1756527925,81.692916,0,1.797818299,12400,2018-04-15 05:05:40,16,0,16.349,5400.1756527925,81.692916,0.223694,1.797818299,0,0,-9.618842,75.3, -0.7, -0.3,0,0,1024,1024,1652,1024,75.2,-24.5,98,4.128,4.128,4.126,4.103,0,0,14.878,75.11,6,P-GPS,
0.379004611942641,36.9222608132202,5401.4879887925,83.005252,0,1.8255906096,12500,2018-04-15 05:05:40,16,0,16.215,5401.4879887925,83.005252,0.223694,1.8255906096,0,0,-9.618842,75.3, -1.1, -0.3,0,0,1024,1024,1665,1024,75.2,-24.5,98,4.098,4.104,4.109,4.081,0,0,16.194,75.11,6,P-GPS,
0.37900449339436,36.9222607521466,5403.1284087925,84.645672,0,1.85685373396,12600,2018-04-15 05:05:40,16,0,16.215,5403.1284087925,84.645672,0.223694,1.85685373396,0,0,-9.618842,75.4, -1.2, 0,0,0,1024,1024,1684,1024,75.2,-24.5,98,4.098,4.104,4.109,4.081,0,0,16.194,75.11,6,P-GPS,
0.379004400314537,36.9222607426927,5404.4407447925,85.958008,0,1.86830386556,12700,2018-04-15 05:05:40,16,0,16.215,5404.4407447925,85.958008,0.223694,1.86830386556,0,0,-10.06623,75.3, -1, -0.1,0,0,1024,1024,1684,1024,75.2,-24.5,98,4.098,4.104,4.109,4.081,0,0,16.194,75.11,6,P-GPS,
0.379004312799107,36.9222607487377,5406.0811647925,87.598428,0,1.87431436444,12800,2018-04-15 05:05:40,16,0,16.215,5406.0811647925,87.598428,0.223694,1.87431436444,0,0,-10.513618,75.3, -0.7, -0.2,0,0,1024,1024,1684,1024,75.2,-24.5,98,4.098,4.104,4.109,4.081,0,0,16.194,75.11,6,P-GPS,
0.379004226152451,36.9222607118699,5407.7215847925,89.238848,0,1.8958005856,12900,2018-04-15 05:05:40,16,0,16.215,5407.7215847925,89.238848,0.223694,1.8958005856,0,0,-10.737312,75.3, -0.8, -0.1,0,0,1024,1024,1684,1024,75.2,-24.5,98,4.098,4.104,4.109,4.081,0,0,16.194,75.11,6,P-GPS,
0.379004127310176,36.9222606614296,5409.3620047925,90.879268,0,1.92369428728,13000,2018-04-15 05:05:40,16,0,16.215,5409.3620047925,90.879268,0.223694,1.92369428728,0,0,-10.961006,75.4, -1.2, 0,0,0,1024,1024,1684,1024,75.2,-24.5,98,4.098,4.104,4.109,4.081,0,0,16.194,75.11,6,P-GPS,
0.379004015850308,36.9222606304564,5411.0024247925,92.519688,0,1.946686414,13100,2018-04-15 05:05:40,16,0,16.215,5411.0024247925,92.519688,0.223694,1.946686414,0,0,-10.961006,75.3, -1.2, 0,0,0,1024,1024,1684,1024,75.2,-24.5,98,4.098,4.104,4.109,4.081,0,0,16.194,75.11,6,P-GPS,
0.379003911623175,36.9222606123235,5412.6428447925,94.160108,0,1.96502302876,13200,2018-04-15 05:05:40,16,0,16.215,5412.6428447925,94.160108,0.223694,1.96502302876,0,0,-11.1847,75.3, -1.4, -0.2,0,0,1024,1024,1684,1024,75.2,-24.5,98,4.098,4.104,4.109,4.081,0,0,16.194,75.11,6,P-GPS,
0.37900379480532,36.9222605906307,5414.2832647925,95.800528,0,1.98673562788,13300,2018-04-15 05:05:41,16,0,16.215,5414.2832647925,95.800528,0.223694,1.98673562788,0,0,-11.1847,75.3, -1.2, -0.5,0,0,1024,1024,1684,1024,75.2,-24.5,98,4.098,4.104,4.109,4.081,0,0,16.194,75.11,6,P-GPS,
0.379003684105529,36.9222605776901,5416.2517687925,97.769032,0,2.00536751824,13400,2018-04-15 05:05:41,16,0,16.215,5416.2517687925,97.769032,0.223694,2.00536751824,0,0,-11.1847,75.3, -0.6, -0.5,0,0,1024,1024,1684,1024,75.2,-24.5,98,4.098,4.104,4.109,4.081,0,0,16.194,75.11,6,P-GPS,
0.379003587245884,36.922260571334,5417.8921887925,99.409452,0,2.02051843736,13500,2018-04-15 05:05:41,16,0,16.135,5417.8921887925,99.409452,0.223694,2.02051843736,0,0,-11.1847,75.3, -0.3, -0.2,0,0,1024,1024,1684,1024,75.2,-24.5,97,4.094,4.094,4.093,4.063,0,0,15.742,75.11,6,P-GPS,
0.379003502580027,36.9222605622179,5419.5326087925,101.049872,0,2.03537408088,13600,2018-04-15 05:05:41,16,0,16.135,5419.5326087925,101.049872,0.223694,2.03537408088,0,0,-11.1847,75.3, -0.6, 0.1,0,0,1024,1024,1683,1024,75.2,-24.5,97,4.094,4.094,4.093,4.063,0,0,15.742,75.11,6,P-GPS,
0.379003392454059,36.9222605682094,5421.1730287925,102.690292,0,2.0492782808,13700,2018-04-15 05:05:41,16,0,16.135,5421.1730287925,102.690292,0.223694,2.0492782808,0,0,-11.1847,75.3, -0.8, 0.2,0,0,1024,1024,1684,1024,75.2,-24.5,97,4.094,4.094,4.093,4.063,0,0,15.742,75.11,6,P-GPS,
0.379003265723866,36.9222605553183,5422.8134487925,104.330712,0,2.07267723168,13800,2018-04-15 05:05:41,16,0,16.135,5422.8134487925,104.330712,0.223694,2.07267723168,0,0,-10.961006,75.3, -0.7, 0,0,0,1024,1024,1684,1024,75.2,-24.5,97,4.094,4.094,4.093,4.063,0,0,15.742,75.11,6,P-GPS,
0.379003140507311,36.922260523904,5424.4538687925,105.971132,0,2.1026739518,13900,2018-04-15 05:05:41,16,0,16.135,5424.4538687925,105.971132,0.223694,2.1026739518,0,0,-10.961006,75.3, -0.5, 0.1,0,0,1024,1024,1684,1024,75.2,-24.5,97,4.094,4.094,4.093,4.063,0,0,15.742,75.11,6,P-GPS,
0.379002995387913,36.9222604619563,5426.0942887925,107.611552,0,2.14651253588,14000,2018-04-15 05:05:41,16,0,16.135,5426.0942887925,107.611552,0.223694,2.14651253588,0,0,-10.961006,75.3, -0.2, 0.1,0,0,1024,1024,1684,1024,75.2,-24.5,97,4.094,4.094,4.093,4.063,0,0,15.742,75.11,6,P-GPS,
0.379002879132889,36.9222604201564,5427.7347087925,109.251972,0,2.17956371804,14100,2018-04-15 05:05:41,16,0,16.135,5427.7347087925,109.251972,0.223694,2.17956371804,0,0,-10.961006,75.3, -0.1, 0,0,0,1024,1024,1684,1024,75.2,-24.5,97,4.094,4.094,4.093,4.063,0,0,15.742,75.11,6,P-GPS,
0.379002767879224,36.9222603817116,5429.7032127925,111.220476,0,2.21109259044,14200,2018-04-15 05:05:42,16,0,16.135,5429.7032127925,111.220476,0.223694,2.21109259044,0,0,-11.1847,75.3, -0.1, 0,0,0,1024,1024,1684,1024,75.2,-24.5,97,4.094,4.094,4.093,4.063,0,0,15.742,75.11,6,P-GPS,
0.379002631210229,36.922260313748,5431.3436327925,112.860896,0,2.25693248692,14300,2018-04-15 05:05:42,16,0,16.135,5431.3436327925,112.860896,0.223694,2.25693248692,0,0,-11.1847,75.3, -0.4, 0,0,0,1024,1024,1684,1024,75.2,-24.5,97,4.094,4.094,4.093,4.063,0,0,15.742,75.11,6,P-GPS,
0.379002521005689,36.9222602718033,5432.9840527925,114.501316,0,2.29015099192,14400,2018-04-15 05:05:42,16,0,16.135,5432.9840527925,114.501316,0.223694,2.29015099192,0,0,-10.961006,75.3, -0.8, 0,0,0,1024,1024,1684,1024,75.2,-24.5,97,4.094,4.094,4.093,4.063,0,0,15.742,75.11,6,P-GPS,
0.379002354283964,36.9222601845725,5434.6244727925,116.141736,0,2.34844823788,14500,2018-04-15 05:05:42,16,0,16.269,5434.6244727925,116.141736,0.223694,2.34844823788,0,0,-10.961006,75.3, -0.7, 0.1,0,0,1024,1024,1684,1024,75.2,-24.5,97,4.084,4.09,4.093,4.063,0,0,16.902,75.11,6,P-GPS,
0.379002064683214,36.9222600587299,5437.9053127925,119.422576,0,2.44308078684,14700,2018-04-15 05:05:42,16,0,16.269,5437.9053127925,119.422576,0.223694,2.44308078684,0,0,-10.961006,75.3, -0.5, -0.3,0,0,1024,1024,1684,1024,75.2,-24.5,97,4.084,4.09,4.093,4.063,0,0,16.902,75.11,6,P-GPS,
0.379001927215366,36.9222599831638,5439.5457327925,121.062996,0,2.49344168084,14800,2018-04-15 05:05:42,16,0,16.269,5439.5457327925,121.062996,0.223694,2.49344168084,0,0,-10.961006,75.3, -0.8, -0.3,0,0,1024,1024,1684,1024,75.2,-24.5,97,4.084,4.09,4.093,4.063,0,0,16.902,75.11,6,P-GPS,
0.379001713626514,36.9222598899343,5442.8265727925,124.343836,0,2.564960712,15000,2018-04-15 05:05:42,16,0,16.269,5442.8265727925,124.343836,0.223694,2.564960712,0,0,-11.1847,75.4, -0.7, -0.9,0,0,1024,1024,1684,1024,75.2,-24.5,97,4.084,4.09,4.093,4.063,0,0,16.902,75.11,6,P-GPS,
0.379001597200198,36.9222598310681,5444.7950767925,126.31234,0,2.60669955848,15100,2018-04-15 05:05:42,16,0,16.269,5444.7950767925,126.31234,0.223694,2.60669955848,0,0,-11.1847,75.4, -0.5, -0.9,0,0,1024,1024,1684,1024,75.2,-24.5,97,4.084,4.09,4.093,4.063,0,0,16.902,75.11,6,P-GPS,
0.379001509936566,36.9222597813472,5446.4354967925,127.95276,0,2.63978354904,15200,2018-04-15 05:05:42,16,0,16.269,5446.4354967925,127.95276,0.223694,2.63978354904,0,0,-10.961006,75.3, -0.7, -0.6,0,0,1024,1024,1684,1024,75.2,-24.5,97,4.084,4.09,4.093,4.063,0,0,16.902,75.11,6,P-GPS,
0.379001420650712,36.9222597785526,5448.0759167925,129.59318,0,2.65945218484,15300,2018-04-15 05:05:43,16,0,16.269,5448.0759167925,129.59318,0.223694,2.65945218484,0,0,-11.1847,75.4, -0.8, -0.3,0,0,1024,1024,1684,1024,75.2,-24.5,97,4.084,4.09,4.093,4.063,0,0,16.902,75.11,6,P-GPS,
0.379001361802562,36.9222597873852,5449.7163367925,131.2336,0,2.66940297256,15400,2018-04-15 05:05:43,16,0,16.269,5449.7163367925,131.2336,0.223694,2.66940297256,0,0,-11.1847,75.3, -0.8, -0.2,0,0,1024,1024,1684,1024,75.2,-24.6,97,4.084,4.09,4.093,4.063,0,0,16.902,75.11,6,P-GPS,
0.379001323404057,36.922259720564,5451.3567567925,132.87402,0,2.69736229104,15500,2018-04-15 05:05:43,16,0,16.269,5451.3567567925,132.87402,0.223694,2.69736229104,0,0,-11.1847,75.3, -0.8, -0.2,0,0,1024,1024,1684,1024,75.2,-24.8,97,4.084,4.09,4.093,4.063,0,0,16.902,75.11,6,P-GPS,
0.379001299521653,36.9222596832575,5452.9971767925,134.51444,0,2.71349418132,15600,2018-04-15 05:05:43,16,0,16.269,5452.9971767925,134.51444,0.223694,2.71349418132,0,0,-10.961006,75.3, -0.8, -0.2,0,0,1024,1024,1684,1024,75.2,-24.8,97,4.084,4.09,4.093,4.063,0,0,16.902,75.11,6,P-GPS,
0.379001237071386,36.9222596207239,5454.6375967925,136.15486,0,2.74534457604,15700,2018-04-15 05:05:43,16,0,16.269,5454.6375967925,136.15486,0.223694,2.74534457604,0,0,-10.961006,75.3, -0.8, -0.1,0,0,1024,1024,1684,1024,75.2,-25.1,97,4.084,4.09,4.093,4.063,0,0,16.902,75.11,6,P-GPS,
0.379001200385138,36.9222595901811,5456.2780167925,137.79528,0,2.76223434036,15800,2018-04-15 05:05:43,16,0,16.269,5456.2780167925,137.79528,0.223694,2.76223434036,0,0,-10.961006,75.3, -0.6, 0,0,0,1024,1024,1684,1024,75.2,-25.6,97,4.084,4.09,4.093,4.063,0,0,16.902,75.11,6,P-GPS,
0.379001153610323,36.9222594906761,5457.9184367925,139.4357,0,2.80162738624,15900,2018-04-15 05:05:43,16,0,16.269,5457.9184367925,139.4357,0.223694,2.80162738624,0,0,-10.961006,75.3, -0.6, 0,0,0,1024,1024,1684,1024,75.2,-26,97,4.084,4.09,4.093,4.063,0,0,16.902,75.11,6,P-GPS,
0.379001107875422,36.9222594103948,5459.5588567925,141.07612,0,2.83513460516,16000,2018-04-15 05:05:43,16,0,16.269,5459.5588567925,141.07612,0.223694,2.83513460516,0,0,-10.961006,75.3, -0.6, -0.1,0,0,1024,1024,1684,1024,75.2,-26.6,97,4.084,4.09,4.093,4.063,0,0,16.902,75.11,6,P-GPS,
0.3790010800502,36.9222593821977,5461.1992767925,142.71654,0,2.84942266336,16100,2018-04-15 05:05:43,16,0,16.269,5461.1992767925,142.71654,0.223694,2.84942266336,0,0,-10.961006,75.3, -0.5, 0,0,0,1024,1024,1684,1024,75.2,-27.2,97,4.084,4.09,4.093,4.063,0,0,16.902,75.11,6,P-GPS,
0.379001039834096,36.9222593399101,5462.8396967925,144.35696,0,2.87052830708,16200,2018-04-15 05:05:43,16,0,16.269,5462.8396967925,144.35696,0.223694,2.87052830708,0,0,-10.961006,75.3, -0.5, 0,0,0,1024,1024,1684,1024,75.2,-27.9,97,4.084,4.09,4.093,4.063,0,0,16.902,75.11,6,P-GPS,
0.379001005769757,36.9222593007418,5464.4801167925,145.99738,0,2.88939313708,16300,2018-04-15 05:05:44,16,0,16.269,5464.4801167925,145.99738,0.223694,2.88939313708,0,0,-10.961006,75.3, -0.6, 0,0,0,1024,1024,1682,1024,75.2,-29.3,97,4.084,4.09,4.093,4.063,0,0,16.902,75.11,6,P-GPS,
0.379000969321033,36.9222592036329,5468.0890407925,149.606304,0,2.9258859204,16500,2018-04-15 05:05:44,16,0,16.242,5468.0890407925,149.606304,0.223694,2.9258859204,0,0,-11.1847,75.3, -0.7, 0.2,0,0,1024,1024,1681,1024,75.2,-29.6,97,4.082,4.085,4.086,4.058,0,0,16.766,75.11,6,P-GPS,
0.379000966761208,36.9222591498774,5469.7294607925,151.246724,0,2.94235245636,16600,2018-04-15 05:05:44,16,0,16.242,5469.7294607925,151.246724,0.223694,2.94235245636,0,0,-11.1847,75.3, -0.7, 0.2,0,0,1024,1024,1681,1024,75.2,-29.6,97,4.082,4.085,4.086,4.058,0,0,16.766,75.11,6,P-GPS,
0.379000977566176,36.922259112216,5471.3698807925,152.887144,0,2.95124353276,16700,2018-04-15 05:05:44,16,0,16.242,5471.3698807925,152.887144,0.223694,2.95124353276,0,0,-11.1847,75.3, -0.7, 0.3,0,0,1024,1024,1684,1024,75.2,-29.6,97,4.082,4.085,4.086,4.058,0,0,16.766,75.11,6,P-GPS,
0.37900098814825,36.9222590618382,5473.0103007925,154.527564,0,2.96401912372,16800,2018-04-15 05:05:44,16,0,16.242,5473.0103007925,154.527564,0.223694,2.96401912372,0,0,-10.961006,75.3, -0.5, 0.4,0,0,1024,1024,1684,1024,75.2,-29.6,97,4.082,4.085,4.086,4.058,0,0,16.766,75.11,6,P-GPS,
0.379001000508102,36.9222590234135,5474.6507207925,156.167984,0,2.97291020012,16900,2018-04-15 05:05:44,16,0,16.242,5474.6507207925,156.167984,0.223694,2.97291020012,0,0,-10.961006,75.3, -0.4, 0.5,0,0,1024,1024,1684,1024,75.2,-29.6,97,4.082,4.085,4.086,4.058,0,0,16.766,75.11,6,P-GPS,
0.379001008325651,36.9222589844684,5476.2911407925,157.808404,0,2.98294628968,17000,2018-04-15 05:05:44,16,0,16.242,5476.2911407925,157.808404,0.223694,2.98294628968,0,0,-10.961006,75.4, -0.7, 0.4,0,0,1024,1024,1684,1024,75.2,-29.6,97,4.082,4.085,4.086,4.058,0,0,16.766,75.11,6,P-GPS,
0.379000998107076,36.9222589107173,5477.9315607925,159.448824,0,3.00721466316,17100,2018-04-15 05:05:44,16,0,16.242,5477.9315607925,159.448824,0.223694,3.00721466316,0,0,-10.961006,75.3, -1, 0.7,0,0,1024,1024,1684,1024,75.2,-29.6,97,4.082,4.085,4.086,4.058,0,0,16.766,75.11,6,P-GPS,
0.379000993707707,36.9222588716358,5479.5719807925,161.089244,0,3.0198819864,17200,2018-04-15 05:05:44,16,0,16.242,5479.5719807925,161.089244,0.223694,3.0198819864,0,0,-11.1847,75.3, -1, 0.7,0,0,1024,1024,1684,1024,75.2,-29.6,97,4.082,4.085,4.086,4.058,0,0,16.766,75.11,6,P-GPS,
0.379001006619551,36.9222588170783,5481.2124007925,162.729664,0,3.0336943228,17300,2018-04-15 05:05:45,16,0,16.242,5481.2124007925,162.729664,0.223694,3.0336943228,0,0,-11.1847,75.3, -0.7, 0.2,0,0,1024,1024,1684,1024,75.2,-29.6,97,4.082,4.085,4.086,4.058,0,0,16.766,75.11,6,P-GPS,
0.37900101365509,36.9222587870199,5483.1809047925,164.698168,0,3.04135180336,17400,2018-04-15 05:05:45,16,0,16.242,5483.1809047925,164.698168,0.223694,3.04135180336,0,0,-11.1847,75.4, -1, 0.2,0,0,1024,1024,1684,1024,75.2,-29.6,97,4.082,4.085,4.086,4.058,0,0,16.766,75.11,6,P-GPS,
0.379000968040186,36.9222586890936,5484.8213247925,166.338588,0,3.08029537416,17500,2018-04-15 05:05:45,16,0,16.189,5484.8213247925,166.338588,0.223694,3.08029537416,0,0,-11.1847,75.4, -1.2, 0.1,0,0,1024,1024,1684,1023,75.2,-29.6,97,4.077,4.08,4.08,4.05,0,0,16.846,75.11,6,P-GPS,
0.379000935891457,36.9222586385788,5486.4617447925,167.979008,0,3.1021326452,17600,2018-04-15 05:05:45,16,0,16.189,5486.4617447925,167.979008,0.223694,3.1021326452,0,0,-11.1847,75.3, -1.2, 0,0,0,1024,1024,1684,1023,75.2,-29.6,97,4.077,4.08,4.08,4.05,0,0,16.846,75.11,6,P-GPS,
0.379000914315077,36.9222585270619,5488.1021647925,169.619428,0,3.14036755456,17700,2018-04-15 05:05:45,16,0,16.189,5488.1021647925,169.619428,0.223694,3.14036755456,0,0,-10.961006,75.3, -1.2, -0.1,0,0,1024,1024,1684,1023,75.2,-29.6,97,4.077,4.08,4.08,4.05,0,0,16.846,75.11,6,P-GPS,
0.379000906351833,36.9222584701502,5489.7425847925,171.259848,0,3.15929800136,17800,2018-04-15 05:05:45,16,0,16.189,5489.7425847925,171.259848,0.223694,3.15929800136,0,0,-10.737312,75.3, -1, 0,0,0,1024,1024,1684,1024,75.2,-29.6,97,4.077,4.08,4.08,4.05,0,0,16.846,75.11,6,P-GPS,
0.379000904970384,36.9222583570707,5491.3830047925,172.900268,0,3.19412411796,17900,2018-04-15 05:05:45,16,0,16.189,5491.3830047925,172.900268,0.223694,3.19412411796,0,0,-10.961006,75.3, -0.8, 0,0,0,1024,1024,1684,1023,75.2,-29.6,97,4.077,4.08,4.08,4.05,0,0,16.846,75.11,6,P-GPS,
0.379000902793314,36.9222582964658,5493.0234247925,174.540688,0,3.21313330492,18000,2018-04-15 05:05:45,16,0,16.189,5493.0234247925,174.540688,0.223694,3.21313330492,0,0,-10.961006,75.4, -0.6, -0.2,0,0,1024,1024,1684,1023,75.2,-29.6,97,4.077,4.08,4.08,4.05,0,0,16.846,75.11,6,P-GPS,
0.379000862942369,36.9222582045371,5494.6638447925,176.181108,0,3.2492127024,18100,2018-04-15 05:05:46,16,0,16.189,5494.6638447925,176.181108,0.223694,3.2492127024,0,0,-10.961006,75.3, -0.8, -0.1,0,0,1024,1024,1684,1024,75.2,-29.6,97,4.077,4.08,4.08,4.05,0,0,16.846,75.11,6,P-GPS,
0.379000839202638,36.9222581464134,5496.3042647925,177.821528,0,3.27174551152,18200,2018-04-15 05:05:46,16,0,16.189,5496.3042647925,177.821528,0.223694,3.27174551152,0,0,-10.961006,75.3, -1.1, 0,0,0,1024,1024,1684,1023,75.2,-29.6,97,4.077,4.08,4.08,4.05,0,0,16.846,75.11,6,P-GPS,
0.379000823180606,36.9222580613153,5497.9446847925,179.461948,0,3.3010827828,18300,2018-04-15 05:05:46,16,0,16.189,5497.9446847925,179.461948,0.223694,3.3010827828,0,0,-10.961006,75.3, -1.2, 0,0,0,1024,1024,1684,1023,75.2,-29.6,97,4.077,4.08,4.08,4.05,0,0,16.846,75.11,6,P-GPS,
0.379000815384655,36.9222580184651,5499.5851047925,181.102368,0,3.3158137544,18400,2018-04-15 05:05:46,16,0,16.189,5499.5851047925,181.102368,0.223694,3.3158137544,0,0,-11.1847,75.3, -1.2, 0,0,0,1024,1024,1684,1023,75.2,-29.6,97,4.077,4.08,4.08,4.05,0,0,16.846,75.11,6,P-GPS,
0.379000812655608,36.9222579558726,5501.2255247925,182.742788,0,3.3356956448,18500,2018-04-15 05:05:46,16,0,16.162,5501.2255247925,182.742788,0.223694,3.3356956448,0,0,-11.1847,75.3, -1.1, 0,0,0,1024,1024,1684,1024,75.2,-29.6,97,4.077,4.08,4.08,4.05,0,0,16.562,75.11,6,P-GPS,
0.379000810637205,36.9222578952292,5502.8659447925,184.383208,0,3.3548557504,18600,2018-04-15 05:05:46,16,0,16.162,5502.8659447925,184.383208,0.223694,3.3548557504,0,0,-11.1847,75.3, -1.1, 0,0,0,1024,1024,1684,1024,75.2,-29.6,97,4.077,4.08,4.08,4.05,0,0,16.562,75.11,6,P-GPS,
0.379000808863729,36.9222578597331,5504.5063647925,186.023628,0,3.3661746484,18700,2018-04-15 05:05:46,16,0,16.162,5504.5063647925,186.023628,0.223694,3.3661746484,0,0,-11.1847,75.4, -1.1, 0.1,0,0,1024,1024,1684,1024,75.2,-29.6,97,4.077,4.08,4.08,4.05,0,0,16.562,75.11,6,P-GPS,
0.379000805864934,36.9222578087393,5506.1467847925,187.664048,0,3.3826116568,18800,2018-04-15 05:05:46,16,0,16.162,5506.1467847925,187.664048,0.223694,3.3826116568,0,0,-11.1847,75.4, -1.1, 0,0,0,1024,1024,1684,1024,75.2,-29.6,97,4.077,4.08,4.08,4.05,0,0,16.562,75.11,6,P-GPS,
0.37900080572091,36.9222577730735,5507.7872047925,189.304468,0,3.393700896,18900,2018-04-15 05:05:46,16,0,16.162,5507.7872047925,189.304468,0.223694,3.393700896,0,0,-10.961006,75.4, -1.2, 0,0,0,1024,1024,1684,1024,75.2,-29.6,97,4.077,4.08,4.08,4.05,0,0,16.562,75.11,6,P-GPS,
0.37900082654509,36.9222576893549,5511.0680447925,192.585308,0,3.4158793744,19100,2018-04-15 05:05:46,16,0,16.162,5511.0680447925,192.585308,0.223694,3.4158793744,0,0,-11.1847,75.4, -1.3, 0.1,0,0,1024,1024,1684,1024,75.2,-29.6,97,4.077,4.08,4.08,4.05,0,0,16.562,75.11,6,P-GPS,
0.379000845860364,36.9222576759357,5512.7084647925,194.225728,0,3.4164371172,19200,2018-04-15 05:05:47,16,0,16.162,5512.7084647925,194.225728,0.223694,3.4164371172,0,0,-11.1847,75.3, -1.2, 0.3,0,0,1024,1024,1684,1024,75.2,-29.7,97,4.077,4.08,4.08,4.05,0,0,16.562,75.11,6,P-GPS,
0.37900086149682,36.9222575847093,5514.3488847925,195.866148,0,3.442093286,19300,2018-04-15 05:05:47,16,0,16.162,5514.3488847925,195.866148,0.223694,3.442093286,0,0,-10.961006,75.3, -1.1, 0.5,0,0,1024,1024,1684,1024,75.2,-29.8,97,4.077,4.08,4.08,4.05,0,0,16.562,75.11,6,P-GPS,
0.379000877861213,36.9222575426664,5515.9893047925,197.506568,0,3.4522966984,19400,2018-04-15 05:05:47,16,0,16.162,5515.9893047925,197.506568,0.223694,3.4522966984,0,0,-10.961006,75.3, -1.2, 0.3,0,0,1024,1024,1684,1024,75.2,-30,97,4.077,4.08,4.08,4.05,0,0,16.562,75.11,6,P-GPS,
0.379000883252686,36.9222574643876,5517.6297247925,199.146988,0,3.4759515548,19500,2018-04-15 05:05:47,16,0,16.215,5517.6297247925,199.146988,0.223694,3.4759515548,0,0,-10.961006,75.3, -1.5, 0.3,0,0,1024,1024,1684,1024,75.2,-30.1,97,4.076,4.079,4.079,4.052,0,0,16.562,75.11,6,P-GPS,
0.379000901498154,36.9222574383671,5519.2701447925,200.787408,0,3.4808400064,19600,2018-04-15 05:05:47,16,0,16.215,5519.2701447925,200.787408,0.223694,3.4808400064,0,0,-11.1847,75.3, -1.4, 0.5,0,0,1024,1024,1684,1024,75.2,-30.3,97,4.076,4.079,4.079,4.052,0,0,16.562,75.11,6,P-GPS,
0.379000911628799,36.9222573846233,5521.2386487925,202.755912,0,3.4960302956,19700,2018-04-15 05:05:47,16,0,16.215,5521.2386487925,202.755912,0.223694,3.4960302956,0,0,-11.1847,75.4, -1, 0.5,0,0,1024,1024,1684,1024,75.2,-30.4,97,4.076,4.079,4.079,4.052,0,0,16.562,75.11,6,P-GPS,
0.379000934593447,36.9222573821197,5522.5509847925,204.068248,0.223694,3.4926510304,19800,2018-04-15 05:05:47,16,0,16.215,5522.5509847925,204.068248,0.223694,3.4960302956,0,0.223694,-10.961006,75.3, -0.8, 0.7,0,0,1024,1024,1684,1024,75.2,-30.4,97,4.076,4.079,4.079,4.052,0,0,16.562,75.11,6,P-GPS,
0.379000982133745,36.9222573337606,5524.5194887925,206.036752,0.223694,3.499507986,19900,2018-04-15 05:05:47,16,0,16.215,5524.5194887925,206.036752,0.223694,3.499507986,0,0,-11.1847,75.3, -0.7, 1,0,0,1024,1024,1684,1024,75.2,-30.4,97,4.076,4.079,4.079,4.052,0,0,16.562,75.11,6,P-GPS,
0.379001020530597,36.9222573251828,5526.1599087925,207.677172,0,3.4954397444,20000,2018-04-15 05:05:47,16,0,16.215,5526.1599087925,207.677172,0.223694,3.499507986,0,0,-11.1847,75.3, -0.8, 1,0,0,1024,1024,1684,1024,75.2,-30.4,97,4.076,4.079,4.079,4.052,0,0,16.562,75.11,6,P-GPS,
0.37900101986165,36.9222572953289,5527.8003287925,209.317592,0,3.505085414,20100,2018-04-15 05:05:48,16,0,16.215,5527.8003287925,209.317592,0.223694,3.505085414,0,0,-11.1847,75.3, -0.8, 0.6,0,0,1024,1024,1684,1024,75.2,-30.4,97,4.076,4.079,4.079,4.052,0,0,16.562,75.11,6,P-GPS,
0.379001010981376,36.9222572764174,5529.4407487925,210.958012,0,3.5126969628,20200,2018-04-15 05:05:48,16,0,16.215,5529.4407487925,210.958012,0.223694,3.5126969628,0,0,-11.1847,75.3, -0.9, 0.4,0,0,1024,1024,1684,1024,75.2,-30.4,97,4.076,4.079,4.079,4.052,0,0,16.562,75.11,6,P-GPS,
0.3790010074747,36.9222572846039,5531.0811687925,212.598432,0,3.5106956504,20300,2018-04-15 05:05:48,16,0,16.215,5531.0811687925,212.598432,0.223694,3.5126969628,0,0,-11.1847,75.3, -0.9, 0.5,0,0,1024,1024,1684,1024,75.2,-30.4,97,4.076,4.079,4.079,4.052,0,0,16.562,75.11,6,P-GPS,
0.379000998274399,36.9222572631486,5532.7215887925,214.238852,0,3.5191602176,20400,2018-04-15 05:05:48,16,0,16.215,5532.7215887925,214.238852,0.223694,3.5191602176,0,0,-10.961006,75.3, -0.9, 0.6,0,0,1024,1024,1684,1024,75.2,-30.4,97,4.076,4.079,4.079,4.052,0,0,16.562,75.11,6,P-GPS,
0.379000998149416,36.9222572453146,5534.3620087925,215.879272,0,3.5248688792,20500,2018-04-15 05:05:48,16,0,16.215,5534.3620087925,215.879272,0.223694,3.5248688792,0,0,-10.961006,75.3, -1.1, 0.6,0,0,1024,1024,1682,1024,75.2,-30.4,97,4.075,4.08,4.079,4.051,0,0,16.214,75.11,6,P-GPS,
0.379001000018806,36.9222572446953,5536.0024287925,217.519692,0,3.5247376456,20600,2018-04-15 05:05:48,16,0,16.215,5536.0024287925,217.519692,0.223694,3.5248688792,0,0,-10.961006,75.3, -1, 0.6,0,0,1024,1024,1666,1024,75.2,-30.4,97,4.075,4.08,4.079,4.051,0,0,16.214,75.11,6,P-GPS,
0.379000988903111,36.9222572173189,5537.6428487925,219.160112,0,3.5354659924,20700,2018-04-15 05:05:48,16,0,16.215,5537.6428487925,219.160112,0.223694,3.5354659924,0,0,-10.961006,75.3, -0.8, 0.5,0,0,1024,1024,1662,1024,75.2,-30.4,97,4.075,4.08,4.079,4.051,0,0,16.214,75.11,6,P-GPS,
0.379000987229846,36.9222572262623,5539.2832687925,220.800532,0,3.5329069372,20800,2018-04-15 05:05:48,16,0,16.215,5539.2832687925,220.800532,0.223694,3.5354659924,0,0,-10.737312,75.3, -0.7, 0.5,0,0,1024,1024,1657,1024,75.2,-30.4,97,4.075,4.08,4.079,4.051,0,0,16.214,75.11,6,P-GPS,
0.379000936717002,36.9222571606614,5540.9236887925,222.440952,0,3.5627625812,20900,2018-04-15 05:05:48,16,0,16.215,5540.9236887925,222.440952,0.223694,3.5627625812,0,0,-10.737312,75.3, -0.8, 0.5,0,0,1024,1024,1658,1024,75.2,-30.4,97,4.075,4.08,4.079,4.051,0,0,16.214,75.11,6,P-GPS,
0.379000906305651,36.9222571409678,5542.5641087925,224.081372,0,3.5744095632,21000,2018-04-15 05:05:48,16,0,16.215,5542.5641087925,224.081372,0.223694,3.5744095632,0,0,-10.513618,75.3, -0.8, 0.5,0,0,1024,1024,1658,1024,75.2,-30.4,97,4.075,4.08,4.079,4.051,0,0,16.214,75.11,6,P-GPS,
0.379000876004971,36.9222570985431,5543.8764447925,225.393708,0,3.5933072016,21100,2018-04-15 05:05:48,16,0,16.215,5543.8764447925,225.393708,0.223694,3.5933072016,0,0,-10.513618,75.3, -1.1, 0.4,0,0,1024,1024,1658,1024,75.2,-30.4,97,4.075,4.08,4.079,4.051,0,0,16.214,75.11,6,P-GPS,
0.379000828183918,36.9222570279231,5545.5168647925,227.034128,0,3.6243111396,21200,2018-04-15 05:05:48,16,0,16.215,5545.5168647925,227.034128,0.223694,3.6243111396,0,0,-10.513618,75.3, -1.4, 0.4,0,0,1024,1024,1650,1024,75.2,-30.4,97,4.075,4.08,4.079,4.051,0,0,16.214,75.11,6,P-GPS,
0.379000787254575,36.9222569941722,5547.1572847925,228.674548,0,3.6423557596,21300,2018-04-15 05:05:49,16,0,16.215,5547.1572847925,228.674548,0.223694,3.6423557596,0,0,-10.513618,75.3, -1.3, 0.4,0,0,1024,1024,1646,1024,75.2,-30.4,97,4.075,4.08,4.079,4.051,0,0,16.214,75.11,6,P-GPS,
0.379000753452907,36.9222569756305,5548.7977047925,230.314968,0,3.6542980172,21400,2018-04-15 05:05:49,16,0,16.215,5548.7977047925,230.314968,0.223694,3.6542980172,0,0,-10.513618,75.3, -1.4, 0.4,0,0,1024,1024,1640,1024,75.2,-30.4,97,4.075,4.08,4.079,4.051,0,0,16.214,75.11,6,P-GPS,
0.379000684792314,36.9222568930918,5550.4381247925,231.955388,0,3.6928150788,21500,2018-04-15 05:05:49,16,0,16.162,5550.4381247925,231.955388,0.223694,3.6928150788,0,0,-10.289924,75.3, -1.6, 0.2,0,0,1024,1024,1613,1024,75.2,-30.4,97,4.071,4.076,4.079,4.051,0,0,16.14,75.11,6,P-GPS,
0.379000624276052,36.9222568183295,5551.7504607925,233.267724,0,3.7274279408,21600,2018-04-15 05:05:49,16,0,16.162,5551.7504607925,233.267724,0.223694,3.7274279408,0,0,-10.06623,75.3, -1.5, 0.3,0,0,1024,1024,1617,1024,75.2,-30.4,97,4.071,4.076,4.079,4.051,0,0,16.14,75.11,6,P-GPS,
0.379000581758245,36.9222567748348,5553.3908807925,234.908144,0,3.7488846344,21700,2018-04-15 05:05:49,16,0,16.162,5553.3908807925,234.908144,0.223694,3.7488846344,0,0,-9.842536,75.3, -1.8, 0.3,0,0,1024,1024,1617,1024,75.2,-30.4,97,4.071,4.076,4.079,4.051,0,0,16.14,75.11,6,P-GPS,
0.379000540443577,36.9222567043571,5554.7032167925,236.22048,0,3.77870747,21800,2018-04-15 05:05:49,16,0,16.162,5554.7032167925,236.22048,0.223694,3.77870747,0,0,-9.618842,75.3, -1.9, 0.6,0,0,1024,1024,1592,1024,75.2,-30.4,97,4.071,4.076,4.079,4.051,0,0,16.14,75.11,6,P-GPS,
0.379000527055936,36.9222566665699,5556.3436367925,237.8609,0,3.7931103576,21900,2018-04-15 05:05:49,16,0,16.162,5556.3436367925,237.8609,0.223694,3.7931103576,0,0,-9.842536,75.3, -1.5, 0.4,0,0,1024,1024,1497,1024,75.2,-30.4,97,4.071,4.076,4.079,4.051,0,0,16.14,75.11,6,P-GPS,
0.379000513821978,36.9222566366416,5557.6559727925,239.173236,0,3.8049869984,22000,2018-04-15 05:05:49,16,0,16.162,5557.6559727925,239.173236,0.223694,3.8049869984,0,0,-9.618842,75.4, -2.1, -0.1,0,0,1024,1024,1459,1024,75.2,-30.4,97,4.071,4.076,4.079,4.051,0,0,16.14,75.11,6,P-GPS,
