latitude,longitude,altitude(feet),ascent(feet),speed(mph),distance(feet),time(millisecond),datetime(utc),satellites,voltage(v),max_altitude(feet),max_ascent(feet),max_speed(mph),max_distance(feet),compass_heading(degrees), pitch(degrees), roll(degrees),isPhoto,isVideo,rc_elevator,rc_aileron,rc_throttle,rc_rudder,gimbal_heading(degrees),gimbal_pitch(degrees),battery_percent,voltageCell1,voltageCell2,voltageCell3,voltageCell4,voltageCell5,voltageCell6,battery_temperature(f),flycStateRaw,flycState,message
0.350068992138548,36.9146584768637,5413.9046387961,0,0,0,100,2017-11-12 06:21:04,12,0,5413.9046387961,0,0,0,342.8, 0.7, 5.1,0,0,1024,1024,1024,1024,347.3,0,99,4.3,4.302,4.304,4.301,0,0,80.51,41,Motors_Started,
0.350068963890338,36.9146584763808,5413.9046387961,0,0,0.0103078415372,200,2017-11-12 06:21:04,12,0,5413.9046387961,0,0,0.0103078415372,342.8, 0.7, 5.1,0,0,1024,1024,1024,1024,347.3,0,99,4.3,4.302,4.304,4.301,0,0,80.51,41,Motors_Started,
0.350068938167029,36.9146584761341,5413.9046387961,0,0,0.0196932749084,300,2017-11-12 06:21:04,12,0,5413.9046387961,0,0,0.0196932749084,342.8, 0.7, 5.1,0,0,1024,1024,1024,1024,347.3,0,99,4.3,4.302,4.304,4.301,0,0,80.51,41,Motors_Started,
0.350068921570335,36.9146584762898,5413.9046387961,0,0,0.0257476386192,400,2017-11-12 06:21:04,12,0,5413.9046387961,0,0,0.0257476386192,342.8, 0.7, 5.1,0,0,1024,1024,1024,1024,347.3,0,99,4.3,4.302,4.304,4.301,0,0,80.51,41,Motors_Started,
0.350068910042987,36.9146584763134,5413.9046387961,0,0,0.0299531833732,500,2017-11-12 06:21:04,12,0,5413.9046387961,0,0,0.0299531833732,342.8, 0.7, 5.1,0,0,1024,1024,1024,1024,347.3,0,99,4.3,4.302,4.304,4.301,0,0,80.51,41,Motors_Started,
0.350068901949213,36.9146584768722,5413.9046387961,0,0,0.032905512864,600,2017-11-12 06:21:04,12,0,5413.9046387961,0,0,0.032905512864,342.8, 0.7, 5.1,0,0,1024,1024,1024,1024,347.3,0,99,4.3,4.302,4.304,4.301,0,0,80.51,41,Motors_Started,
0.350068899519168,36.914658476763,5413.9046387961,0,0,0.033791995832,700,2017-11-12 06:21:04,12,17.195,5413.9046387961,0,0,0.033791995832,342.8, 0.7, 5.1,0,0,364,364,370,1684,347.3,0,99,4.3,4.302,4.304,4.301,0,0,80.51,41,Motors_Started,Setting new Return-To-Home altitude to 30m (98 ft). Setting new Maximum Flight Altitude to 150m (492 ft)
0.350068897778768,36.9146584774536,5413.9046387961,0,0,0.034427822624,800,2017-11-12 06:21:04,12,17.195,5413.9046387961,0,0,0.034427822624,342.8, 0.8, 5.1,0,0,1024,1024,1024,1024,347.3,0,99,4.3,4.302,4.304,4.301,0,0,80.51,41,Motors_Started,
0.35006890023324,36.9146584786109,5413.9046387961,0,0,0.033537730732,900,2017-11-12 06:21:05,13,17.195,5413.9046387961,0,0,0.034427822624,342.8, 0.8, 5.1,0,0,1024,1024,1024,1024,346.8,0,99,4.3,4.302,4.304,4.301,0,0,80.51,41,Motors_Started,
0.350068901973233,36.9146584808849,5413.9046387961,0,0,0.032929462996,1000,2017-11-12 06:21:05,13,17.195,5413.9046387961,0,0,0.034427822624,342.8, 0.8, 5.2,0,0,1024,1024,1024,1024,345,0,99,4.3,4.302,4.304,4.301,0,0,80.51,41,Motors_Started,
0.350068907921532,36.9146585093965,5413.9046387961,0,0,0.032939305516,1100,2017-11-12 06:21:05,13,17.195,5413.9046387961,0,0,0.034427822624,342.9, 0.9, 5.2,0,0,1024,1024,1024,1024,344.3,0,99,4.3,4.302,4.304,4.301,0,0,80.51,41,Motors_Started,
0.350068912957902,36.9146585387914,5413.9046387961,0,0,0.03667486994,1200,2017-11-12 06:21:05,13,17.195,5413.9046387961,0,0,0.03667486994,342.8, 0.7, 5.1,0,0,1024,1024,1024,1024,343.9,0,99,4.3,4.302,4.304,4.301,0,0,80.51,41,Motors_Started,
0.350068918983959,36.9146585699832,5413.9046387961,0,0,0.043204397708,1300,2017-11-12 06:21:05,13,17.195,5413.9046387961,0,0,0.043204397708,342.8, 0.8, 5.1,0,0,1024,1024,1024,1024,343.7,0,99,4.3,4.302,4.304,4.301,0,0,80.51,41,Motors_Started,
0.350068924703461,36.9146585899786,5413.9046387961,0,0,0.048046589464,1400,2017-11-12 06:21:05,13,17.195,5413.9046387961,0,0,0.048046589464,342.9, 0.8, 5.1,0,0,1024,1024,1024,1024,343.6,0,99,4.3,4.302,4.304,4.301,0,0,80.51,41,Motors_Started,
0.350068929674694,36.9146586088423,5413.9046387961,0,0,0.053272311416,1500,2017-11-12 06:21:05,13,17.195,5413.9046387961,0,0,0.053272311416,342.8, 0.9, 5.2,0,0,1024,1024,1024,1024,343.5,0,99,4.3,4.302,4.304,4.301,0,0,80.51,41,Motors_Started,
0.350068935379133,36.9146586194104,5413.9046387961,0,0,0.055978348248,1600,2017-11-12 06:21:05,13,17.195,5413.9046387961,0,0,0.055978348248,342.8, 0.7, 5,0,0,1024,1024,1024,1024,343.5,0,99,4.3,4.302,4.304,4.301,0,0,80.51,10,Assisted_Takeoff,
0.350068940987494,36.9146586493154,5413.9046387961,0,0,0.065627298688,1700,2017-11-12 06:21:05,13,17.168,5413.9046387961,0,0,0.065627298688,342.8, 0.8, 5.1,0,0,1024,1024,1024,1024,343.4,0,99,4.3,4.302,4.303,4.295,0,0,80.51,10,Assisted_Takeoff,
0.350068946048291,36.9146586829193,5413.9046387961,0,0,0.07703576362,1800,2017-11-12 06:21:05,13,17.168,5413.9046387961,0,0,0.07703576362,342.8, 0.7, 5,0,0,1024,1024,1024,1024,343.3,0,99,4.3,4.302,4.303,4.295,0,0,80.51,10,Assisted_Takeoff,
0.350068948169746,36.9146587111456,5413.9046387961,0,0,0.08696850672,1900,2017-11-12 06:21:06,13,17.168,5413.9046387961,0,0,0.08696850672,342.8, 0.8, 5,0,0,1024,1024,1024,1024,343.3,0,99,4.3,4.302,4.303,4.295,0,0,80.51,10,Assisted_Takeoff,
0.350068951208423,36.9146587300324,5413.9046387961,0,0,0.093565947876,2000,2017-11-12 06:21:06,13,17.168,5413.9046387961,0,0,0.093565947876,342.8, 0.7, 5,0,0,1024,1024,1024,1024,343.2,0,99,4.3,4.302,4.303,4.295,0,0,80.51,10,Assisted_Takeoff,
0.350068951199059,36.9146587410726,5413.9046387961,0,0,0.097544950628,2100,2017-11-12 06:21:06,13,17.168,5413.9046387961,0,0,0.097544950628,342.8, 0.7, 5,0,1,1024,1024,1024,1024,343.2,0,99,4.3,4.302,4.303,4.295,0,0,80.51,10,Assisted_Takeoff,
0.350068953370996,36.9146587479711,5413.9046387961,0,0,0.099917654116,2200,2017-11-12 06:21:06,13,17.168,5413.9046387961,0,0,0.099917654116,342.8, 0.7, 5,0,1,1024,1024,1024,1024,343.2,0,99,4.3,4.302,4.303,4.295,0,0,80.51,10,Assisted_Takeoff,
0.350068952417135,36.9146587737333,5413.9046387961,0,0,0.109275922132,2300,2017-11-12 06:21:06,13,17.168,5413.9046387961,0,0,0.109275922132,342.8, 0.7, 5,0,1,1024,1024,1024,1024,343.2,0,99,4.3,4.302,4.303,4.295,0,0,80.51,10,Assisted_Takeoff,
0.350068953444684,36.9146588029301,5413.9046387961,0,0,0.119797576012,2400,2017-11-12 06:21:06,13,17.168,5413.9046387961,0,0,0.119797576012,342.8, 0.7, 5,0,1,1024,1024,1024,1024,343.2,0,99,4.3,4.302,4.303,4.295,0,0,80.51,10,Assisted_Takeoff,
0.350068951471824,36.9146588246031,5413.9046387961,0,0,0.127734912224,2500,2017-11-12 06:21:06,13,17.168,5413.9046387961,0,0,0.127734912224,342.8, 0.7, 5,0,1,1024,1024,1024,1024,343.2,0,99,4.3,4.302,4.303,4.295,0,0,80.51,10,Assisted_Takeoff,
0.350068951495436,36.9146588391978,5413.9046387961,0,0,0.133023954388,2600,2017-11-12 06:21:06,13,17.168,5413.9046387961,0,0,0.133023954388,342.8, 0.7, 5,0,1,1024,1024,1080,1024,343.1,0,99,4.3,4.302,4.303,4.295,0,0,80.51,10,Assisted_Takeoff,
0.350068949943122,36.9146588441965,5413.9046387961,0,0,0.1348999387,2700,2017-11-12 06:21:06,13,17.221,5413.9046387961,0,0,0.1348999387,342.8, 0.7, 5,0,1,1024,1024,1133,1024,343.1,0,99,4.285,4.302,4.303,4.295,0,0,80.51,10,Assisted_Takeoff,
0.350068949415913,36.914658849269,5413.9046387961,0,0,0.136760503064,2800,2017-11-12 06:21:06,13,17.221,5413.9046387961,0,0,0.136760503064,342.8, 0.7, 5,0,1,1024,1024,1165,1024,343.1,0,99,4.285,4.302,4.303,4.295,0,0,80.51,10,Assisted_Takeoff,
0.350068947768742,36.914658871821,5413.9046387961,0,0,0.145003613564,2900,2017-11-12 06:21:07,13,17.221,5413.9046387961,0,0,0.145003613564,342.8, 0.7, 5,0,1,1024,1024,1165,1024,343.1,0,99,4.285,4.302,4.303,4.295,0,0,80.51,10,Assisted_Takeoff,
0.350068947362852,36.9146589003348,5413.9046387961,0,0,0.155361553528,3000,2017-11-12 06:21:07,13,17.221,5413.9046387961,0,0,0.155361553528,342.8, 0.7, 5,0,1,1024,1024,1414,1024,343.1,0,99,4.285,4.302,4.303,4.295,0,0,80.51,10,Assisted_Takeoff,
0.350068945593141,36.9146589205405,5413.9046387961,0,0,0.162760503896,3100,2017-11-12 06:21:07,13,17.221,5413.9046387961,0,0,0.162760503896,342.8, 0.8, 5.1,0,1,1024,1024,1414,1024,343.1,0,99,4.285,4.302,4.303,4.295,0,0,80.51,10,Assisted_Takeoff,
0.350068944586355,36.9146589356164,5413.9046387961,0,0,0.16826936234,3200,2017-11-12 06:21:07,13,17.221,5413.9046387961,0,0,0.16826936234,342.9, 0.9, 5.1,0,1,1024,1024,1458,1024,343.1,0,99,4.285,4.302,4.303,4.295,0,0,80.51,10,Assisted_Takeoff,
0.350068944320512,36.9146589711528,5413.9046387961,0,0,0.181179795824,3300,2017-11-12 06:21:07,13,17.221,5413.9046387961,0,0,0.181179795824,343, 1, 4.8,0,1,1024,1024,1598,1024,343.1,0,99,4.285,4.302,4.303,4.295,0,0,80.51,10,Assisted_Takeoff,
0.350068962329881,36.914659049484,5413.9046387961,0,0,0.209199153676,3400,2017-11-12 06:21:07,13,17.221,5413.9046387961,0,0,0.209199153676,343.1, 1.8, 2.7,0,1,1024,1024,1684,1024,343.1,0,99,4.285,4.302,4.303,4.295,0,0,80.51,10,Assisted_Takeoff,
0.350068979696015,36.914659164648,5413.9046387961,0,0.223694,0.250974089396,3500,2017-11-12 06:21:07,13,17.221,5413.9046387961,0,0.223694,0.250974089396,343.1, 2.3, 1.3,0,1,1024,1024,1684,1024,343.1,0,99,4.285,4.302,4.303,4.295,0,0,80.51,6,GPS_Atti,Obstacle Avoided. Revise Flight Route
0.350068971671857,36.9146592976507,5413.9046387961,0,0.223694,0.299551190688,3600,2017-11-12 06:21:07,13,17.221,5413.9046387961,0,0.223694,0.299551190688,343.1, 1.4, 0.1,0,1,1024,1024,1684,1024,343.1,0,99,4.285,4.302,4.303,4.295,0,0,80.51,6,GPS_Atti,
0.350068940784346,36.9146594428691,5413.9046387961,0,0.223694,0.352936363,3700,2017-11-12 06:21:07,13,17.168,5413.9046387961,0,0.223694,0.352936363,343.1, 0.3, -0.4,0,1,1024,1024,1684,1024,343.1,0,99,4.286,4.289,4.29,4.286,0,0,80.51,6,GPS_Atti,Home Point Recorded. RTH Altitude:  30m.
0.350068916427709,36.9146595605234,5414.2327227961,0.328084,0,0.39632875284,3800,2017-11-12 06:21:07,13,17.168,5414.2327227961,0.328084,0.223694,0.39632875284,343.2, -0.2, -0.7,0,1,1024,1024,1684,1033,343.1,0,99,4.286,4.289,4.29,4.286,0,0,80.51,6,GPS_Atti,
0.350068893273271,36.9146596431574,5414.8888907961,0.984252,0,0.42704069608,3900,2017-11-12 06:21:08,13,17.168,5414.8888907961,0.984252,0.223694,0.42704069608,343.2, 0, -0.6,0,1,1024,1024,1684,1029,343.1,0,99,4.286,4.289,4.29,4.286,0,0,80.51,6,GPS_Atti,
0.350068887304616,36.9146596887373,5416.2012267961,2.296588,0,0.44379594596,4100,2017-11-12 06:21:08,13,17.168,5416.2012267961,2.296588,0.223694,0.44379594596,343.1, 0.8, 0.3,0,1,1024,1024,1684,1024,343.1,0,99,4.286,4.289,4.29,4.286,0,0,80.51,6,GPS_Atti,
0.350068899156839,36.914659679516,5416.8573947961,2.952756,0,0.44008859676,4200,2017-11-12 06:21:08,13,17.168,5416.8573947961,2.952756,0.223694,0.44379594596,343.1, 1.1, 0.8,0,1,1024,1024,1684,1024,343.1,0,99,4.286,4.289,4.29,4.286,0,0,80.51,6,GPS_Atti,
0.350068929478059,36.9146596069272,5418.1697307961,4.265092,0,0.41292980324,4300,2017-11-12 06:21:08,13,17.168,5418.1697307961,4.265092,0.223694,0.44379594596,343.1, 0.8, 1,0,1,1024,1024,1684,1024,343.1,0,99,4.286,4.289,4.29,4.286,0,0,80.51,6,GPS_Atti,
0.350068971148312,36.9146595298631,5419.1539827961,5.249344,0,0.38425526164,4400,2017-11-12 06:21:08,13,17.168,5419.1539827961,5.249344,0.223694,0.44379594596,343.3, 0.6, 1.9,0,1,1024,1024,1684,1024,343.1,0,99,4.286,4.289,4.29,4.286,0,0,80.51,6,GPS_Atti,
0.350069058398306,36.9146594129871,5420.7944027961,6.889764,0.223694,0.34239174324,4500,2017-11-12 06:21:08,13,17.168,5420.7944027961,6.889764,0.223694,0.44379594596,343.4, 0.4, 1,0,1,1024,1024,1684,1024,343.1,0,99,4.286,4.289,4.29,4.286,0,0,80.51,6,GPS_Atti,
0.350069172368623,36.9146593329168,5422.1067387961,8.2021,0.223694,0.319171926224,4600,2017-11-12 06:21:08,13,17.168,5422.1067387961,8.2021,0.223694,0.44379594596,343.3, 1, -0.3,0,1,1024,1024,1684,1032,343.1,0,99,4.286,4.289,4.29,4.286,0,0,80.51,6,GPS_Atti,
0.350069298486319,36.9146592790423,5423.7471587961,9.84252,0.223694,0.313285443096,4700,2017-11-12 06:21:08,12,16.744,5423.7471587961,9.84252,0.223694,0.44379594596,343.2, 2, -1.3,0,1,1024,1024,1684,1054,343.1,0,99,4.286,4.289,4.29,4.286,0,0,80.51,6,GPS_Atti,
0.350069397485536,36.9146592269317,5425.3875787961,11.48294,0,0.311062017828,4800,2017-11-12 06:21:08,12,16.744,5425.3875787961,11.48294,0.223694,0.44379594596,343.2, 2.6, -1,0,1,1024,1024,1684,1061,343.1,0,99,4.286,4.289,4.29,4.286,0,0,80.51,6,GPS_Atti,
0.350069447488537,36.914658774184,5427.3560827961,13.451444,0,0.19841207984,4900,2017-11-12 06:21:09,13,16.744,5427.3560827961,13.451444,0.223694,0.44379594596,343.3, 2.4, -0.3,0,1,1024,1024,1684,1024,343.1,0,99,4.286,4.289,4.29,4.286,0,0,80.51,6,GPS_Atti,
0.350069460579191,36.9146582073681,5428.9965027961,15.091864,0,0.197174546992,5000,2017-11-12 06:21:09,13,16.744,5428.9965027961,15.091864,0.223694,0.44379594596,343.6, 2.1, 0.2,0,1,1024,1024,1684,1024,343.1,0,99,4.286,4.289,4.29,4.286,0,0,80.51,6,GPS_Atti,
0.350069445003939,36.9146575591671,5430.6369227961,16.732284,0,0.37336615368,5100,2017-11-12 06:21:09,13,16.744,5430.6369227961,16.732284,0.223694,0.44379594596,343.7, 1.8, 0.7,0,1,1024,1024,1684,1024,343.1,0,99,4.286,4.289,4.29,4.286,0,0,80.51,6,GPS_Atti,
0.350069429470619,36.9146571271145,5432.2773427961,18.372704,0,0.5176509352,5200,2017-11-12 06:21:09,13,16.744,5432.2773427961,18.372704,0.223694,0.5176509352,343.6, 1.8, 0.8,0,1,1024,1024,1684,1024,343.1,0,99,4.286,4.289,4.29,4.286,0,0,80.51,6,GPS_Atti,
0.350069398127957,36.9146568320542,5434.2458467961,20.341208,0,0.61810697516,5300,2017-11-12 06:21:09,13,16.744,5434.2458467961,20.341208,0.223694,0.61810697516,343.8, 1.8, 0.3,0,1,1024,1024,1684,1024,343.1,0,99,4.286,4.289,4.29,4.286,0,0,80.51,6,GPS_Atti,
0.350069323020863,36.9146564820975,5437.5266867961,23.622048,0,0.73771983988,5500,2017-11-12 06:21:09,13,16.744,5437.5266867961,23.622048,0.223694,0.73771983988,343.8, 1, 0.4,0,1,1024,1024,1684,1024,343.2,-4.5,99,4.286,4.289,4.29,4.286,0,0,80.51,6,GPS_Atti,
0.350069285376123,36.9146562615056,5440.8075267961,26.902888,0,0.81530842504,5700,2017-11-12 06:21:09,13,16.346,5440.8075267961,26.902888,0.223694,0.81530842504,343.7, 1.6, 1.6,0,1,1024,1024,1684,1032,343.2,-7.3,99,4.132,4.141,4.13,4.124,0,0,80.51,6,GPS_Atti,
0.350069276220197,36.9146561461627,5442.4479467961,28.543308,0,0.85663388568,5800,2017-11-12 06:21:09,13,16.346,5442.4479467961,28.543308,0.223694,0.85663388568,343.7, 1.7, 1.8,0,1,1024,1024,1684,1038,343.2,-10.2,99,4.132,4.141,4.13,4.124,0,0,80.51,6,GPS_Atti,
0.350069298700052,36.9146561383274,5444.0883667961,30.183728,0,0.8604987152,5900,2017-11-12 06:21:10,13,16.346,5444.0883667961,30.183728,0.223694,0.8604987152,343.7, 1.4, 1.1,0,1,1024,1024,1684,1043,343.2,-12.8,99,4.132,4.141,4.13,4.124,0,0,80.51,6,GPS_Atti,
0.350069340266492,36.9146561099893,5445.7287867961,31.824148,0,0.87282811192,6000,2017-11-12 06:21:10,13,16.346,5445.7287867961,31.824148,0.223694,0.87282811192,343.7, 1.5, 0.2,0,1,1024,1024,1684,1044,343.2,-13.5,99,4.132,4.141,4.13,4.124,0,0,80.51,6,GPS_Atti,
0.350069377154412,36.9146561139634,5447.3692067961,33.464568,0,0.8734580332,6100,2017-11-12 06:21:10,14,16.346,5447.3692067961,33.464568,0.223694,0.8734580332,343.7, 1.2, -0.2,0,1,1024,1024,1684,1057,343.2,-13.5,99,4.132,4.141,4.13,4.124,0,0,80.51,6,GPS_Atti,
0.35006940695738,36.9146560478336,5448.6815427961,34.776904,0,0.89904530436,6200,2017-11-12 06:21:10,14,16.346,5448.6815427961,34.776904,0.223694,0.89904530436,343.6, 1, 0.2,0,1,1024,1024,1684,1061,343.2,-13.5,99,4.132,4.141,4.13,4.124,0,0,80.51,6,GPS_Atti,
0.350069439840143,36.9146559908564,5450.3219627961,36.417324,0,0.92159123684,6300,2017-11-12 06:21:10,14,16.346,5450.3219627961,36.417324,0.223694,0.92159123684,343.8, 1, 0.5,0,1,1024,1024,1684,1063,343.2,-13.5,99,4.132,4.141,4.13,4.124,0,0,80.51,6,GPS_Atti,
0.350069494214702,36.9146558893797,5451.9623827961,38.057744,0,0.96163388904,6400,2017-11-12 06:21:10,14,16.346,5451.9623827961,38.057744,0.223694,0.96163388904,344, 1.8, 0.9,0,1,1024,1024,1684,1068,343.3,-13.5,99,4.132,4.141,4.13,4.124,0,0,80.51,6,GPS_Atti,
0.350069571232775,36.9146557852713,5453.6028027961,39.698164,0,1.0044783786,6500,2017-11-12 06:21:10,14,16.346,5453.6028027961,39.698164,0.223694,1.0044783786,344.3, 2.2, 0.6,0,1,1024,1024,1684,1070,343.4,-13.5,99,4.132,4.141,4.13,4.124,0,0,80.51,6,GPS_Atti,
0.350069651226422,36.9146556542803,5455.2432227961,41.338584,0,1.05750331468,6600,2017-11-12 06:21:10,14,16.346,5455.2432227961,41.338584,0.223694,1.05750331468,344.7, 2.4, 0.5,0,1,1024,1024,1684,1073,343.5,-13.5,99,4.132,4.141,4.13,4.124,0,0,80.51,6,GPS_Atti,
0.350069716803455,36.914655519153,5456.8836427961,42.979004,0,1.11101709592,6700,2017-11-12 06:21:10,14,16.611,5456.8836427961,42.979004,0.223694,1.11101709592,345.1, 2.4, 0.5,0,1,1024,1024,1684,1073,343.5,-13.5,99,4.155,4.167,4.162,4.161,0,0,80.51,6,GPS_Atti,
0.350069775350495,36.9146553701954,5458.5240627961,44.619424,0,1.16891079856,6800,2017-11-12 06:21:10,14,16.611,5458.5240627961,44.619424,0.223694,1.16891079856,345.5, 2.2, 0.3,0,1,1024,1024,1684,1052,343.7,-13.5,99,4.155,4.167,4.162,4.161,0,0,80.51,6,GPS_Atti,
0.35006991180026,36.9146550315549,5461.8049027961,47.900264,0,1.30100725948,7000,2017-11-12 06:21:11,14,16.611,5461.8049027961,47.900264,0.223694,1.30100725948,346.4, 2.1, 0.7,0,1,1024,1024,1684,1111,344.2,-13.5,99,4.155,4.167,4.162,4.161,0,0,80.51,6,GPS_Atti,
0.350070027354646,36.9146545919266,5465.0857427961,51.181104,0.223694,1.46685044064,7200,2017-11-12 06:21:11,14,16.611,5465.0857427961,51.181104,0.223694,1.46685044064,346.9, 1.8, 2.5,0,1,1024,1024,1684,1160,345.3,-13.5,99,4.155,4.167,4.162,4.161,0,0,80.51,6,GPS_Atti,
0.350070197046246,36.9146542617702,5468.3665827961,54.461944,0,1.59944558924,7400,2017-11-12 06:21:11,14,16.611,5468.3665827961,54.461944,0.223694,1.59944558924,348.9, 2.9, 2.1,0,1,1024,1024,1684,1158,346.3,-13.5,99,4.155,4.167,4.162,4.161,0,0,80.51,6,GPS_Atti,
0.35007027824372,36.9146541503945,5470.0070027961,56.102364,0,1.64674874036,7500,2017-11-12 06:21:11,14,16.611,5470.0070027961,56.102364,0.223694,1.64674874036,350.4, 3.3, 1.9,0,1,1024,1024,1684,1126,347.4,-13.5,99,4.155,4.167,4.162,4.161,0,0,80.51,6,GPS_Atti,
0.350070351231395,36.9146540500001,5471.6474227961,57.742784,0,1.68951448976,7600,2017-11-12 06:21:11,14,16.611,5471.6474227961,57.742784,0.223694,1.68951448976,352, 3.2, 2.4,0,1,1024,1024,1684,1119,348.5,-13.5,99,4.155,4.167,4.162,4.161,0,0,80.51,6,GPS_Atti,
0.350070423154473,36.9146539744981,5473.2878427961,59.383204,0,1.72363194492,7700,2017-11-12 06:21:11,14,16.531,5473.2878427961,59.383204,0.223694,1.72363194492,353.3, 3.1, 2.3,0,1,1024,1024,1684,950,350.4,-13.5,99,4.15,4.161,4.155,4.153,0,0,80.51,6,GPS_Atti,
0.350070561778211,36.9146538727563,5476.5686827961,62.664044,0,1.77471462372,7900,2017-11-12 06:21:12,14,16.531,5476.5686827961,62.664044,0.223694,1.77471462372,354.9, 3.2, 1.8,0,1,1024,1024,1684,887,350.4,-13.5,99,4.15,4.161,4.155,4.153,0,0,80.51,6,GPS_Atti,
0.350070616221979,36.9146538373789,5478.2091027961,64.304464,0,1.79339900752,8000,2017-11-12 06:21:12,14,16.531,5478.2091027961,64.304464,0.223694,1.79339900752,354.8, 3.4, 1.9,0,1,1024,1024,1684,894,350.9,-13.5,99,4.15,4.161,4.155,4.153,0,0,80.51,6,GPS_Atti,
0.35007065343966,36.9146537995256,5479.8495227961,65.944884,0,1.81093837816,8100,2017-11-12 06:21:12,14,16.531,5479.8495227961,65.944884,0.223694,1.81093837816,353.7, 3.7, 2.2,0,1,1024,1024,1684,989,350.6,-13.5,99,4.15,4.161,4.155,4.153,0,0,80.51,6,GPS_Atti,
0.350070690025911,36.914653766196,5481.8180267961,67.913388,0,1.8268865414,8200,2017-11-12 06:21:12,14,16.531,5481.8180267961,67.913388,0.223694,1.8268865414,352.1, 3.7, 2.2,0,1,1024,1024,1684,1023,350.4,-13.5,99,4.15,4.161,4.155,4.153,0,0,80.51,6,GPS_Atti,
0.35007071364812,36.914653724287,5483.4584467961,69.553808,0,1.84419625324,8300,2017-11-12 06:21:12,14,16.531,5483.4584467961,69.553808,0.223694,1.84419625324,351, 3.9, 2,0,1,1024,1024,1684,1015,350.4,-13.5,99,4.15,4.161,4.155,4.153,0,0,80.51,6,GPS_Atti,
0.350070739737421,36.9146536958206,5485.0988667961,71.194228,0,1.85720806468,8400,2017-11-12 06:21:12,14,16.531,5485.0988667961,71.194228,0.223694,1.85720806468,351, 4, 1.6,0,1,1024,1024,1684,1017,350.4,-13.5,99,4.15,4.161,4.155,4.153,0,0,80.51,6,GPS_Atti,
0.350070754352706,36.9146536107811,5486.7392867961,72.834648,0,1.8881890368,8500,2017-11-12 06:21:12,14,16.531,5486.7392867961,72.834648,0.223694,1.8881890368,351, 3.9, 1.7,0,1,1024,1024,1684,1024,350.4,-13.5,99,4.15,4.161,4.155,4.153,0,0,80.51,6,GPS_Atti,
0.350070755089984,36.9146534679073,5490.0201267961,76.115488,0,1.93737210924,8700,2017-11-12 06:21:12,14,16.531,5490.0201267961,76.115488,0.223694,1.93737210924,351, 3.6, 2,0,1,1024,1024,1684,1024,350.4,-13.5,99,4.15,4.161,4.155,4.153,0,0,80.51,6,GPS_Atti,
0.350070741294214,36.9146534468215,5491.6605467961,77.755908,0,1.94296922228,8800,2017-11-12 06:21:12,14,16.531,5491.6605467961,77.755908,0.223694,1.94296922228,351, 3.8, 1.9,0,1,1024,1024,1684,1024,350.4,-13.5,99,4.15,4.161,4.155,4.153,0,0,80.51,6,GPS_Atti,
0.350070711563712,36.9146534170998,5493.3009667961,79.396328,0,1.94969822512,8900,2017-11-12 06:21:13,14,16.531,5493.3009667961,79.396328,0.223694,1.94969822512,350.9, 3.9, 1.7,0,1,1024,1024,1684,1024,350.4,-13.5,99,4.15,4.161,4.155,4.153,0,0,80.51,6,GPS_Atti,
0.35007067689536,36.9146534024351,5494.9413867961,81.036748,0,1.95074153224,9000,2017-11-12 06:21:13,14,16.531,5494.9413867961,81.036748,0.223694,1.95074153224,350.9, 3.4, 1.7,0,1,1024,1024,1684,1024,350.4,-13.5,99,4.15,4.161,4.155,4.153,0,0,80.51,6,GPS_Atti,
0.350070634493935,36.9146533855581,5496.5818067961,82.677168,0,1.95178155852,9100,2017-11-12 06:21:13,14,16.531,5496.5818067961,82.677168,0.223694,1.95178155852,350.9, 3.1, 1.9,0,1,1024,1024,1684,1024,350.4,-13.5,99,4.15,4.161,4.155,4.153,0,0,80.51,6,GPS_Atti,
0.350070607730865,36.9146533903315,5498.2222267961,84.317588,0,1.9471457316,9200,2017-11-12 06:21:13,14,16.531,5498.2222267961,84.317588,0.223694,1.95178155852,350.9, 3.4, 1.8,0,1,1024,1024,1684,1024,350.4,-13.5,99,4.15,4.161,4.155,4.153,0,0,80.51,6,GPS_Atti,
0.350070565402721,36.9146534189683,5499.8626467961,85.958008,0,1.93254927444,9300,2017-11-12 06:21:13,14,16.531,5499.8626467961,85.958008,0.223694,1.95178155852,350.9, 3.6, 1.6,0,1,1024,1024,1684,1024,350.5,-13.5,99,4.15,4.161,4.155,4.153,0,0,80.51,6,GPS_Atti,
0.350070515314633,36.9146534613602,5501.5030667961,87.598428,0,1.91239507432,9400,2017-11-12 06:21:13,14,16.531,5501.5030667961,87.598428,0.223694,1.95178155852,350.9, 3.3, 1.7,0,1,1024,1024,1684,1024,350.5,-13.5,99,4.15,4.161,4.155,4.153,0,0,80.51,6,GPS_Atti,
0.350070472801253,36.9146535210208,5503.1434867961,89.238848,0,1.88708011288,9500,2017-11-12 06:21:13,14,16.531,5503.1434867961,89.238848,0.223694,1.95178155852,350.9, 3, 1.3,0,1,1024,1024,1684,1024,350.5,-13.5,99,4.15,4.161,4.155,4.153,0,0,80.51,6,GPS_Atti,
0.350070446960696,36.9146535766509,5504.7839067961,90.879268,0,1.86493772372,9600,2017-11-12 06:21:13,14,16.531,5504.7839067961,90.879268,0.223694,1.95178155852,350.9, 2.9, 1.5,0,1,1024,1024,1684,1024,350.5,-13.5,99,4.15,4.161,4.155,4.153,0,0,80.51,6,GPS_Atti,
0.35007039140063,36.9146536343445,5506.4243267961,92.519688,0,1.83903877276,9700,2017-11-12 06:21:13,14,16.558,5506.4243267961,92.519688,0.223694,1.95178155852,350.9, 3, 2,0,1,1024,1024,1684,1024,350.5,-13.5,99,4.142,4.151,4.144,4.143,0,0,80.51,6,GPS_Atti,
0.350070336527359,36.914653694458,5508.0647467961,94.160108,0,1.81245740708,9800,2017-11-12 06:21:13,14,16.558,5508.0647467961,94.160108,0.223694,1.95178155852,350.9, 3.3, 2.1,0,1,1024,1024,1684,1024,350.5,-13.5,99,4.142,4.151,4.144,4.143,0,0,80.51,6,GPS_Atti,
0.350070276000946,36.9146537715788,5510.0332507961,96.128612,0,1.77944887584,9900,2017-11-12 06:21:14,14,16.558,5510.0332507961,96.128612,0.223694,1.95178155852,350.9, 3.4, 1.8,0,1,1024,1024,1684,1072,350.5,-13.5,99,4.142,4.151,4.144,4.143,0,0,80.51,6,GPS_Atti,
0.350070222411704,36.9146538544362,5511.6736707961,97.769032,0,1.74517065952,10000,2017-11-12 06:21:14,14,16.558,5511.6736707961,97.769032,0.223694,1.95178155852,350.9, 3.4, 1.4,0,1,1024,1024,1684,1086,350.5,-13.5,99,4.142,4.151,4.144,4.143,0,0,80.51,6,GPS_Atti,
0.350070126926669,36.9146539625712,5513.3140907961,99.409452,0,1.69824808584,10100,2017-11-12 06:21:14,14,16.558,5513.3140907961,99.409452,0.223694,1.95178155852,351.2, 3.2, 1.2,0,1,1024,1024,1684,1070,350.8,-13.5,99,4.142,4.151,4.144,4.143,0,0,80.51,6,GPS_Atti,
0.350069934368051,36.9146541803442,5516.5949307961,102.690292,0,1.6048064818,10300,2017-11-12 06:21:14,14,16.558,5516.5949307961,102.690292,0.223694,1.95178155852,352, 2.7, 1.2,0,1,1024,1024,1684,1086,350.9,-13.5,99,4.142,4.151,4.144,4.143,0,0,80.51,6,GPS_Atti,
0.350069862031755,36.9146542727205,5518.2353507961,104.330712,0,1.56634191364,10400,2017-11-12 06:21:14,14,16.558,5518.2353507961,104.330712,0.223694,1.95178155852,352.3, 2.6, 1.2,0,1,1024,1024,1684,1115,351.1,-13.5,99,4.142,4.151,4.144,4.143,0,0,80.51,6,GPS_Atti,
0.350069774064024,36.9146543690502,5519.8757707961,105.971132,0,1.52561684672,10500,2017-11-12 06:21:14,14,16.558,5519.8757707961,105.971132,0.223694,1.95178155852,352.7, 2.9, 1.3,0,1,1024,1024,1684,1117,351.5,-13.5,99,4.142,4.151,4.144,4.143,0,0,80.51,6,GPS_Atti,
0.350069698027089,36.9146544499663,5521.5161907961,107.611552,0,1.4915846934,10600,2017-11-12 06:21:14,14,16.558,5521.5161907961,107.611552,0.223694,1.95178155852,353.5, 3.1, 1.4,0,1,1024,1024,1684,1119,352.1,-13.5,99,4.142,4.151,4.144,4.143,0,0,80.51,6,GPS_Atti,
0.350069592409468,36.9146545393949,5523.1566107961,109.251972,0,1.45315621448,10700,2017-11-12 06:21:14,14,16.531,5523.1566107961,109.251972,0.223694,1.95178155852,354.4, 2.9, 1.4,0,1,1024,1024,1684,1122,352.6,-13.5,99,4.145,4.153,4.147,4.145,0,0,80.51,6,GPS_Atti,
0.350069499573504,36.9146546144267,5524.7970307961,110.892392,0,1.4212926964,10800,2017-11-12 06:21:14,14,16.531,5524.7970307961,110.892392,0.223694,1.95178155852,355.3, 2.7, 1.5,0,1,1024,1024,1684,1122,353.3,-13.5,99,4.145,4.153,4.147,4.145,0,0,80.51,6,GPS_Atti,
0.35006941451621,36.9146547277108,5526.4374507961,112.532812,0,1.37650266872,10900,2017-11-12 06:21:15,14,16.531,5526.4374507961,112.532812,0.223694,1.95178155852,356.3, 3, 1.7,0,1,1024,1024,1684,1126,354,-13.5,99,4.145,4.153,4.147,4.145,0,0,80.51,6,GPS_Atti,
0.350069346305169,36.9146548327971,5528.0778707961,114.173232,0,1.33577432096,11000,2017-11-12 06:21:15,14,16.531,5528.0778707961,114.173232,0.223694,1.95178155852,357.3, 2.8, 1.7,0,1,1024,1024,1684,1126,354.8,-13.5,99,4.145,4.153,4.147,4.145,0,0,80.51,6,GPS_Atti,
0.350069248386832,36.9146549633936,5529.7182907961,115.813652,0,1.28526907,11100,2017-11-12 06:21:15,14,16.531,5529.7182907961,115.813652,0.223694,1.95178155852,358.3, 2.9, 1.5,0,1,1024,1024,1684,1126,355.6,-13.5,99,4.145,4.153,4.147,4.145,0,0,80.51,6,GPS_Atti,
0.350069155495094,36.9146550583982,5531.3587107961,117.454072,0,1.24862536804,11200,2017-11-12 06:21:15,14,16.531,5531.3587107961,117.454072,0.223694,1.95178155852,359.3, 2.2, 1.9,0,1,1024,1024,1684,1125,356.6,-13.5,99,4.145,4.153,4.147,4.145,0,0,80.51,6,GPS_Atti,
0.350069044782479,36.9146551752314,5532.9991307961,119.094492,0,1.20472772884,11300,2017-11-12 06:21:15,14,16.531,5532.9991307961,119.094492,0.223694,1.95178155852,0.3, 1.6, 2.2,0,1,1024,1024,1684,1124,356.6,-13.5,99,4.145,4.153,4.147,4.145,0,0,80.51,6,GPS_Atti,
0.35006897252964,36.9146552852436,5534.9676347961,121.062996,0,1.16446197952,11400,2017-11-12 06:21:15,14,16.531,5534.9676347961,121.062996,0.223694,1.95178155852,1.3, 1.7, 2.1,0,1,1024,1024,1684,1118,357.5,-13.5,99,4.145,4.153,4.147,4.145,0,0,80.51,6,GPS_Atti,
0.350068902484564,36.9146554350796,5536.6080547961,122.703416,0,1.11025594104,11500,2017-11-12 06:21:15,14,16.531,5536.6080547961,122.703416,0.223694,1.95178155852,2.3, 2.3, 1.3,0,1,1024,1024,1684,1062,358.5,-13.5,99,4.145,4.153,4.147,4.145,0,0,80.51,6,GPS_Atti,
0.350068861852444,36.9146555663998,5538.2484747961,124.343836,0,1.06292326236,11600,2017-11-12 06:21:15,14,16.531,5538.2484747961,124.343836,0.223694,1.95178155852,3.3, 2.6, 0.5,0,1,1024,1024,1684,1024,359.9,-13.5,99,4.145,4.153,4.147,4.145,0,0,80.51,6,GPS_Atti,
0.350068805145139,36.9146558082135,5541.5293147961,127.624676,0,0.97602365328,11800,2017-11-12 06:21:15,14,16.531,5541.5293147961,127.624676,0.223694,1.95178155852,3.7, 3, 1.3,0,1,1024,1024,1684,995,0.5,-13.5,99,4.145,4.153,4.147,4.145,0,0,80.51,6,GPS_Atti,
0.350068750096811,36.9146559613765,5544.8101547961,130.905516,0,0.92199478016,12000,2017-11-12 06:21:16,14,16.531,5544.8101547961,130.905516,0.223694,1.95178155852,3.7, 3.4, 1.9,0,1,1024,1024,1684,994,0.7,-13.5,99,4.145,4.153,4.147,4.145,0,0,80.51,6,GPS_Atti,
0.350068721756593,36.9146560515834,5546.4505747961,132.545936,0,0.89032811248,12100,2017-11-12 06:21:16,14,16.531,5546.4505747961,132.545936,0.223694,1.95178155852,3.7, 3.3, 1.8,0,1,1024,1024,1684,1004,0.9,-13.5,99,4.145,4.153,4.147,4.145,0,0,80.51,6,GPS_Atti,
0.350068701474323,36.9146561312244,5548.0909947961,134.186356,0,0.8623359856,12200,2017-11-12 06:21:16,14,16.531,5548.0909947961,134.186356,0.223694,1.95178155852,3.5, 3.2, 1.6,0,1,1024,1024,1684,1007,1,-13.5,99,4.145,4.153,4.147,4.145,0,0,80.51,6,GPS_Atti,
0.350068647478784,36.9146562396195,5549.7314147961,135.826776,0,0.82587272984,12300,2017-11-12 06:21:16,14,16.531,5549.7314147961,135.826776,0.223694,1.95178155852,3.4, 2.9, 1.4,0,1,1024,1024,1684,990,1.2,-13.5,99,4.145,4.153,4.147,4.145,0,0,80.51,6,GPS_Atti,
0.350068597249429,36.9146563290353,5551.3718347961,137.467196,0,0.79675527484,12400,2017-11-12 06:21:16,14,16.531,5551.3718347961,137.467196,0.223694,1.95178155852,3.5, 2.6, 1.5,0,1,1024,1024,1684,988,1.3,-13.5,99,4.145,4.153,4.147,4.145,0,0,80.51,6,GPS_Atti,
0.350068532196348,36.9146564454263,5553.0122547961,139.107616,0,0.75991472248,12500,2017-11-12 06:21:16,14,16.531,5553.0122547961,139.107616,0.223694,1.95178155852,3.4, 2.4, 1.4,0,1,1024,1024,1684,1021,1.4,-13.5,99,4.145,4.153,4.147,4.145,0,0,80.51,6,GPS_Atti,
0.350068489657727,36.9146565402572,5554.6526747961,140.748036,0,0.7299540916,12600,2017-11-12 06:21:16,14,16.531,5554.6526747961,140.748036,0.223694,1.95178155852,3.2, 2.5, 1.3,0,1,1024,1024,1684,1021,1.5,-13.5,99,4.145,4.153,4.147,4.145,0,0,80.51,6,GPS_Atti,
0.350068466287113,36.9146566300974,5556.2930947961,142.388456,0,0.70056104604,12700,2017-11-12 06:21:16,14,16.425,5556.2930947961,142.388456,0.223694,1.95178155852,3.2, 2.6, 1.1,0,1,1024,1024,1684,1023,1.5,-13.5,99,4.14,4.148,4.14,4.138,0,0,82.31,6,GPS_Atti,
0.350068465715936,36.9146566927151,5557.9335147961,144.028876,0,0.67867784324,12800,2017-11-12 06:21:16,14,16.425,5557.9335147961,144.028876,0.223694,1.95178155852,3.2, 2.4, 1.1,0,1,1024,1024,1684,1022,1.6,-13.5,99,4.14,4.148,4.14,4.138,0,0,82.31,6,GPS_Atti,
0.350068462359306,36.9146568385443,5561.2143547961,147.309716,0,0.62820540068,13000,2017-11-12 06:21:17,14,16.425,5561.2143547961,147.309716,0.223694,1.95178155852,3.3, 3, 0.8,0,1,1024,1024,1684,1004,1.7,-13.5,99,4.14,4.148,4.14,4.138,0,0,82.31,6,GPS_Atti,
0.35006844068553,36.9146568874292,5562.8547747961,148.950136,0,0.61380579392,13100,2017-11-12 06:21:17,14,16.425,5562.8547747961,148.950136,0.223694,1.95178155852,3.3, 3, 0.8,0,1,1024,1024,1684,1004,1.7,-13.5,99,4.14,4.148,4.14,4.138,0,0,82.31,6,GPS_Atti,
0.350068421119776,36.9146569015303,5564.4951947961,150.590556,0,0.61134188308,13200,2017-11-12 06:21:17,14,16.425,5564.4951947961,150.590556,0.223694,1.95178155852,3.2, 2.8, 1.1,0,1,1024,1024,1684,1004,1.8,-13.5,99,4.14,4.148,4.14,4.138,0,0,82.31,6,GPS_Atti,
0.350068392922861,36.9146569107338,5566.1356147961,152.230976,0,0.61178807732,13300,2017-11-12 06:21:17,14,16.425,5566.1356147961,152.230976,0.223694,1.95178155852,3.2, 2.8, 1.7,0,1,1024,1024,1684,996,1.9,-13.5,99,4.14,4.148,4.14,4.138,0,0,82.31,6,GPS_Atti,
0.350068373574096,36.9146569528615,5569.4164547961,155.511816,0,0.60007547852,13500,2017-11-12 06:21:17,14,16.425,5569.4164547961,155.511816,0.223694,1.95178155852,3.2, 2.5, 1.8,0,1,1024,1024,1684,1010,1.9,-13.5,99,4.14,4.148,4.14,4.138,0,0,82.31,6,GPS_Atti,
0.350068401400947,36.9146570436439,5573.0253787961,159.12074,0,0.56557744592,13700,2017-11-12 06:21:17,14,16.399,5573.0253787961,159.12074,0.223694,1.95178155852,3.1, 3, 1.3,0,1,1024,1024,1684,1012,2,-13.5,99,4.127,4.137,4.129,4.127,0,0,82.31,6,GPS_Atti,
0.350068430535846,36.9146570677392,5574.6657987961,160.76116,0,0.55343505708,13800,2017-11-12 06:21:17,14,16.399,5574.6657987961,160.76116,0.223694,1.95178155852,3.1, 3.4, 1.2,0,1,1024,1024,1684,1016,2,-13.5,99,4.127,4.137,4.129,4.127,0,0,82.31,6,GPS_Atti,
0.350068412632733,36.9146571036364,5576.3062187961,162.40158,0,0.54379923,13900,2017-11-12 06:21:18,14,16.399,5576.3062187961,162.40158,0.223694,1.95178155852,3.1, 3.6, 1,0,1,1024,1024,1684,1020,2,-13.5,99,4.127,4.137,4.129,4.127,0,0,82.31,6,GPS_Atti,
0.350068382451559,36.9146571189163,5577.9466387961,164.042,0,0.54308400688,14000,2017-11-12 06:21:18,14,16.399,5577.9466387961,164.042,0.223694,1.95178155852,3.1, 3.4, 1.2,0,1,1024,1024,1684,1021,2.1,-13.5,99,4.127,4.137,4.129,4.127,0,0,82.31,6,GPS_Atti,
0.350068317031671,36.9146571195891,5579.5870587961,165.68242,0,0.553067603,14100,2017-11-12 06:21:18,14,16.399,5579.5870587961,165.68242,0.223694,1.95178155852,3.1, 2.9, 1.6,0,1,1024,1024,1684,1021,2.1,-13.5,99,4.127,4.137,4.129,4.127,0,0,82.31,6,GPS_Atti,
0.350068268256923,36.9146571009454,5581.2274787961,167.32284,0,0.56723098928,14200,2017-11-12 06:21:18,14,16.399,5581.2274787961,167.32284,0.223694,1.95178155852,3.1, 2.6, 1.8,0,1,1024,1024,1684,1022,2.1,-13.5,99,4.127,4.137,4.129,4.127,0,0,82.31,6,GPS_Atti,
0.350068216797686,36.9146570887656,5582.8678987961,168.96326,0,0.58008860124,14300,2017-11-12 06:21:18,14,16.399,5582.8678987961,168.96326,0.223694,1.95178155852,3.1, 2.3, 1.9,0,1,1024,1024,1684,1020,2.1,-13.5,99,4.127,4.137,4.129,4.127,0,0,82.31,6,GPS_Atti,
0.350068193243465,36.9146570773035,5584.5083187961,170.60368,0,0.58795605556,14400,2017-11-12 06:21:18,14,16.399,5584.5083187961,170.60368,0.223694,1.95178155852,3.1, 2.1, 2,0,1,1024,1024,1684,1021,2.1,-13.5,99,4.127,4.137,4.129,4.127,0,0,82.31,6,GPS_Atti,
0.350068192943424,36.9146570938028,5586.1487387961,172.2441,0,0.58278873256,14500,2017-11-12 06:21:18,14,16.399,5586.1487387961,172.2441,0.223694,1.95178155852,3.1, 2.7, 1.7,0,1,1024,1024,1684,1021,2.1,-13.5,99,4.127,4.137,4.129,4.127,0,0,82.31,6,GPS_Atti,
0.350068216029468,36.9146571160047,5587.7891587961,173.88452,0,0.5715715406,14600,2017-11-12 06:21:18,14,16.399,5587.7891587961,173.88452,0.223694,1.95178155852,3.2, 2.9, 1.2,0,1,1024,1024,1684,1022,2.2,-13.5,99,4.127,4.137,4.129,4.127,0,0,82.31,6,GPS_Atti,
0.35006821669713,36.9146571431529,5589.4295787961,175.52494,0,0.56286419124,14700,2017-11-12 06:21:18,14,16.452,5589.4295787961,175.52494,0.223694,1.95178155852,3.2, 3, 0.9,0,1,1024,1024,1684,1022,2.2,-13.5,99,4.124,4.133,4.126,4.125,0,0,82.31,6,GPS_Atti,
0.350068215926468,36.9146571513656,5591.0699987961,177.16536,0,0.56041996544,14800,2017-11-12 06:21:18,14,16.452,5591.0699987961,177.16536,0.223694,1.95178155852,3.2, 3, 1.3,0,1,1024,1024,1684,1022,2.2,-13.5,99,4.124,4.133,4.126,4.125,0,0,82.31,6,GPS_Atti,
0.350068204256632,36.9146571524849,5592.7104187961,178.80578,0,0.56223098912,14900,2017-11-12 06:21:19,14,16.452,5592.7104187961,178.80578,0.223694,1.95178155852,3.1, 3.1, 1.4,0,1,1024,1024,1684,1022,2.2,-13.5,99,4.124,4.133,4.126,4.125,0,0,82.31,6,GPS_Atti,
0.350068202833779,36.9146571466634,5594.3508387961,180.4462,0,0.56432416504,15000,2017-11-12 06:21:19,14,16.452,5594.3508387961,180.4462,0.223694,1.95178155852,3.1, 3.2, 1.2,0,1,1024,1024,1684,1024,2.2,-13.5,99,4.124,4.133,4.126,4.125,0,0,82.31,6,GPS_Atti,
0.350068182258389,36.9146571330409,5595.9912587961,182.08662,0,0.5724409632,15100,2017-11-12 06:21:19,14,16.452,5595.9912587961,182.08662,0.223694,1.95178155852,3.2, 2.9, 1.6,0,1,1024,1024,1684,1024,2.3,-13.5,99,4.124,4.133,4.126,4.125,0,0,82.31,6,GPS_Atti,
0.350068173796994,36.9146571103417,5597.6316787961,183.72704,0,0.58112862752,15200,2017-11-12 06:21:19,14,16.452,5597.6316787961,183.72704,0.223694,1.95178155852,3.2, 2.8, 1.8,0,1,1024,1024,1684,1024,2.3,-13.5,99,4.124,4.133,4.126,4.125,0,0,82.31,6,GPS_Atti,
0.350068156478492,36.9146571004926,5599.2720987961,185.36746,0,0.58747049124,15300,2017-11-12 06:21:19,14,16.452,5599.2720987961,185.36746,0.223694,1.95178155852,3.1, 2.9, 1.8,0,1,1024,1024,1684,1024,2.3,-13.5,99,4.124,4.133,4.126,4.125,0,0,82.31,6,GPS_Atti,
0.350068147557469,36.9146570920797,5600.9125187961,187.00788,0,0.59178479584,15400,2017-11-12 06:21:19,14,16.452,5600.9125187961,187.00788,0.223694,1.95178155852,3.1, 2.8, 1.8,0,1,1024,1024,1684,1024,2.3,-13.5,99,4.124,4.133,4.126,4.125,0,0,82.31,6,GPS_Atti,
0.350068128801865,36.9146571017666,5602.5529387961,188.6483,0,0.59237862788,15500,2017-11-12 06:21:19,14,16.452,5602.5529387961,188.6483,0.223694,1.95178155852,3.1, 2.7, 1.8,0,1,1024,1024,1684,1024,2.3,-13.5,99,4.124,4.133,4.126,4.125,0,0,82.31,6,GPS_Atti,
0.350068123203274,36.9146571153827,5604.1933587961,190.28872,0,0.58927495324,15600,2017-11-12 06:21:19,14,16.452,5604.1933587961,190.28872,0.223694,1.95178155852,3.1, 2.7, 1.7,0,1,1024,1024,1684,1023,2.3,-13.5,99,4.124,4.133,4.126,4.125,0,0,82.31,6,GPS_Atti,
0.350068090218734,36.9146571165384,5605.8337787961,191.92914,0,0.59548558336,15700,2017-11-12 06:21:19,14,16.452,5605.8337787961,191.92914,0.223694,1.95178155852,3.1, 2.6, 1.5,0,1,1024,1024,1684,1024,2.3,-13.5,99,4.124,4.133,4.126,4.125,0,0,82.31,6,GPS_Atti,
0.350068060297704,36.9146571111843,5607.8022827961,193.897644,0,0.6031988382,15800,2017-11-12 06:21:19,14,16.452,5607.8022827961,193.897644,0.223694,1.95178155852,3.1, 2.5, 1.4,0,1,1024,1024,1684,1024,2.4,-13.5,99,4.124,4.133,4.126,4.125,0,0,82.31,6,GPS_Atti,
0.350068030857065,36.9146571071711,5609.4427027961,195.538064,0,0.6105151114,15900,2017-11-12 06:21:20,14,16.452,5609.4427027961,195.538064,0.223694,1.95178155852,3.1, 2.4, 1.4,0,1,1024,1024,1684,1024,2.4,-13.5,99,4.124,4.133,4.126,4.125,0,0,82.31,6,GPS_Atti,
0.350068023492427,36.9146571082047,5611.0831227961,197.178484,0,0.61175526892,16000,2017-11-12 06:21:20,14,16.452,5611.0831227961,197.178484,0.223694,1.95178155852,3.1, 2.7, 1.3,0,1,1024,1024,1684,1023,2.4,-13.5,99,4.124,4.133,4.126,4.125,0,0,82.31,6,GPS_Atti,
0.350068018081922,36.9146571093632,5612.7235427961,198.818904,0,0.61255251304,16100,2017-11-12 06:21:20,14,16.452,5612.7235427961,198.818904,0.223694,1.95178155852,3.1, 3, 0.9,0,1,1024,1024,1684,1024,2.4,-13.5,99,4.124,4.133,4.126,4.125,0,0,82.31,6,GPS_Atti,
0.350068017550642,36.9146571018539,5614.3639627961,200.459324,0,0.61489831364,16200,2017-11-12 06:21:20,14,16.452,5614.3639627961,200.459324,0.223694,1.95178155852,3.1, 2.9, 1.2,0,1,1024,1024,1684,1022,2.4,-13.5,99,4.124,4.133,4.126,4.125,0,0,82.31,6,GPS_Atti,
0.350067983667201,36.9146570849354,5616.0043827961,202.099744,0,0.6271161618,16300,2017-11-12 06:21:20,14,16.452,5616.0043827961,202.099744,0.223694,1.95178155852,3.1, 2.6, 1.5,0,1,1024,1024,1684,1024,2.4,-13.5,99,4.124,4.133,4.126,4.125,0,0,82.31,6,GPS_Atti,
0.350067951559985,36.9146570726656,5617.6448027961,203.740164,0,0.63765093904,16400,2017-11-12 06:21:20,14,16.452,5617.6448027961,203.740164,0.223694,1.95178155852,3.1, 2.4, 1.3,0,1,1024,1024,1684,1024,2.4,-13.5,99,4.124,4.133,4.126,4.125,0,0,82.31,6,GPS_Atti,
0.350067896589822,36.9146570630237,5619.2852227961,205.380584,0,0.65256891852,16500,2017-11-12 06:21:20,14,16.452,5619.2852227961,205.380584,0.223694,1.95178155852,3.1, 2.4, 1.3,0,1,1024,1024,1684,1024,2.4,-13.5,99,4.124,4.133,4.126,4.125,0,0,82.31,6,GPS_Atti,
0.350067858307953,36.9146570473552,5620.9256427961,207.021004,0,0.66568571684,16600,2017-11-12 06:21:20,14,16.452,5620.9256427961,207.021004,0.223694,1.95178155852,3.1, 2.5, 1.6,0,1,1024,1024,1684,1024,2.4,-13.5,99,4.124,4.133,4.126,4.125,0,0,82.31,6,GPS_Atti,
0.350067822965833,36.9146570360623,5622.5660627961,208.661424,0,0.6769685256,16700,2017-11-12 06:21:20,14,16.346,5622.5660627961,208.661424,0.223694,1.95178155852,3.1, 2.5, 1.7,0,1,1024,1024,1684,1024,2.4,-13.5,98,4.118,4.128,4.121,4.119,0,0,82.31,6,GPS_Atti,
0.350067807806648,36.9146570268909,5624.2064827961,210.301844,0,0.68305776464,16800,2017-11-12 06:21:20,14,16.346,5624.2064827961,210.301844,0.223694,1.95178155852,3.1, 2.5, 1.7,0,1,1024,1024,1684,1024,2.4,-13.5,98,4.118,4.128,4.121,4.119,0,0,82.31,6,GPS_Atti,
0.350067768288383,36.9146570253299,5625.8469027961,211.942264,0,0.69270343424,16900,2017-11-12 06:21:21,14,16.346,5625.8469027961,211.942264,0.223694,1.95178155852,3.1, 2.3, 1.6,0,1,1024,1024,1684,1024,2.5,-13.5,98,4.118,4.128,4.121,4.119,0,0,82.31,6,GPS_Atti,
0.350067743571453,36.9146570182863,5627.4873227961,213.582684,0,0.70049871008,17000,2017-11-12 06:21:21,14,16.346,5627.4873227961,213.582684,0.223694,1.95178155852,3.1, 2.3, 1.7,0,1,1024,1024,1684,1024,2.5,-13.5,98,4.118,4.128,4.121,4.119,0,0,82.31,6,GPS_Atti,
0.350067702828192,36.9146570182831,5629.1277427961,215.223104,0,0.71025920908,17100,2017-11-12 06:21:21,14,16.346,5629.1277427961,215.223104,0.223694,1.95178155852,3.1, 2.5, 1.9,0,1,1024,1024,1684,1024,2.5,-13.5,98,4.118,4.128,4.121,4.119,0,0,82.31,6,GPS_Atti,
0.350067674962258,36.914657018744,5631.0962467961,217.191608,0,0.71690619092,17200,2017-11-12 06:21:21,14,16.346,5631.0962467961,217.191608,0.223694,1.95178155852,3.1, 2.4, 2,0,1,1024,1024,1684,1024,2.5,-13.5,98,4.118,4.128,4.121,4.119,0,0,82.31,6,GPS_Atti,
0.350067646537361,36.914657010958,5632.7366667961,218.832028,0,0.72599083688,17300,2017-11-12 06:21:21,14,16.346,5632.7366667961,218.832028,0.223694,1.95178155852,3.2, 2.3, 1.7,0,1,1024,1024,1684,1024,2.5,-13.5,98,4.118,4.128,4.121,4.119,0,0,82.31,6,GPS_Atti,
0.350067641338554,36.9146569990591,5634.3770867961,220.472448,0,0.73047246432,17400,2017-11-12 06:21:21,14,16.346,5634.3770867961,220.472448,0.223694,1.95178155852,3.2, 2.3, 1.4,0,1,1024,1024,1684,1024,2.5,-13.5,98,4.118,4.128,4.121,4.119,0,0,82.31,6,GPS_Atti,
0.350067611023033,36.9146569839891,5636.0175067961,222.112868,0,0.74200789776,17500,2017-11-12 06:21:21,14,16.346,5636.0175067961,222.112868,0.223694,1.95178155852,3.1, 2.5, 1.6,0,1,1024,1024,1684,1022,2.5,-13.5,98,4.118,4.128,4.121,4.119,0,0,82.31,6,GPS_Atti,
0.350067591349801,36.9146569703254,5637.6579267961,223.753288,0,0.7505413626,17600,2017-11-12 06:21:21,14,16.346,5637.6579267961,223.753288,0.223694,1.95178155852,3.2, 2.6, 2.2,0,1,1024,1024,1684,1017,2.5,-13.5,98,4.118,4.128,4.121,4.119,0,0,82.31,6,GPS_Atti,
0.350067563538013,36.9146569668919,5638.9702627961,225.065624,0,0.7583989744,17700,2017-11-12 06:21:21,14,16.478,5638.9702627961,225.065624,0.223694,1.95178155852,3.2, 2.6, 2.4,0,1,1024,1024,1684,1024,2.5,-13.5,98,4.118,4.128,4.122,4.121,0,0,82.31,6,GPS_Atti,
0.350067511292237,36.9146570227861,5642.2511027961,228.346464,0,0.75719818696,17900,2017-11-12 06:21:22,14,16.478,5642.2511027961,228.346464,0.223694,1.95178155852,3.1, 2.1, 1.5,0,1,1024,1024,1684,1024,2.5,-13.5,98,4.118,4.128,4.122,4.121,0,0,82.31,6,GPS_Atti,
0.350067490543825,36.9146570582658,5643.8915227961,229.986884,0,0.75367128396,18000,2017-11-12 06:21:22,14,16.478,5643.8915227961,229.986884,0.223694,1.95178155852,3.1, 1.8, 1.7,0,1,1024,1024,1684,1019,2.5,-13.5,98,4.118,4.128,4.122,4.121,0,0,82.31,6,GPS_Atti,
0.3500674601994,36.9146570890985,5645.5319427961,231.627304,0,0.75416012912,18100,2017-11-12 06:21:22,14,16.478,5645.5319427961,231.627304,0.223694,1.95178155852,3.1, 2.1, 2,0,1,1024,1024,1684,1024,2.5,-13.5,98,4.118,4.128,4.122,4.121,0,0,82.31,6,GPS_Atti,
0.350067461662557,36.9146571970697,5648.8127827961,234.908144,0,0.7278871624,18300,2017-11-12 06:21:22,14,16.478,5648.8127827961,234.908144,0.223694,1.95178155852,3, 3, 0.6,0,1,1024,1024,1684,1024,2.5,-13.5,98,4.118,4.128,4.122,4.121,0,0,82.31,6,GPS_Atti,
0.350067448753067,36.9146573057287,5652.4217067961,238.517068,0,0.70686025884,18500,2017-11-12 06:21:22,14,16.478,5652.4217067961,238.517068,0.223694,1.95178155852,3.1, 3.2, 1,0,1,1024,1024,1684,1024,2.6,-13.5,98,4.118,4.128,4.122,4.121,0,0,82.31,6,GPS_Atti,
0.350067423871257,36.9146573547843,5654.0621267961,240.157488,0,0.70355317212,18600,2017-11-12 06:21:22,14,16.478,5654.0621267961,240.157488,0.223694,1.95178155852,3.1, 3.3, 0.6,0,1,1024,1024,1684,1024,2.6,-13.5,98,4.118,4.128,4.122,4.121,0,0,82.31,6,GPS_Atti,
0.350067370740015,36.914657404098,5655.7025467961,241.797908,0,0.70932088884,18700,2017-11-12 06:21:22,14,16.425,5655.7025467961,241.797908,0.223694,1.95178155852,3.1, 3.3, 0.3,0,1,1024,1024,1684,1024,2.6,-13.5,98,4.118,4.125,4.12,4.12,0,0,82.31,6,GPS_Atti,
0.350067331615833,36.9146574401628,5657.3429667961,243.438328,0,0.71421590212,18800,2017-11-12 06:21:22,14,16.425,5657.3429667961,243.438328,0.223694,1.95178155852,3.2, 2.9, 0.5,0,1,1024,1024,1684,1024,2.6,-13.5,98,4.118,4.125,4.12,4.12,0,0,82.31,6,GPS_Atti,
0.350067251902685,36.9146574697294,5658.9833867961,245.078748,0,0.73358270064,18900,2017-11-12 06:21:23,14,16.425,5658.9833867961,245.078748,0.223694,1.95178155852,3.1, 2.7, 0.7,0,1,1024,1024,1684,1024,2.6,-13.5,98,4.118,4.125,4.12,4.12,0,0,82.31,6,GPS_Atti,
0.350067190319005,36.9146575030807,5660.6238067961,246.719168,0,0.74725396092,19000,2017-11-12 06:21:23,14,16.425,5660.6238067961,246.719168,0.223694,1.95178155852,3.1, 2.3, 0.7,0,1,1024,1024,1684,1024,2.6,-13.5,98,4.118,4.125,4.12,4.12,0,0,82.31,6,GPS_Atti,
0.350067136051923,36.9146575242244,5662.2642267961,248.359588,0,0.76117784588,19100,2017-11-12 06:21:23,14,16.425,5662.2642267961,248.359588,0.223694,1.95178155852,3.1, 2.1, 0.6,0,1,1024,1024,1684,1024,2.6,-13.5,98,4.118,4.125,4.12,4.12,0,0,82.31,6,GPS_Atti,
0.350067125109593,36.9146575475964,5663.9046467961,250.000008,0,0.7608924128,19200,2017-11-12 06:21:23,14,16.425,5663.9046467961,250.000008,0.223694,1.95178155852,3.1, 2.4, 0.6,0,1,1024,1024,1684,1022,2.6,-13.5,98,4.118,4.125,4.12,4.12,0,0,82.31,6,GPS_Atti,
0.350067102549944,36.9146575894131,5665.5450667961,251.640428,0,0.76166012936,19300,2017-11-12 06:21:23,14,16.425,5665.5450667961,251.640428,0.223694,1.95178155852,3.1, 2.6, 0.3,0,1,1024,1024,1684,1022,2.6,-13.5,98,4.118,4.125,4.12,4.12,0,0,82.31,6,GPS_Atti,
0.350067094450878,36.914657647736,5667.1854867961,253.280848,0,0.75556760948,19400,2017-11-12 06:21:23,14,16.425,5667.1854867961,253.280848,0.223694,1.95178155852,3.1, 2.7, 0,0,1,1024,1024,1684,1022,2.6,-13.5,98,4.118,4.125,4.12,4.12,0,0,82.31,6,GPS_Atti,
0.350067087161148,36.9146577333773,5668.8259067961,254.921268,0,0.74608598188,19500,2017-11-12 06:21:23,14,16.425,5668.8259067961,254.921268,0.223694,1.95178155852,3.1, 3, -0.4,0,1,1024,1024,1684,1022,2.6,-13.5,98,4.118,4.125,4.12,4.12,0,0,82.31,6,GPS_Atti,
0.350067097902365,36.9146578133427,5670.4663267961,256.561688,0,0.732283488,19600,2017-11-12 06:21:23,14,16.425,5670.4663267961,256.561688,0.223694,1.95178155852,3.2, 3, -0.5,0,1,1024,1024,1684,1023,2.6,-13.7,98,4.118,4.125,4.12,4.12,0,0,82.31,6,GPS_Atti,
0.350067073315303,36.9146579027017,5672.1067467961,258.202108,0,0.73075133572,19700,2017-11-12 06:21:23,14,16.399,5672.1067467961,258.202108,0.223694,1.95178155852,3.2, 2.9, -0.4,0,1,1024,1024,1684,1022,2.6,-14.6,98,4.118,4.125,4.12,4.12,0,0,82.31,6,GPS_Atti,
0.350067057465658,36.9146579727693,5673.7471667961,259.842528,0,0.7294291572,19800,2017-11-12 06:21:23,14,16.399,5673.7471667961,259.842528,0.223694,1.95178155852,3.1, 3, -0.2,0,1,1024,1024,1684,1022,2.6,-15.4,98,4.118,4.125,4.12,4.12,0,0,82.31,6,GPS_Atti,
0.350067027100877,36.9146580357274,5675.3875867961,261.482948,0,0.73478676892,19900,2017-11-12 06:21:24,14,16.399,5675.3875867961,261.482948,0.223694,1.95178155852,3.1, 3, -0.1,0,1,1024,1024,1684,1023,2.6,-16.2,98,4.118,4.125,4.12,4.12,0,0,82.31,6,GPS_Atti,
0.350067014858235,36.914658078559,5677.0280067961,263.123368,0,0.73589897368,20000,2017-11-12 06:21:24,14,16.399,5677.0280067961,263.123368,0.223694,1.95178155852,3.1, 3.1, -0.2,0,1,1024,1024,1684,1024,2.6,-16.9,98,4.118,4.125,4.12,4.12,0,0,82.31,6,GPS_Atti,
0.350066993907489,36.914658120858,5678.6684267961,264.763788,0,0.74053151976,20100,2017-11-12 06:21:24,14,16.399,5678.6684267961,264.763788,0.223694,1.95178155852,3.1, 3, 0,0,1,1024,1024,1684,1024,2.7,-17.6,98,4.118,4.125,4.12,4.12,0,0,82.31,6,GPS_Atti,
0.350066983416238,36.9146581556108,5680.3088467961,266.404208,0,0.74219490564,20200,2017-11-12 06:21:24,14,16.399,5680.3088467961,266.404208,0.223694,1.95178155852,3.1, 2.9, -0.1,0,1,1024,1024,1684,1024,2.7,-18.6,98,4.118,4.125,4.12,4.12,0,0,82.31,6,GPS_Atti,
0.350066903032986,36.9146582365708,5683.5896867961,269.685048,0,0.76723427652,20400,2017-11-12 06:21:24,14,16.399,5683.5896867961,269.685048,0.223694,1.95178155852,3, 2.7, -0.3,0,1,1024,1024,1684,1024,2.7,-18.6,98,4.118,4.125,4.12,4.12,0,0,82.31,6,GPS_Atti,
0.350066862219294,36.9146582739155,5685.2301067961,271.325468,0,0.78062010372,20500,2017-11-12 06:21:24,14,16.399,5685.2301067961,271.325468,0.223694,1.95178155852,3, 2.7, 0,0,1,1024,1024,1684,1024,2.7,-18.6,98,4.118,4.125,4.12,4.12,0,0,82.31,6,GPS_Atti,
0.350066845807021,36.9146583040651,5686.8705267961,272.965888,0,0.78562010388,20600,2017-11-12 06:21:24,14,16.399,5686.8705267961,272.965888,0.223694,1.95178155852,3, 2.5, 0.1,0,1,1024,1024,1684,1024,2.7,-18.6,98,4.118,4.125,4.12,4.12,0,0,82.31,6,GPS_Atti,
0.350066804327296,36.9146583636663,5688.5109467961,274.606308,0,0.79928808332,20700,2017-11-12 06:21:24,14,16.425,5688.5109467961,274.606308,0.223694,1.95178155852,3.1, 2.3, -0.4,0,1,1024,1024,1684,1024,2.7,-18.6,98,4.117,4.126,4.119,4.118,0,0,82.31,6,GPS_Atti,
0.350066786808495,36.9146584114094,5690.1513667961,276.246728,0,0.80496721736,20800,2017-11-12 06:21:24,14,16.425,5690.1513667961,276.246728,0.223694,1.95178155852,3.1, 2.5, -0.7,0,1,1024,1024,1684,1024,2.7,-18.6,98,4.117,4.126,4.119,4.118,0,0,82.31,6,GPS_Atti,
0.350066774884214,36.914658464861,5691.7917867961,277.887148,0,0.80897640384,20900,2017-11-12 06:21:25,14,16.425,5691.7917867961,277.887148,0.223694,1.95178155852,3.1, 2.5, -0.6,0,1,1024,1024,1684,1024,2.7,-18.6,98,4.117,4.126,4.119,4.118,0,0,82.31,6,GPS_Atti,
0.350066784924385,36.914658501081,5693.4322067961,279.527568,0,0.8053477948,21000,2017-11-12 06:21:25,14,16.425,5693.4322067961,279.527568,0.223694,1.95178155852,3.1, 2.5, -0.2,0,1,1024,1024,1684,1024,2.7,-18.6,98,4.117,4.126,4.119,4.118,0,0,82.31,6,GPS_Atti,
0.350066768741723,36.9146585238198,5695.4007107961,281.496072,0,0.8113845404,21100,2017-11-12 06:21:25,14,16.425,5695.4007107961,281.496072,0.223694,1.95178155852,3.1, 2.6, -0.1,0,1,1024,1024,1684,1024,2.7,-18.6,98,4.117,4.126,4.119,4.118,0,0,82.31,6,GPS_Atti,
0.350066766721638,36.914658537293,5697.0411307961,283.136492,0,0.81224083964,21200,2017-11-12 06:21:25,14,16.425,5697.0411307961,283.136492,0.223694,1.95178155852,3.1, 2.8, -0.2,0,1,1024,1024,1684,1024,2.7,-18.6,98,4.117,4.126,4.119,4.118,0,0,82.31,6,GPS_Atti,
0.350066751691914,36.9146585732085,5698.6815507961,284.776912,0,0.81818244088,21300,2017-11-12 06:21:25,14,16.425,5698.6815507961,284.776912,0.223694,1.95178155852,3.1, 2.7, -0.5,0,1,1024,1024,1684,1024,2.7,-18.6,98,4.117,4.126,4.119,4.118,0,0,82.31,6,GPS_Atti,
0.350066753900085,36.9146586079302,5700.3219707961,286.417332,0,0.81801839888,21400,2017-11-12 06:21:25,14,16.425,5700.3219707961,286.417332,0.223694,1.95178155852,3.1, 2.8, -0.4,0,1,1024,1024,1684,1024,2.7,-18.6,98,4.117,4.126,4.119,4.118,0,0,82.31,6,GPS_Atti,
0.350066710560676,36.9146586305485,5701.9623907961,288.057752,0,0.834317612,21500,2017-11-12 06:21:25,14,16.425,5701.9623907961,288.057752,0.223694,1.95178155852,3.1, 2.6, -0.2,0,1,1024,1024,1684,1024,2.7,-18.6,98,4.117,4.126,4.119,4.118,0,0,82.31,6,GPS_Atti,
0.350066678358196,36.9146586487554,5703.6028107961,289.698172,0,0.84650921344,21600,2017-11-12 06:21:25,14,16.425,5703.6028107961,289.698172,0.223694,1.95178155852,3.1, 2.3, -0.6,0,1,1024,1024,1684,1024,2.7,-18.6,98,4.117,4.126,4.119,4.118,0,0,82.31,6,GPS_Atti,
0.350066637656867,36.9146586841045,5705.2432307961,291.338592,0,0.8623523898,21700,2017-11-12 06:21:25,14,16.399,5705.2432307961,291.338592,0.223694,1.95178155852,3.1, 2.2, -1.1,0,1,1024,1024,1684,1024,2.7,-18.6,98,4.114,4.123,4.117,4.115,0,0,82.31,6,GPS_Atti,
0.350066627932613,36.9146587075954,5706.8836507961,292.979012,0,0.86667653692,21800,2017-11-12 06:21:25,14,16.399,5706.8836507961,292.979012,0.223694,1.95178155852,3.1, 2.3, -1.1,0,1,1024,1024,1684,1024,2.7,-18.6,98,4.114,4.123,4.117,4.115,0,0,82.31,6,GPS_Atti,
0.350066614853765,36.9146587295811,5708.5240707961,294.619432,0,0.87223756072,21900,2017-11-12 06:21:26,14,16.399,5708.5240707961,294.619432,0.223694,1.95178155852,3, 2.2, -0.8,0,1,1024,1024,1684,1024,2.7,-18.6,98,4.114,4.123,4.117,4.115,0,0,82.31,6,GPS_Atti,
0.350066623697845,36.9146587336141,5710.1644907961,296.259852,0,0.86918637952,22000,2017-11-12 06:21:26,14,16.399,5710.1644907961,296.259852,0.223694,1.95178155852,3, 2.1, -0.4,0,1,1024,1024,1684,1024,2.7,-18.6,98,4.114,4.123,4.117,4.115,0,0,82.31,6,GPS_Atti,
0.350066604620623,36.9146587326238,5711.8049107961,297.900272,0,0.87606958184,22100,2017-11-12 06:21:26,14,16.399,5711.8049107961,297.900272,0.223694,1.95178155852,3, 2.3, -0.3,0,1,1024,1024,1684,1024,2.7,-18.6,98,4.114,4.123,4.117,4.115,0,0,82.31,6,GPS_Atti,
0.350066603006835,36.9146587231188,5713.4453307961,299.540692,0,0.87629267896,22200,2017-11-12 06:21:26,14,16.399,5713.4453307961,299.540692,0.223694,1.95178155852,3, 2.5, -0.5,0,1,1024,1024,1684,1024,2.7,-18.6,98,4.114,4.123,4.117,4.115,0,0,82.31,6,GPS_Atti,
0.350066590893655,36.9146587168509,5715.0857507961,301.181112,0,0.88045606492,22300,2017-11-12 06:21:26,14,16.399,5715.0857507961,301.181112,0.223694,1.95178155852,3, 2.5, -0.2,0,1,1024,1024,1684,1024,2.7,-18.6,98,4.114,4.123,4.117,4.115,0,0,82.31,6,GPS_Atti,
0.350066604084051,36.9146587066233,5716.7261707961,302.821532,0,0.87530186528,22400,2017-11-12 06:21:26,14,16.399,5716.7261707961,302.821532,0.223694,1.95178155852,3.1, 2.4, 0.1,0,1,1024,1024,1684,1024,2.7,-18.6,98,4.114,4.123,4.117,4.115,0,0,82.31,6,GPS_Atti,
0.350066608703132,36.9146586930238,5718.6946747961,304.790036,0,0.8731627576,22500,2017-11-12 06:21:26,14,16.399,5718.6946747961,304.790036,0.223694,1.95178155852,3.1, 2.6, 0,0,1,1024,1024,1684,1024,2.7,-18.6,98,4.114,4.123,4.117,4.115,0,0,82.31,6,GPS_Atti,
0.350066643501352,36.9146586830457,5720.3350947961,306.430456,0,0.86019359708,22600,2017-11-12 06:21:26,14,16.399,5720.3350947961,306.430456,0.223694,1.95178155852,3.1, 2.6, -0.6,0,1,1024,1024,1684,1024,2.7,-18.6,98,4.114,4.123,4.117,4.115,0,0,82.31,6,GPS_Atti,
0.350066668001292,36.914658704177,5721.9755147961,308.070876,0,0.85200462044,22700,2017-11-12 06:21:26,14,16.399,5721.9755147961,308.070876,0.223694,1.95178155852,3.1, 2.8, -0.7,0,1,1024,1024,1684,1024,2.7,-18.6,98,4.118,4.128,4.121,4.119,0,0,82.31,6,GPS_Atti,
0.350066723783641,36.9146587279489,5723.6159347961,309.711296,0.223694,0.83266406864,22800,2017-11-12 06:21:26,14,16.399,5723.6159347961,309.711296,0.223694,1.95178155852,3.1, 3.5, -0.8,0,1,1024,1024,1684,1024,2.8,-18.6,98,4.118,4.128,4.121,4.119,0,0,82.31,6,GPS_Atti,
0.350066740616867,36.9146587435542,5725.2563547961,311.351716,0,0.82720803172,22900,2017-11-12 06:21:27,14,16.399,5725.2563547961,311.351716,0.223694,1.95178155852,3.1, 3.6, -0.6,0,1,1024,1024,1684,1024,2.8,-18.6,98,4.118,4.128,4.121,4.119,0,0,82.31,6,GPS_Atti,
0.350066764895338,36.9146587390116,5726.8967747961,312.992136,0,0.81821853012,23000,2017-11-12 06:21:27,14,16.399,5726.8967747961,312.992136,0.223694,1.95178155852,3.1, 3.4, -0.3,0,1,1024,1024,1684,1024,2.8,-18.6,98,4.118,4.128,4.121,4.119,0,0,82.31,6,GPS_Atti,
0.350066773615656,36.9146587367526,5728.5371947961,314.632556,0,0.814960656,23100,2017-11-12 06:21:27,14,16.399,5728.5371947961,314.632556,0.223694,1.95178155852,3.1, 3.5, 0,0,1,1024,1024,1684,1024,2.8,-18.6,98,4.118,4.128,4.121,4.119,0,0,82.31,6,GPS_Atti,
0.35006680494529,36.9146587375085,5730.1776147961,316.272976,0,0.803641758,23200,2017-11-12 06:21:27,14,16.399,5730.1776147961,316.272976,0.223694,1.95178155852,3.1, 3.5, -0.3,0,1,1024,1024,1684,1024,2.8,-18.6,98,4.118,4.128,4.121,4.119,0,0,82.31,6,GPS_Atti,
0.350066788546045,36.9146587529237,5731.8180347961,317.913396,0,0.81026249312,23300,2017-11-12 06:21:27,14,16.399,5731.8180347961,317.913396,0.223694,1.95178155852,3, 3.3, -0.9,0,1,1024,1024,1684,1024,2.8,-18.6,98,4.118,4.128,4.121,4.119,0,0,82.31,6,GPS_Atti,
0.350066790107723,36.9146587499399,5733.4584547961,319.553816,0,0.8095636742,23400,2017-11-12 06:21:27,14,16.399,5733.4584547961,319.553816,0.223694,1.95178155852,3, 3.3, -0.5,0,1,1024,1024,1684,1024,2.8,-18.6,98,4.118,4.128,4.121,4.119,0,0,82.31,6,GPS_Atti,
0.350066793120344,36.9146587245074,5736.7392947961,322.834656,0,0.8073819156,23600,2017-11-12 06:21:27,14,16.399,5736.7392947961,322.834656,0.223694,1.95178155852,3, 3.1, -0.2,0,1,1024,1024,1684,1024,2.8,-18.6,98,4.118,4.128,4.121,4.119,0,0,82.31,6,GPS_Atti,
0.350066774494201,36.9146586859979,5738.3797147961,324.475076,0,0.8126968764,23700,2017-11-12 06:21:27,14,16.372,5738.3797147961,324.475076,0.223694,1.95178155852,3, 2.6, 0,0,1,1024,1024,1684,1024,2.8,-18.6,98,4.118,4.128,4.121,4.119,0,0,82.31,6,GPS_Atti,
0.350066784644293,36.9146586431138,5740.0201347961,326.115496,0,0.80768375288,23800,2017-11-12 06:21:27,14,16.372,5740.0201347961,326.115496,0.223694,1.95178155852,3.1, 2.7, 0,0,1,1024,1024,1684,1024,2.8,-18.6,98,4.118,4.128,4.121,4.119,0,0,82.31,6,GPS_Atti,
0.350066791465031,36.9146586199698,5741.6605547961,327.755916,0,0.8046096058,23900,2017-11-12 06:21:28,14,16.372,5741.6605547961,327.755916,0.223694,1.95178155852,3.1, 3, 0,0,1,1024,1024,1684,1024,2.8,-18.6,98,4.118,4.128,4.121,4.119,0,0,82.31,6,GPS_Atti,
0.35006682228659,36.9146586059704,5743.3009747961,329.396336,0,0.79307089152,24000,2017-11-12 06:21:28,14,16.372,5743.3009747961,329.396336,0.223694,1.95178155852,3.1, 3.3, -0.1,0,1,1024,1024,1684,1024,2.8,-18.6,98,4.118,4.128,4.121,4.119,0,0,82.31,6,GPS_Atti,
0.350066834276009,36.9146585826154,5745.2694787961,331.36484,0,0.7882382142,24100,2017-11-12 06:21:28,14,16.372,5745.2694787961,331.36484,0.223694,1.95178155852,3.1, 3.7, -0.2,0,1,1024,1024,1684,1024,2.8,-18.6,98,4.118,4.128,4.121,4.119,0,0,82.31,6,GPS_Atti,
0.350066849424609,36.9146585497218,5746.9098987961,333.00526,0,0.78222115364,24200,2017-11-12 06:21:28,14,16.372,5746.9098987961,333.00526,0.223694,1.95178155852,3.1, 3.8, -0.1,0,1,1024,1024,1684,1024,2.8,-18.6,98,4.118,4.128,4.121,4.119,0,0,82.31,6,GPS_Atti,
0.350066819847995,36.9146585242438,5748.5503187961,334.64568,0,0.79274608836,24300,2017-11-12 06:21:28,14,16.372,5748.5503187961,334.64568,0.223694,1.95178155852,3.1, 3.3, 0,0,1,1024,1024,1684,1024,2.8,-18.6,98,4.118,4.128,4.121,4.119,0,0,82.31,6,GPS_Atti,
0.350066797960894,36.9146585035895,5750.1907387961,336.2861,0,0.80060370016,24400,2017-11-12 06:21:28,14,16.372,5750.1907387961,336.2861,0.223694,1.95178155852,3.1, 3, -0.1,0,1,1024,1024,1684,1024,2.8,-18.6,98,4.118,4.128,4.121,4.119,0,0,82.31,6,GPS_Atti,
0.350066755193883,36.9146584912571,5751.8311587961,337.92652,0,0.81616472428,24500,2017-11-12 06:21:28,14,16.372,5751.8311587961,337.92652,0.223694,1.95178155852,3.1, 2.7, 0,0,1,1024,1024,1684,1024,2.8,-18.6,98,4.118,4.128,4.121,4.119,0,0,82.31,6,GPS_Atti,
0.35006673775162,36.9146584750115,5753.4715787961,339.56694,0,0.82251314968,24600,2017-11-12 06:21:28,14,16.372,5753.4715787961,339.56694,0.223694,1.95178155852,3, 2.4, 0.2,0,1,1024,1024,1684,1024,2.8,-18.6,98,4.118,4.128,4.121,4.119,0,0,82.31,6,GPS_Atti,
0.350066721935357,36.9146584526908,5755.1119987961,341.20736,0,0.828330079,24700,2017-11-12 06:21:28,14,16.399,5755.1119987961,341.20736,0.223694,1.95178155852,3, 2.5, 0.5,0,1,1024,1024,1684,1024,2.8,-18.6,98,4.118,4.126,4.12,4.119,0,0,82.31,6,GPS_Atti,
0.350066738933056,36.9146584339994,5756.7524187961,342.84778,0,0.82223099744,24800,2017-11-12 06:21:28,14,16.399,5756.7524187961,342.84778,0.223694,1.95178155852,3, 2.9, 0.3,0,1,1024,1024,1684,1024,2.8,-18.6,98,4.118,4.126,4.12,4.119,0,0,82.31,6,GPS_Atti,
0.350066750385902,36.9146584426666,5758.3928387961,344.4882,0,0.81799871384,24900,2017-11-12 06:21:29,14,16.399,5758.3928387961,344.4882,0.223694,1.95178155852,3, 3.2, -0.2,0,1,1024,1024,1684,1024,2.8,-18.6,98,4.118,4.126,4.12,4.119,0,0,82.31,6,GPS_Atti,
0.350066773377089,36.9146584541655,5760.3613427961,346.456704,0,0.80955711252,25000,2017-11-12 06:21:29,14,16.399,5760.3613427961,346.456704,0.223694,1.95178155852,3, 3.2, -0.3,0,1,1024,1024,1684,1024,2.8,-18.6,98,4.118,4.126,4.12,4.119,0,0,82.31,6,GPS_Atti,
