latitude,longitude,altitude(feet),ascent(feet),speed(mph),distance(feet),time(millisecond),datetime(utc),satellites,gpslevel,voltage(v),max_altitude(feet),max_ascent(feet),max_speed(mph),max_distance(feet), xSpeed(mph), ySpeed(mph), zSpeed(mph), compass_heading(degrees), pitch(degrees), roll(degrees),isPhoto,isVideo,rc_elevator,rc_aileron,rc_throttle,rc_rudder,gimbal_heading(degrees),gimbal_pitch(degrees),battery_percent,voltageCell1,voltageCell2,voltageCell3,voltageCell4,voltageCell5,voltageCell6,current(A),battery_temperature(f),flycStateRaw,flycState,message
0.0316484361460581,36.8843831482351,5917.1218963689,0,0,0,46700,2018-04-12 06:25:33,15,0,0,5917.1218963689,0,0,0,0,0,0,79.4, -3, 1.3,0,0,364,364,364,1684,84,-12.8,96,4.245,4.244,4.243,4.244,0,0,0,78.71,41,Motors_Started,
0.0316485528501256,36.8843830323223,5917.1218963689,0,0,0.060012469112,46800,2018-04-12 06:25:33,15,0,0,5917.1218963689,0,0,0.060012469112,0,0,0,79.4, -3, 1.3,0,0,364,364,364,1684,84,-12.8,96,4.245,4.244,4.243,4.244,0,0,0,78.71,41,Motors_Started,
0.0316486764327406,36.8843829337014,5917.1218963689,0,0,0.117525922396,46900,2018-04-12 06:25:33,15,0,0,5917.1218963689,0,0,0.117525922396,0,0,0,79.5, -3, 1.3,0,0,364,364,364,1684,84,-12.8,96,4.245,4.244,4.243,4.244,0,0,0,78.71,41,Motors_Started,
0.031648791277125,36.8843828482614,5917.1218963689,0,0,0.169606960808,47000,2018-04-12 06:25:33,15,0,16.963,5917.1218963689,0,0,0.169606960808,0,0,0,79.4, -3, 1.3,0,0,364,364,364,1684,84,-12.8,96,4.245,4.244,4.243,4.244,0,0,1.478,78.71,41,Motors_Started,Setting new Return-To-Home altitude to 45m (148 ft). Setting new Maximum Flight Altitude to 150m (492 ft)
0.0316489080072476,36.8843827622946,5917.1218963689,0,0,0.222409455936,47100,2018-04-12 06:25:33,15,0,16.963,5917.1218963689,0,0,0.222409455936,0,0,0,79.4, -3, 1.3,0,0,364,364,374,1684,84,-12.8,96,4.245,4.244,4.243,4.244,0,0,1.478,78.71,41,Motors_Started,
0.0316490194253858,36.884382669095,5917.1218963689,0,0,0.275404536372,47200,2018-04-12 06:25:33,15,0,16.963,5917.1218963689,0,0,0.275404536372,0,0,0,79.4, -3, 1.3,0,0,642,595,490,1642,84,-12.8,96,4.245,4.244,4.243,4.244,0,0,1.478,78.71,41,Motors_Started,
0.031649107120352,36.8843825753174,5917.1218963689,0,0,0.321904209776,47300,2018-04-12 06:25:33,15,0,16.963,5917.1218963689,0,0,0.321904209776,0,0,0,79.4, -3, 1.3,0,0,1022,1024,900,1285,83.9,-12.8,96,4.245,4.244,4.243,4.244,0,0,1.478,78.71,41,Motors_Started,
0.0316491842402028,36.8843824785293,5917.1218963689,0,0,0.36633203272,47400,2018-04-12 06:25:33,15,0,16.963,5917.1218963689,0,0,0.36633203272,0,0,0,79.4, -3, 1.3,0,0,1024,1024,1024,1024,82.8,-12.8,96,4.245,4.244,4.243,4.244,0,0,1.478,78.71,41,Motors_Started,
0.0316492352104999,36.8843824028957,5917.1218963689,0,0,0.39867783428,47500,2018-04-12 06:25:33,15,0,16.963,5917.1218963689,0,0,0.39867783428,0,0,0,79.4, -3, 1.3,0,0,1024,1024,1024,1024,82.8,-12.8,96,4.245,4.244,4.243,4.244,0,0,1.478,78.71,41,Motors_Started,
0.0316492926457196,36.8843823310005,5917.1218963689,0,0,0.431922586,47600,2018-04-12 06:25:34,15,0,16.963,5917.1218963689,0,0,0.431922586,0,0,0,79.4, -3, 1.3,0,0,1024,1024,1024,1024,80.9,-12.8,96,4.245,4.244,4.243,4.244,0,0,1.478,78.71,41,Motors_Started,
0.0316493259701976,36.8843822587927,5917.1218963689,0,0,0.45902888608,47700,2018-04-12 06:25:34,15,0,16.963,5917.1218963689,0,0,0.45902888608,0,0,0,79.5, -3.1, 1.3,0,0,1024,1024,1024,1024,80.6,-12.8,96,4.245,4.244,4.243,4.244,0,0,1.478,78.71,41,Motors_Started,
0.0316493704658014,36.8843821752111,5917.1218963689,0,0,0.49217193176,47800,2018-04-12 06:25:34,15,0,16.963,5917.1218963689,0,0,0.49217193176,0,0,0,79.5, -3.1, 1.3,0,0,1024,1024,1024,1024,80.4,-12.8,96,4.245,4.244,4.243,4.244,0,0,1.478,78.71,41,Motors_Started,
0.031649392488878,36.8843821093411,5917.1218963689,0,0,0.51518702436,47900,2018-04-12 06:25:34,15,0,16.963,5917.1218963689,0,0,0.51518702436,0,0,0,79.4, -3, 1.3,0,0,1024,1024,1024,1024,80.4,-12.8,96,4.245,4.244,4.243,4.244,0,0,1.478,78.71,41,Motors_Started,
0.0316494302915769,36.8843820460533,5917.1218963689,0,0,0.54154529292,48000,2018-04-12 06:25:34,15,0,16.963,5917.1218963689,0,0,0.54154529292,0,0,0,79.5, -3, 1.3,0,0,1024,1024,1024,1024,80.4,-12.8,96,4.245,4.244,4.243,4.244,0,0,1.478,78.71,41,Motors_Started,
0.0316494278814798,36.8843819780849,5917.1218963689,0,0,0.55963584468,48100,2018-04-12 06:25:34,15,0,16.963,5917.1218963689,0,0,0.55963584468,0,0,0,79.5, -3.1, 1.3,0,0,1024,1024,1024,1024,80.2,-12.8,96,4.245,4.244,4.243,4.244,0,0,1.478,78.71,41,Motors_Started,
0.0316494349065872,36.8843818987728,5917.1218963689,0,0,0.58360894256,48200,2018-04-12 06:25:34,15,0,16.963,5917.1218963689,0,0,0.58360894256,0,0,0,79.5, -3.1, 1.3,0,0,1024,1024,1024,1024,80.2,-12.8,96,4.245,4.244,4.243,4.244,0,0,1.478,78.71,41,Motors_Started,
0.0316494304674489,36.884381860258,5917.1218963689,0,0,0.59365815548,48300,2018-04-12 06:25:34,15,0,16.963,5917.1218963689,0,0,0.59365815548,0,0,0,79.4, -3, 1.3,0,0,1024,1024,1024,1024,80.1,-12.8,96,4.245,4.244,4.243,4.244,0,0,1.478,78.71,10,Assisted_Takeoff,
0.0316494457780793,36.8843818258841,5917.1218963689,0,0,0.60700789344,48400,2018-04-12 06:25:34,15,0,16.963,5917.1218963689,0,0,0.60700789344,0,0,0,79.5, -3, 1.3,0,0,1024,1024,1024,1024,80.1,-12.8,96,4.245,4.244,4.243,4.244,0,0,1.478,78.71,10,Assisted_Takeoff,
0.03164943700728,36.8843818325131,5917.1218963689,0,0,0.60314306392,48500,2018-04-12 06:25:35,15,0,16.963,5917.1218963689,0,0,0.60700789344,0,0,0,79.5, -3, 1.4,0,0,1024,1024,1024,1024,80,-12.8,96,4.245,4.244,4.243,4.244,0,0,1.478,78.71,10,Assisted_Takeoff,
0.0316494334507583,36.8843818323932,5917.1218963689,0,0,0.6023950324,48600,2018-04-12 06:25:35,15,0,16.963,5917.1218963689,0,0,0.60700789344,0,0,0,79.5, -3, 1.4,0,0,1024,1024,1024,1024,80,-12.8,96,4.245,4.244,4.243,4.244,0,0,1.478,78.71,10,Assisted_Takeoff,
0.0316494061417525,36.8843818695377,5917.1218963689,0,0,0.58557416572,48700,2018-04-12 06:25:35,15,0,16.963,5917.1218963689,0,0,0.60700789344,0,0,0,79.5, -3, 1.3,0,0,1024,1024,1024,1024,80,-12.8,96,4.245,4.244,4.243,4.244,0,0,1.478,78.71,10,Assisted_Takeoff,
0.0316493951823244,36.88438188262,5917.1218963689,0,0,0.57935697392,48800,2018-04-12 06:25:35,15,0,16.963,5917.1218963689,0,0,0.60700789344,0,0,0,79.5, -3, 1.3,0,0,1024,1024,1024,1024,80,-12.8,96,4.245,4.244,4.243,4.244,0,0,1.478,78.71,10,Assisted_Takeoff,
0.0316493687526783,36.8843819439337,5917.1218963689,0,0,0.55573492592,48900,2018-04-12 06:25:35,15,0,16.963,5917.1218963689,0,0,0.60700789344,0,0,0,79.5, -3, 1.3,0,0,1024,1024,1024,1024,80,-12.8,96,4.245,4.244,4.243,4.244,0,0,1.478,78.71,10,Assisted_Takeoff,
0.031649353552782,36.8843819949185,5917.1218963689,0,0,0.53767718256,49000,2018-04-12 06:25:35,15,0,16.963,5917.1218963689,0,0,0.60700789344,0,0,0,79.5, -3, 1.3,0,0,1024,1024,1024,1024,79.9,-12.8,96,4.241,4.236,4.233,4.233,0,0,2.44,78.71,10,Assisted_Takeoff,
0.0316493260679042,36.8843820677944,5917.1218963689,0,0,0.51069883524,49100,2018-04-12 06:25:35,15,0,16.963,5917.1218963689,0,0,0.60700789344,0,0,0,79.5, -3, 1.3,0,0,1024,1024,1024,1024,79.9,-12.8,96,4.241,4.236,4.233,4.233,0,0,2.44,78.71,10,Assisted_Takeoff,
0.0316493117538815,36.8843821081506,5917.1218963689,0,0,0.49604332296,49200,2018-04-12 06:25:35,15,0,16.963,5917.1218963689,0,0,0.60700789344,0,0,0,79.5, -3, 1.3,0,0,1024,1024,1025,1024,79.9,-12.8,96,4.241,4.236,4.233,4.233,0,0,2.44,78.71,10,Assisted_Takeoff,
0.0316492898545666,36.8843821598292,5917.1218963689,0,0,0.47651248244,49300,2018-04-12 06:25:35,15,0,16.963,5917.1218963689,0,0,0.60700789344,0,0,0,79.5, -3, 1.3,0,0,1024,1024,1025,1024,79.9,-12.8,96,4.241,4.236,4.233,4.233,0,0,2.44,78.71,10,Assisted_Takeoff,
0.0316492782242196,36.8843821884819,5917.1218963689,0,0,0.46583990992,49400,2018-04-12 06:25:35,15,0,16.963,5917.1218963689,0,0,0.60700789344,0,0,0,79.5, -3, 1.3,0,0,1024,1024,1024,1024,79.9,-12.8,96,4.241,4.236,4.233,4.233,0,0,2.44,78.71,10,Assisted_Takeoff,
0.0316492611516127,36.8843822217766,5917.1218963689,0,0,0.45261484388,49500,2018-04-12 06:25:35,15,0,16.963,5917.1218963689,0,0,0.60700789344,0,0,0,79.5, -3, 1.3,0,0,1024,1024,1086,1024,79.9,-12.8,96,4.241,4.236,4.233,4.233,0,0,2.44,78.71,10,Assisted_Takeoff,
0.0316492515014536,36.8843822395952,5917.1218963689,0,0,0.44541996176,49600,2018-04-12 06:25:36,15,0,16.963,5917.1218963689,0,0,0.60700789344,0,0,0,79.5, -3, 1.3,0,0,1024,1024,1268,1023,79.9,-12.8,96,4.241,4.236,4.233,4.233,0,0,2.44,78.71,10,Assisted_Takeoff,
0.0316492387181683,36.8843822803839,5917.1218963689,0,0,0.43127626052,49700,2018-04-12 06:25:36,15,0,16.963,5917.1218963689,0,0,0.60700789344,0,0,0,79.5, -3, 1.3,0,0,1024,1024,1454,982,79.9,-12.8,96,4.241,4.236,4.233,4.233,0,0,2.44,78.71,10,Assisted_Takeoff,
0.0316492312696654,36.8843823190443,5917.1218963689,0,0,0.4191437142,49800,2018-04-12 06:25:36,15,0,16.963,5917.1218963689,0,0,0.60700789344,0,0,0,79.5, -3, 1.3,0,0,1024,1024,1487,1000,79.9,-12.8,96,4.241,4.236,4.233,4.233,0,0,2.44,78.71,10,Assisted_Takeoff,
0.0316492239449243,36.8843823594562,5917.1218963689,0,0,0.40673885816,49900,2018-04-12 06:25:36,15,0,16.963,5917.1218963689,0,0,0.60700789344,0,0,0,79.5, -3, 1.3,0,0,1024,1024,1475,1024,79.8,-12.8,96,4.241,4.236,4.233,4.233,0,0,2.44,78.71,10,Assisted_Takeoff,
0.0316492195481255,36.8843823823321,5917.1218963689,0,0,0.39972770308,50000,2018-04-12 06:25:36,15,0,16.909,5917.1218963689,0,0,0.60700789344,0,0,0,79.4, -3.1, 1.2,0,0,1024,1024,1453,1024,79.8,-12.8,96,4.237,4.234,4.233,4.239,0,0,2.84,78.71,10,Assisted_Takeoff,
0.0316492131418268,36.8843824151344,5917.1218963689,0,0,0.38975066864,50100,2018-04-12 06:25:36,15,0,16.909,5917.1218963689,0,0,0.60700789344,0,0,0,79.3, -2.1, 0.9,0,0,1024,1024,1452,1024,79.8,-12.8,96,4.237,4.234,4.233,4.239,0,0,2.84,78.71,10,Assisted_Takeoff,
0.0316492069211708,36.8843824841134,5917.1218963689,0,0,0.37120736096,50200,2018-04-12 06:25:36,15,0,16.909,5917.1218963689,0,0,0.60700789344,0,0,-0.223694,79.4, 0.3, -0.1,0,0,1024,1024,1455,1024,79.8,-12.8,96,4.237,4.234,4.233,4.239,0,0,2.84,78.71,10,Assisted_Takeoff,
0.0316492077777323,36.8843825800108,5917.1218963689,0,0,0.34962599544,50300,2018-04-12 06:25:36,15,0,16.909,5917.1218963689,0,0,0.60700789344,0,0,-0.671082,79.4, 1.4, -0.3,0,0,1024,1024,1458,1024,79.8,-12.8,96,4.237,4.234,4.233,4.239,0,0,2.84,78.71,6,P-GPS,
0.0316492225216643,36.8843826537088,5917.1218963689,0,0,0.3389271762,50400,2018-04-12 06:25:36,15,0,16.909,5917.1218963689,0,0,0.60700789344,0,0,-1.11847,79.4, 1, 0.1,0,0,1024,1024,1459,1024,79.8,-12.8,96,4.237,4.234,4.233,4.239,0,0,2.84,78.71,6,P-GPS,
0.0316492112919145,36.8843827079739,5917.4499803689,0.328084,0,0.32524443298,50500,2018-04-12 06:25:37,16,0,16.909,5917.4499803689,0.328084,0,0.60700789344,0,0,-2.013246,79.5, 0.6, 0,0,0,1024,1024,1459,1024,79.8,-12.8,96,4.237,4.234,4.233,4.239,0,0,2.84,78.71,6,P-GPS,
0.0316491929588919,36.8843827510579,5917.7780643689,0.656168,0,0.311837608404,50600,2018-04-12 06:25:37,16,0,16.909,5917.7780643689,0.656168,0,0.60700789344,0,0,-2.684328,79.5, 0.7, -0.2,0,0,1024,1024,1464,1024,79.8,-12.8,96,4.237,4.234,4.233,4.239,0,0,2.84,78.71,6,P-GPS,
0.0316492011727635,36.8843828065819,5918.1061483689,0.984252,0,0.30568898616,50700,2018-04-12 06:25:37,16,0,16.909,5918.1061483689,0.984252,0,0.60700789344,0,0,-3.579104,79.5, 0.6, -0.4,0,0,1024,1024,1478,1024,79.8,-12.8,96,4.237,4.234,4.233,4.239,0,0,2.84,78.71,6,P-GPS,
0.0316492508924156,36.8843828547576,5918.7623163689,1.64042,0,0.31595637494,50800,2018-04-12 06:25:37,16,0,16.909,5918.7623163689,1.64042,0,0.60700789344,0,0,-4.250186,79.4, 0.5, -0.2,0,0,1024,1024,1478,1024,79.8,-12.8,96,4.237,4.234,4.233,4.239,0,0,2.84,78.71,6,P-GPS,
0.031649292867188,36.8843828958675,5919.4184843689,2.296588,0,0.325853684968,50900,2018-04-12 06:25:37,16,0,16.909,5919.4184843689,2.296588,0,0.60700789344,0,0,-4.921268,79.4, 0.3, 0.4,0,0,1024,1024,1494,1024,79.8,-12.8,96,4.237,4.234,4.233,4.239,0,0,2.84,78.71,6,P-GPS,
0.0316493329041121,36.8843829192016,5920.0746523689,2.952756,0,0.33768373784,51000,2018-04-12 06:25:37,16,0,16.478,5920.0746523689,2.952756,0,0.60700789344,0,0,-5.59235,79.3, -0.2, 1.2,0,0,1024,1024,1494,1024,79.8,-12.8,96,4.237,4.234,4.233,4.239,0,0,9.712,78.71,6,P-GPS,
0.0316493645382652,36.8843829649321,5921.0589043689,3.937008,0,0.34526247824,51100,2018-04-12 06:25:37,17,0,16.478,5921.0589043689,3.937008,0,0.60700789344,0,0,-6.263432,79.3, -0.4, 1.4,0,0,1024,1024,1509,1024,79.8,-12.8,96,4.237,4.234,4.233,4.239,0,0,9.712,78.71,6,P-GPS,Home Point Recorded. RTH Altitude:  45m.
0.0316493970843469,36.8843830290935,5922.0431563689,4.92126,0,0.3532808512,51200,2018-04-12 06:25:37,17,0,16.478,5922.0431563689,4.92126,0,0.60700789344,0,0,-6.71082,79.3, -0.2, 1.4,0,0,1024,1024,1541,1024,79.8,-12.8,96,4.237,4.234,4.233,4.239,0,0,9.712,78.71,6,P-GPS,
0.0316494148409003,36.8843831054594,5923.0274083689,5.905512,0,0.35741799044,51300,2018-04-12 06:25:37,18,0,16.478,5923.0274083689,5.905512,0,0.60700789344,0,0,-6.934514,79.3, 0.4, 1.1,0,0,1024,1024,1615,1024,79.8,-12.8,96,4.237,4.234,4.233,4.239,0,0,9.712,78.71,6,P-GPS,
0.031649429418731,36.8843831761941,5924.0116603689,6.889764,0,0.36253938168,51400,2018-04-12 06:25:37,18,0,16.478,5924.0116603689,6.889764,0,0.60700789344,0,0,-7.381902,79.3, 1.2, 0.6,0,0,1024,1024,1652,1024,79.7,-12.8,96,4.237,4.234,4.233,4.239,0,0,9.712,78.71,6,P-GPS,
0.0316494277805163,36.8843832313456,5925.3239963689,8.2021,0,0.36306431608,51500,2018-04-12 06:25:37,18,0,16.478,5925.3239963689,8.2021,0,0.60700789344,0,0,-8.052984,79.3, 1.3, 0.4,0,0,1024,1024,1646,1024,79.7,-12.8,96,4.237,4.234,4.233,4.239,0,0,9.712,78.71,6,P-GPS,
0.0316494299528606,36.8843832609661,5926.6363323689,9.514436,0,0.36491470984,51600,2018-04-12 06:25:38,18,0,16.478,5926.6363323689,9.514436,0,0.60700789344,0,0,-8.724066,79.3, 0.8, 0.4,0,0,1024,1024,1649,1024,79.7,-12.8,96,4.237,4.234,4.233,4.239,0,0,9.712,78.71,6,P-GPS,
0.0316494522788278,36.8843832492284,5927.9486683689,10.826772,0,0.37256234788,51700,2018-04-12 06:25:38,18,0,16.478,5927.9486683689,10.826772,0,0.60700789344,0,0,-9.171454,79.3, 0.1, 0.5,0,0,1024,1024,1653,1024,79.8,-12.8,96,4.237,4.234,4.233,4.239,0,0,9.712,78.71,6,P-GPS,
0.0316495078739058,36.8843832307246,5929.2610043689,12.139108,0,0.3921752094,51800,2018-04-12 06:25:38,18,0,16.478,5929.2610043689,12.139108,0,0.60700789344,0,0,-9.618842,79.3, 0.1, 1,0,0,1024,1024,1666,1024,79.7,-12.8,96,4.237,4.234,4.233,4.239,0,0,9.712,78.71,6,P-GPS,
0.0316495883125255,36.8843832101783,5930.5733403689,13.451444,0,0.42097442292,51900,2018-04-12 06:25:38,17,0,16.478,5930.5733403689,13.451444,0,0.60700789344,0,0,-10.06623,79.3, 0.6, 1.7,0,0,1024,1024,1674,1024,79.7,-12.8,96,4.237,4.234,4.233,4.239,0,0,9.712,78.71,6,P-GPS,
0.0316496638918683,36.8843832028127,5932.2137603689,15.091864,0,0.44838584112,52000,2018-04-12 06:25:38,17,0,16.155,5932.2137603689,15.091864,0,0.60700789344,0,0,-10.289924,79.4, 1, 2,0,0,1024,1024,1680,1024,79.7,-12.8,96,4.177,4.167,4.152,4.157,0,0,9.712,78.71,6,P-GPS,
0.03164974014213,36.8843831718818,5933.8541803689,16.732284,0,0.47583991024,52100,2018-04-12 06:25:38,18,0,16.155,5933.8541803689,16.732284,0,0.60700789344,0,0,-10.513618,79.3, 0.7, 1.9,0,0,1024,1024,1684,1024,79.7,-12.8,96,4.177,4.167,4.152,4.157,0,0,9.712,78.71,6,P-GPS,
0.0316497992351058,36.8843831393322,5935.1665163689,18.04462,0,0.49733269308,52200,2018-04-12 06:25:38,18,0,16.155,5935.1665163689,18.04462,0,0.60700789344,0,0,-10.513618,79.3, 0, 1.5,0,0,1024,1024,1684,1024,79.7,-12.8,96,4.177,4.167,4.152,4.157,0,0,9.712,78.71,6,P-GPS,
0.0316498774297296,36.8843831076177,5936.8069363689,19.68504,0,0.52605972812,52300,2018-04-12 06:25:38,18,0,16.155,5936.8069363689,19.68504,0,0.60700789344,0,0,-10.737312,79.3, -0.1, 1.5,0,0,1024,1024,1684,1024,79.7,-12.8,96,4.177,4.167,4.152,4.157,0,0,9.712,78.71,6,P-GPS,
0.0316499500355336,36.8843830953275,5938.4473563689,21.32546,0,0.55268046388,52400,2018-04-12 06:25:38,18,0,16.155,5938.4473563689,21.32546,0,0.60700789344,0,0,-10.737312,79.3, 0, 1.4,0,0,1024,1024,1684,1024,79.7,-12.8,96,4.177,4.167,4.152,4.157,0,0,9.712,78.71,6,P-GPS,
0.0316500061126311,36.8843831409295,5940.0877763689,22.96588,0,0.57280841728,52500,2018-04-12 06:25:39,18,0,16.155,5940.0877763689,22.96588,0,0.60700789344,0,0,-10.737312,79.3, 0.3, 1.2,0,0,1024,1024,1684,1024,79.7,-12.8,96,4.177,4.167,4.152,4.157,0,0,9.712,78.71,6,P-GPS,
0.0316500415247743,36.8843832098357,5941.7281963689,24.6063,0,0.58615159356,52600,2018-04-12 06:25:39,18,0,16.155,5941.7281963689,24.6063,0,0.60700789344,0,0,-10.737312,79.3, 0.5, 1.1,0,0,1024,1024,1684,1024,79.7,-12.8,96,4.177,4.167,4.152,4.157,0,0,9.712,78.71,6,P-GPS,
0.0316500785393063,36.8843833185414,5943.0405323689,25.918636,0,0.60243768332,52700,2018-04-12 06:25:39,18,0,16.155,5943.0405323689,25.918636,0,0.60700789344,0,0,-10.737312,79.3, 0.6, 1,0,0,1024,1024,1684,1024,79.7,-12.8,96,4.177,4.167,4.152,4.157,0,0,9.712,78.71,6,P-GPS,
0.0316501739758952,36.8843836464655,5947.9617923689,30.839896,0,0.65958991612,53000,2018-04-12 06:25:39,17,0,16.263,5947.9617923689,30.839896,0,0.65958991612,0,0,-10.737312,79.4, 0.3, 1,0,0,1024,1024,1684,1024,79.7,-12.8,96,4.088,4.079,4.062,4.073,0,0,19.598,78.71,6,P-GPS,
0.0316501817370593,36.8843837558264,5949.6022123689,32.480316,0,0.67435697696,53100,2018-04-12 06:25:39,18,0,16.263,5949.6022123689,32.480316,0,0.67435697696,0,0,-10.737312,79.4, 0.2, 1.2,0,0,1024,1024,1684,1024,79.7,-12.8,96,4.088,4.079,4.062,4.073,0,0,19.598,78.71,6,P-GPS,
0.031650193201305,36.8843838287879,5950.9145483689,33.792652,0,0.6874672136,53200,2018-04-12 06:25:39,18,0,16.263,5950.9145483689,33.792652,0,0.6874672136,0,0,-10.737312,79.3, 0.1, 1.4,0,0,1024,1024,1684,1024,79.7,-12.8,96,4.088,4.079,4.062,4.073,0,0,19.598,78.71,6,P-GPS,
0.0316502009852674,36.8843839081086,5952.5549683689,35.433072,0,0.7010498912,53300,2018-04-12 06:25:39,18,0,16.263,5952.5549683689,35.433072,0,0.7010498912,0,0,-10.737312,79.3, 0, 1.3,0,0,1024,1024,1684,1024,79.7,-12.8,96,4.088,4.079,4.062,4.073,0,0,19.598,78.71,6,P-GPS,
0.0316502172469091,36.8843839737602,5954.1953883689,37.073492,0,0.7162401804,53400,2018-04-12 06:25:39,18,0,16.263,5954.1953883689,37.073492,0,0.7162401804,0,0,-10.513618,79.4, 0.1, 1.1,0,0,1024,1024,1684,1024,79.7,-12.8,96,4.088,4.079,4.062,4.073,0,0,19.598,78.71,6,P-GPS,
0.0316502163870907,36.8843840432231,5955.8358083689,38.713912,0,0.72698165056,53500,2018-04-12 06:25:39,18,0,16.263,5955.8358083689,38.713912,0,0.72698165056,0,0,-10.513618,79.4, 0.1, 1,0,0,1024,1024,1684,1024,79.7,-12.8,96,4.088,4.079,4.062,4.073,0,0,19.598,78.71,6,P-GPS,
0.031650209195882,36.8843840986829,5957.1481443689,40.026248,0,0.73397968228,53600,2018-04-12 06:25:40,18,0,16.263,5957.1481443689,40.026248,0,0.73397968228,0,0,-10.737312,79.4, 0, 0.9,0,0,1024,1024,1684,1024,79.7,-12.8,96,4.088,4.079,4.062,4.073,0,0,19.598,78.71,6,P-GPS,
0.0316501874789528,36.8843841764148,5958.7885643689,41.666668,0,0.74095146728,53700,2018-04-12 06:25:40,18,0,16.263,5958.7885643689,41.666668,0,0.74095146728,0,0,-10.737312,79.4, 0, 1,0,0,1024,1024,1684,1024,79.7,-12.8,96,4.088,4.079,4.062,4.073,0,0,19.598,78.71,6,P-GPS,
0.0316501670940909,36.8843842528492,5960.4289843689,43.307088,0,0.74917325232,53800,2018-04-12 06:25:40,18,0,16.263,5960.4289843689,43.307088,0,0.74917325232,0,0,-10.737312,79.4, 0, 1,0,0,1024,1024,1684,1024,79.7,-12.8,96,4.088,4.079,4.062,4.073,0,0,19.598,78.71,6,P-GPS,
0.0316501352449832,36.8843843101847,5962.0694043689,44.947508,0,0.75101052272,53900,2018-04-12 06:25:40,18,0,16.263,5962.0694043689,44.947508,0,0.75101052272,0,0,-10.737312,79.4, -0.2, 1,0,0,1024,1024,1684,1024,79.7,-12.8,96,4.088,4.079,4.062,4.073,0,0,19.598,78.71,6,P-GPS,
0.0316501099682755,36.8843843478345,5963.7098243689,46.587928,0,0.75133532588,54000,2018-04-12 06:25:40,18,0,16.263,5963.7098243689,46.587928,0,0.75133532588,0,0,-10.961006,79.4, -0.3, 0.9,0,0,1024,1024,1684,1024,79.7,-12.8,96,4.094,4.087,4.07,4.082,0,0,17.538,80.51,6,P-GPS,
0.0316501113557098,36.8843843958217,5965.3502443689,48.228348,0,0.7620735152,54100,2018-04-12 06:25:40,18,0,16.263,5965.3502443689,48.228348,0,0.7620735152,0,0,-10.961006,79.4, -0.1, 0.9,0,0,1024,1024,1684,1024,79.7,-12.8,96,4.094,4.087,4.07,4.082,0,0,17.538,80.51,6,P-GPS,
0.0316501272004698,36.8843844518982,5966.9906643689,49.868768,0,0.779035458,54200,2018-04-12 06:25:40,18,0,16.263,5966.9906643689,49.868768,0,0.779035458,0,0,-10.961006,79.4, 0, 0.8,0,0,1024,1024,1684,1024,79.7,-12.8,96,4.094,4.087,4.07,4.082,0,0,17.538,80.51,6,P-GPS,
0.0316501512591015,36.8843845072424,5968.6310843689,51.509188,0,0.79838913316,54300,2018-04-12 06:25:40,18,0,16.263,5968.6310843689,51.509188,0,0.79838913316,0,0,-11.1847,79.4, 0, 0.8,0,0,1024,1024,1684,1024,79.7,-12.8,96,4.094,4.087,4.07,4.082,0,0,17.538,80.51,6,P-GPS,
0.0316501683154239,36.8843845603812,5970.2715043689,53.149608,0,0.81538388436,54400,2018-04-12 06:25:40,18,0,16.263,5970.2715043689,53.149608,0,0.81538388436,0,0,-11.1847,79.4, 0.1, 1.2,0,0,1024,1024,1684,1024,79.7,-12.8,96,4.094,4.087,4.07,4.082,0,0,17.538,80.51,6,P-GPS,
0.0316502232428399,36.8843846307605,5971.9119243689,54.790028,0,0.84717194312,54500,2018-04-12 06:25:41,18,0,16.263,5971.9119243689,54.790028,0,0.84717194312,0,0,-11.1847,79.4, 0.2, 1.1,0,0,1024,1024,1684,1024,79.7,-12.8,96,4.094,4.087,4.07,4.082,0,0,17.538,80.51,6,P-GPS,
0.0316502696893196,36.8843847016964,5973.5523443689,56.430448,0,0.8767880858,54600,2018-04-12 06:25:41,18,0,16.263,5973.5523443689,56.430448,0,0.8767880858,0,0,-11.1847,79.4, 0.2, 0.6,0,0,1024,1024,1684,1024,79.7,-12.8,96,4.094,4.087,4.07,4.082,0,0,17.538,80.51,6,P-GPS,
0.0316503114686788,36.8843847657807,5975.1927643689,58.070868,0,0.90356630188,54700,2018-04-12 06:25:41,18,0,16.263,5975.1927643689,58.070868,0,0.90356630188,0,0,-11.1847,79.4, 0, 0.3,0,0,1024,1024,1684,1024,79.7,-12.8,96,4.094,4.087,4.07,4.082,0,0,17.538,80.51,6,P-GPS,
0.0316503366704781,36.8843848128987,5977.1612683689,60.039372,0,0.9217848064,54800,2018-04-12 06:25:41,18,0,16.263,5977.1612683689,60.039372,0,0.9217848064,0,0,-11.408394,79.4, 0, 0.5,0,0,1024,1024,1684,1024,79.7,-12.8,96,4.094,4.087,4.07,4.082,0,0,17.538,80.51,6,P-GPS,
0.0316504016388798,36.8843848397272,5978.8016883689,61.679792,0,0.94610239248,54900,2018-04-12 06:25:41,18,0,16.263,5978.8016883689,61.679792,0,0.94610239248,0,0,-11.408394,79.4, 0, 0.9,0,0,1024,1024,1684,1024,79.7,-12.8,96,4.094,4.087,4.07,4.082,0,0,17.538,80.51,6,P-GPS,
0.0316504725055056,36.8843848567278,5980.4421083689,63.320212,0,0.96981958484,55000,2018-04-12 06:25:41,18,0,16.263,5980.4421083689,63.320212,0,0.96981958484,0,0,-11.408394,79.4, 0.2, 1.2,0,0,1024,1024,1684,1024,79.7,-12.8,96,4.094,4.087,4.07,4.082,0,0,17.538,80.51,6,P-GPS,
0.0316505911539352,36.8843849091986,5982.4106123689,65.288716,0,1.01537404824,55100,2018-04-12 06:25:41,18,0,16.263,5982.4106123689,65.288716,0,1.01537404824,0,0,-11.632088,79.4, -0.1, 1.8,0,0,1024,1024,1684,1024,79.7,-12.8,96,4.094,4.087,4.07,4.082,0,0,17.538,80.51,6,P-GPS,
0.031650701656888,36.8843849798776,5984.0510323689,66.929136,0,1.06292326236,55200,2018-04-12 06:25:41,18,0,16.263,5984.0510323689,66.929136,0,1.06292326236,0,0,-11.632088,79.4, -0.3, 2.2,0,0,1024,1024,1684,1024,79.7,-12.8,96,4.094,4.087,4.07,4.082,0,0,17.538,80.51,6,P-GPS,
0.0316508038873452,36.884385064868,5986.0195363689,68.89764,0,1.11142392008,55300,2018-04-12 06:25:41,18,0,16.263,5986.0195363689,68.89764,0,1.11142392008,0,0,-11.632088,79.4, -0.3, 2.4,0,0,1024,1024,1684,1024,79.7,-12.8,96,4.094,4.087,4.07,4.082,0,0,17.538,80.51,6,P-GPS,
0.0316508617329329,36.884385135667,5987.6599563689,70.53806,0,1.14410108648,55400,2018-04-12 06:25:41,18,0,16.263,5987.6599563689,70.53806,0,1.14410108648,0,0,-11.632088,79.4, -0.2, 2.4,0,0,1024,1024,1684,1024,79.7,-12.8,96,4.094,4.087,4.07,4.082,0,0,17.538,80.51,6,P-GPS,
0.0316509251315146,36.8843851996657,5989.3003763689,72.17848,0,1.17679793792,55500,2018-04-12 06:25:42,18,0,16.263,5989.3003763689,72.17848,0,1.17679793792,0,0,-11.632088,79.4, 0.2, 1.9,0,0,1024,1024,1684,1024,79.7,-12.8,96,4.094,4.087,4.07,4.082,0,0,17.538,80.51,6,P-GPS,
0.0316510259973357,36.8843852374482,5992.9093003689,75.787404,0,1.21402891024,55700,2018-04-12 06:25:42,18,0,16.263,5992.9093003689,75.787404,0,1.21402891024,0,0,-11.408394,79.4, 0, 1.9,0,0,1024,1024,1684,1024,79.7,-12.8,96,4.094,4.087,4.07,4.082,0,0,17.538,80.51,6,P-GPS,
0.0316510557034111,36.8843852222975,5994.8778043689,77.755908,0,1.2190453146,55800,2018-04-12 06:25:42,18,0,16.263,5994.8778043689,77.755908,0,1.2190453146,0,0,-11.408394,79.4, -0.4, 2.2,0,0,1024,1024,1684,1024,79.7,-12.8,96,4.094,4.087,4.07,4.082,0,0,17.538,80.51,6,P-GPS,
0.0316510618589294,36.8843851942314,5996.5182243689,79.396328,0,1.214484947,55900,2018-04-12 06:25:42,18,0,16.263,5996.5182243689,79.396328,0,1.2190453146,0,0,-11.408394,79.3, -0.6, 1.8,0,0,1024,1024,1684,1024,79.7,-12.8,96,4.094,4.087,4.07,4.082,0,0,17.538,80.51,6,P-GPS,
0.0316510350840532,36.8843851840739,5998.1586443689,81.036748,0,1.20450791256,56000,2018-04-12 06:25:42,18,0,16.263,5998.1586443689,81.036748,0,1.2190453146,0,0,-11.408394,79.3, -0.2, 1.4,0,0,1024,1024,1684,1024,79.7,-12.8,96,4.089,4.082,4.067,4.08,0,0,17.47,80.51,6,P-GPS,
0.0316509843091694,36.8843851710129,6000.1271483689,83.005252,0,1.18701119284,56100,2018-04-12 06:25:42,18,0,16.263,6000.1271483689,83.005252,0,1.2190453146,0,0,-11.408394,79.4, 0.1, 1.4,0,0,1024,1024,1684,1024,79.7,-12.8,96,4.089,4.082,4.067,4.08,0,0,17.47,80.51,6,P-GPS,
0.0316509140646092,36.8843851509547,6001.7675683689,84.645672,0,1.16243113956,56200,2018-04-12 06:25:42,18,0,16.263,6001.7675683689,84.645672,0,1.2190453146,0,0,-11.408394,79.4, -0.2, 0.9,0,0,1024,1024,1684,1024,79.7,-12.8,96,4.089,4.082,4.067,4.08,0,0,17.47,80.51,6,P-GPS,
0.0316508327205746,36.8843851082647,6003.7360723689,86.614176,0,1.1295768078,56300,2018-04-12 06:25:42,18,0,16.263,6003.7360723689,86.614176,0,1.2190453146,0,0,-11.1847,79.4, -1.1, 0.5,0,0,1024,1024,1684,1024,79.7,-12.8,96,4.089,4.082,4.067,4.08,0,0,17.47,80.51,6,P-GPS,
0.0316507699180034,36.884385072893,6005.3764923689,88.254596,0,1.10368113768,56400,2018-04-12 06:25:42,18,0,16.263,6005.3764923689,88.254596,0,1.2190453146,0,0,-11.1847,79.4, -1.7, 0.8,0,0,1024,1024,1684,1024,79.7,-12.8,96,4.089,4.082,4.067,4.08,0,0,17.47,80.51,6,P-GPS,
0.0316507026958352,36.884385040215,6007.0169123689,89.895016,0,1.07719163552,56500,2018-04-12 06:25:43,18,0,16.263,6007.0169123689,89.895016,0,1.2190453146,0,0,-11.1847,79.3, -1.7, 1.2,0,0,1024,1024,1684,1024,79.7,-12.8,96,4.089,4.082,4.067,4.08,0,0,17.47,80.51,6,P-GPS,
0.0316506436386853,36.8843850369647,6008.9854163689,91.86352,0,1.05997050636,56600,2018-04-12 06:25:43,18,0,16.263,6008.9854163689,91.86352,0,1.2190453146,0,0,-10.961006,79.3, -1.3, 1.4,0,0,1024,1024,1684,1024,79.7,-12.8,96,4.089,4.082,4.067,4.08,0,0,17.47,80.51,6,P-GPS,
0.0316505810640962,36.8843850663155,6010.6258363689,93.50394,0,1.0498359916,56700,2018-04-12 06:25:43,18,0,16.263,6010.6258363689,93.50394,0,1.2190453146,0,0,-11.1847,79.3, -0.3, 1.7,0,0,1024,1024,1684,1024,79.7,-12.8,96,4.089,4.082,4.067,4.08,0,0,17.47,80.51,6,P-GPS,
0.0316505218831845,36.8843851190175,6012.2662563689,95.14436,0,1.04695213324,56800,2018-04-12 06:25:43,18,0,16.263,6012.2662563689,95.14436,0,1.2190453146,0,0,-11.1847,79.4, 0.4, 1.6,0,0,1024,1024,1684,1024,79.7,-12.8,96,4.089,4.082,4.067,4.08,0,0,17.47,80.51,6,P-GPS,
0.031650431377524,36.884385188506,6014.2347603689,97.112864,0,1.041174574,56900,2018-04-12 06:25:43,18,0,16.263,6014.2347603689,97.112864,0,1.2190453146,0,0,-11.1847,79.4, 0.3, 1,0,0,1024,1024,1684,1024,79.7,-12.8,96,4.089,4.082,4.067,4.08,0,0,17.47,80.51,6,P-GPS,
0.0316503353253833,36.8843852529287,6015.8751803689,98.753284,0,1.03430777588,57000,2018-04-12 06:25:43,18,0,16.263,6015.8751803689,98.753284,0,1.2190453146,0,0,-11.1847,79.4, -0.2, 0.6,0,0,1024,1024,1684,1024,79.7,-12.8,96,4.089,4.081,4.066,4.078,0,0,16.89,80.51,6,P-GPS,
0.0316502214189826,36.8843852974001,6017.8436843689,100.721788,0,1.01936683052,57100,2018-04-12 06:25:43,18,0,16.263,6017.8436843689,100.721788,0,1.2190453146,0,0,-10.961006,79.4, -0.5, 0.3,0,0,1024,1024,1684,1024,79.7,-12.8,96,4.089,4.081,4.066,4.078,0,0,16.89,80.51,6,P-GPS,
0.0316501171431997,36.8843853297485,6019.4841043689,102.362208,0,1.00480974344,57200,2018-04-12 06:25:43,18,0,16.263,6019.4841043689,102.362208,0,1.2190453146,0,0,-11.1847,79.3, -0.3, 0.3,0,0,1024,1024,1684,1024,79.7,-12.8,96,4.089,4.081,4.066,4.078,0,0,16.89,80.51,6,P-GPS,
0.0316499909713588,36.8843853993184,6021.1245243689,104.002628,0,0.99817260412,57300,2018-04-12 06:25:43,18,0,16.263,6021.1245243689,104.002628,0,1.2190453146,0,0,-11.1847,79.3, -0.1, 0.3,0,0,1024,1024,1684,1024,79.7,-12.8,96,4.089,4.081,4.066,4.078,0,0,16.89,80.51,6,P-GPS,
0.0316498730068757,36.8843854901413,6023.0930283689,105.971132,0,1.00244753864,57400,2018-04-12 06:25:43,18,0,16.263,6023.0930283689,105.971132,0,1.2190453146,0,0,-11.408394,79.3, 0, 0.4,0,0,1024,1024,1684,1024,79.6,-12.8,96,4.089,4.081,4.066,4.078,0,0,16.89,80.51,6,P-GPS,
0.0316497495740776,36.8843855865739,6024.7334483689,107.611552,0,1.01047903496,57500,2018-04-12 06:25:43,18,0,16.263,6024.7334483689,107.611552,0,1.2190453146,0,0,-11.408394,79.3, 0.1, 0.4,0,0,1024,1024,1684,1024,79.6,-12.8,96,4.089,4.081,4.066,4.078,0,0,16.89,80.51,6,P-GPS,
0.0316496510727571,36.8843856712475,6026.7019523689,109.580056,0,1.0216863844,57600,2018-04-12 06:25:44,18,0,16.263,6026.7019523689,109.580056,0,1.2190453146,0,0,-11.408394,79.4, 0.2, 0.4,0,0,1024,1024,1684,1024,79.6,-12.8,96,4.089,4.081,4.066,4.078,0,0,16.89,80.51,6,P-GPS,
0.0316495478847748,36.8843857711745,6028.6704563689,111.54856,0,1.03938979704,57700,2018-04-12 06:25:44,18,0,16.263,6028.6704563689,111.54856,0,1.2190453146,0,0,-11.408394,79.4, 0.3, 0.4,0,0,1024,1024,1684,1024,79.6,-12.8,96,4.089,4.081,4.066,4.078,0,0,16.89,80.51,6,P-GPS,
0.0316494616847203,36.8843858696155,6030.3108763689,113.18898,0,1.0610564644,57800,2018-04-12 06:25:44,18,0,16.263,6030.3108763689,113.18898,0,1.2190453146,0,0,-11.408394,79.4, 0.3, 0.5,0,0,1024,1024,1684,1024,79.6,-12.8,96,4.089,4.081,4.066,4.078,0,0,16.89,80.51,6,P-GPS,
0.0316493890333198,36.8843859794218,6031.9512963689,114.8294,0,1.08989176716,57900,2018-04-12 06:25:44,18,0,16.263,6031.9512963689,114.8294,0,1.2190453146,0,0,-11.1847,79.4, 0.4, 0.6,0,0,1024,1024,1684,1024,79.6,-12.8,96,4.089,4.081,4.066,4.078,0,0,16.89,80.51,6,P-GPS,
0.0316493368156346,36.8843860822436,6033.9198003689,116.797904,0,1.11977365788,58000,2018-04-12 06:25:44,18,0,16.236,6033.9198003689,116.797904,0,1.2190453146,0,0,-11.1847,79.4, 0.4, 0.6,0,0,1024,1024,1684,1024,79.6,-12.8,96,4.08,4.073,4.058,4.07,0,0,17.116,80.51,6,P-GPS,
0.0316492729708593,36.8843861730964,6035.5602203689,118.438324,0,1.14507221512,58100,2018-04-12 06:25:44,18,0,16.236,6035.5602203689,118.438324,0,1.2190453146,0,0,-11.1847,79.4, 0.6, 0.8,0,0,1024,1024,1684,1024,79.6,-12.8,96,4.08,4.073,4.058,4.07,0,0,17.116,80.51,6,P-GPS,
0.0316492041007058,36.884386241463,6037.5287243689,120.406828,0,1.16282155952,58200,2018-04-12 06:25:44,18,0,16.236,6037.5287243689,120.406828,0,1.2190453146,0,0,-11.408394,79.4, 0.6, 0.7,0,0,1024,1024,1684,1024,79.6,-12.8,96,4.08,4.073,4.058,4.07,0,0,17.116,80.51,6,P-GPS,
0.0316491777231699,36.8843863328769,6039.1691443689,122.047248,0,1.19300200668,58300,2018-04-12 06:25:44,18,0,16.236,6039.1691443689,122.047248,0,1.2190453146,0,0,-11.1847,79.4, 0.5, 0.7,0,0,1024,1024,1684,1024,79.6,-12.8,96,4.08,4.073,4.058,4.07,0,0,17.116,80.51,6,P-GPS,
0.0316491821557945,36.8843864357886,6041.1376483689,124.015752,0,1.22995738844,58400,2018-04-12 06:25:44,18,0,16.236,6041.1376483689,124.015752,0,1.22995738844,0,0,-11.1847,79.4, 0.5, 0.8,0,0,1024,1024,1684,1024,79.6,-12.8,96,4.08,4.073,4.058,4.07,0,0,17.116,80.51,6,P-GPS,
0.0316491919948531,36.8843865093197,6042.7780683689,125.656172,0,1.25691605072,58500,2018-04-12 06:25:45,18,0,16.236,6042.7780683689,125.656172,0,1.25691605072,0,0,-11.1847,79.4, 0.6, 0.9,0,0,1024,1024,1684,1024,79.6,-12.8,96,4.08,4.073,4.058,4.07,0,0,17.116,80.51,6,P-GPS,
0.0316491842108908,36.884386551513,6044.4184883689,127.296592,0,1.2713255,58600,2018-04-12 06:25:45,18,0,16.236,6044.4184883689,127.296592,0,1.2713255,0,0,-10.961006,79.4, 0.8, 1,0,0,1024,1024,1684,1024,79.6,-12.8,96,4.08,4.073,4.058,4.07,0,0,17.116,80.51,6,P-GPS,
0.0316491735543533,36.8843865789667,6046.0589083689,128.937012,0,1.28028875488,58700,2018-04-12 06:25:45,18,0,16.236,6046.0589083689,128.937012,0,1.28028875488,0,0,-10.961006,79.4, 0.8, 1.1,0,0,1024,1024,1684,1024,79.6,-12.8,96,4.08,4.073,4.058,4.07,0,0,17.116,80.51,6,P-GPS,
0.0316491505183845,36.8843866084459,6047.6993283689,130.577432,0,1.28907812524,58800,2018-04-12 06:25:45,18,0,16.236,6047.6993283689,130.577432,0,1.28907812524,0,0,-10.961006,79.3, 0.8, 1,0,0,1024,1024,1684,1024,79.6,-12.8,96,4.08,4.073,4.058,4.07,0,0,17.116,80.51,6,P-GPS,
0.0316491365691332,36.8843866306324,6049.3397483689,132.217852,0,1.29599413596,58900,2018-04-12 06:25:45,18,0,16.236,6049.3397483689,132.217852,0,1.29599413596,0,0,-10.961006,79.4, 0.9, 0.9,0,0,1024,1024,1684,1024,79.6,-12.8,96,4.08,4.073,4.058,4.07,0,0,17.116,80.51,6,P-GPS,
0.031649134132981,36.8843866550028,6051.3082523689,134.186356,0,1.30454072416,59000,2018-04-12 06:25:45,18,0,16.155,6051.3082523689,134.186356,0,1.30454072416,0,0,-10.961006,79.4, 0.8, 1.1,0,0,1024,1024,1684,1024,79.6,-12.8,96,4.08,4.073,4.058,4.07,0,0,17.116,80.51,6,P-GPS,
0.0316491438287365,36.8843866540907,6052.9486723689,135.826776,0,1.30490817824,59100,2018-04-12 06:25:45,18,0,16.155,6052.9486723689,135.826776,0,1.30490817824,0,0,-10.961006,79.4, 0.8, 1.2,0,0,1024,1024,1684,1024,79.6,-12.8,96,4.08,4.073,4.058,4.07,0,0,17.116,80.51,6,P-GPS,
0.0316491486359032,36.8843866527889,6054.5890923689,137.467196,0,1.304790068,59200,2018-04-12 06:25:45,18,0,16.155,6054.5890923689,137.467196,0,1.30490817824,0,0,-10.961006,79.4, 0.9, 1,0,0,1024,1024,1684,1024,79.6,-12.8,96,4.08,4.073,4.058,4.07,0,0,17.116,80.51,6,P-GPS,
0.0316491602401952,36.88438665323,6056.2295123689,139.107616,0,1.30580056672,59300,2018-04-12 06:25:45,18,0,16.155,6056.2295123689,139.107616,0,1.30580056672,0,0,-10.961006,79.3, 0.8, 1.1,0,0,1024,1024,1684,1024,79.6,-12.8,96,4.08,4.073,4.058,4.07,0,0,17.116,80.51,6,P-GPS,
0.0316491704537959,36.8843866629165,6057.8699323689,140.748036,0,1.31001644612,59400,2018-04-12 06:25:46,18,0,16.155,6057.8699323689,140.748036,0,1.31001644612,0,0,-10.737312,79.4, 0.6, 1.2,0,0,1024,1024,1684,1024,79.6,-12.8,96,4.08,4.073,4.058,4.07,0,0,17.116,80.51,6,P-GPS,
0.0316491595106522,36.8843866865033,6059.5103523689,142.388456,0,1.31763783744,59500,2018-04-12 06:25:46,18,0,16.155,6059.5103523689,142.388456,0,1.31763783744,0,0,-10.961006,79.3, 0.6, 0.9,0,0,1024,1024,1684,1024,79.6,-12.8,96,4.08,4.073,4.058,4.07,0,0,17.116,80.51,6,P-GPS,
0.0316491388228997,36.8843867202305,6061.1507723689,144.028876,0,1.32821854644,59600,2018-04-12 06:25:46,18,0,16.155,6061.1507723689,144.028876,0,1.32821854644,0,0,-10.961006,79.4, 0.8, 1.1,0,0,1024,1024,1684,1024,79.6,-12.8,96,4.08,4.073,4.058,4.07,0,0,17.116,80.51,6,P-GPS,
0.0316491061270011,36.8843867699435,6063.1192763689,145.99738,0,1.34379597476,59700,2018-04-12 06:25:46,18,0,16.155,6063.1192763689,145.99738,0,1.34379597476,0,0,-11.1847,79.3, 0.8, 1.4,0,0,1024,1024,1684,1024,79.6,-12.8,96,4.08,4.073,4.058,4.07,0,0,17.116,80.51,6,P-GPS,
0.0316490685001741,36.8843868233264,6064.7596963689,147.6378,0,1.36055778632,59800,2018-04-12 06:25:46,18,0,16.155,6064.7596963689,147.6378,0,1.36055778632,0,0,-11.1847,79.4, 1, 1.3,0,0,1024,1024,1684,1024,79.6,-12.8,96,4.08,4.073,4.058,4.07,0,0,17.116,80.51,6,P-GPS,
0.0316490280203133,36.8843868703673,6066.4001163689,149.27822,0,1.37507878416,59900,2018-04-12 06:25:46,18,0,16.155,6066.4001163689,149.27822,0,1.37507878416,0,0,-10.961006,79.4, 1, 1.2,0,0,1024,1024,1684,1024,79.6,-12.8,96,4.08,4.073,4.058,4.07,0,0,17.116,80.51,6,P-GPS,
0.0316490059418696,36.8843869006858,6068.0405363689,150.91864,0,1.38477366636,60000,2018-04-12 06:25:46,18,0,16.209,6068.0405363689,150.91864,0,1.38477366636,0,0,-11.1847,79.4, 1.1, 1.2,0,0,1024,1024,1684,1024,79.6,-12.8,96,4.078,4.069,4.054,4.066,0,0,17.004,80.51,6,P-GPS,
0.0316489921098662,36.8843869354451,6069.6809563689,152.55906,0,1.396571567,60100,2018-04-12 06:25:46,18,0,16.209,6069.6809563689,152.55906,0,1.396571567,0,0,-11.1847,79.4, 1.2, 1.1,0,0,1024,1024,1684,1024,79.6,-12.8,96,4.078,4.069,4.054,4.066,0,0,17.004,80.51,6,P-GPS,
0.0316489920772974,36.8843869692023,6071.6494603689,154.527564,0,1.40875660676,60200,2018-04-12 06:25:46,18,0,16.209,6071.6494603689,154.527564,0,1.40875660676,0,0,-11.1847,79.4, 1.2, 1.3,0,0,1024,1024,1684,1024,79.6,-12.8,96,4.078,4.069,4.054,4.066,0,0,17.004,80.51,6,P-GPS,
0.0316490003107102,36.8843870047495,6073.2898803689,156.167984,0,1.42202432372,60300,2018-04-12 06:25:46,18,0,16.209,6073.2898803689,156.167984,0,1.42202432372,0,0,-11.1847,79.4, 1.2, 1.4,0,0,1024,1024,1684,1024,79.6,-12.8,96,4.078,4.069,4.054,4.066,0,0,17.004,80.51,6,P-GPS,
0.0316490219592447,36.8843870510067,6076.5707203689,159.448824,0,1.43987537416,60500,2018-04-12 06:25:46,18,0,16.209,6076.5707203689,159.448824,0,1.43987537416,0,0,-11.1847,79.4, 1.2, 1.5,0,0,1024,1024,1684,1024,79.6,-12.8,96,4.078,4.069,4.054,4.066,0,0,17.004,80.51,6,P-GPS,
0.0316490314954128,36.8843870500046,6078.5392243689,161.417328,0,1.44003285448,60600,2018-04-12 06:25:47,18,0,16.209,6078.5392243689,161.417328,0,1.44003285448,0,0,-11.1847,79.4, 1.2, 1.8,0,0,1024,1024,1684,1024,79.6,-12.8,96,4.078,4.069,4.054,4.066,0,0,17.004,80.51,6,P-GPS,
0.0316490348662918,36.884387057156,6080.1796443689,163.057748,0,1.4427986026,60700,2018-04-12 06:25:47,18,0,16.209,6080.1796443689,163.057748,0,1.4427986026,0,0,-11.1847,79.4, 1, 1.9,0,0,1024,1024,1684,1024,79.6,-12.8,96,4.078,4.069,4.054,4.066,0,0,17.004,80.51,6,P-GPS,
0.0316490284567363,36.8843870692492,6081.8200643689,164.698168,0,1.44681106992,60800,2018-04-12 06:25:47,18,0,16.209,6081.8200643689,164.698168,0,1.44681106992,0,0,-10.961006,79.4, 0.8, 1.8,0,0,1024,1024,1684,1024,79.6,-12.8,96,4.078,4.069,4.054,4.066,0,0,17.004,80.51,6,P-GPS,
0.0316490164029938,36.8843871052932,6083.4604843689,166.338588,0,1.4591699942,60900,2018-04-12 06:25:47,18,0,16.209,6083.4604843689,166.338588,0,1.4591699942,0,0,-11.1847,79.4, 0.7, 1.7,0,0,1024,1024,1684,1024,79.6,-12.8,96,4.078,4.069,4.054,4.066,0,0,17.004,80.51,6,P-GPS,
0.0316490025253941,36.8843871481459,6085.1009043689,167.979008,0,1.47392393168,61000,2018-04-12 06:25:47,18,0,16.182,6085.1009043689,167.979008,0,1.47392393168,0,0,-11.1847,79.4, 1, 1.7,0,0,1024,1024,1684,1024,79.6,-12.8,95,4.072,4.063,4.046,4.059,0,0,17.374,80.51,6,P-GPS,
0.0316489891591257,36.8843871923862,6086.7413243689,169.619428,0,1.48923561196,61100,2018-04-12 06:25:47,18,0,16.182,6086.7413243689,169.619428,0,1.48923561196,0,0,-10.961006,79.4, 1.2, 1.7,0,0,1024,1024,1684,1024,79.6,-12.8,95,4.072,4.063,4.046,4.059,0,0,17.374,80.51,6,P-GPS,
0.0316489712006453,36.8843872132195,6088.7098283689,171.587932,0,1.495898998,61200,2018-04-12 06:25:47,18,0,16.182,6088.7098283689,171.587932,0,1.495898998,0,0,-10.961006,79.4, 1.2, 1.4,0,0,1024,1024,1684,1024,79.6,-12.8,95,4.072,4.063,4.046,4.059,0,0,17.374,80.51,6,P-GPS,
0.0316489550888204,36.8843872414097,6090.3502483689,173.228352,0,1.5053478172,61300,2018-04-12 06:25:47,18,0,16.182,6090.3502483689,173.228352,0,1.5053478172,0,0,-10.961006,79.3, 1.2, 1.3,0,0,1024,1024,1684,1024,79.6,-12.8,95,4.072,4.063,4.046,4.059,0,0,17.374,80.51,6,P-GPS,
0.0316489417160383,36.8843872606971,6091.9906683689,174.868772,0,1.51172577016,61400,2018-04-12 06:25:47,18,0,16.182,6091.9906683689,174.868772,0,1.51172577016,0,0,-10.961006,79.3, 0.9, 1.4,0,0,1024,1024,1684,1024,79.6,-12.8,95,4.072,4.063,4.046,4.059,0,0,17.374,80.51,6,P-GPS,
0.0316489374430013,36.8843872967582,6093.6310883689,176.509192,0,1.52459650548,61500,2018-04-12 06:25:48,18,0,16.182,6093.6310883689,176.509192,0,1.52459650548,0,0,-10.961006,79.4, 0.6, 1.5,0,0,1024,1024,1684,1024,79.6,-12.8,95,4.072,4.063,4.046,4.059,0,0,17.374,80.51,6,P-GPS,
0.0316489346453345,36.8843873350717,6095.2715083689,178.149612,0,1.5383530676,61600,2018-04-12 06:25:48,18,0,16.182,6095.2715083689,178.149612,0,1.5383530676,0,0,-10.961006,79.4, 0.8, 1.5,0,0,1024,1024,1684,1024,79.6,-12.8,95,4.072,4.063,4.046,4.059,0,0,17.374,80.51,6,P-GPS,
0.031648962602461,36.884387379055,6096.9119283689,179.790032,0,1.55551514164,61700,2018-04-12 06:25:48,18,0,16.182,6096.9119283689,179.790032,0,1.55551514164,0,0,-10.961006,79.3, 1, 1.7,0,0,1024,1024,1684,1024,79.6,-12.8,95,4.072,4.063,4.046,4.059,0,0,17.374,80.51,6,P-GPS,
0.0316489917906912,36.8843874039779,6098.5523483689,181.430452,0,1.56588259604,61800,2018-04-12 06:25:48,18,0,16.182,6098.5523483689,181.430452,0,1.56588259604,0,0,-11.1847,79.4, 1, 1.7,0,0,1024,1024,1684,1024,79.6,-12.8,95,4.072,4.063,4.046,4.059,0,0,17.374,80.51,6,P-GPS,
0.0316490231219537,36.8843874202848,6100.1927683689,183.070872,0,1.57329729444,61900,2018-04-12 06:25:48,18,0,16.182,6100.1927683689,183.070872,0,1.57329729444,0,0,-10.961006,79.4, 1, 1.7,0,0,1024,1024,1684,1024,79.6,-12.8,95,4.072,4.063,4.046,4.059,0,0,17.374,80.51,6,P-GPS,
0.0316490350161087,36.8843874229869,6101.8331883689,184.711292,0,1.57487209764,62000,2018-04-12 06:25:48,18,0,16.101,6101.8331883689,184.711292,0,1.57487209764,0,0,-11.1847,79.3, 0.9, 1.7,0,0,1024,1024,1684,1024,79.6,-12.8,95,4.067,4.059,4.042,4.055,0,0,17.44,80.51,6,P-GPS,
0.031649048353065,36.8843874174071,6103.8016923689,186.679796,0,1.5735400766,62100,2018-04-12 06:25:48,18,0,16.101,6103.8016923689,186.679796,0,1.57487209764,0,0,-11.1847,79.3, 0.8, 1.6,0,0,1024,1024,1684,1024,79.6,-12.8,95,4.067,4.059,4.042,4.055,0,0,17.44,80.51,6,P-GPS,
0.0316490487145796,36.8843874056394,6105.4421123689,188.320216,0,1.569307793,62200,2018-04-12 06:25:48,18,0,16.101,6105.4421123689,188.320216,0,1.57487209764,0,0,-11.1847,79.3, 0.7, 1.6,0,0,1024,1024,1684,1024,79.6,-12.8,95,4.067,4.059,4.042,4.055,0,0,17.44,80.51,6,P-GPS,
0.0316490783099208,36.8843873680239,6107.0825323689,189.960636,0,1.55731304196,62300,2018-04-12 06:25:48,18,0,16.101,6107.0825323689,189.960636,0,1.57487209764,0,0,-11.1847,79.4, 0.5, 1.8,0,0,1024,1024,1684,1024,79.6,-12.8,95,4.067,4.059,4.042,4.055,0,0,17.44,80.51,6,P-GPS,
0.0316491079020051,36.8843873266014,6108.7229523689,191.601056,0,1.54404860584,62400,2018-04-12 06:25:48,18,0,16.101,6108.7229523689,191.601056,0,1.57487209764,0,0,-10.961006,79.4, 0.5, 1.9,0,0,1024,1024,1684,1024,79.6,-12.8,95,4.067,4.059,4.042,4.055,0,0,17.44,80.51,6,P-GPS,
0.0316491519676996,36.8843872941289,6110.3633723689,193.241476,0,1.5350066108,62500,2018-04-12 06:25:48,18,0,16.101,6110.3633723689,193.241476,0,1.57487209764,0,0,-10.961006,79.3, 0.8, 1.7,0,0,1024,1024,1684,1024,79.6,-12.8,95,4.067,4.059,4.042,4.055,0,0,17.44,80.51,6,P-GPS,
0.0316491869043372,36.8843872693773,6112.0037923689,194.881896,0,1.52834322476,62600,2018-04-12 06:25:49,18,0,16.101,6112.0037923689,194.881896,0,1.57487209764,0,0,-10.961006,79.4, 0.7, 1.7,0,0,1024,1024,1684,1024,79.6,-12.8,95,4.067,4.059,4.042,4.055,0,0,17.44,80.51,6,P-GPS,
0.0316492249089632,36.8843872206406,6113.6442123689,196.522316,0,1.51342852612,62700,2018-04-12 06:25:49,18,0,16.101,6113.6442123689,196.522316,0,1.57487209764,0,0,-11.1847,79.4, 0.4, 1.7,0,0,1024,1024,1684,1024,79.6,-12.8,95,4.067,4.059,4.042,4.055,0,0,17.44,80.51,6,P-GPS,
0.0316492361028872,36.8843871642816,6115.2846323689,198.162736,0,1.49403876172,62800,2018-04-12 06:25:49,18,0,16.101,6115.2846323689,198.162736,0,1.57487209764,0,0,-10.961006,79.4, 0.2, 1.8,0,0,1024,1024,1684,1024,79.6,-12.8,95,4.067,4.059,4.042,4.055,0,0,17.44,80.51,6,P-GPS,
0.0316492443297863,36.8843870743751,6116.9250523689,199.803156,0,1.4624836426,62900,2018-04-12 06:25:49,18,0,16.101,6116.9250523689,199.803156,0,1.57487209764,0,0,-10.961006,79.4, 0.2, 1.5,0,0,1024,1024,1684,1024,79.6,-12.8,95,4.067,4.059,4.042,4.055,0,0,17.44,80.51,6,P-GPS,
0.0316492408123472,36.8843869836421,6118.5654723689,201.443576,0,1.42980975704,63000,2018-04-12 06:25:49,18,0,16.182,6118.5654723689,201.443576,0,1.57487209764,0,0,-10.737312,79.3, 0.2, 1.5,0,0,1024,1024,1684,1024,79.6,-12.8,95,4.067,4.059,4.042,4.055,0,0,17.44,80.51,6,P-GPS,
0.0316492474140592,36.8843868831113,6120.2058923689,203.083996,0,1.39444230184,63100,2018-04-12 06:25:49,18,0,16.182,6120.2058923689,203.083996,0,1.57487209764,0,0,-10.961006,79.3, 0, 1.8,0,0,1024,1024,1684,1024,79.6,-12.8,95,4.067,4.059,4.042,4.055,0,0,17.44,80.51,6,P-GPS,
0.0316492442288227,36.884386806784,6121.8463123689,204.724416,0,1.36699151356,63200,2018-04-12 06:25:49,18,0,16.182,6121.8463123689,204.724416,0,1.57487209764,0,0,-10.961006,79.3, -0.3, 1.8,0,0,1024,1024,1684,1024,79.6,-12.8,95,4.067,4.059,4.042,4.055,0,0,17.44,80.51,6,P-GPS,
0.0316492366728426,36.8843867410039,6123.4867323689,206.364836,0,1.34296592224,63300,2018-04-12 06:25:49,18,0,16.182,6123.4867323689,206.364836,0,1.57487209764,0,0,-10.961006,79.3, -0.2, 1.6,0,0,1043,1024,1684,1024,79.6,-12.8,95,4.067,4.059,4.042,4.055,0,0,17.44,80.51,6,P-GPS,
0.0316492227366189,36.8843866989947,6125.1271523689,208.005256,0,1.32689964876,63400,2018-04-12 06:25:49,18,0,16.182,6125.1271523689,208.005256,0,1.57487209764,0,0,-10.961006,79.3, -0.1, 1.4,0,0,1136,1029,1681,1024,79.6,-12.8,95,4.067,4.059,4.042,4.055,0,0,17.44,80.51,6,P-GPS,
0.0316491986779873,36.8843866617902,6126.7675723689,209.645676,0,1.311761853,63500,2018-04-12 06:25:50,18,0,16.182,6126.7675723689,209.645676,0,1.57487209764,0,0,-10.961006,79.4, 0, 1.3,0,0,1182,1028,1682,1024,79.6,-12.8,95,4.067,4.059,4.042,4.055,0,0,17.44,80.51,6,P-GPS,
0.0316491609664812,36.8843866286925,6128.7360763689,211.61418,0,1.29708665568,63600,2018-04-12 06:25:50,18,0,16.182,6128.7360763689,211.61418,0,1.57487209764,0,0,-10.961006,79.4, -1.3, 1.1,0,0,1219,1031,1684,1024,79.6,-12.8,95,4.067,4.059,4.042,4.055,0,0,17.44,80.51,6,P-GPS,
0.0316491167542267,36.8843866402675,6130.3764963689,213.2546,0,1.29803809928,63700,2018-04-12 06:25:50,18,0,16.182,6130.3764963689,213.2546,0,1.57487209764,0,0,-10.961006,79.3, -3.3, 1,0,0,1249,1050,1684,1024,79.6,-12.8,95,4.067,4.059,4.042,4.055,0,0,17.44,80.51,6,P-GPS,
0.0316490892009542,36.8843867251209,6132.0169163689,214.89502,0,1.32659781148,63800,2018-04-12 06:25:50,18,0,16.182,6132.0169163689,214.89502,0,1.57487209764,0,0,-10.961006,79.3, -5.1, 0.8,0,0,1251,1075,1684,1024,79.6,-12.8,95,4.067,4.059,4.042,4.055,0,0,17.44,80.51,6,P-GPS,
0.0316490764046413,36.8843868999878,6133.6573363689,216.53544,0.447388,1.38861553,63900,2018-04-12 06:25:50,18,0,16.182,6133.6573363689,216.53544,0.447388,1.57487209764,0,0.447388,-10.961006,79.3, -6.9, 1.1,0,0,1238,1062,1684,1024,79.6,-12.8,95,4.067,4.059,4.042,4.055,0,0,17.44,80.51,6,P-GPS,
0.0316490982420753,36.8843871718526,6135.2977563689,218.17586,0.671082,1.48775595312,64000,2018-04-12 06:25:50,18,0,16.155,6135.2977563689,218.17586,0.671082,1.57487209764,0,0.671082,-10.961006,79.3, -8.3, 1.7,0,0,1239,1049,1684,1024,79.6,-12.8,95,4.06,4.053,4.037,4.049,0,0,17.604,80.51,6,P-GPS,
0.0316491614419868,36.8843875863688,6136.9381763689,219.81628,0.671082,1.6407316798,64100,2018-04-12 06:25:50,18,0,16.155,6136.9381763689,219.81628,0.671082,1.6407316798,0,1.11847,-10.961006,79.2, -8.6, 1.9,0,0,1270,1082,1684,1024,79.6,-12.8,95,4.06,4.053,4.037,4.049,0,0,17.604,80.51,6,P-GPS,
0.0316492591811955,36.884388140847,6138.5785963689,221.4567,1.3645334,1.84613522968,64200,2018-04-12 06:25:50,18,0,16.155,6138.5785963689,221.4567,1.3645334,1.84613522968,0.223694,1.342164,-10.961006,79.2, -8.5, 1.6,0,0,1301,1122,1684,1024,79.6,-12.8,95,4.06,4.053,4.037,4.049,0,0,17.604,80.51,6,P-GPS,
0.0316493578421035,36.8843888810819,6140.2190163689,223.09712,1.3645334,2.11848431976,64300,2018-04-12 06:25:50,18,0,16.155,6140.2190163689,223.09712,1.3645334,2.11848431976,0.223694,1.789552,-10.961006,79.2, -8.6, 1.5,0,0,1318,1127,1684,1024,79.6,-12.8,95,4.06,4.053,4.037,4.049,0,0,17.604,80.51,6,P-GPS,
0.0316494798548984,36.8843897683704,6141.8594363689,224.73754,2.23694,2.44518380528,64400,2018-04-12 06:25:50,18,0,16.155,6141.8594363689,224.73754,2.23694,2.44518380528,0.223694,2.23694,-10.961006,79.1, -9.6, 2.7,0,0,1348,1136,1684,1024,79.6,-12.8,95,4.06,4.053,4.037,4.049,0,0,17.604,80.51,6,P-GPS,
0.0316496018644364,36.8843908265988,6143.4998563689,226.37796,2.684328,2.8335466786,64500,2018-04-12 06:25:50,18,0,16.155,6143.4998563689,226.37796,2.684328,2.8335466786,0.223694,2.684328,-11.1847,79, -10.5, 4,0,0,1359,1134,1684,1024,79.6,-12.8,95,4.06,4.053,4.037,4.049,0,0,17.604,80.51,6,P-GPS,
0.031649713885099,36.884392047417,6145.1402763689,228.01838,3.131716,3.28015758528,64600,2018-04-12 06:25:51,18,0,16.155,6145.1402763689,228.01838,3.131716,3.28015758528,0.223694,3.131716,-11.1847,78.9, -12, 4.8,0,0,1371,1109,1684,1024,79.6,-12.8,95,4.06,4.053,4.037,4.049,0,0,17.604,80.51,6,P-GPS,
0.0316497626146572,36.8843935231121,6146.7806963689,229.6588,3.579104,3.8160762376,64700,2018-04-12 06:25:51,18,0,16.155,6146.7806963689,229.6588,3.579104,3.8160762376,0.223694,3.579104,-11.1847,78.8, -13.4, 5.2,0,0,1377,1099,1684,1024,79.6,-12.8,95,4.06,4.053,4.037,4.049,0,0,17.604,80.51,6,P-GPS,
0.0316497873735197,36.8843952191991,6148.4211163689,231.29922,4.250186,4.43159463,64800,2018-04-12 06:25:51,18,0,16.155,6148.4211163689,231.29922,4.250186,4.43159463,0,4.250186,-10.961006,78.8, -14.2, 5,0,0,1383,1097,1684,1024,79.6,-12.8,95,4.06,4.053,4.037,4.049,0,0,17.604,80.51,6,P-GPS,
0.0316497317719279,36.8843971986873,6150.0615363689,232.93964,4.697574,5.1480316608,64900,2018-04-12 06:25:51,18,0,16.155,6150.0615363689,232.93964,4.697574,5.1480316608,0,4.697574,-11.1847,78.8, -14.5, 4.2,0,0,1389,1095,1684,1024,79.6,-12.8,95,4.06,4.053,4.037,4.049,0,0,17.604,80.51,6,P-GPS,
0.0316496739100558,36.8843993834424,6151.7019563689,234.58006,5.368656,5.9405841796,65000,2018-04-12 06:25:51,18,0,16.02,6151.7019563689,234.58006,5.368656,5.9405841796,0,5.368656,-11.1847,78.9, -14.3, 3.4,0,0,1387,1086,1684,1024,79.6,-12.8,95,4.052,4.043,4.025,4.039,0,0,18.394,80.51,6,P-GPS,
0.0316495709370281,36.8844018113282,6153.6704603689,236.548564,5.816044,6.8217849952,65100,2018-04-12 06:25:51,18,0,16.02,6153.6704603689,236.548564,5.816044,6.8217849952,0,5.816044,-11.1847,79, -13.8, 3.1,0,0,1376,1070,1684,1024,79.6,-12.8,95,4.052,4.043,4.025,4.039,0,0,18.394,80.51,6,P-GPS,
0.0316495021743518,36.8844043925496,6155.3108803689,238.188984,6.263432,7.7607285948,65200,2018-04-12 06:25:51,18,0,16.02,6155.3108803689,238.188984,6.263432,7.7607285948,0,6.263432,-11.408394,79, -13.6, 2.6,0,0,1377,1062,1684,1024,79.6,-12.8,95,4.052,4.043,4.025,4.039,0,0,18.394,80.51,6,P-GPS,
0.0316493955080132,36.88440721199,6156.9513003689,239.829404,6.263432,8.7866144544,65300,2018-04-12 06:25:51,18,0,16.02,6156.9513003689,239.829404,6.263432,8.7866144544,0,6.71082,-11.408394,79.1, -13.2, 2.3,0,0,1390,1053,1684,1024,79.6,-12.8,95,4.052,4.043,4.025,4.039,0,0,18.394,80.51,6,P-GPS,
0.0316493407857811,36.8844101861835,6158.5917203689,241.469824,7.158208,9.8703087148,65400,2018-04-12 06:25:51,18,0,16.02,6158.5917203689,241.469824,7.158208,9.8703087148,0,7.158208,-11.408394,79.1, -12.4, 1.9,0,0,1409,1072,1684,1024,79.6,-12.8,95,4.052,4.043,4.025,4.039,0,0,18.394,80.51,6,P-GPS,
0.0316492586340383,36.8844133887123,6160.5602243689,243.438328,7.605596,11.0373035028,65500,2018-04-12 06:25:52,18,0,16.02,6160.5602243689,243.438328,7.605596,11.0373035028,0.223694,7.605596,-11.408394,79.2, -11.8, 1.6,0,0,1410,1072,1684,1024,79.6,-12.8,95,4.052,4.043,4.025,4.039,0,0,18.394,80.51,6,P-GPS,
0.0316492350216004,36.8844166898364,6162.2006443689,245.078748,7.82929,12.2411093156,65600,2018-04-12 06:25:52,18,0,16.02,6162.2006443689,245.078748,7.82929,12.2411093156,0.223694,7.82929,-11.1847,79.2, -11.9, 1.4,0,0,1421,1053,1682,1024,79.6,-12.8,95,4.052,4.043,4.025,4.039,0,0,18.394,80.51,6,P-GPS,
0.0316491767851862,36.8844201712659,6163.8410643689,246.719168,8.276678,13.5105319284,65700,2018-04-12 06:25:52,18,0,16.02,6163.8410643689,246.719168,8.276678,13.5105319284,0.223694,8.276678,-11.1847,79.2, -12.3, 1.5,0,0,1458,1068,1677,1024,79.6,-12.8,95,4.052,4.043,4.025,4.039,0,0,18.394,80.51,6,P-GPS,
0.0316491767363328,36.8844237271771,6165.4814843689,248.359588,8.276678,14.8076776392,65800,2018-04-12 06:25:52,18,0,16.02,6165.4814843689,248.359588,8.276678,14.8076776392,0.223694,8.500372,-11.1847,79.2, -12.4, 1.3,0,0,1500,1087,1680,1024,79.6,-12.8,95,4.052,4.043,4.025,4.039,0,0,18.394,80.51,6,P-GPS,
0.0316491422361183,36.8844275373615,6167.1219043689,250.000008,8.724066,16.1973758464,65900,2018-04-12 06:25:52,18,0,16.02,6167.1219043689,250.000008,8.724066,16.1973758464,0.223694,8.724066,-10.961006,79.3, -12.9, 1.1,0,0,1546,1100,1681,1024,79.6,-12.8,95,4.052,4.043,4.025,4.039,0,0,18.394,80.51,6,P-GPS,
0.0316491772346367,36.884431445713,6168.7623243689,251.640428,9.171454,17.6233929524,66000,2018-04-12 06:25:52,18,0,16.047,6168.7623243689,251.640428,9.171454,17.6233929524,0.447388,9.171454,-10.961006,79.2, -14.5, 1.2,0,0,1585,1103,1684,1024,79.6,-12.8,95,4.052,4.043,4.025,4.039,0,0,19.176,80.51,6,P-GPS,
0.0316492005278996,36.8844355118407,6170.7308283689,253.608932,9.171454,19.1068575668,66100,2018-04-12 06:25:52,18,0,16.047,6170.7308283689,253.608932,9.171454,19.1068575668,0.447388,9.618842,-10.961006,79.1, -17.1, 1.5,0,0,1610,1043,1684,1024,79.6,-12.8,95,4.052,4.043,4.025,4.039,0,0,19.176,80.51,6,P-GPS,
0.0316492813671165,36.8844396655668,6172.3712483689,255.249352,10.06623,20.6226056468,66200,2018-04-12 06:25:52,18,0,16.047,6172.3712483689,255.249352,10.06623,20.6226056468,0.447388,10.06623,-10.961006,79.1, -20.2, 1.6,0,0,1610,1039,1684,1024,79.6,-12.8,95,4.052,4.043,4.025,4.039,0,0,19.176,80.51,6,P-GPS,
0.031649389290614,36.8844442040557,6174.0116683689,256.889772,10.737312,22.2789049124,66300,2018-04-12 06:25:52,18,0,16.047,6174.0116683689,256.889772,10.737312,22.2789049124,0.447388,10.737312,-10.961006,79, -23.1, 1.6,0,0,1612,1048,1684,1024,79.6,-12.8,95,4.052,4.043,4.025,4.039,0,0,19.176,80.51,6,P-GPS,
0.0316496136608848,36.8844490271193,6175.6520883689,258.530192,11.6544574,24.039698932,66400,2018-04-12 06:25:52,18,0,16.047,6175.6520883689,258.530192,11.6544574,24.039698932,0.671082,11.632088,-10.737312,79.1, -24, 1,0,0,1642,1110,1684,1024,79.6,-12.8,95,4.052,4.043,4.025,4.039,0,0,19.176,80.51,6,P-GPS,
0.0316498563511505,36.8844542765695,6177.2925083689,260.170612,12.5492334,25.9563000432,66500,2018-04-12 06:25:53,18,0,16.047,6177.2925083689,260.170612,12.5492334,25.9563000432,0.894776,12.526864,-10.737312,79.2, -23.9, 0.2,0,0,1642,1110,1684,1024,79.6,-12.8,95,4.052,4.043,4.025,4.039,0,0,19.176,80.51,6,P-GPS,
0.0316501817370593,36.8844597656818,6178.9329283689,261.811032,12.5492334,27.9610901336,66600,2018-04-12 06:25:53,18,0,16.047,6178.9329283689,261.811032,12.5492334,27.9610901336,1.11847,13.197946,-10.961006,79.2, -23.6, 0.1,0,0,1663,1122,1684,1024,79.6,-12.8,95,4.052,4.043,4.025,4.039,0,0,19.176,80.51,6,P-GPS,
0.0316505515925168,36.8844657305725,6180.5733483689,263.451452,14.1598302,30.1399944028,66700,2018-04-12 06:25:53,18,0,16.047,6180.5733483689,263.451452,14.1598302,30.1399944028,1.342164,14.092722,-10.961006,79.1, -23.4, 0.8,0,0,1657,1125,1684,1024,79.6,-12.8,95,4.052,4.043,4.025,4.039,0,0,19.176,80.51,6,P-GPS,
0.0316510242711851,36.8844718997709,6182.2137683689,265.091872,14.1598302,32.3947188844,66800,2018-04-12 06:25:53,18,0,16.047,6182.2137683689,265.091872,14.1598302,32.3947188844,1.342164,14.763804,-11.1847,79, -23.6, 1.6,0,0,1661,1123,1684,1024,79.6,-12.8,95,4.052,4.043,4.025,4.039,0,0,19.176,80.51,6,P-GPS,
0.0316514877296035,36.8844785820206,6184.1822723689,267.060376,15.5243636,34.836615288,66900,2018-04-12 06:25:53,18,0,16.047,6184.1822723689,267.060376,15.5243636,34.836615288,1.565858,15.434886,-11.1847,78.9, -23.7, 2,0,0,1668,1135,1684,1024,79.6,-12.8,95,4.052,4.043,4.025,4.039,0,0,19.176,80.51,6,P-GPS,
0.0316520264514466,36.8844854329665,6185.8226923689,268.700796,15.5243636,37.341536628,67000,2018-04-12 06:25:53,18,0,15.913,6185.8226923689,268.700796,15.5243636,37.341536628,1.565858,16.105968,-11.1847,78.9, -23.8, 2.5,0,0,1684,1147,1684,1024,79.6,-12.8,95,4.044,4.036,4.017,4.031,0,0,19.176,80.51,6,P-GPS,
0.031652530298533,36.884492638057,6187.4631123689,270.341216,16.8441582,39.975066896,67100,2018-04-12 06:25:53,18,0,15.913,6187.4631123689,270.341216,16.8441582,39.975066896,1.565858,16.77705,-11.1847,78.8, -24.1, 2.7,0,0,1659,1126,1684,1024,79.6,-12.8,95,4.044,4.036,4.017,4.031,0,0,19.176,80.51,6,P-GPS,
0.0316530865342912,36.8844999434898,6189.4316163689,272.30972,17.7389342,42.646326824,67200,2018-04-12 06:25:53,18,0,15.913,6189.4316163689,272.30972,17.7389342,42.646326824,1.565858,17.671826,-11.1847,78.8, -23.8, 2.9,0,0,1414,1024,1678,1024,79.6,-12.8,95,4.044,4.036,4.017,4.031,0,0,19.176,80.51,6,P-GPS,
0.031654201266088,36.884515490205,6193.0405403689,275.918644,19.1034676,48.330710208,67400,2018-04-12 06:25:53,18,0,15.913,6193.0405403689,275.918644,19.1034676,48.330710208,1.789552,19.01399,-11.408394,78.9, -23.7, 2.7,0,0,1318,1024,1673,1024,79.6,-12.8,95,4.044,4.036,4.017,4.031,0,0,19.176,80.51,6,P-GPS,
0.0316547504164864,36.884523693632,6194.6809603689,277.559064,19.5508556,51.329726052,67500,2018-04-12 06:25:54,18,0,15.913,6194.6809603689,277.559064,19.5508556,51.329726052,1.789552,19.461378,-11.408394,79.1, -22.6, 1.7,0,0,1245,1024,1672,1024,79.6,-12.8,95,4.044,4.036,4.017,4.031,0,0,19.176,80.51,6,P-GPS,
0.0316553881574951,36.8845320165003,6196.6494643689,279.527568,20.2219376,54.373689404,67600,2018-04-12 06:25:54,18,0,15.913,6196.6494643689,279.527568,20.2219376,54.373689404,1.789552,20.13246,-11.408394,79.2, -16.8, 0.9,0,0,1203,1024,1665,1024,79.6,-12.8,95,4.044,4.036,4.017,4.031,0,0,19.176,80.51,6,P-GPS,
0.0316559912501009,36.8845405933421,6198.6179683689,281.496072,20.4456316,57.50984436,67700,2018-04-12 06:25:54,18,0,15.913,6198.6179683689,281.496072,20.4456316,57.50984436,2.013246,20.356154,-11.632088,79.4, -8.3, 0.4,0,0,1142,1024,1648,1024,79.6,-12.8,95,4.044,4.036,4.017,4.031,0,0,19.176,80.51,6,P-GPS,
0.0316566522387762,36.8845490386152,6200.2583883689,283.136492,20.4456316,60.599083304,67800,2018-04-12 06:25:54,18,0,15.913,6200.2583883689,283.136492,20.4456316,60.599083304,2.013246,19.908766,-11.408394,79.5, -1.3, 0.2,0,0,1142,1024,1648,1024,79.6,-12.8,95,4.044,4.036,4.017,4.031,0,0,19.176,80.51,6,P-GPS,
0.0316572355995261,36.8845573867147,6201.8988083689,284.776912,19.5508556,63.651904924,67900,2018-04-12 06:25:54,18,0,15.913,6201.8988083689,284.776912,20.4456316,63.651904924,1.789552,19.461378,-11.1847,79.4, 3.4, 0.3,0,0,1033,1024,1640,1024,79.6,-12.8,95,4.044,4.036,4.017,4.031,0,0,19.176,80.51,6,P-GPS,
0.0316578518564732,36.8845653733384,6203.5392283689,286.417332,18.8797736,66.573492944,68000,2018-04-12 06:25:54,18,0,15.859,6203.5392283689,286.417332,20.4456316,66.573492944,1.789552,18.790296,-10.737312,79.5, 7.3, 0.2,0,0,1033,1024,1640,1024,79.6,-12.8,95,4.013,4.005,3.983,3.997,0,0,23.006,80.51,6,P-GPS,
0.0316583797165947,36.8845730873693,6205.1796483689,288.057752,18.1863222,69.394031092,68100,2018-04-12 06:25:54,18,0,15.859,6205.1796483689,288.057752,20.4456316,69.394031092,1.565858,18.119214,-10.289924,79.5, 11.5, 0,0,0,1024,1024,1664,1024,79.6,-12.8,95,4.013,4.005,3.983,3.997,0,0,23.006,80.51,6,P-GPS,
0.0316589300378444,36.8845803573791,6206.4919843689,289.370088,17.2915462,72.053479996,68200,2018-04-12 06:25:54,18,0,15.859,6206.4919843689,289.370088,20.4456316,72.053479996,1.565858,17.224438,-10.06623,79.5, 19.8, -0.4,0,0,1024,1024,1664,1024,79.6,-12.8,95,4.013,4.005,3.983,3.997,0,0,23.006,80.51,6,P-GPS,
0.0316594411933875,36.8845872045737,6207.8043203689,290.682424,15.7256882,74.558073252,68300,2018-04-12 06:25:54,18,0,15.859,6207.8043203689,290.682424,20.4456316,74.558073252,1.342164,15.65858,-9.842536,79.4, 25.3, -0.9,0,0,1024,1024,1666,1024,79.6,-12.8,95,4.013,4.005,3.983,3.997,0,0,23.006,80.51,6,P-GPS,
0.0316599682995395,36.8845933986692,6209.1166563689,291.99476,15.7256882,76.825133692,68400,2018-04-12 06:25:54,18,0,15.859,6209.1166563689,291.99476,20.4456316,76.825133692,1.11847,14.092722,-9.618842,79.3, 26.6, -1.2,0,0,1024,1024,1666,1024,79.6,-12.8,95,4.013,4.005,3.983,3.997,0,0,23.006,80.51,6,P-GPS,
