latitude,longitude,altitude(feet),ascent(feet),speed(mph),distance(feet),time(millisecond),datetime(utc),satellites,gpslevel,voltage(v),max_altitude(feet),max_ascent(feet),max_speed(mph),max_distance(feet), xSpeed(mph), ySpeed(mph), zSpeed(mph), compass_heading(degrees), pitch(degrees), roll(degrees),isPhoto,isVideo,rc_elevator,rc_aileron,rc_throttle,rc_rudder,gimbal_heading(degrees),gimbal_pitch(degrees),battery_percent,voltageCell1,voltageCell2,voltageCell3,voltageCell4,voltageCell5,voltageCell6,current(A),battery_temperature(f),flycStateRaw,flycState,message
0.368476612675007,36.9024155218666,5524.1435858933,0,0,0,0,2018-04-08 07:16:52,9,0,0,5524.1435858933,0,0,0,0,0,0,58.6, -1.4, 2.5,0,0,364,364,364,1684,63.2,0,99,4.299,4.301,4.301,4.301,0,0,0,89.51,41,Motors_Started,
0.368476645543521,36.9024155563235,5524.1435858933,0,0,0.0173737538368,100,2018-04-08 07:16:52,9,0,0,5524.1435858933,0,0,0.0173737538368,0,0,0,58.6, -1.4, 2.5,0,0,364,364,364,1684,63.2,0,99,4.299,4.301,4.301,4.301,0,0,0,89.51,41,Motors_Started,
0.368476659943851,36.902415608681,5524.1435858933,0,0,0.036064305616,200,2018-04-08 07:16:52,9,0,0,5524.1435858933,0,0,0.036064305616,0,0,0,58.6, -1.4, 2.5,0,0,364,364,364,1684,63.2,0,99,4.299,4.301,4.301,4.301,0,0,0,89.51,41,Motors_Started,
0.36847667542384,36.90241565476,5524.1435858933,0,0,0.053618440036,300,2018-04-08 07:16:52,9,0,0,5524.1435858933,0,0,0.053618440036,0,0,0,58.7, -1.4, 2.5,0,0,364,364,364,1684,63.2,0,99,4.299,4.301,4.301,4.301,0,0,0,89.51,41,Motors_Started,
0.368476674206578,36.9024156785907,5524.1435858933,0,0,0.06142880774,400,2018-04-08 07:16:53,9,0,17.178,5524.1435858933,0,0,0.06142880774,0,0,0,58.6, -1.4, 2.5,0,0,365,364,428,1669,63.2,0,99,4.299,4.301,4.301,4.301,0,0,1.504,89.51,41,Motors_Started,
0.368476678931508,36.9024157014812,5524.1435858933,0,0,0.06984744318,500,2018-04-08 07:16:53,9,0,17.178,5524.1435858933,0,0,0.06984744318,0,0,0,58.6, -1.4, 2.5,0,0,533,510,502,1618,63.2,0,99,4.299,4.301,4.301,4.301,0,0,1.504,89.51,41,Motors_Started,
0.368476706503508,36.9024157404957,5524.1435858933,0,0,0.086800855796,600,2018-04-08 07:16:53,9,0,17.178,5524.1435858933,0,0,0.086800855796,0,0,0,58.6, -1.4, 2.5,0,0,902,992,694,1455,63.1,0,99,4.299,4.301,4.301,4.301,0,0,1.504,89.51,41,Motors_Started,
0.368476734245273,36.9024157782493,5524.1435858933,0,0,0.103522641108,700,2018-04-08 07:16:53,9,0,17.178,5524.1435858933,0,0,0.103522641108,0,0,0,58.6, -1.4, 2.5,0,0,1024,1024,1024,1122,62.6,0,99,4.299,4.301,4.301,4.301,0,0,1.504,89.51,41,Motors_Started,
0.368476747141328,36.9024158309159,5524.1435858933,0,0,0.122964898948,800,2018-04-08 07:16:53,9,0,17.178,5524.1435858933,0,0,0.122964898948,0,0,0,58.6, -1.4, 2.5,0,0,1024,1024,1024,1024,61.4,0,99,4.299,4.301,4.301,4.301,0,0,1.504,89.51,41,Motors_Started,
0.368476761646693,36.9024158785561,5524.1435858933,0,0,0.141029532072,900,2018-04-08 07:16:53,9,0,17.178,5524.1435858933,0,0,0.141029532072,0,0,0,58.6, -1.4, 2.5,0,0,1024,1024,1024,1024,60.5,0,99,4.299,4.301,4.301,4.301,0,0,1.504,89.51,41,Motors_Started,
0.368476798293603,36.9024159371572,5524.1435858933,0,0,0.165961619484,1000,2018-04-08 07:16:53,9,0,17.178,5524.1435858933,0,0,0.165961619484,0,0,0,58.6, -1.4, 2.5,0,0,1024,1024,1024,1024,60,0,99,4.299,4.301,4.301,4.301,0,0,1.504,89.51,41,Motors_Started,
0.368476833166325,36.9024159896702,5524.1435858933,0,0,0.188683076904,1100,2018-04-08 07:16:53,9,0,17.178,5524.1435858933,0,0,0.188683076904,0,0,0,58.6, -1.4, 2.5,0,0,1024,1024,1024,1024,59.8,0,99,4.299,4.301,4.301,4.301,0,0,1.504,89.51,41,Motors_Started,
0.368476849063195,36.9024160096773,5524.1435858933,0,0,0.197770019452,1200,2018-04-08 07:16:53,9,0,17.178,5524.1435858933,0,0,0.197770019452,0,0,0,58.6, -1.4, 2.5,0,0,1024,1024,1024,1024,59.6,0,99,4.299,4.301,4.301,4.301,0,0,1.504,89.51,41,Motors_Started,
0.36847686703511,36.9024160353969,5524.1435858933,0,0,0.209081699604,1300,2018-04-08 07:16:53,9,0,17.178,5524.1435858933,0,0,0.209081699604,0,0,0,58.6, -1.4, 2.5,0,0,1024,1024,1024,1024,59.5,0,99,4.299,4.301,4.301,4.301,0,0,1.504,89.51,41,Motors_Started,
0.368476869582403,36.9024160709316,5524.1435858933,0,0,0.221166673744,1400,2018-04-08 07:16:54,9,0,17.151,5524.1435858933,0,0,0.221166673744,0,0,0,58.6, -1.5, 2.5,0,0,1024,1024,1024,1024,59.4,0,99,4.299,4.301,4.301,4.3,0,0,1.504,89.51,41,Motors_Started,Setting new Return-To-Home altitude to 30m (98 ft). Setting new Maximum Flight Altitude to 150m (492 ft)
0.368476876846892,36.902416106973,5524.1435858933,0,0,0.234221464188,1500,2018-04-08 07:16:54,9,0,17.151,5524.1435858933,0,0,0.234221464188,0,0,0,58.6, -1.4, 2.5,0,0,1024,1024,1024,1024,59.3,0,99,4.299,4.301,4.301,4.3,0,0,1.504,89.51,10,Assisted_Takeoff,
0.368476905610506,36.9024161518718,5524.1435858933,0,0,0.253485244332,1600,2018-04-08 07:16:54,9,0,17.151,5524.1435858933,0,0,0.253485244332,0,0,0,58.6, -1.3, 2.5,0,0,1024,1024,1024,1024,59.3,0,99,4.299,4.301,4.301,4.3,0,0,1.504,89.51,10,Assisted_Takeoff,
0.368476936357971,36.9024161975546,5524.1435858933,0,0,0.27334646544,1700,2018-04-08 07:16:54,9,0,17.151,5524.1435858933,0,0,0.27334646544,0,0,0,58.6, -1.4, 2.5,0,0,1024,1024,1024,1024,59.3,0,99,4.299,4.301,4.301,4.3,0,0,1.504,89.51,10,Assisted_Takeoff,
0.368476949262982,36.902416248459,5524.1435858933,0,0,0.292154536908,1800,2018-04-08 07:16:54,9,0,17.151,5524.1435858933,0,0,0.292154536908,0,0,0,58.6, -1.4, 2.5,0,0,1024,1024,1024,1024,59.2,0,99,4.299,4.301,4.301,4.3,0,0,1.504,89.51,10,Assisted_Takeoff,
0.368476964941641,36.9024162981205,5524.1435858933,0,0,0.311008540136,1900,2018-04-08 07:16:54,9,0,17.151,5524.1435858933,0,0,0.311008540136,0,0,0,58.6, -1.4, 2.5,0,0,1024,1024,1024,1024,59.2,0,99,4.299,4.301,4.301,4.3,0,0,1.504,89.51,10,Assisted_Takeoff,
0.368476965149675,36.9024163183583,5524.1435858933,0,0,0.317777569224,2000,2018-04-08 07:16:54,9,0,17.151,5524.1435858933,0,0,0.317777569224,0,0,0,58.6, -1.4, 2.5,0,0,1024,1024,1024,1024,59.2,0,99,4.299,4.301,4.301,4.3,0,0,1.504,89.51,10,Assisted_Takeoff,
0.36847697109431,36.9024163397646,5524.1435858933,0,0,0.325799223024,2100,2018-04-08 07:16:54,9,0,17.151,5524.1435858933,0,0,0.325799223024,0,0,0,58.6, -1.4, 2.5,0,0,1024,1024,1024,1024,59.1,0,99,4.299,4.301,4.301,4.3,0,0,1.504,89.51,10,Assisted_Takeoff,
0.368477001095133,36.9024163735088,5524.1435858933,0,0,0.34150591644,2200,2018-04-08 07:16:54,9,0,17.151,5524.1435858933,0,0,0.34150591644,0,0,0,58.6, -1.4, 2.5,0,0,1024,1024,1024,1024,59.1,0,99,4.299,4.301,4.301,4.3,0,0,1.504,89.51,10,Assisted_Takeoff,
0.368477030052939,36.9024164072909,5524.1435858933,0,0,0.35713255736,2300,2018-04-08 07:16:54,9,0,17.151,5524.1435858933,0,0,0.35713255736,0,0,0,58.6, -1.4, 2.5,0,0,1024,1024,1024,1024,59.1,0,99,4.299,4.301,4.301,4.3,0,0,1.504,89.51,10,Assisted_Takeoff,
0.368477044063257,36.9024164162872,5524.1435858933,0,0,0.36229659952,2400,2018-04-08 07:16:55,9,0,17.071,5524.1435858933,0,0,0.36229659952,0,0,0,58.6, -1.4, 2.5,0,0,1024,1024,1024,1024,59.1,0,99,4.284,4.283,4.279,4.29,0,0,4.032,89.51,10,Assisted_Takeoff,
0.368477058796197,36.9024164313673,5524.1435858933,0,0,0.36959318768,2500,2018-04-08 07:16:55,9,0,17.071,5524.1435858933,0,0,0.36959318768,0,0,0,58.6, -1.4, 2.5,0,0,1024,1024,1024,1024,59.1,0,99,4.284,4.283,4.279,4.29,0,0,4.032,89.51,10,Assisted_Takeoff,
0.368477094928926,36.902416461344,5524.1435858933,0,0,0.38528216456,2600,2018-04-08 07:16:55,9,0,17.071,5524.1435858933,0,0,0.38528216456,0,0,0,58.6, -1.4, 2.5,0,0,1024,1024,1024,1024,59.1,0,99,4.284,4.283,4.279,4.29,0,0,4.032,89.51,10,Assisted_Takeoff,
0.368477128791198,36.9024164937611,5524.1435858933,0,0,0.40148623332,2700,2018-04-08 07:16:55,9,0,17.071,5524.1435858933,0,0,0.40148623332,0,0,0,58.6, -1.4, 2.5,0,0,1024,1024,1033,1024,59.1,0,99,4.284,4.283,4.279,4.29,0,0,4.032,89.51,10,Assisted_Takeoff,
0.368477145715209,36.902416503502,5524.1435858933,0,0,0.40753938312,2800,2018-04-08 07:16:55,9,0,17.071,5524.1435858933,0,0,0.40753938312,0,0,0,58.6, -1.4, 2.5,0,0,1024,1024,1034,1024,59.1,0,99,4.284,4.283,4.279,4.29,0,0,4.032,89.51,10,Assisted_Takeoff,
0.368477162435665,36.902416517572,5524.1435858933,0,0,0.41497048572,2900,2018-04-08 07:16:55,9,0,17.071,5524.1435858933,0,0,0.41497048572,0,0,0,58.6, -1.4, 2.5,0,0,1024,1024,1034,1024,59,0,99,4.284,4.283,4.279,4.29,0,0,4.032,89.51,10,Assisted_Takeoff,
0.368477163143224,36.9024165488141,5524.1435858933,0,0,0.42510828132,3000,2018-04-08 07:16:55,9,0,17.071,5524.1435858933,0,0,0.42510828132,0,0,0,58.6, -1.4, 2.5,0,0,1024,1024,1035,1024,59,0,99,4.284,4.283,4.279,4.29,0,0,4.032,89.51,10,Assisted_Takeoff,
0.368477169057733,36.9024165812767,5524.1435858933,0,0,0.4365813788,3100,2018-04-08 07:16:55,9,0,17.071,5524.1435858933,0,0,0.4365813788,0,0,0,58.6, -1.4, 2.5,0,0,1024,1024,1030,1024,59,0,99,4.284,4.283,4.279,4.29,0,0,4.032,89.51,10,Assisted_Takeoff,
0.368477198334713,36.9024166302214,5524.1435858933,0,0,0.45735893852,3200,2018-04-08 07:16:55,9,0,17.071,5524.1435858933,0,0,0.45735893852,0,0,0,58.6, -1.4, 2.5,0,0,1024,1024,1038,1024,59,0,99,4.284,4.283,4.279,4.29,0,0,4.032,89.51,10,Assisted_Takeoff,
0.368477226803171,36.9024166751143,5524.1435858933,0,0,0.47669620948,3300,2018-04-08 07:16:55,9,0,17.071,5524.1435858933,0,0,0.47669620948,0,0,0,58.6, -1.4, 2.5,0,0,1024,1024,1053,1024,59,0,99,4.284,4.283,4.279,4.29,0,0,4.032,89.51,10,Assisted_Takeoff,
0.368477240877812,36.9024166962284,5524.1435858933,0,0,0.4859088082,3400,2018-04-08 07:16:56,9,0,17.151,5524.1435858933,0,0,0.4859088082,0,0,0,58.6, -1.4, 2.5,0,0,1024,1024,1049,1024,59,0,99,4.295,4.297,4.296,4.296,0,0,1.906,89.51,10,Assisted_Takeoff,
0.368477255614009,36.9024167184399,5524.1435858933,0,0,0.49559056704,3500,2018-04-08 07:16:56,9,0,17.151,5524.1435858933,0,0,0.49559056704,0,0,0,58.6, -1.4, 2.5,0,0,1024,1024,1042,1024,59,0,99,4.295,4.297,4.296,4.296,0,0,1.906,89.51,10,Assisted_Takeoff,
0.368477293235137,36.9024167555757,5524.1435858933,0,0,0.51405513456,3600,2018-04-08 07:16:56,9,0,17.151,5524.1435858933,0,0,0.51405513456,0,0,0,58.6, -1.4, 2.5,0,0,1024,1024,1041,1024,59,0,99,4.295,4.297,4.296,4.296,0,0,1.906,89.51,10,Assisted_Takeoff,
0.368477329246954,36.9024167931907,5524.1435858933,0,0,0.53244096192,3700,2018-04-08 07:16:56,9,0,17.151,5524.1435858933,0,0,0.53244096192,0,0,0,58.6, -1.4, 2.5,0,0,1024,1024,1044,1024,59,0,99,4.295,4.297,4.296,4.296,0,0,1.906,89.51,10,Assisted_Takeoff,
0.368477385303696,36.9024168067189,5524.1435858933,0,0,0.546998049,3800,2018-04-08 07:16:56,9,0,17.151,5524.1435858933,0,0,0.546998049,0,0,0,58.6, -1.4, 2.5,0,0,1024,1024,1049,1024,59,0,99,4.295,4.297,4.296,4.296,0,0,1.906,89.51,10,Assisted_Takeoff,
0.36847743420302,36.9024168240891,5524.1435858933,0,0,0.56175198648,3900,2018-04-08 07:16:56,9,0,17.151,5524.1435858933,0,0,0.56175198648,0,0,0,58.6, -1.4, 2.5,0,0,1024,1024,1067,1024,59,0,99,4.295,4.297,4.296,4.296,0,0,1.906,89.51,10,Assisted_Takeoff,
0.368477461315798,36.9024168577047,5524.1435858933,0,0,0.57740487412,4000,2018-04-08 07:16:56,9,0,17.151,5524.1435858933,0,0,0.57740487412,0,0,0,58.6, -1.4, 2.5,0,0,1024,1024,1099,1024,59,0,99,4.295,4.297,4.296,4.296,0,0,1.906,89.51,10,Assisted_Takeoff,
0.368477487730788,36.9024168927138,5524.1435858933,0,0,0.5933563182,4100,2018-04-08 07:16:56,9,0,17.151,5524.1435858933,0,0,0.5933563182,0,0,0,58.6, -1.5, 2.5,0,0,1024,1024,1114,1024,59,0,99,4.295,4.297,4.296,4.296,0,0,1.906,89.51,10,Assisted_Takeoff,
0.368477530386657,36.9024169432397,5524.1435858933,0,0,0.61727692264,4200,2018-04-08 07:16:56,9,0,17.151,5524.1435858933,0,0,0.61727692264,0,0,0,58.6, -1.5, 2.5,0,0,1024,1024,1129,1024,59,0,99,4.295,4.297,4.296,4.296,0,0,1.906,89.51,10,Assisted_Takeoff,
0.368477571577334,36.9024169898981,5524.1435858933,0,0,0.63973755328,4300,2018-04-08 07:16:56,9,0,17.151,5524.1435858933,0,0,0.63973755328,0,0,0,58.6, -1.5, 2.5,0,0,1024,1024,1147,1024,59,0,99,4.295,4.297,4.296,4.296,0,0,1.906,89.51,10,Assisted_Takeoff,
0.368477588662561,36.902417048511,5524.1435858933,0,0,0.66108269832,4400,2018-04-08 07:16:57,9,0,17.178,5524.1435858933,0,0,0.66108269832,0,0,0,58.6, -1.5, 2.4,0,0,1024,1024,1163,1024,59,0,99,4.295,4.297,4.296,4.296,0,0,1.906,89.51,10,Assisted_Takeoff,
0.368477608779951,36.9024171027798,5524.1435858933,0,0,0.68173230528,4500,2018-04-08 07:16:57,9,0,17.178,5524.1435858933,0,0,0.68173230528,0,0,0,58.5, -1.5, 2.4,0,0,1024,1024,1171,1024,59,0,99,4.295,4.297,4.296,4.296,0,0,1.906,89.51,10,Assisted_Takeoff,
0.368477648487116,36.9024171733782,5524.1435858933,0,0,0.71125002276,4600,2018-04-08 07:16:57,9,0,17.178,5524.1435858933,0,0,0.71125002276,0,0,0,58.6, -1.5, 2.5,0,0,1024,1024,1176,1024,59,0,99,4.295,4.297,4.296,4.296,0,0,1.906,89.51,10,Assisted_Takeoff,
0.368477680184778,36.9024172247098,5524.1435858933,0,0,0.73325789748,4700,2018-04-08 07:16:57,9,0,17.178,5524.1435858933,0,0,0.73325789748,0,0,0,58.5, -1.6, 2.4,0,0,1024,1024,1176,1024,59,0,99,4.295,4.297,4.296,4.296,0,0,1.906,89.51,10,Assisted_Takeoff,
0.368477731920444,36.9024172510543,5524.1435858933,0,0,0.7515092104,4800,2018-04-08 07:16:57,9,0,17.178,5524.1435858933,0,0,0.7515092104,0,0,0,58.3, -1.5, 2.4,0,0,1024,1024,1192,1024,59,0,99,4.295,4.297,4.296,4.296,0,0,1.906,89.51,10,Assisted_Takeoff,
0.368477782370453,36.9024172813211,5524.1435858933,0,0,0.77083663884,4900,2018-04-08 07:16:57,9,0,17.178,5524.1435858933,0,0,0.77083663884,0,0,0,58.1, -1.6, 2.1,0,0,1024,1024,1215,1024,59,0,99,4.295,4.297,4.296,4.296,0,0,1.906,89.51,10,Assisted_Takeoff,
0.368477816575919,36.902417337478,5524.1435858933,0,0,0.79480973672,5000,2018-04-08 07:16:57,9,0,17.178,5524.1435858933,0,0,0.79480973672,0,0,0,57.8, -0.3, 0.7,0,0,1024,1024,1222,1024,59,0,99,4.295,4.297,4.296,4.296,0,0,1.906,89.51,10,Assisted_Takeoff,
0.368477876627234,36.9024174232469,5524.1435858933,0,0,0.83299871432,5100,2018-04-08 07:16:57,9,0,17.178,5524.1435858933,0,0,0.83299871432,0,0,-0.223694,57.8, 1.1, -0.7,0,0,1024,1024,1222,1024,59,0,99,4.295,4.297,4.296,4.296,0,0,1.906,89.51,10,Assisted_Takeoff,
0.368477981225856,36.9024175002095,5524.1435858933,0,0,0.8776575084,5200,2018-04-08 07:16:57,9,0,17.178,5524.1435858933,0,0,0.8776575084,0,0,-0.671082,57.8, 1.1, -0.7,0,0,1024,1024,1225,1024,58.9,0,99,4.295,4.297,4.296,4.296,0,0,1.906,89.51,6,P-GPS,Obstacle Avoided. Revise Flight Route
0.368478124219523,36.9024175505626,5524.1435858933,0,0.223694,0.92301840224,5300,2018-04-08 07:16:57,9,0,17.178,5524.1435858933,0,0.223694,0.92301840224,0.223694,0,-0.894776,57.7, 0.2, -0.3,0,0,1024,1024,1217,1024,58.9,0,99,4.295,4.297,4.296,4.296,0,0,1.906,89.51,6,P-GPS,
0.368478334498054,36.9024176197333,5524.1435858933,0,0.447388,0.99018375872,5400,2018-04-08 07:16:58,9,0,17.017,5524.1435858933,0,0.447388,0.99018375872,0.447388,0,-0.894776,57.7, 0.6, 0.1,0,0,1024,1024,1217,1024,58.9,0,99,4.291,4.292,4.291,4.29,0,0,2.176,89.51,6,P-GPS,
0.368478588278431,36.9024176907326,5524.4716698933,0.328084,0.447388,1.07037076916,5500,2018-04-08 07:16:58,9,0,17.017,5524.4716698933,0.328084,0.447388,1.07037076916,0.447388,0,-1.11847,57.7, 1.2, 1,0,0,1024,1024,1226,1024,58.9,0,99,4.291,4.292,4.291,4.29,0,0,2.176,89.51,6,P-GPS,Home Point Recorded. RTH Altitude:  30m.
0.368478930750381,36.9024177852918,5524.4716698933,0.328084,0.447388,1.18204072024,5600,2018-04-08 07:16:58,9,0,17.017,5524.4716698933,0.328084,0.447388,1.18204072024,0.447388,0,-1.11847,57.7, 1.6, 1.8,0,0,1024,1024,1220,1024,58.9,0,99,4.291,4.292,4.291,4.29,0,0,2.176,89.51,6,P-GPS,
0.36847927768956,36.9024178788126,5524.7997538933,0.656168,0.4921268,1.29802825676,5700,2018-04-08 07:16:58,9,0,17.017,5524.7997538933,0.656168,0.4921268,1.29802825676,0.447388,0.223694,-1.342164,57.8, 2.3, 2.8,0,0,1024,1024,1222,1024,58.8,0,99,4.291,4.292,4.291,4.29,0,0,2.176,89.51,6,P-GPS,
0.368479582303037,36.9024180011076,5524.7997538933,0.656168,0.3131716,1.41141080632,5800,2018-04-08 07:16:58,9,0,17.017,5524.7997538933,0.656168,0.4921268,1.41141080632,0.223694,0.223694,-1.342164,57.8, 3.2, 3.1,0,0,1024,1024,1256,1024,58.8,0,99,4.291,4.292,4.291,4.29,0,0,2.176,89.51,6,P-GPS,
0.368479849836845,36.9024181041696,5525.1278378933,0.984252,0.3131716,1.51081369664,5900,2018-04-08 07:16:58,9,0,17.017,5525.1278378933,0.984252,0.4921268,1.51081369664,0.223694,0.223694,-1.342164,57.7, 3.2, 3,0,0,1024,1024,1274,1024,58.8,0,99,4.291,4.292,4.291,4.29,0,0,2.176,89.51,6,P-GPS,
0.368480071064219,36.9024181791179,5525.4559218933,1.312336,0.3131716,1.59122708504,6000,2018-04-08 07:16:58,9,0,17.017,5525.4559218933,1.312336,0.4921268,1.59122708504,0.223694,0.223694,-1.565858,57.7, 3, 3.1,0,0,1024,1024,1282,1024,58.8,0,99,4.291,4.292,4.291,4.29,0,0,2.176,89.51,6,P-GPS,
0.368480268368122,36.9024182381263,5525.7840058933,1.64042,0,1.66164047312,6100,2018-04-08 07:16:58,9,0,17.017,5525.7840058933,1.64042,0.4921268,1.66164047312,0,0,-1.789552,57.8, 3.1, 3,0,0,1024,1024,1278,1024,58.7,0,99,4.291,4.292,4.291,4.29,0,0,2.176,89.51,6,P-GPS,
0.368480417873122,36.9024182712832,5526.1120898933,1.968504,0,1.71279204956,6200,2018-04-08 07:16:58,9,0,17.017,5526.1120898933,1.968504,0.4921268,1.71279204956,0,0,-2.23694,57.7, 2.6, 2,0,0,1024,1024,1283,1024,58.7,0,99,4.291,4.292,4.291,4.29,0,0,2.176,89.51,6,P-GPS,
0.368480557173479,36.9024182915515,5526.4401738933,2.296588,0,1.7584810274,6300,2018-04-08 07:16:58,9,0,17.017,5526.4401738933,2.296588,0.4921268,1.7584810274,0,0,-2.23694,57.7, 2.1, 2,0,0,1024,1024,1292,1024,58.7,0,99,4.291,4.292,4.291,4.29,0,0,2.176,89.51,6,P-GPS,
0.368480653156411,36.9024182270043,5526.7682578933,2.624672,0,1.77404533236,6400,2018-04-08 07:16:59,9,0,16.828,5526.7682578933,2.624672,0.4921268,1.77404533236,0,0,-2.460634,57.7, 1.7, 2.7,0,0,1024,1024,1300,1024,58.7,0,99,4.234,4.238,4.232,4.23,0,0,12.674,89.51,6,P-GPS,
0.368480748540075,36.9024181991239,5527.0963418933,2.952756,0,1.79751974256,6500,2018-04-08 07:16:59,9,0,16.828,5527.0963418933,2.952756,0.4921268,1.79751974256,0,0,-2.684328,57.7, 2.6, 2.6,0,0,1024,1024,1300,1024,58.7,0,99,4.234,4.238,4.232,4.23,0,0,12.674,89.51,6,P-GPS,
0.368480744475479,36.9024181681869,5527.4244258933,3.28084,0,1.79016081844,6600,2018-04-08 07:16:59,9,0,16.828,5527.4244258933,3.28084,0.4921268,1.79751974256,0,0,-2.908022,57.7, 2.4, 1.6,0,0,1024,1024,1306,1024,58.7,0,99,4.234,4.238,4.232,4.23,0,0,12.674,89.51,6,P-GPS,
0.368480754965915,36.9024181449675,5528.0805938933,3.937008,0,1.78883863992,6700,2018-04-08 07:16:59,9,0,16.828,5528.0805938933,3.937008,0.4921268,1.79751974256,0,0,-2.908022,57.6, 1.8, 1.6,0,0,1024,1024,1318,1024,58.6,0,99,4.234,4.238,4.232,4.23,0,0,12.674,89.51,6,P-GPS,
0.368480797795621,36.9024181855978,5528.4086778933,4.265092,0,1.80997709204,6800,2018-04-08 07:16:59,9,0,16.828,5528.4086778933,4.265092,0.4921268,1.80997709204,0,0,-3.131716,57.6, 2.1, 1.5,0,0,1024,1024,1315,1024,58.6,0,99,4.234,4.238,4.232,4.23,0,0,12.674,89.51,6,P-GPS,
0.368480855830922,36.9024182074741,5528.7367618933,4.593176,0,1.83213260456,6900,2018-04-08 07:16:59,9,0,16.828,5528.7367618933,4.593176,0.4921268,1.83213260456,0,0,-3.131716,57.7, 2.1, 2.4,0,0,1024,1024,1329,1024,58.6,0,99,4.234,4.238,4.232,4.23,0,0,12.674,89.51,6,P-GPS,
0.368480875662927,36.9024181507632,5529.3929298933,5.249344,0,1.82730320808,7000,2018-04-08 07:16:59,9,0,16.828,5529.3929298933,5.249344,0.4921268,1.83213260456,0,0,-3.35541,57.7, 1.9, 2.8,0,0,1024,1024,1319,1024,58.6,0,99,4.234,4.238,4.232,4.23,0,0,12.674,89.51,6,P-GPS,
0.368480863340492,36.9024180814571,5529.7210138933,5.577428,0.223694,1.81030845688,7100,2018-04-08 07:16:59,9,0,16.828,5529.7210138933,5.577428,0.4921268,1.83213260456,0,-0.223694,-3.35541,57.6, 1.2, 2.2,0,0,1024,1024,1312,1024,58.6,0,99,4.234,4.238,4.232,4.23,0,0,12.674,89.51,6,P-GPS,
0.368480808390277,36.9024179240791,5530.3771818933,6.233596,0.223694,1.76394034516,7200,2018-04-08 07:16:59,9,0,16.828,5530.3771818933,6.233596,0.4921268,1.83213260456,0,-0.223694,-3.579104,57.7, 0.1, 1.8,0,0,1024,1024,1318,1024,58.6,0,99,4.234,4.238,4.232,4.23,0,0,12.674,89.51,6,P-GPS,
0.368480746188602,36.9024177807787,5531.0333498933,6.889764,0.223694,1.71860897888,7300,2018-04-08 07:16:59,9,0,16.828,5531.0333498933,6.889764,0.4921268,1.83213260456,0,-0.223694,-3.579104,57.7, -0.8, 1.9,0,0,1024,1024,1311,1023,58.5,0,99,4.234,4.238,4.232,4.23,0,0,12.674,89.51,6,P-GPS,
0.368480669207983,36.902417693384,5531.3614338933,7.217848,0,1.67873364952,7400,2018-04-08 07:17:00,9,0,16.774,5531.3614338933,7.217848,0.4921268,1.83213260456,0,0,-3.579104,57.9, -1.6, 1.8,0,0,1024,1024,1307,1023,58.5,0,99,4.215,4.22,4.214,4.215,0,0,13.918,91.31,6,P-GPS,
0.368480600946054,36.9024176370821,5532.0176018933,7.874016,0,1.64709322856,7500,2018-04-08 07:17:00,9,0,16.774,5532.0176018933,7.874016,0.4921268,1.83213260456,0,0,-3.579104,58, -1.2, 1.6,0,0,1024,1024,1309,1023,58.5,0,99,4.215,4.22,4.214,4.215,0,0,13.918,91.31,6,P-GPS,
0.368480532168721,36.9024175799065,5532.6737698933,8.530184,0,1.61516737452,7600,2018-04-08 07:17:00,9,0,16.774,5532.6737698933,8.530184,0.4921268,1.83213260456,0,0,-3.35541,58, -0.3, 1,0,0,1024,1024,1311,1024,58.5,0,99,4.215,4.22,4.214,4.215,0,0,13.918,91.31,6,P-GPS,
0.368480476521533,36.9024175094661,5533.0018538933,8.858268,0.223694,1.58529860716,7700,2018-04-08 07:17:00,9,0,16.774,5533.0018538933,8.858268,0.4921268,1.83213260456,0,-0.223694,-3.35541,58, -0.4, 1.5,0,0,1024,1024,1310,1024,58.5,-0.5,99,4.215,4.22,4.214,4.215,0,0,13.918,91.31,6,P-GPS,
0.368480430414584,36.9024173932146,5533.6580218933,9.514436,0.3131716,1.5512303646,7800,2018-04-08 07:17:00,9,0,16.774,5533.6580218933,9.514436,0.4921268,1.83213260456,-0.223694,-0.223694,-3.35541,58, -0.9, 1.9,0,0,1024,1024,1324,1024,58.5,-0.5,99,4.215,4.22,4.214,4.215,0,0,13.918,91.31,6,P-GPS,
0.368480380940827,36.9024172801311,5533.9861058933,9.84252,0.223694,1.517142437,7900,2018-04-08 07:17:00,9,0,16.774,5533.9861058933,9.84252,0.4921268,1.83213260456,-0.223694,0,-3.35541,57.8, -1.5, 2.2,0,0,1024,1024,1339,1024,58.5,-0.5,99,4.215,4.22,4.214,4.215,0,0,13.918,91.31,6,P-GPS,
0.368480327151693,36.9024171480501,5534.6422738933,10.498688,0.223694,1.47940621532,8000,2018-04-08 07:17:00,9,0,16.774,5534.6422738933,10.498688,0.4921268,1.83213260456,-0.223694,0,-3.35541,57.7, -2, 1.6,0,0,1024,1024,1351,1023,58.5,-1.9,99,4.215,4.22,4.214,4.215,0,0,13.918,91.31,6,P-GPS,
0.368480279982184,36.9024170438683,5534.9703578933,10.826772,0,1.44866474452,8100,2018-04-08 07:17:00,9,0,16.774,5534.9703578933,10.826772,0.4921268,1.83213260456,0,0,-3.35541,57.7, -2, 0.7,0,0,1024,1024,1350,1024,58.5,-2.8,99,4.215,4.22,4.214,4.215,0,0,13.918,91.31,6,P-GPS,
0.368480260607772,36.9024169381929,5535.6265258933,11.48294,0.223694,1.42773626616,8200,2018-04-08 07:17:01,9,0,16.774,5535.6265258933,11.48294,0.4921268,1.83213260456,0,-0.223694,-3.579104,57.8, -1.8, 1.1,0,0,1024,1024,1338,1023,58.5,-4.8,99,4.215,4.22,4.214,4.215,0,0,13.918,91.31,6,P-GPS,
0.368480271397028,36.9024167517215,5536.6107778933,12.467192,0.223694,1.40827760412,8400,2018-04-08 07:17:01,10,0,16.828,5536.6107778933,12.467192,0.4921268,1.83213260456,0,0,-3.802798,58, -2.6, 2.6,0,0,1024,1024,1338,1023,58.5,-5.9,99,4.215,4.22,4.214,4.215,0,0,13.918,91.31,6,P-GPS,
0.3684802810651,36.9024167092567,5537.2669458933,13.12336,0,1.4067749794,8500,2018-04-08 07:17:01,10,0,16.828,5537.2669458933,13.12336,0.4921268,1.83213260456,0,0,-3.802798,58.1, -1.8, 2.1,0,0,1024,1024,1364,1024,58.5,-6.9,99,4.215,4.22,4.214,4.215,0,0,13.918,91.31,6,P-GPS,
0.368480334174358,36.9024166316303,5537.9231138933,13.779528,0,1.41687012408,8600,2018-04-08 07:17:01,10,0,16.828,5537.9231138933,13.779528,0.4921268,1.83213260456,0,0,-3.802798,58.2, -1.1, 1.9,0,0,1024,1024,1367,1024,58.5,-7.8,99,4.215,4.22,4.214,4.215,0,0,13.918,91.31,6,P-GPS,
0.368480389251591,36.9024165631566,5538.5792818933,14.435696,0,1.42929466516,8700,2018-04-08 07:17:01,10,0,16.828,5538.5792818933,14.435696,0.4921268,1.83213260456,0,0,-4.026492,58.1, -1, 2.7,0,0,1024,1024,1365,1024,58.5,-8.6,99,4.215,4.22,4.214,4.215,0,0,13.918,91.31,6,P-GPS,
0.368480385195951,36.90241656439,5539.2354498933,15.091864,0,1.42798889084,8800,2018-04-08 07:17:01,10,0,16.828,5539.2354498933,15.091864,0.4921268,1.83213260456,0,0,-4.026492,58, -1.1, 3,0,0,1024,1024,1350,1023,58.5,-9.3,99,4.215,4.22,4.214,4.215,0,0,13.918,91.31,6,P-GPS,
0.368480366877585,36.9024165818163,5539.8916178933,15.748032,0,1.4232612004,8900,2018-04-08 07:17:01,10,0,16.828,5539.8916178933,15.748032,0.4921268,1.83213260456,0,0,-4.026492,57.8, -1.6, 2.3,0,0,1024,1024,1340,1024,58.5,-10.1,99,4.215,4.22,4.214,4.215,0,0,13.918,91.31,6,P-GPS,
0.368480321167976,36.9024165932344,5540.2197018933,16.076116,0,1.40836946764,9000,2018-04-08 07:17:01,10,0,16.828,5540.2197018933,16.076116,0.4921268,1.83213260456,0,0,-4.026492,57.6, -2.8, 1.3,0,0,1024,1024,1367,1024,58.5,-11.1,99,4.215,4.22,4.214,4.215,0,0,13.918,91.31,6,P-GPS,
0.368480317857349,36.9024166363127,5540.8758698933,16.732284,0,1.41165686932,9100,2018-04-08 07:17:01,10,0,16.828,5540.8758698933,16.732284,0.4921268,1.83213260456,0,0,-3.802798,57.5, -2.1, 0.4,0,0,1024,1024,1367,1023,58.4,-12.2,99,4.215,4.22,4.214,4.215,0,0,13.918,91.31,6,P-GPS,
0.368480377565877,36.9024167571287,5541.5320378933,17.388452,0.223694,1.44565949508,9200,2018-04-08 07:17:01,10,0,16.828,5541.5320378933,17.388452,0.4921268,1.83213260456,0.223694,0,-4.026492,57.7, -0.2, 0.5,0,0,1024,1024,1344,1023,58.4,-14.7,99,4.215,4.22,4.214,4.215,0,0,13.918,91.31,6,P-GPS,
0.368480496302242,36.9024168632152,5542.1882058933,18.04462,0.223694,1.49906828944,9300,2018-04-08 07:17:01,10,0,16.828,5542.1882058933,18.04462,0.4921268,1.83213260456,0.223694,0,-4.250186,57.9, 0, 1.5,0,0,1024,1024,1341,1024,58.4,-14.7,99,4.215,4.22,4.214,4.215,0,0,13.918,91.31,6,P-GPS,
0.368480681959514,36.9024169493615,5542.8443738933,18.700788,0.223694,1.57337275376,9400,2018-04-08 07:17:02,10,0,16.855,5542.8443738933,18.700788,0.4921268,1.83213260456,0.223694,0,-4.026492,57.8, -0.3, 3.7,0,0,1024,1024,1339,1023,58.4,-17.1,99,4.219,4.222,4.213,4.211,0,0,12.432,91.31,6,P-GPS,
0.368480890215517,36.9024170415439,5543.5005418933,19.356956,0,1.6562172446,9500,2018-04-08 07:17:02,10,0,16.855,5543.5005418933,19.356956,0.4921268,1.83213260456,0,0,-4.026492,57.8, 0.4, 4.6,0,0,1024,1024,1344,1024,58.4,-19.3,99,4.219,4.222,4.213,4.211,0,0,12.432,91.31,6,P-GPS,
0.368481061375566,36.9024171821561,5543.8286258933,19.68504,0.223694,1.73245412368,9600,2018-04-08 07:17:02,10,0,16.855,5543.8286258933,19.68504,0.4921268,1.83213260456,0,0.223694,-3.802798,57.8, 1.2, 4,0,0,1024,1024,1329,1023,58.4,-21.6,99,4.219,4.222,4.213,4.211,0,0,12.432,91.31,6,P-GPS,
0.368481211749342,36.9024173339219,5544.4847938933,20.341208,0.223694,1.8035105564,9700,2018-04-08 07:17:02,10,0,16.855,5544.4847938933,20.341208,0.4921268,1.83213260456,0,0.223694,-3.802798,57.8, 1.6, 2.8,0,0,1024,1024,1329,1023,58.4,-23.9,99,4.219,4.222,4.213,4.211,0,0,12.432,91.31,6,P-GPS,
0.368481333922538,36.9024174528617,5545.1409618933,20.997376,0.223694,1.86104664748,9800,2018-04-08 07:17:02,10,0,16.855,5545.1409618933,20.997376,0.4921268,1.86104664748,0,0.223694,-3.802798,57.7, 1.6, 2.8,0,0,1024,1024,1331,1022,58.4,-26.3,99,4.219,4.222,4.213,4.211,0,0,12.432,91.31,6,P-GPS,
0.368481474094112,36.9024175604203,5545.7971298933,21.653544,0.3131716,1.923310429,9900,2018-04-08 07:17:02,10,0,16.855,5545.7971298933,21.653544,0.4921268,1.923310429,0.223694,0.223694,-3.579104,57.7, 1.5, 3.5,0,0,1024,1024,1335,1023,58.4,-28.7,99,4.219,4.222,4.213,4.211,0,0,12.432,91.31,6,P-GPS,
0.368481601116815,36.902417690337,5546.1252138933,21.981628,0.3131716,1.9845473076,10000,2018-04-08 07:17:02,10,0,16.855,5546.1252138933,21.981628,0.4921268,1.9845473076,0.223694,0.223694,-3.579104,57.7, 1.6, 3.5,0,0,1024,1024,1336,1023,58.4,-31.1,99,4.219,4.222,4.213,4.211,0,0,12.432,91.31,6,P-GPS,
0.368481728964325,36.9024178264885,5546.7813818933,22.637796,0.223694,2.04730649596,10100,2018-04-08 07:17:02,10,0,16.855,5546.7813818933,22.637796,0.4921268,2.04730649596,0,0.223694,-3.579104,57.7, 1.8, 2.9,0,0,1024,1024,1337,1023,58.4,-33.5,99,4.219,4.222,4.213,4.211,0,0,12.432,91.31,6,P-GPS,
0.368481860853633,36.9024179832653,5547.4375498933,23.293964,0.223694,2.11491804668,10200,2018-04-08 07:17:02,10,0,16.855,5547.4375498933,23.293964,0.4921268,2.11491804668,0,0.223694,-3.579104,57.8, 2.4, 2.1,0,0,1024,1024,1337,1023,58.4,-35.8,99,4.219,4.222,4.213,4.211,0,0,12.432,91.31,6,P-GPS,
0.368482020451729,36.9024181082235,5547.7656338933,23.622048,0.3131716,2.18706043744,10300,2018-04-08 07:17:02,10,0,16.855,5547.7656338933,23.622048,0.4921268,2.18706043744,0.223694,0.223694,-3.579104,57.9, 2.7, 2.5,0,0,1024,1024,1336,1023,58.4,-38.1,99,4.219,4.222,4.213,4.211,0,0,12.432,91.31,6,P-GPS,
0.368482167325164,36.9024181666897,5548.4218018933,24.278216,0.223694,2.24460637104,10400,2018-04-08 07:17:03,10,0,16.721,5548.4218018933,24.278216,0.4921268,2.24460637104,0.223694,0,-3.579104,57.9, 2.3, 3.9,0,0,1024,1024,1316,1024,58.4,-40.4,99,4.217,4.226,4.222,4.221,0,0,12.246,91.31,6,P-GPS,
0.368482329846318,36.9024182047596,5549.0779698933,24.934384,0.223694,2.30415361704,10500,2018-04-08 07:17:03,10,0,16.721,5549.0779698933,24.934384,0.4921268,2.30415361704,0.223694,0,-3.579104,57.8, 1.7, 4.6,0,0,1024,1024,1308,1023,58.3,-42.4,99,4.217,4.226,4.222,4.221,0,0,12.246,91.31,6,P-GPS,
0.368482497352953,36.9024182133796,5549.4060538933,25.262468,0.223694,2.36092855324,10600,2018-04-08 07:17:03,10,0,16.721,5549.4060538933,25.262468,0.4921268,2.36092855324,0.223694,0.223694,-3.579104,57.9, 2.3, 4.1,0,0,1024,1024,1318,1023,58.4,-42.6,99,4.217,4.226,4.222,4.221,0,0,12.246,91.31,6,P-GPS,
0.368482706489944,36.9024182407745,5550.0622218933,25.918636,0.4921268,2.4345801304,10700,2018-04-08 07:17:03,10,0,16.721,5550.0622218933,25.918636,0.4921268,2.4345801304,0.447388,0.223694,-3.35541,58, 4.3, 4.4,0,0,1024,1024,1332,1024,58.3,-42.6,99,4.217,4.226,4.222,4.221,0,0,12.246,91.31,6,P-GPS,
0.368482949905682,36.90241818592,5550.3903058933,26.24672,0.447388,2.508120159,10800,2018-04-08 07:17:03,10,0,16.721,5550.3903058933,26.24672,0.4921268,2.508120159,0.447388,0,-3.35541,58.1, 3.8, 5.2,0,0,1024,1024,1340,1024,58.3,-42.6,99,4.217,4.226,4.222,4.221,0,0,12.246,91.31,6,P-GPS,
0.368483219995332,36.9024181086346,5551.0464738933,26.902888,0.4921268,2.58883210384,10900,2018-04-08 07:17:03,10,0,16.721,5551.0464738933,26.902888,0.4921268,2.58883210384,0.447388,-0.223694,-3.579104,58.1, 3.7, 6.5,0,0,1024,1024,1357,1024,58.3,-42.6,99,4.217,4.226,4.222,4.221,0,0,12.246,91.31,6,P-GPS,
0.368483480048068,36.9024180177958,5551.7026418933,27.559056,0.4921268,2.66590231628,11000,2018-04-08 07:17:03,10,0,16.721,5551.7026418933,27.559056,0.4921268,2.66590231628,0.447388,-0.223694,-3.579104,58.2, 3.9, 8,0,0,1024,1024,1383,1024,58.3,-42.6,99,4.217,4.226,4.222,4.221,0,0,12.246,91.31,6,P-GPS,
0.368483707570192,36.9024179123805,5552.0307258933,27.88714,0.4921268,2.731545363,11100,2018-04-08 07:17:03,10,0,16.721,5552.0307258933,27.88714,0.4921268,2.731545363,0.447388,-0.223694,-3.579104,58.2, 3.5, 8,0,0,1024,1024,1371,1024,58.3,-42.6,99,4.217,4.226,4.222,4.221,0,0,12.246,91.31,6,P-GPS,
0.368483880940039,36.9024177719766,5552.6868938933,28.543308,0.3131716,2.7759843408,11200,2018-04-08 07:17:03,10,0,16.721,5552.6868938933,28.543308,0.4921268,2.7759843408,0.223694,-0.223694,-3.802798,58.1, 2.4, 8.5,0,0,1024,1024,1370,1024,58.3,-42.6,99,4.217,4.226,4.222,4.221,0,0,12.246,91.31,6,P-GPS,
0.368484026189101,36.9024176333178,5553.3430618933,29.199476,0.3131716,2.81237541808,11300,2018-04-08 07:17:03,10,0,16.721,5553.3430618933,29.199476,0.4921268,2.81237541808,0.223694,-0.223694,-4.250186,58, 1.3, 8.7,0,0,1024,1024,1387,1024,58.3,-42.6,99,4.217,4.226,4.222,4.221,0,0,12.246,91.31,6,P-GPS,
0.368484157103786,36.9024174814251,5553.9992298933,29.855644,0.3131716,2.84391085216,11400,2018-04-08 07:17:04,10,0,16.801,5553.9992298933,29.855644,0.4921268,2.84391085216,0.223694,-0.223694,-4.250186,58, 1.3, 8.5,0,0,1024,1024,1381,1024,58.3,-42.6,99,4.217,4.226,4.222,4.221,0,0,13.624,91.31,6,P-GPS,
0.368484284425308,36.9024173572688,5554.6553978933,30.511812,0.447388,2.8780184648,11500,2018-04-08 07:17:04,10,0,16.801,5554.6553978933,30.511812,0.4921268,2.8780184648,0.447388,0,-4.47388,58, 1.6, 8.2,0,0,1024,1024,1381,1024,58.3,-42.6,99,4.217,4.226,4.222,4.221,0,0,13.624,91.31,6,P-GPS,
0.368484374729041,36.9024172596375,5555.3115658933,31.16798,0.4921268,2.9020834262,11600,2018-04-08 07:17:04,10,0,16.801,5555.3115658933,31.16798,0.4921268,2.9020834262,0.447388,-0.223694,-4.697574,58, 2.2, 8.9,0,0,1024,1024,1389,1022,58.3,-42.6,99,4.217,4.226,4.222,4.221,0,0,13.624,91.31,6,P-GPS,
0.368484477729753,36.9024171627571,5555.9677338933,31.824148,0.3131716,2.93134523816,11700,2018-04-08 07:17:04,10,0,16.801,5555.9677338933,31.824148,0.4921268,2.93134523816,0.223694,-0.223694,-4.697574,58, 2.1, 10.1,0,0,1024,1024,1396,1022,58.3,-42.6,99,4.217,4.226,4.222,4.221,0,0,13.624,91.31,6,P-GPS,
0.368484551230387,36.9024170706164,5556.6239018933,32.480316,0.223694,2.95098106556,11800,2018-04-08 07:17:04,10,0,16.801,5556.6239018933,32.480316,0.4921268,2.95098106556,0,-0.223694,-4.47388,57.9, 1.5, 10.4,0,0,1024,1024,1409,1022,58.3,-42.6,99,4.217,4.226,4.222,4.221,0,0,13.624,91.31,6,P-GPS,
0.368484613279802,36.9024170104994,5557.6081538933,33.464568,0.223694,2.9691109874,11900,2018-04-08 07:17:04,10,0,16.801,5557.6081538933,33.464568,0.4921268,2.9691109874,0,-0.223694,-4.697574,57.9, 1.2, 9.7,0,0,1024,1024,1414,1022,58.3,-42.6,99,4.217,4.226,4.222,4.221,0,0,13.624,91.31,6,P-GPS,
0.368484689812599,36.9024169747827,5558.2643218933,34.120736,0,2.99423566012,12000,2018-04-08 07:17:04,10,0,16.801,5558.2643218933,34.120736,0.4921268,2.99423566012,0,0,-4.921268,57.9, 1.2, 9.7,0,0,1024,1024,1424,1023,58.3,-42.6,99,4.217,4.226,4.222,4.221,0,0,13.624,91.31,6,P-GPS,
0.368484763765941,36.9024169707861,5558.9204898933,34.776904,0,3.0205381544,12100,2018-04-08 07:17:04,10,0,16.801,5558.9204898933,34.776904,0.4921268,3.0205381544,0,0,-5.144962,57.9, 1.5, 9.2,0,0,1024,1024,1447,1023,58.3,-42.6,99,4.217,4.226,4.222,4.221,0,0,13.624,91.31,6,P-GPS,
0.368484798052829,36.9024170313555,5559.9047418933,35.761156,0,3.03678487408,12200,2018-04-08 07:17:04,10,0,16.801,5559.9047418933,35.761156,0.4921268,3.03678487408,0,0,-5.144962,57.9, 1.5, 9,0,0,1024,1024,1447,1023,58.3,-42.6,99,4.217,4.226,4.222,4.221,0,0,13.624,91.31,6,P-GPS,
0.368484837918766,36.9024171061603,5560.5609098933,36.417324,0,3.0561352684,12300,2018-04-08 07:17:04,10,0,16.801,5560.5609098933,36.417324,0.4921268,3.0561352684,0,0,-5.368656,57.9, 1.6, 9,0,0,1024,1024,1469,1022,58.3,-42.6,99,4.217,4.226,4.222,4.221,0,0,13.624,91.31,6,P-GPS,
0.368484821038316,36.9024172002345,5561.5451618933,37.401576,0,3.05677831304,12400,2018-04-08 07:17:05,10,0,16.801,5561.5451618933,37.401576,0.4921268,3.05677831304,0,0,-5.368656,58, 1.6, 8.9,0,0,1024,1024,1481,1022,58.3,-42.6,99,4.217,4.226,4.222,4.221,0,0,13.624,91.31,6,P-GPS,
0.368484816870314,36.9024173132254,5562.2013298933,38.057744,0,3.06381571484,12500,2018-04-08 07:17:05,10,0,16.801,5562.2013298933,38.057744,0.4921268,3.06381571484,0,0,-5.816044,58, 1.9, 8.5,0,0,1024,1024,1490,1023,58.2,-42.6,99,4.217,4.226,4.222,4.221,0,0,13.624,91.31,6,P-GPS,
0.368484808821729,36.9024175461977,5564.1698338933,40.026248,0,3.08021335316,12700,2018-04-08 07:17:05,10,0,16.801,5564.1698338933,40.026248,0.4921268,3.08021335316,0,0,-6.039738,58.1, 2.5, 8.5,0,0,1024,1024,1489,1024,58.2,-42.6,99,4.217,4.226,4.222,4.221,0,0,13.624,91.31,6,P-GPS,
0.368484763521674,36.9024176446904,5565.1540858933,41.0105,0,3.0730315944,12800,2018-04-08 07:17:05,10,0,16.801,5565.1540858933,41.0105,0.4921268,3.08021335316,0,0,-6.263432,58.1, 2.3, 8.5,0,0,1024,1024,1500,1024,58.2,-42.6,99,4.217,4.226,4.222,4.221,0,0,13.624,91.31,6,P-GPS,
0.368484700975583,36.9024177224779,5566.1383378933,41.994752,0,3.05828093776,12900,2018-04-08 07:17:05,10,0,16.801,5566.1383378933,41.994752,0.4921268,3.08021335316,-0.223694,0,-6.263432,58, 1.4, 8.2,0,0,1024,1024,1546,1024,58.2,-42.6,99,4.217,4.226,4.222,4.221,0,0,13.624,91.31,6,P-GPS,
0.368484577239894,36.9024177392635,5567.1225898933,42.979004,0,3.01637804928,13000,2018-04-08 07:17:05,10,0,16.801,5567.1225898933,42.979004,0.4921268,3.08021335316,0,0,-6.71082,57.8, 0.1, 7.4,0,0,1024,1024,1571,1024,58.2,-42.6,99,4.217,4.226,4.222,4.221,0,0,13.624,91.31,6,P-GPS,
0.368484492942676,36.9024177690356,5568.4349258933,44.29134,0,2.98972122428,13100,2018-04-08 07:17:05,10,0,16.801,5568.4349258933,44.29134,0.4921268,3.08021335316,0,0,-7.158208,57.7, 0, 6.9,0,0,1024,1024,1577,1024,58.2,-42.6,99,4.217,4.226,4.222,4.221,0,0,13.624,91.31,6,P-GPS,
0.368484441194797,36.902417807385,5569.4191778933,45.275592,0,2.9754594128,13200,2018-04-08 07:17:05,10,0,16.801,5569.4191778933,45.275592,0.4921268,3.08021335316,0,0,-7.82929,57.8, 0.6, 7.5,0,0,1024,1024,1571,1024,58.2,-42.6,99,4.217,4.226,4.222,4.221,0,0,13.624,91.31,6,P-GPS,
0.368484434455482,36.9024178664223,5570.7315138933,46.587928,0,2.97921269376,13300,2018-04-08 07:17:05,10,0,16.801,5570.7315138933,46.587928,0.4921268,3.08021335316,0,0,-8.052984,58, 1.4, 8.5,0,0,1024,1024,1562,1024,58.2,-42.6,99,4.217,4.226,4.222,4.221,0,0,13.624,91.31,6,P-GPS,
0.368484457777242,36.9024179288353,5572.0438498933,47.900264,0,2.9939633504,13400,2018-04-08 07:17:06,10,0,16.774,5572.0438498933,47.900264,0.4921268,3.08021335316,0,0,-8.052984,58, 1.9, 8.9,0,0,1024,1024,1573,1024,58.2,-42.6,99,4.195,4.208,4.205,4.206,0,0,13.624,91.31,6,P-GPS,
0.368484468393069,36.9024179919046,5573.3561858933,49.2126,0,3.00448828512,13500,2018-04-08 07:17:06,10,0,16.774,5573.3561858933,49.2126,0.4921268,3.08021335316,0,0,-7.82929,58.1, 1.9, 9,0,0,1024,1024,1583,1024,58.2,-42.6,99,4.195,4.208,4.205,4.206,0,0,13.624,91.31,6,P-GPS,
0.368484416781165,36.9024181063087,5574.6685218933,50.524936,0,2.99938985976,13600,2018-04-08 07:17:06,10,0,16.774,5574.6685218933,50.524936,0.4921268,3.08021335316,0,0,-8.052984,58.1, 2, 8.4,0,0,1024,1024,1582,1024,58.2,-42.6,99,4.195,4.208,4.205,4.206,0,0,13.624,91.31,6,P-GPS,
0.36848435209367,36.9024182092225,5575.6527738933,51.509188,0,2.98909786468,13700,2018-04-08 07:17:06,10,0,16.774,5575.6527738933,51.509188,0.4921268,3.08021335316,0,0,-8.052984,58.1, 2, 8,0,0,1024,1024,1576,1023,58.2,-42.6,99,4.195,4.208,4.205,4.206,0,0,13.624,91.31,6,P-GPS,
0.368484251582849,36.9024182693823,5576.9651098933,52.821524,0,2.96183736512,13800,2018-04-08 07:17:06,10,0,16.774,5576.9651098933,52.821524,0.4921268,3.08021335316,0,0,-8.276678,58.1, 1.8, 7.9,0,0,1024,1024,1576,1024,58.2,-42.6,99,4.195,4.208,4.205,4.206,0,0,13.624,91.31,6,P-GPS,
0.368484176628015,36.9024183060648,5578.2774458933,54.13386,0,2.9407153172,13900,2018-04-08 07:17:06,10,0,16.774,5578.2774458933,54.13386,0.4921268,3.08021335316,0,0,-8.276678,58, 1.6, 8.3,0,0,1024,1024,1580,1024,58.2,-42.6,99,4.195,4.208,4.205,4.206,0,0,13.624,91.31,6,P-GPS,
0.368484075013109,36.9024183126838,5579.9178658933,55.77428,0,2.90679471244,14000,2018-04-08 07:17:06,10,0,16.774,5579.9178658933,55.77428,0.4921268,3.08021335316,0,0,-8.500372,58, 1.5, 8.6,0,0,1024,1024,1584,1024,58.2,-42.6,99,4.195,4.208,4.205,4.206,0,0,13.624,91.31,6,P-GPS,
0.368483995604481,36.9024183217974,5581.2302018933,57.086616,0,2.88085311056,14100,2018-04-08 07:17:06,10,0,16.774,5581.2302018933,57.086616,0.4921268,3.08021335316,0,0,-8.724066,57.9, 1.5, 8.7,0,0,1024,1024,1591,1024,58.2,-42.6,99,4.195,4.208,4.205,4.206,0,0,13.624,91.31,6,P-GPS,
0.368483930018899,36.9024183068415,5582.5425378933,58.398952,0,2.856545367,14200,2018-04-08 07:17:06,10,0,16.774,5582.5425378933,58.398952,0.4921268,3.08021335316,0,0,-8.94776,58, 1.6, 8.8,0,0,1024,1024,1593,1024,58.2,-42.6,99,4.195,4.208,4.205,4.206,0,0,13.624,91.31,6,P-GPS,
0.368483892332633,36.9024183078575,5584.1829578933,60.039372,0,2.843832112,14300,2018-04-08 07:17:06,10,0,16.774,5584.1829578933,60.039372,0.4921268,3.08021335316,0,0,-8.94776,58, 1.8, 9,0,0,1024,1024,1596,1024,58.2,-42.6,99,4.195,4.208,4.205,4.206,0,0,13.624,91.31,6,P-GPS,
0.368483856273998,36.9024183493834,5585.4952938933,61.351708,0,2.837024369,14400,2018-04-08 07:17:07,10,0,16.64,5585.4952938933,61.351708,0.4921268,3.08021335316,0,0,-8.724066,57.9, 2, 9.5,0,0,1024,1024,1586,1024,58.2,-42.6,99,4.184,4.192,4.189,4.194,0,0,15.316,91.31,6,P-GPS,
0.368483827214415,36.9024184208403,5586.8076298933,62.664044,0.223694,2.83676518264,14500,2018-04-08 07:17:07,10,0,16.64,5586.8076298933,62.664044,0.4921268,3.08021335316,0,0.223694,-8.724066,58, 2.8, 9.7,0,0,1024,1024,1582,1024,58.2,-42.6,99,4.184,4.192,4.189,4.194,0,0,15.316,91.31,6,P-GPS,
0.368483755597076,36.9024184952249,5588.4480498933,64.304464,0.223694,2.82285442104,14600,2018-04-08 07:17:07,10,0,16.64,5588.4480498933,64.304464,0.4921268,3.08021335316,0,0.223694,-8.724066,58.1, 3.7, 8.5,0,0,1024,1024,1585,1024,58.2,-42.6,99,4.184,4.192,4.189,4.194,0,0,15.316,91.31,6,P-GPS,
0.368483679994121,36.9024185547837,5589.7603858933,65.6168,0,2.80590888244,14700,2018-04-08 07:17:07,10,0,16.64,5589.7603858933,65.6168,0.4921268,3.08021335316,0,0,-8.724066,58.2, 3.6, 8,0,0,1024,1024,1586,1024,58.2,-42.6,99,4.184,4.192,4.189,4.194,0,0,15.316,91.31,6,P-GPS,
0.368483561537848,36.9024185753111,5591.0727218933,66.929136,0,2.76924877628,14800,2018-04-08 07:17:07,10,0,16.64,5591.0727218933,66.929136,0.4921268,3.08021335316,0,0,-8.94776,58.1, 3.4, 8.4,0,0,1024,1024,1590,1023,58.2,-42.6,99,4.184,4.192,4.189,4.194,0,0,15.316,91.31,6,P-GPS,
0.3684834679528,36.902418586356,5592.7131418933,68.569556,0,2.739665442,14900,2018-04-08 07:17:07,10,0,16.64,5592.7131418933,68.569556,0.4921268,3.08021335316,0,0,-8.94776,58, 2.9, 9.1,0,0,1024,1024,1595,1023,58.2,-42.6,99,4.184,4.192,4.189,4.194,0,0,15.316,91.31,6,P-GPS,
0.368483374950735,36.9024185990305,5594.0254778933,69.881892,0,2.71063656968,15000,2018-04-08 07:17:07,10,0,16.64,5594.0254778933,69.881892,0.4921268,3.08021335316,0,0,-8.724066,57.9, 2.7, 8.7,0,0,1024,1024,1599,1023,58.2,-42.6,99,4.184,4.192,4.189,4.194,0,0,15.316,91.31,6,P-GPS,
0.368483290590008,36.902418630392,5595.6658978933,71.522312,0,2.68746071592,15100,2018-04-08 07:17:07,10,0,16.64,5595.6658978933,71.522312,0.4921268,3.08021335316,0,0,-8.94776,57.9, 2.7, 8.3,0,0,1024,1024,1599,1023,58.1,-42.6,99,4.184,4.192,4.189,4.194,0,0,15.316,91.31,6,P-GPS,
0.36848318920227,36.9024186542506,5596.9782338933,72.834648,0,2.65770021628,15200,2018-04-08 07:17:07,10,0,16.64,5596.9782338933,72.834648,0.4921268,3.08021335316,0,0,-8.94776,58, 3.2, 8.3,0,0,1024,1024,1599,1023,58.1,-42.6,99,4.184,4.192,4.189,4.194,0,0,15.316,91.31,6,P-GPS,
0.368483105858506,36.9024186883368,5598.6186538933,74.475068,0,2.63570546492,15300,2018-04-08 07:17:07,10,0,16.64,5598.6186538933,74.475068,0.4921268,3.08021335316,0,0,-8.94776,58.1, 3.8, 8.3,0,0,1024,1024,1602,1022,58.1,-42.6,99,4.184,4.192,4.189,4.194,0,0,15.316,91.31,6,P-GPS,
0.368482992590456,36.9024187217415,5599.9309898933,75.787404,0,2.60406504396,15400,2018-04-08 07:17:08,10,0,16.747,5599.9309898933,75.787404,0.4921268,3.08021335316,0,0,-8.94776,58.1, 3.8, 8.5,0,0,1024,1024,1609,1023,58.1,-42.6,99,4.176,4.184,4.179,4.183,0,0,16.83,91.31,6,P-GPS,
0.36848288571649,36.9024187478939,5601.2433258933,77.09974,0,2.5736221296,15500,2018-04-08 07:17:08,10,0,16.747,5601.2433258933,77.09974,0.4921268,3.08021335316,0,0,-8.724066,58, 3.4, 8.1,0,0,1024,1024,1610,1023,58.1,-42.5,99,4.176,4.184,4.179,4.183,0,0,16.83,91.31,6,P-GPS,
0.368482727748466,36.9024187414488,5602.5556618933,78.412076,0,2.521407561,15600,2018-04-08 07:17:08,10,0,16.747,5602.5556618933,78.412076,0.4921268,3.08021335316,0,0,-8.94776,58, 3.7, 7.5,0,0,1024,1024,1604,1023,58.1,-42.5,99,4.176,4.184,4.179,4.183,0,0,16.83,91.31,6,P-GPS,
0.36848259554894,36.9024187293744,5604.1960818933,80.052496,0,2.47674548608,15700,2018-04-08 07:17:08,10,0,16.747,5604.1960818933,80.052496,0.4921268,3.08021335316,0,0,-9.171454,58.1, 3.6, 7.5,0,0,1024,1024,1605,1023,58.1,-42.4,99,4.176,4.184,4.179,4.183,0,0,16.83,91.31,6,P-GPS,
0.36848246823556,36.902418676393,5605.8365018933,81.692916,0,2.42667986768,15800,2018-04-08 07:17:08,10,0,16.747,5605.8365018933,81.692916,0.4921268,3.08021335316,0,0,-9.171454,58.1, 3, 8.7,0,0,1024,1024,1612,1022,58.1,-42.3,99,4.176,4.184,4.179,4.183,0,0,16.83,91.31,6,P-GPS,
0.368482365242177,36.9024186402946,5607.1488378933,83.005252,0,2.38735900028,15900,2018-04-08 07:17:08,10,0,16.747,5607.1488378933,83.005252,0.4921268,3.08021335316,0,0,-8.94776,58, 2.8, 9.1,0,0,1024,1024,1615,1023,58.1,-41.9,99,4.176,4.184,4.179,4.183,0,0,16.83,91.31,6,P-GPS,
0.368482242221375,36.9024185907713,5608.4611738933,84.317588,0,2.33929469428,16000,2018-04-08 07:17:08,10,0,16.747,5608.4611738933,84.317588,0.4921268,3.08021335316,0,0,-8.94776,58, 3, 8.2,0,0,1024,1024,1613,1023,58.1,-41.5,99,4.176,4.184,4.179,4.183,0,0,16.83,91.31,6,P-GPS,
0.368482129286341,36.9024185705179,5609.7735098933,85.629924,0,2.29961949616,16100,2018-04-08 07:17:08,10,0,16.747,5609.7735098933,85.629924,0.4921268,3.08021335316,0,0,-8.94776,58, 3.3, 7.5,0,0,1024,1024,1607,1023,58.1,-41,99,4.176,4.184,4.179,4.183,0,0,16.83,91.31,6,P-GPS,
0.368481978031577,36.9024185565716,5611.4139298933,87.270344,0,2.2489666074,16200,2018-04-08 07:17:08,10,0,16.747,5611.4139298933,87.270344,0.4921268,3.08021335316,0,0,-9.395148,58, 3.3, 7.4,0,0,1024,1024,1610,1023,58.1,-40.3,99,4.176,4.184,4.179,4.183,0,0,16.83,91.31,6,P-GPS,
0.368481858963823,36.9024185450593,5612.7262658933,88.58268,0,2.20915689484,16300,2018-04-08 07:17:08,10,0,16.747,5612.7262658933,88.58268,0.4921268,3.08021335316,0,0,-9.171454,58, 3.3, 8.2,0,0,1024,1024,1609,1023,58.1,-39.6,99,4.176,4.184,4.179,4.183,0,0,16.83,91.31,6,P-GPS,
0.368481748341994,36.9024185310112,5614.3666858933,90.2231,0,2.1716864212,16400,2018-04-08 07:17:09,10,0,16.694,5614.3666858933,90.2231,0.4921268,3.08021335316,0,0,-9.171454,58.1, 3.5, 8.4,0,0,1024,1024,1605,1023,58.1,-38.9,99,4.176,4.184,4.179,4.183,0,0,16.83,91.31,6,P-GPS,
0.368481633934033,36.9024185234773,5615.6790218933,91.535436,0,2.13436358536,16500,2018-04-08 07:17:09,10,0,16.694,5615.6790218933,91.535436,0.4921268,3.08021335316,0,0,-9.171454,58, 3.1, 8.1,0,0,1024,1024,1604,1023,58.1,-38.2,99,4.176,4.184,4.179,4.183,0,0,16.83,91.31,6,P-GPS,
0.36848150086736,36.90241851862,5616.9913578933,92.847772,0,2.0919127966,16600,2018-04-08 07:17:09,10,0,16.694,5616.9913578933,92.847772,0.4921268,3.08021335316,0,0,-9.395148,58, 3.2, 7.7,0,0,1024,1024,1597,1023,58.1,-37.5,99,4.176,4.184,4.179,4.183,0,0,16.83,91.31,6,P-GPS,
0.368481382918347,36.9024185216578,5618.6317778933,94.488192,0,2.055938386,16700,2018-04-08 07:17:09,10,0,16.694,5618.6317778933,94.488192,0.4921268,3.08021335316,0,0,-9.395148,58, 3.2, 7.3,0,0,1024,1024,1589,1023,58.1,-37.5,99,4.176,4.184,4.179,4.183,0,0,16.83,91.31,6,P-GPS,
0.368481236181701,36.9024185110229,5619.9441138933,95.800528,0,2.0087106942,16800,2018-04-08 07:17:09,10,0,16.694,5619.9441138933,95.800528,0.4921268,3.08021335316,0,0,-9.171454,57.9, 3, 7.4,0,0,1024,1024,1577,1023,58.1,-36.8,99,4.176,4.184,4.179,4.183,0,0,16.83,91.31,6,P-GPS,
0.368481118574661,36.9024184946013,5621.5845338933,97.440948,0,1.96950793704,16900,2018-04-08 07:17:09,10,0,16.694,5621.5845338933,97.440948,0.4921268,3.08021335316,0,0,-8.94776,58, 3.1, 7.5,0,0,1024,1024,1577,1023,58,-36.2,99,4.176,4.184,4.179,4.183,0,0,16.83,91.31,6,P-GPS,
0.368480981462934,36.9024184306515,5622.8968698933,98.753284,0,1.91492132112,17000,2018-04-08 07:17:09,10,0,16.694,5622.8968698933,98.753284,0.4921268,3.08021335316,0,0,-8.94776,58.1, 3.4, 7.7,0,0,1024,1024,1574,1023,58,-35.8,99,4.176,4.184,4.179,4.183,0,0,16.83,91.31,6,P-GPS,
0.368480861795912,36.9024183602779,5624.2092058933,100.06562,0,1.86435045336,17100,2018-04-08 07:17:09,10,0,16.694,5624.2092058933,100.06562,0.4921268,3.08021335316,0,0,-8.724066,58.1, 3.3, 7.8,0,0,1024,1024,1581,1023,58.1,-35.3,99,4.176,4.184,4.179,4.183,0,0,16.83,91.31,6,P-GPS,
0.368480689962502,36.9024182477527,5625.5215418933,101.377956,0,1.78941606776,17200,2018-04-08 07:17:09,10,0,16.694,5625.5215418933,101.377956,0.4921268,3.08021335316,0,0,-8.724066,58, 2, 7.4,0,0,1024,1024,1589,1023,58,-34.9,99,4.176,4.184,4.179,4.183,0,0,16.83,91.31,6,P-GPS,
0.368480540750621,36.9024181459648,5626.8338778933,102.690292,0,1.72351711552,17300,2018-04-08 07:17:09,10,0,16.694,5626.8338778933,102.690292,0.4921268,3.08021335316,0,0,-8.724066,57.9, 1.3, 7.1,0,0,1024,1024,1589,1023,58,-34.5,99,4.176,4.184,4.179,4.183,0,0,16.83,91.31,6,P-GPS,
0.36848038234536,36.9024180178354,5628.4742978933,104.330712,0,1.6495079268,17400,2018-04-08 07:17:10,10,0,16.559,5628.4742978933,104.330712,0.4921268,3.08021335316,0,0,-8.724066,57.9, 1.3, 7.5,0,0,1024,1024,1594,1023,58.1,-34,99,4.172,4.18,4.171,4.176,0,0,16.57,91.31,6,P-GPS,
0.368480257341113,36.9024179198208,5629.7866338933,105.643048,0,1.59174545776,17500,2018-04-08 07:17:10,10,0,16.559,5629.7866338933,105.643048,0.4921268,3.08021335316,0,0,-8.94776,58, 1.8, 7.3,0,0,1024,1024,1590,1023,58,-33.5,99,4.172,4.18,4.171,4.176,0,0,16.57,91.31,6,P-GPS,
0.368480144117845,36.9024178123992,5631.0989698933,106.955384,0,1.53572511476,17600,2018-04-08 07:17:10,10,0,16.559,5631.0989698933,106.955384,0.4921268,3.08021335316,0,0,-8.94776,58, 1.6, 7.3,0,0,1024,1024,1591,1023,58,-32.9,99,4.172,4.18,4.171,4.176,0,0,16.57,91.31,6,P-GPS,
0.368480056983878,36.9024177223141,5632.7393898933,108.595804,0,1.49120411596,17700,2018-04-08 07:17:10,10,0,16.559,5632.7393898933,108.595804,0.4921268,3.08021335316,0,0,-9.171454,57.9, 1.5, 7.6,0,0,1024,1024,1592,1023,58,-31.8,99,4.172,4.18,4.171,4.176,0,0,16.57,91.31,6,P-GPS,
0.368479932819908,36.9024176165766,5634.0517258933,109.90814,0,1.4322835104,17800,2018-04-08 07:17:10,10,0,16.559,5634.0517258933,109.90814,0.4921268,3.08021335316,0,0,-8.94776,57.9, 1.3, 7.9,0,0,1024,1024,1590,1023,58,-30.5,99,4.172,4.18,4.171,4.176,0,0,16.57,91.31,6,P-GPS,
0.368479829118966,36.9024175379331,5635.3640618933,111.220476,0,1.38498035928,17900,2018-04-08 07:17:10,10,0,16.559,5635.3640618933,111.220476,0.4921268,3.08021335316,0,0,-8.94776,57.9, 1.1, 7.9,0,0,1024,1024,1584,1023,58,-29.2,99,4.172,4.18,4.171,4.176,0,0,16.57,91.31,6,P-GPS,
0.368479684359251,36.9024174538916,5637.0044818933,112.860896,0,1.32394689276,18000,2018-04-08 07:17:10,10,0,16.559,5637.0044818933,112.860896,0.4921268,3.08021335316,0,0,-9.171454,57.9, 0.9, 7.8,0,0,1024,1024,1582,1024,58,-28,99,4.172,4.18,4.171,4.176,0,0,16.57,91.31,6,P-GPS,
0.368479577759679,36.9024174059485,5638.3168178933,114.173232,0,1.2817257628,18100,2018-04-08 07:17:10,10,0,16.559,5638.3168178933,114.173232,0.4921268,3.08021335316,0,0,-8.94776,57.9, 1.1, 7.6,0,0,1024,1024,1579,1023,58,-26.7,99,4.172,4.18,4.171,4.176,0,0,16.57,91.31,6,P-GPS,
0.368479480323361,36.9024173859826,5639.6291538933,115.485568,0,1.24788061736,18200,2018-04-08 07:17:10,10,0,16.559,5639.6291538933,115.485568,0.4921268,3.08021335316,0,0,-9.171454,57.9, 1.5, 7.7,0,0,1024,1024,1573,1023,58,-26.7,99,4.172,4.18,4.171,4.176,0,0,16.57,91.31,6,P-GPS,
0.368479423500436,36.9024173876795,5641.2695738933,117.125988,0,1.23089242784,18300,2018-04-08 07:17:10,10,0,16.559,5641.2695738933,117.125988,0.4921268,3.08021335316,0,0,-9.171454,57.9, 1.8, 7.8,0,0,1024,1024,1571,1023,58,-25.5,99,4.172,4.18,4.171,4.176,0,0,16.57,91.31,6,P-GPS,
0.368479369973482,36.9024173906789,5642.5819098933,118.438324,0,1.21528219112,18400,2018-04-08 07:17:11,11,0,16.613,5642.5819098933,118.438324,0.4921268,3.08021335316,0,0,-8.94776,58, 2.3, 8.2,0,0,1024,1024,1562,1023,58,-24.6,99,4.169,4.176,4.168,4.171,0,0,16.894,91.31,6,P-GPS,
0.368479336624577,36.90241740538,5643.8942458933,119.75066,0,1.20827431688,18500,2018-04-08 07:17:11,11,0,16.613,5643.8942458933,119.75066,0.4921268,3.08021335316,0,0,-8.94776,58, 2.7, 8.2,0,0,1024,1024,1562,1023,58,-24.6,99,4.169,4.176,4.168,4.171,0,0,16.894,91.31,6,P-GPS,
0.368479277933827,36.9024173808747,5645.5346658933,121.39108,0,1.18558402744,18600,2018-04-08 07:17:11,11,0,16.613,5645.5346658933,121.39108,0.4921268,3.08021335316,0,0,-8.724066,58.1, 2.8, 8.4,0,0,1024,1024,1548,1023,58,-23.7,99,4.169,4.176,4.168,4.171,0,0,16.894,91.31,6,P-GPS,
0.368479239768799,36.9024173726048,5646.5189178933,122.375332,0,1.17245082492,18700,2018-04-08 07:17:11,11,0,16.613,5646.5189178933,122.375332,0.4921268,3.08021335316,0,0,-8.276678,58.1, 3, 8.4,0,0,1024,1024,1535,1023,58,-23.7,99,4.169,4.176,4.168,4.171,0,0,16.894,91.31,6,P-GPS,
0.368479158227723,36.9024173045192,5647.8312538933,123.687668,0,1.13382877644,18800,2018-04-08 07:17:11,11,0,16.613,5647.8312538933,123.687668,0.4921268,3.08021335316,0,0,-8.052984,58, 2.6, 8,0,0,1024,1024,1526,1023,58,-23.7,99,4.169,4.176,4.168,4.171,0,0,16.894,91.31,6,P-GPS,
0.368479088160663,36.9024172462725,5649.1435898933,125.000004,0,1.10070213496,18900,2018-04-08 07:17:11,11,0,16.613,5649.1435898933,125.000004,0.4921268,3.08021335316,0,0,-7.605596,58.1, 2.1, 8.3,0,0,1024,1024,1526,1023,58,-23.7,99,4.169,4.176,4.168,4.171,0,0,16.894,91.31,6,P-GPS,
0.368478994832909,36.9024171430632,5650.1278418933,125.984256,0,1.05130252708,19000,2018-04-08 07:17:11,11,0,16.613,5650.1278418933,125.984256,0.4921268,3.08021335316,0,0,-7.381902,58, 1.9, 8.1,0,0,1024,1024,1536,1023,58,-23.7,99,4.169,4.176,4.168,4.171,0,0,16.894,91.31,6,P-GPS,
0.3684789133529,36.9024170718899,5651.1120938933,126.968508,0,1.01212601664,19100,2018-04-08 07:17:11,11,0,16.613,5651.1120938933,126.968508,0.4921268,3.08021335316,0,0,-7.381902,57.9, 1.4, 7.3,0,0,1024,1024,1547,1023,58,-23.7,99,4.169,4.176,4.168,4.171,0,0,16.894,91.31,6,P-GPS,
0.368478833797711,36.9024169860107,5652.4244298933,128.280844,0,0.97059714392,19200,2018-04-08 07:17:11,11,0,16.613,5652.4244298933,128.280844,0.4921268,3.08021335316,0,0,-7.605596,57.9, 1.2, 6.7,0,0,1024,1024,1552,1023,58,-23.7,99,4.169,4.176,4.168,4.171,0,0,16.894,91.31,6,P-GPS,
0.368478793695649,36.9024169369975,5653.7367658933,129.59318,0,0.94856302248,19300,2018-04-08 07:17:11,11,0,16.613,5653.7367658933,129.59318,0.4921268,3.08021335316,0,0,-7.82929,57.9, 1.5, 7,0,0,1024,1024,1557,1023,58,-23.7,99,4.169,4.176,4.168,4.171,0,0,16.894,91.31,6,P-GPS,
0.368478781492497,36.90241688309,5654.7210178933,130.577432,0,0.93422903252,19400,2018-04-08 07:17:12,11,0,16.64,5654.7210178933,130.577432,0.4921268,3.08021335316,0,0,-8.052984,57.9, 2.2, 7.5,0,0,1024,1024,1556,1023,58,-23.7,98,4.18,4.184,4.174,4.179,0,0,15.076,91.31,6,P-GPS,
0.368478802371998,36.9024168585987,5656.0333538933,131.889768,0,0.93600396696,19500,2018-04-08 07:17:12,11,0,16.64,5656.0333538933,131.889768,0.4921268,3.08021335316,0,0,-8.052984,58, 2.4, 8.1,0,0,1024,1024,1554,1023,58,-23.7,98,4.18,4.184,4.174,4.179,0,0,15.076,91.31,6,P-GPS,
0.36847880798036,36.9024168070781,5657.3456898933,133.202104,0,0.92811354676,19600,2018-04-08 07:17:12,11,0,16.64,5657.3456898933,133.202104,0.4921268,3.08021335316,0,0,-8.276678,58, 2.2, 8,0,0,1024,1024,1554,1023,58,-23.7,98,4.18,4.184,4.174,4.179,0,0,15.076,91.31,6,P-GPS,
0.368478829146875,36.902416780096,5658.6580258933,134.51444,0,0.9298884812,19700,2018-04-08 07:17:12,11,0,16.64,5658.6580258933,134.51444,0.4921268,3.08021335316,0,0,-8.276678,58, 2.4, 8.4,0,0,1024,1024,1554,1023,58,-23.7,98,4.18,4.184,4.174,4.179,0,0,15.076,91.31,6,P-GPS,
0.368478804444601,36.902416769044,5659.9703618933,135.826776,0,0.92005908456,19800,2018-04-08 07:17:12,11,0,16.64,5659.9703618933,135.826776,0.4921268,3.08021335316,0,0,-8.276678,58, 2.5, 8.5,0,0,1024,1024,1572,1022,58,-23.7,98,4.18,4.184,4.174,4.179,0,0,15.076,91.31,6,P-GPS,
0.368478787562929,36.9024167822137,5661.2826978933,137.139112,0,0.91711289024,19900,2018-04-08 07:17:12,11,0,16.64,5661.2826978933,137.139112,0.4921268,3.08021335316,0,0,-8.052984,58.1, 2.8, 8.2,0,0,1024,1024,1581,1023,58,-23.7,98,4.18,4.184,4.174,4.179,0,0,15.076,91.31,6,P-GPS,
0.368478743929993,36.902416789602,5662.5950338933,138.451448,0,0.90474740428,20000,2018-04-08 07:17:12,11,0,16.64,5662.5950338933,138.451448,0.4921268,3.08021335316,0,0,-8.276678,58.1, 2.8, 8,0,0,1024,1024,1585,1022,58,-23.7,98,4.18,4.184,4.174,4.179,0,0,15.076,91.31,6,P-GPS,
0.368478709607686,36.9024167974255,5663.9073698933,139.763784,0,0.8954888738,20100,2018-04-08 07:17:12,11,0,16.64,5663.9073698933,139.763784,0.4921268,3.08021335316,0,0,-8.724066,58, 2.5, 8.1,0,0,1024,1024,1575,1022,58,-23.7,98,4.18,4.184,4.174,4.179,0,0,15.076,91.31,6,P-GPS,
0.368478661024281,36.9024167566287,5665.2197058933,141.07612,0,0.87261485732,20200,2018-04-08 07:17:12,11,0,16.64,5665.2197058933,141.07612,0.4921268,3.08021335316,0,0,-8.500372,57.9, 1.9, 8.3,0,0,1024,1024,1572,1022,58,-23.7,98,4.18,4.184,4.174,4.179,0,0,15.076,91.31,6,P-GPS,
0.368478619559618,36.9024167503083,5666.5320418933,142.388456,0,0.85849084112,20300,2018-04-08 07:17:12,11,0,16.64,5666.5320418933,142.388456,0.4921268,3.08021335316,0,0,-8.500372,57.8, 1.6, 7.9,0,0,1024,1024,1577,1022,58,-23.7,98,4.18,4.184,4.174,4.179,0,0,15.076,91.31,6,P-GPS,
0.368478550326729,36.9024167672775,5667.8443778933,143.700792,0,0.84038060432,20400,2018-04-08 07:17:13,11,0,16.694,5667.8443778933,143.700792,0.4921268,3.08021335316,0,0,-8.276678,57.8, 1.9, 7.5,0,0,1024,1024,1590,1021,58,-23.7,98,4.18,4.184,4.174,4.179,0,0,15.076,91.31,6,P-GPS,
0.368478509972665,36.902416831676,5668.8286298933,144.685044,0.223694,0.84115488256,20500,2018-04-08 07:17:13,11,0,16.694,5668.8286298933,144.685044,0.4921268,3.08021335316,0,0.223694,-8.276678,58, 2.7, 7.3,0,0,1024,1024,1601,1022,58,-23.7,98,4.18,4.184,4.174,4.179,0,0,15.076,91.31,6,P-GPS,
0.368478354371585,36.9024169724006,5671.4533018933,147.309716,0.223694,0.8269685304,20700,2018-04-08 07:17:13,11,0,16.694,5671.4533018933,147.309716,0.4921268,3.08021335316,0,0.223694,-8.724066,58.1, 3.8, 6.7,0,0,1024,1024,1602,1022,58,-23.7,98,4.18,4.184,4.174,4.179,0,0,15.076,91.31,6,P-GPS,
0.368478282042616,36.9024169886744,5672.7656378933,148.622052,0.223694,0.81077102332,20800,2018-04-08 07:17:13,11,0,16.694,5672.7656378933,148.622052,0.4921268,3.08021335316,0,0.223694,-8.724066,58, 3.4, 6.8,0,0,1024,1024,1602,1022,58,-23.7,98,4.18,4.184,4.174,4.179,0,0,15.076,91.31,6,P-GPS,
0.368478232265968,36.9024170208838,5674.0779738933,149.934388,0.223694,0.80515422524,20900,2018-04-08 07:17:13,11,0,16.694,5674.0779738933,149.934388,0.4921268,3.08021335316,0,0.223694,-8.724066,57.9, 2.9, 7,0,0,1024,1024,1604,1023,58,-23.7,98,4.18,4.184,4.174,4.179,0,0,15.076,91.31,6,P-GPS,
0.368478208840394,36.9024170414765,5675.3903098933,151.246724,0.223694,0.80406498636,21000,2018-04-08 07:17:13,11,0,16.694,5675.3903098933,151.246724,0.4921268,3.08021335316,0,0.223694,-8.94776,58, 3.8, 7,0,0,1024,1024,1603,1023,58,-23.7,98,4.18,4.184,4.174,4.179,0,0,15.076,91.31,6,P-GPS,
0.368478201257138,36.9024170770396,5677.0307298933,152.887144,0,0.81108598396,21100,2018-04-08 07:17:13,11,0,16.694,5677.0307298933,152.887144,0.4921268,3.08021335316,0,0,-9.171454,58.1, 4.1, 7.1,0,0,1024,1024,1615,1023,58,-23.7,98,4.18,4.184,4.174,4.179,0,0,15.076,91.31,6,P-GPS,
0.368478165030773,36.902417072831,5678.3430658933,154.19948,0,0.80061026184,21200,2018-04-08 07:17:13,11,0,16.694,5678.3430658933,154.19948,0.4921268,3.08021335316,0,0,-9.171454,58.1, 3.8, 7.3,0,0,1024,1024,1625,1023,58,-23.7,98,4.18,4.184,4.174,4.179,0,0,15.076,91.31,6,P-GPS,
0.368478139150319,36.902417066501,5679.9834858933,155.8399,0,0.79231301748,21300,2018-04-08 07:17:13,11,0,16.694,5679.9834858933,155.8399,0.4921268,3.08021335316,0,0,-9.618842,58.1, 3.2, 7.3,0,0,1024,1024,1617,1024,58,-23.7,98,4.18,4.184,4.174,4.179,0,0,15.076,91.31,6,P-GPS,
0.368478136357131,36.9024170081333,5681.2958218933,157.152236,0,0.77658138968,21400,2018-04-08 07:17:14,11,0,16.586,5681.2958218933,157.152236,0.4921268,3.08021335316,0,0,-9.395148,58, 2.6, 7.2,0,0,1024,1024,1610,1023,58,-23.7,98,4.171,4.176,4.168,4.172,0,0,14.914,91.31,6,P-GPS,
0.368478184145041,36.9024169853721,5682.6081578933,158.464572,0.223694,0.78347443452,21500,2018-04-08 07:17:14,11,0,16.586,5682.6081578933,158.464572,0.4921268,3.08021335316,0.223694,0,-9.618842,58, 3.4, 7.8,0,0,1024,1024,1612,1023,58,-23.7,98,4.171,4.176,4.168,4.172,0,0,14.914,91.31,6,P-GPS,
0.368478238226888,36.9024169439779,5684.2485778933,160.104992,0.223694,0.78800199372,21600,2018-04-08 07:17:14,11,0,16.586,5684.2485778933,160.104992,0.4921268,3.08021335316,0.223694,0,-9.395148,58.1, 3.9, 9.5,0,0,1024,1024,1615,1023,58,-23.7,98,4.171,4.176,4.168,4.172,0,0,14.914,91.31,6,P-GPS,
0.368478288733485,36.9024169206969,5685.5609138933,161.417328,0.223694,0.79649280764,21700,2018-04-08 07:17:14,11,0,16.586,5685.5609138933,161.417328,0.4921268,3.08021335316,0.223694,0,-9.395148,58, 3.5, 9.8,0,0,1024,1024,1612,1024,57.9,-23.7,98,4.171,4.176,4.168,4.172,0,0,14.914,91.31,6,P-GPS,
