latitude,longitude,altitude(feet),ascent(feet),speed(mph),distance(feet),time(millisecond),datetime(utc),satellites,gpslevel,voltage(v),max_altitude(feet),max_ascent(feet),max_speed(mph),max_distance(feet), xSpeed(mph), ySpeed(mph), zSpeed(mph), compass_heading(degrees), pitch(degrees), roll(degrees),isPhoto,isVideo,rc_elevator,rc_aileron,rc_throttle,rc_rudder,gimbal_heading(degrees),gimbal_pitch(degrees),battery_percent,voltageCell1,voltageCell2,voltageCell3,voltageCell4,voltageCell5,voltageCell6,current(A),battery_temperature(f),flycStateRaw,flycState,message
0.305868263980141,36.8800455250839,5826.9184203853,0,0,0,0,2018-04-14 11:52:35,14,0,0,5826.9184203853,0,0,0,0,0,0,29.9, -3, 2,0,0,364,364,364,1684,34.5,0,99,4.301,4.302,4.301,4.302,0,0,0,78.71,41,Motors_Started,
0.305868263758469,36.8800455459604,5826.9184203853,0,0,0.0076170934196,100,2018-04-14 11:52:35,14,0,0,5826.9184203853,0,0,0.0076170934196,0,0,0,29.9, -3, 2,0,0,364,364,364,1684,34.5,0,99,4.301,4.302,4.301,4.302,0,0,0,78.71,41,Motors_Started,
0.305868247197753,36.880045577481,5826.9184203853,0,0,0.0200734258392,200,2018-04-14 11:52:35,14,0,0,5826.9184203853,0,0,0.0200734258392,0,0,0,29.8, -3, 2,0,0,729,678,367,1673,34.5,0,99,4.301,4.302,4.301,4.302,0,0,0,78.71,41,Motors_Started,
0.305868218259489,36.880045614639,5826.9184203853,0,0,0.036685696712,300,2018-04-14 11:52:35,14,0,0,5826.9184203853,0,0,0.036685696712,0,0,0,29.9, -3, 2,0,0,1024,1024,682,1415,34.5,0,99,4.301,4.302,4.301,4.302,0,0,0,78.71,41,Motors_Started,
0.305868190262568,36.8800456448133,5826.9184203853,0,0,0.051298558072,400,2018-04-14 11:52:35,14,0,0,5826.9184203853,0,0,0.051298558072,0,0,0,29.8, -3, 2,0,0,1024,1024,1024,1024,34.2,0,99,4.301,4.302,4.301,4.302,0,0,0,78.71,41,Motors_Started,
0.305868173582619,36.8800456622363,5826.9184203853,0,0,0.059930776196,500,2018-04-14 11:52:35,14,0,0,5826.9184203853,0,0,0.059930776196,0,0,0,29.9, -3, 2,0,0,1024,1024,1024,1024,32.8,0,99,4.301,4.302,4.301,4.302,0,0,0,78.71,41,Motors_Started,
0.305868160212687,36.8800456890993,5826.9184203853,0,0,0.070810697804,600,2018-04-14 11:52:35,13,0,17.178,5826.9184203853,0,0,0.070810697804,0,0,0,29.8, -3, 2,0,0,1024,1024,1024,1024,31.7,0,99,4.301,4.302,4.301,4.302,0,0,1.474,78.71,41,Motors_Started,Setting new Return-To-Home altitude to 30m (98 ft). Setting new Maximum Flight Altitude to 150m (492 ft)
0.305868152307965,36.8800457240399,5826.9184203853,0,0,0.083240816312,700,2018-04-14 11:52:36,13,0,17.178,5826.9184203853,0,0,0.083240816312,0,0,0,29.8, -2.9, 2,0,0,1024,1024,1024,1024,31.3,0,99,4.301,4.302,4.301,4.302,0,0,1.474,78.71,41,Motors_Started,
0.305868147311848,36.8800457512206,5826.9184203853,0,0,0.092838257564,800,2018-04-14 11:52:36,13,0,17.178,5826.9184203853,0,0,0.092838257564,0,0,0,29.9, -2.8, 2.1,0,0,1024,1024,1024,1024,31,0,99,4.301,4.302,4.301,4.302,0,0,1.474,78.71,41,Motors_Started,
0.305868143941173,36.8800457673953,5826.9184203853,0,0,0.098659451976,900,2018-04-14 11:52:36,13,0,17.178,5826.9184203853,0,0,0.098659451976,0,0,0,29.8, -2.7, 2.2,0,0,1024,1024,1024,1024,30.9,0,99,4.301,4.302,4.301,4.302,0,0,1.474,78.71,41,Motors_Started,
0.305868145448552,36.88004579138,5826.9184203853,0,0,0.10634678818,1000,2018-04-14 11:52:36,13,0,17.178,5826.9184203853,0,0,0.10634678818,0,0,0,30, -2.7, 2.2,0,0,1024,1024,1024,1024,30.7,0,99,4.301,4.302,4.301,4.302,0,0,1.474,78.71,41,Motors_Started,
0.305868148150242,36.8800458237629,5826.9184203853,0,0,0.116878940748,1100,2018-04-14 11:52:36,13,0,17.178,5826.9184203853,0,0,0.116878940748,0,0,0,29.8, -2.8, 2.2,0,0,1024,1024,1024,1024,30.7,0,99,4.301,4.302,4.301,4.302,0,0,1.474,78.71,41,Motors_Started,
0.305868180452516,36.8800458488209,5826.9184203853,0,0,0.1219816312,1200,2018-04-14 11:52:36,13,0,17.178,5826.9184203853,0,0,0.1219816312,0,0,0,29.8, -3, 2,0,0,1024,1024,1024,1024,30.6,0,99,4.301,4.302,4.301,4.302,0,0,1.474,78.71,41,Motors_Started,
0.305868219215793,36.8800458649466,5826.9184203853,0,0,0.125067917388,1300,2018-04-14 11:52:36,13,0,17.178,5826.9184203853,0,0,0.125067917388,0,0,0,29.8, -2.9, 2,0,0,1024,1024,1024,1024,30.5,0,99,4.301,4.302,4.301,4.302,0,0,1.474,78.71,41,Motors_Started,
0.305868254458883,36.8800458895434,5826.9184203853,0,0,0.133016408456,1400,2018-04-14 11:52:36,13,0,17.178,5826.9184203853,0,0,0.133016408456,0,0,0,29.9, -2.5, 2.3,0,0,1024,1024,1024,1024,30.5,0,99,4.301,4.302,4.301,4.302,0,0,1.474,78.71,41,Motors_Started,
0.305868274356789,36.8800459226161,5826.9184203853,0,0,0.145086618816,1500,2018-04-14 11:52:37,13,0,17.178,5826.9184203853,0,0,0.145086618816,0,0,0,29.9, -2.5, 2.4,0,0,1024,1024,1024,1024,30.5,0,99,4.301,4.302,4.301,4.302,0,0,1.474,78.71,10,Assisted_Takeoff,
0.305868304998711,36.8800459514037,5826.9184203853,0,0,0.156258535184,1600,2018-04-14 11:52:37,13,0,17.151,5826.9184203853,0,0,0.156258535184,0,0,0,29.7, -2.9, 2,0,0,1024,1024,1024,1024,30.5,0,99,4.288,4.288,4.285,4.281,0,0,3.232,78.71,10,Assisted_Takeoff,
0.305868331206177,36.8800459643777,5826.9184203853,0,0,0.162139768968,1700,2018-04-14 11:52:37,13,0,17.151,5826.9184203853,0,0,0.162139768968,0,0,0,29.8, -3.1, 2,0,0,1024,1024,1024,1024,30.4,0,99,4.288,4.288,4.285,4.281,0,0,3.232,78.71,10,Assisted_Takeoff,
0.305868343234882,36.8800459697796,5826.9184203853,0,0,0.164801186376,1800,2018-04-14 11:52:37,14,0,17.151,5826.9184203853,0,0,0.164801186376,0,0,0,29.8, -2.8, 2.2,0,0,1024,1024,1024,1024,30.4,0,99,4.288,4.288,4.285,4.281,0,0,3.232,78.71,10,Assisted_Takeoff,
0.305868351969703,36.8800459726049,5826.9184203853,0,0,0.166401580128,1900,2018-04-14 11:52:37,14,0,17.151,5826.9184203853,0,0,0.166401580128,0,0,0,29.8, -2.9, 2.1,0,0,1024,1024,1024,1024,30.4,0,99,4.288,4.288,4.285,4.281,0,0,3.232,78.71,10,Assisted_Takeoff,
0.3058683415356,36.8800459840316,5826.9184203853,0,0,0.169818574988,2000,2018-04-14 11:52:37,14,0,17.151,5826.9184203853,0,0,0.169818574988,0,0,0,29.8, -3, 2,0,0,1024,1024,1024,1024,30.4,0,99,4.288,4.288,4.285,4.281,0,0,3.232,78.71,10,Assisted_Takeoff,
0.305868317352698,36.8800460114025,5826.9184203853,0,0,0.178496068704,2100,2018-04-14 11:52:37,14,0,17.151,5826.9184203853,0,0,0.178496068704,0,0,0,29.8, -2.9, 2.1,0,0,1024,1024,1024,1024,30.3,0,99,4.288,4.288,4.285,4.281,0,0,3.232,78.71,10,Assisted_Takeoff,
0.305868300995843,36.8800460521551,5826.9184203853,0,0,0.192772643964,2200,2018-04-14 11:52:37,14,0,17.151,5826.9184203853,0,0,0.192772643964,0,0,0,29.8, -2.9, 2.1,0,0,1024,1024,1024,1024,30.3,0,99,4.288,4.288,4.285,4.281,0,0,3.232,78.71,10,Assisted_Takeoff,
0.305868314791919,36.8800460939768,5826.9184203853,0,0,0.208383536852,2300,2018-04-14 11:52:37,14,0,17.151,5826.9184203853,0,0,0.208383536852,0,0,0,29.8, -3, 2,0,1,1024,1024,1024,1024,30.3,0,99,4.288,4.288,4.285,4.281,0,0,3.232,78.71,10,Assisted_Takeoff,
0.305868326146906,36.880046130303,5826.9184203853,0,0,0.221972448048,2400,2018-04-14 11:52:37,14,0,17.151,5826.9184203853,0,0,0.221972448048,0,0,0,29.8, -3, 2.1,0,1,1024,1024,1024,1024,30.3,0,99,4.288,4.288,4.285,4.281,0,0,3.232,78.71,10,Assisted_Takeoff,
0.305868332740578,36.8800461513101,5826.9184203853,0,0,0.229848104468,2500,2018-04-14 11:52:37,14,0,17.151,5826.9184203853,0,0,0.229848104468,0,0,0,29.8, -2.8, 2.1,0,1,1024,1024,1024,1024,30.3,0,99,4.288,4.288,4.285,4.281,0,0,3.232,78.71,10,Assisted_Takeoff,
0.305868336108098,36.8800461817856,5826.9184203853,0,0,0.241034784616,2600,2018-04-14 11:52:38,14,0,17.286,5826.9184203853,0,0,0.241034784616,0,0,0,29.8, -2.9, 2.1,0,1,1024,1024,1024,1024,30.3,0,99,4.288,4.288,4.285,4.281,0,0,3.232,78.71,10,Assisted_Takeoff,
0.305868341485373,36.8800462172108,5826.9184203853,0,0,0.254096792908,2700,2018-04-14 11:52:38,14,0,17.286,5826.9184203853,0,0,0.254096792908,0,0,0,29.8, -3, 2.1,0,1,1024,1024,1024,1024,30.3,0,99,4.288,4.288,4.285,4.281,0,0,3.232,78.71,10,Assisted_Takeoff,
0.305868340865241,36.8800462448872,5826.9184203853,0,0,0.264109916588,2800,2018-04-14 11:52:38,14,0,17.286,5826.9184203853,0,0,0.264109916588,0,0,0,29.8, -2.9, 2.1,0,1,1024,1024,1024,1024,30.3,0,99,4.288,4.288,4.285,4.281,0,0,3.232,78.71,10,Assisted_Takeoff,
0.305868341676715,36.8800462607094,5826.9184203853,0,0,0.269881570316,2900,2018-04-14 11:52:38,14,0,17.286,5826.9184203853,0,0,0.269881570316,0,0,0,29.8, -2.9, 2.1,0,1,1024,1024,1024,1024,30.3,0,99,4.288,4.288,4.285,4.281,0,0,3.232,78.71,10,Assisted_Takeoff,
0.305868341238613,36.8800463186358,5826.9184203853,0,0,0.290891741592,3100,2018-04-14 11:52:38,14,0,17.286,5826.9184203853,0,0,0.290891741592,0,0,0,29.8, -2.9, 2.1,0,1,1024,1024,1024,1024,30.2,0,99,4.288,4.288,4.285,4.281,0,0,3.232,78.71,10,Assisted_Takeoff,
0.305868335799101,36.8800463438798,5826.9184203853,0,0,0.299879930856,3200,2018-04-14 11:52:38,14,0,17.286,5826.9184203853,0,0,0.299879930856,0,0,0,29.8, -2.8, 2.1,0,1,1024,1024,1024,1024,30.2,0,99,4.288,4.288,4.285,4.281,0,0,3.232,78.71,10,Assisted_Takeoff,
0.30586833540115,36.8800463584061,5826.9184203853,0,0,0.305147319476,3300,2018-04-14 11:52:38,14,0,17.286,5826.9184203853,0,0,0.305147319476,0,0,0,29.8, -2.9, 2.1,0,1,1024,1024,1024,1024,30.2,0,99,4.288,4.288,4.285,4.281,0,0,3.232,78.71,10,Assisted_Takeoff,
0.305868334588251,36.8800463626965,5826.9184203853,0,0,0.306682096428,3400,2018-04-14 11:52:38,14,0,17.286,5826.9184203853,0,0,0.306682096428,0,0,0,29.8, -2.9, 2.1,0,1,1024,1024,1024,1024,30.2,0,99,4.288,4.288,4.285,4.281,0,0,3.232,78.71,10,Assisted_Takeoff,
0.305868333738967,36.8800463648173,5826.9184203853,0,0,0.307427175192,3500,2018-04-14 11:52:38,14,0,17.286,5826.9184203853,0,0,0.307427175192,0,0,0,29.8, -2.8, 2.1,0,1,1024,1024,1024,1024,30.2,0,99,4.288,4.288,4.285,4.281,0,0,3.232,78.71,10,Assisted_Takeoff,
0.305868330670571,36.8800463572943,5826.9184203853,0,0,0.304600403448,3600,2018-04-14 11:52:38,14,0,17.178,5826.9184203853,0,0,0.307427175192,0,0,0,29.8, -2.9, 2.1,0,1,1024,1024,1024,1024,30.2,0,99,4.296,4.296,4.294,4.294,0,0,2.542,78.71,10,Assisted_Takeoff,
0.305868332323645,36.8800463517765,5826.9184203853,0,0,0.302643054304,3700,2018-04-14 11:52:39,14,0,17.178,5826.9184203853,0,0,0.307427175192,0,0,0,29.8, -2.9, 2.1,0,1,1024,1024,1024,1024,30.2,0,99,4.296,4.296,4.294,4.294,0,0,2.542,78.71,10,Assisted_Takeoff,
0.305868328932309,36.8800463593985,5826.9184203853,0,0,0.305315954652,3800,2018-04-14 11:52:39,14,0,17.178,5826.9184203853,0,0,0.307427175192,0,0,0,29.8, -2.9, 2.1,0,1,1024,1024,1024,1024,30.2,0,99,4.296,4.296,4.294,4.294,0,0,2.542,78.71,10,Assisted_Takeoff,
0.30586832959305,36.8800463812632,5826.9184203853,0,0,0.313288067768,3900,2018-04-14 11:52:39,14,0,17.178,5826.9184203853,0,0,0.313288067768,0,0,0,29.8, -2.9, 2.1,0,1,1024,1024,1024,1024,30.2,0,99,4.296,4.296,4.294,4.294,0,0,2.542,78.71,10,Assisted_Takeoff,
0.305868349194732,36.88004639965,5826.9184203853,0,0,0.320591545692,4000,2018-04-14 11:52:39,14,0,17.178,5826.9184203853,0,0,0.320591545692,0,0,0,29.8, -3, 2,0,1,1024,1024,1024,1024,30.2,0,99,4.296,4.296,4.294,4.294,0,0,2.542,78.71,10,Assisted_Takeoff,
0.305868379911359,36.8800464100663,5826.9184203853,0,0,0.325639446116,4100,2018-04-14 11:52:39,14,0,17.178,5826.9184203853,0,0,0.325639446116,0,0,0,29.8, -2.9, 2.1,0,1,1024,1024,1024,1024,30.2,0,99,4.296,4.296,4.294,4.294,0,0,2.542,78.71,10,Assisted_Takeoff,
0.305868407623405,36.8800464159803,5826.9184203853,0,0,0.32923557484,4200,2018-04-14 11:52:39,14,0,17.178,5826.9184203853,0,0,0.32923557484,0,0,0,29.8, -2.9, 2.1,0,1,1024,1024,1024,1024,30.2,0,99,4.296,4.296,4.294,4.294,0,0,2.542,78.71,10,Assisted_Takeoff,
0.305868428557154,36.8800464176397,5826.9184203853,0,0,0.33113190036,4300,2018-04-14 11:52:39,14,0,17.178,5826.9184203853,0,0,0.33113190036,0,0,0,29.8, -2.9, 2.1,0,1,1024,1024,1024,1024,30.2,0,99,4.296,4.296,4.294,4.294,0,0,2.542,78.71,10,Assisted_Takeoff,
0.305868444548271,36.8800464151693,5826.9184203853,0,0,0.33135827832,4400,2018-04-14 11:52:39,14,0,17.178,5826.9184203853,0,0,0.33135827832,0,0,0,29.8, -2.9, 2.1,0,1,1024,1024,1024,1024,30.2,0,99,4.296,4.296,4.294,4.294,0,0,2.542,78.71,10,Assisted_Takeoff,
0.305868455431009,36.8800464129211,5826.9184203853,0,0,0.33136812084,4500,2018-04-14 11:52:39,14,0,17.178,5826.9184203853,0,0,0.33136812084,0,0,0,29.8, -2.8, 2.1,0,1,1024,1024,1024,1024,30.2,0,99,4.296,4.296,4.294,4.294,0,0,2.542,78.71,10,Assisted_Takeoff,
0.305868461837104,36.8800464074364,5826.9184203853,0,0,0.32991470872,4600,2018-04-14 11:52:39,14,0,17.151,5826.9184203853,0,0,0.33136812084,0,0,0,29.8, -2.9, 2.1,0,1,1024,1024,1024,1024,30.2,0,99,4.295,4.296,4.295,4.296,0,0,1.954,78.71,10,Assisted_Takeoff,
0.305868468841754,36.8800464035855,5826.9184203853,0,0,0.3291174646,4700,2018-04-14 11:52:40,14,0,17.151,5826.9184203853,0,0,0.33136812084,0,0,0,29.8, -2.9, 2.1,0,1,1024,1024,1024,1024,30.2,0,99,4.295,4.296,4.295,4.296,0,0,1.954,78.71,10,Assisted_Takeoff,
0.305868466003071,36.8800464176483,5826.9184203853,0,0,0.33388452512,4800,2018-04-14 11:52:40,14,0,17.151,5826.9184203853,0,0,0.33388452512,0,0,0,29.8, -2.8, 2.1,0,1,1024,1024,1024,1024,30.2,0,99,4.295,4.296,4.295,4.296,0,0,1.954,78.71,10,Assisted_Takeoff,
0.305868468471487,36.8800464433703,5826.9184203853,0,0,0.34323819996,4900,2018-04-14 11:52:40,14,0,17.151,5826.9184203853,0,0,0.34323819996,0,0,0,29.7, -2.9, 2.1,0,1,1024,1024,1066,1024,30.2,0,99,4.295,4.296,4.295,4.296,0,0,1.954,78.71,10,Assisted_Takeoff,
0.305868464937254,36.8800464697929,5826.9184203853,0,0,0.35238518188,5000,2018-04-14 11:52:40,14,0,17.151,5826.9184203853,0,0,0.35238518188,0,0,0,29.7, -2.9, 2.1,0,1,1024,1024,1154,1024,30.2,0,99,4.295,4.296,4.295,4.296,0,0,1.954,78.71,10,Assisted_Takeoff,
0.305868464437729,36.8800464847635,5826.9184203853,0,0,0.35769030016,5100,2018-04-14 11:52:40,14,0,17.151,5826.9184203853,0,0,0.35769030016,0,0,0,29.8, -2.8, 2.1,0,1,1024,1024,1234,1024,30.2,0,99,4.295,4.296,4.295,4.296,0,0,1.954,78.71,10,Assisted_Takeoff,
0.30586845571161,36.8800464967135,5826.9184203853,0,0,0.36132875172,5200,2018-04-14 11:52:40,14,0,17.151,5826.9184203853,0,0,0.36132875172,0,0,0,29.8, -2.6, 2.2,0,1,1024,1024,1291,1024,30.2,0,99,4.295,4.296,4.295,4.296,0,0,1.954,78.71,10,Assisted_Takeoff,
0.305868448363867,36.8800465035711,5826.9184203853,0,0,0.36327757068,5300,2018-04-14 11:52:40,14,0,17.151,5826.9184203853,0,0,0.36327757068,0,0,0,29.9, -2.3, 2.3,0,1,1024,1024,1329,1024,30.2,0,99,4.295,4.296,4.295,4.296,0,0,1.954,78.71,10,Assisted_Takeoff,
0.305868434693284,36.8800465070891,5826.9184203853,0,0,0.36365158644,5400,2018-04-14 11:52:40,14,0,17.151,5826.9184203853,0,0,0.36365158644,0,0,0,29.9, -2, 2.4,0,1,1024,1024,1311,1024,30.2,0,99,4.295,4.296,4.295,4.296,0,0,1.954,78.71,10,Assisted_Takeoff,
0.305868424035779,36.8800465081383,5826.9184203853,0,0,0.3633858384,5500,2018-04-14 11:52:40,14,0,17.151,5826.9184203853,0,0,0.36365158644,0,0,0,30.4, -0.8, 2.4,0,1,1024,1024,1298,1024,30.2,0,99,4.295,4.296,4.295,4.296,0,0,1.954,78.71,10,Assisted_Takeoff,
0.305868395176342,36.8800465209457,5826.9184203853,0,0,0.36647310884,5600,2018-04-14 11:52:41,14,0,17.151,5826.9184203853,0,0,0.36647310884,0,0,0,30.6, 2.3, 3.5,0,1,1024,1024,1298,1024,30.2,0,99,4.295,4.281,4.285,4.286,0,0,1.948,78.71,10,Assisted_Takeoff,
0.305868314492438,36.8800465653136,5826.9184203853,0,0,0.3799704846,5700,2018-04-14 11:52:41,14,0,17.151,5826.9184203853,0,0,0.3799704846,-0.223694,0,-0.223694,30.7, 5.3, 5.5,0,1,1024,1024,1304,1024,30.2,0,99,4.295,4.281,4.285,4.286,0,0,1.948,78.71,10,Assisted_Takeoff,Home Point Recorded. RTH Altitude:  30m.
0.305868040165119,36.880046672902,5826.9184203853,0,0.7158208,0.42666339948,5800,2018-04-14 11:52:41,14,0,17.151,5826.9184203853,0,0.7158208,0.42666339948,-0.671082,0.223694,-0.671082,30.3, 2.9, 2.8,0,1,1024,1024,1303,1024,30.2,0,99,4.295,4.281,4.285,4.286,0,0,1.948,78.71,6,P-GPS,
0.30586761644772,36.8800468226685,5826.9184203853,0,0.9171454,0.52909122428,5900,2018-04-14 11:52:41,14,0,17.151,5826.9184203853,0,0.9171454,0.52909122428,-0.894776,0.223694,-1.11847,30.2, 0.3, -0.6,0,1,1024,1024,1313,1024,30.2,0,99,4.295,4.281,4.285,4.286,0,0,1.948,78.71,6,P-GPS,
0.305867128211239,36.8800469667019,5827.2465043853,0.328084,0.9171454,0.66959319728,6000,2018-04-14 11:52:41,14,0,17.151,5827.2465043853,0.328084,0.9171454,0.66959319728,-0.894776,0.223694,-1.565858,30.3, 0, -2.8,0,1,1024,1024,1330,1024,30.2,0,99,4.295,4.281,4.285,4.286,0,0,1.948,78.71,6,P-GPS,
0.305866643351759,36.8800470476133,5827.5745883853,0.656168,0.894776,0.8112861152,6100,2018-04-14 11:52:41,14,0,17.151,5827.5745883853,0.656168,0.9171454,0.8112861152,-0.894776,0,-2.013246,30.3, -1.1, -3.1,0,1,1024,1024,1344,1024,30.2,0,99,4.295,4.281,4.285,4.286,0,0,1.948,78.71,6,P-GPS,
0.305866151532462,36.8800470395277,5827.5745883853,0.656168,0.894776,0.94832024032,6200,2018-04-14 11:52:41,14,0,17.151,5827.5745883853,0.656168,0.9171454,0.94832024032,-0.894776,0,-2.23694,30.3, -2.8, -3,0,1,1024,1024,1345,1024,30.2,0,99,4.295,4.281,4.285,4.286,0,0,1.948,78.71,6,P-GPS,
0.305865706923079,36.8800469715773,5828.2307563853,1.312336,0.671082,1.07186355136,6300,2018-04-14 11:52:41,14,0,17.151,5828.2307563853,1.312336,0.9171454,1.07186355136,-0.671082,0,-2.684328,30.3, -4.3, -3,0,1,1024,1024,1352,1024,30.2,0,99,4.295,4.281,4.285,4.286,0,0,1.948,78.71,6,P-GPS,
0.305865292692523,36.8800468500359,5828.5588403853,1.64042,0.671082,1.18696526108,6400,2018-04-14 11:52:41,14,0,17.151,5828.5588403853,1.64042,0.9171454,1.18696526108,-0.671082,0,-2.908022,30.3, -4.7, -2.7,0,1,1024,1024,1358,1024,30.2,0,99,4.295,4.281,4.285,4.286,0,0,1.948,78.71,6,P-GPS,
0.305864934405938,36.8800467128126,5828.8869243853,1.968504,0.671082,1.28976710164,6500,2018-04-14 11:52:41,14,0,17.151,5828.8869243853,1.968504,0.9171454,1.28976710164,-0.671082,0,-3.35541,30.3, -4.4, -1.9,0,1,1024,1024,1360,1024,30.2,0,99,4.295,4.281,4.285,4.286,0,0,1.948,78.71,6,P-GPS,
0.305864621785809,36.8800465523515,5829.5430923853,2.624672,0.671082,1.38069558224,6600,2018-04-14 11:52:42,14,0,16.828,5829.5430923853,2.624672,0.9171454,1.38069558224,-0.671082,0,-3.802798,30.3, -4.4, -1.2,0,1,1024,1024,1372,1024,30.2,0,99,4.295,4.281,4.285,4.286,0,0,1.948,78.71,6,P-GPS,
0.305864342923935,36.8800464095493,5830.1992603853,3.28084,0.671082,1.46653876084,6700,2018-04-14 11:52:42,14,0,16.828,5830.1992603853,3.28084,0.9171454,1.46653876084,-0.671082,0,-4.026492,30.3, -4.8, -1.5,0,1,1024,1024,1387,1024,30.2,0,99,4.295,4.281,4.285,4.286,0,0,1.948,78.71,6,P-GPS,
0.305864102047552,36.88004627932,5830.8554283853,3.937008,0.447388,1.54321199164,6800,2018-04-14 11:52:42,14,0,16.828,5830.8554283853,3.937008,0.9171454,1.54321199164,-0.447388,0,-4.250186,30.3, -4.3, -1.1,0,1,1024,1024,1406,1024,30.2,0,99,4.295,4.281,4.285,4.286,0,0,1.948,78.71,6,P-GPS,
0.305863880525837,36.8800461679487,5831.5115963853,4.593176,0.4921268,1.61640753204,6900,2018-04-14 11:52:42,14,0,16.828,5831.5115963853,4.593176,0.9171454,1.61640753204,-0.447388,-0.223694,-4.47388,30.4, -4.1, -0.5,0,1,1024,1024,1414,1024,30.2,0,99,4.295,4.281,4.285,4.286,0,0,1.948,78.71,6,P-GPS,
0.305863649061657,36.8800460729055,5832.1677643853,5.249344,0.447388,1.6955709204,7000,2018-04-14 11:52:42,14,0,16.828,5832.1677643853,5.249344,0.9171454,1.6955709204,-0.447388,0,-4.47388,30.4, -4.3, -1,0,1,1024,1024,1419,1024,30.2,0,99,4.295,4.281,4.285,4.286,0,0,1.948,78.71,6,P-GPS,
0.305863401383467,36.8800459806279,5832.8239323853,5.905512,0.447388,1.78188325912,7100,2018-04-14 11:52:42,14,0,16.828,5832.8239323853,5.905512,0.9171454,1.78188325912,-0.447388,0,-4.697574,30.5, -4.6, -1.5,0,1,1024,1024,1419,1024,30.2,0,99,4.295,4.281,4.285,4.286,0,0,1.948,78.71,6,P-GPS,
0.30586314001617,36.8800458254376,5833.4801003853,6.56168,0.4921268,1.87268378696,7200,2018-04-14 11:52:42,14,0,16.828,5833.4801003853,6.56168,0.9171454,1.87268378696,-0.447388,-0.223694,-4.921268,30.4, -4.9, -1,0,1,1024,1024,1434,1024,30.2,0,99,4.295,4.281,4.285,4.286,0,0,1.948,78.71,6,P-GPS,
0.305862874532167,36.8800456190686,5834.1362683853,7.217848,0.4921268,1.96663720204,7300,2018-04-14 11:52:42,14,0,16.828,5834.1362683853,7.217848,0.9171454,1.96663720204,-0.447388,-0.223694,-4.921268,30.5, -5.5, -1.1,0,1,1024,1024,1452,1024,30.2,0,99,4.295,4.281,4.285,4.286,0,0,1.948,78.71,6,P-GPS,
0.305862629954942,36.8800454072069,5835.1205203853,8.2021,0.4921268,2.056020407,7400,2018-04-14 11:52:42,14,0,16.828,5835.1205203853,8.2021,0.9171454,2.056020407,-0.447388,-0.223694,-5.144962,30.5, -5.6, -0.7,0,1,1024,1024,1463,1024,30.2,0,99,4.295,4.281,4.285,4.286,0,0,1.948,78.71,6,P-GPS,
0.305862447893274,36.8800452267464,5835.7766883853,8.858268,0.3131716,2.1247868134,7500,2018-04-14 11:52:42,14,0,16.828,5835.7766883853,8.858268,0.9171454,2.1247868134,-0.223694,-0.223694,-5.368656,30.5, -5.5, -0.3,0,1,1024,1024,1458,1024,30.2,0,99,4.295,4.281,4.285,4.286,0,0,1.948,78.71,6,P-GPS,
0.305862297550846,36.880045054569,5836.7609403853,9.84252,0.3131716,2.18360571292,7600,2018-04-14 11:52:42,14,0,16.694,5836.7609403853,9.84252,0.9171454,2.18360571292,-0.223694,-0.223694,-5.59235,30.6, -5.2, 0.3,0,1,1024,1024,1458,1024,30.2,0,99,4.189,4.195,4.184,4.189,0,0,15.54,78.71,6,P-GPS,
0.305862178075167,36.8800449064759,5837.4171083853,10.498688,0.223694,2.23187999268,7700,2018-04-14 11:52:43,14,0,16.694,5837.4171083853,10.498688,0.9171454,2.23187999268,-0.223694,0,-5.816044,30.5, -5.2, 0.4,0,1,1024,1024,1475,1024,30.2,0,99,4.189,4.195,4.184,4.189,0,0,15.54,78.71,6,P-GPS,
0.305862059882702,36.8800447869984,5838.4013603853,11.48294,0.223694,2.27952435116,7800,2018-04-14 11:52:43,14,0,16.694,5838.4013603853,11.48294,0.9171454,2.27952435116,-0.223694,0,-6.039738,30.5, -5.2, 0.4,0,1,1024,1024,1509,1024,30.2,-0.1,99,4.189,4.195,4.184,4.189,0,0,15.54,78.71,6,P-GPS,
0.305861954449909,36.8800446925336,5839.3856123853,12.467192,0.223694,2.3219817016,7900,2018-04-14 11:52:43,14,0,16.694,5839.3856123853,12.467192,0.9171454,2.3219817016,-0.223694,0,-6.263432,30.4, -4.8, 0.4,0,1,1024,1024,1542,1024,30.2,-0.3,99,4.189,4.195,4.184,4.189,0,0,15.54,78.71,6,P-GPS,
0.305861841566986,36.8800446595401,5840.3698643853,13.451444,0.223694,2.36439640112,8000,2018-04-14 11:52:43,14,0,16.694,5840.3698643853,13.451444,0.9171454,2.36439640112,-0.223694,0,-6.487126,30.4, -4.3, -0.3,0,1,1024,1024,1549,1024,30.2,-0.5,99,4.189,4.195,4.184,4.189,0,0,15.54,78.71,6,P-GPS,
0.305861726135954,36.88004465475,5841.3541163853,14.435696,0.223694,2.40637146808,8100,2018-04-14 11:52:43,14,0,16.694,5841.3541163853,14.435696,0.9171454,2.40637146808,-0.223694,0,-6.934514,30.4, -4.7, -0.9,0,1,1024,1024,1566,1024,30.2,-0.5,99,4.189,4.195,4.184,4.189,0,0,15.54,78.71,6,P-GPS,
0.305861585571111,36.8800446722499,5842.3383683853,15.419948,0.223694,2.45640099724,8200,2018-04-14 11:52:43,14,0,16.694,5842.3383683853,15.419948,0.9171454,2.45640099724,-0.223694,0,-7.381902,30.4, -5.4, -1.5,0,1,1024,1024,1572,1024,30.2,-0.5,99,4.189,4.195,4.184,4.189,0,0,15.54,78.71,6,P-GPS,
0.305861452073715,36.8800446690943,5843.3226203853,16.4042,0.223694,2.50486556572,8300,2018-04-14 11:52:43,14,0,16.694,5843.3226203853,16.4042,0.9171454,2.50486556572,-0.223694,0,-7.82929,30.4, -5.7, -2,0,1,1024,1024,1569,1024,30.2,-0.5,99,4.189,4.195,4.184,4.189,0,0,15.54,78.71,6,P-GPS,
0.305861330631283,36.8800446512821,5844.6349563853,17.716536,0,2.5496391892,8400,2018-04-14 11:52:43,14,0,16.694,5844.6349563853,17.716536,0.9171454,2.5496391892,0,0,-8.052984,30.5, -6.1, -1.3,0,1,1024,1024,1566,1024,30.2,-0.5,99,4.189,4.195,4.184,4.189,0,0,15.54,78.71,6,P-GPS,
0.305861241880271,36.880044607632,5845.9472923853,19.028872,0,2.58378289108,8500,2018-04-14 11:52:43,14,0,16.694,5845.9472923853,19.028872,0.9171454,2.58378289108,0,0,-8.276678,30.5, -6.2, -0.4,0,1,1024,1024,1570,1024,30.2,-0.5,99,4.189,4.195,4.184,4.189,0,0,15.54,78.71,6,P-GPS,
0.305861159740334,36.8800445822976,5846.9315443853,20.013124,0,2.61470152724,8600,2018-04-14 11:52:44,14,0,16.586,5846.9315443853,20.013124,0.9171454,2.61470152724,0,0,-8.276678,30.5, -5.9, -0.8,0,1,1024,1024,1572,1024,30.2,-0.5,99,4.167,4.178,4.169,4.167,0,0,16.626,78.71,6,P-GPS,
0.305861096837614,36.8800445632545,5848.2438803853,21.32546,0,2.638369507,8700,2018-04-14 11:52:44,14,0,16.586,5848.2438803853,21.32546,0.9171454,2.638369507,0,0,-8.500372,30.5, -5.9, -1.2,0,1,1024,1024,1582,1024,30.2,-0.5,99,4.167,4.178,4.169,4.167,0,0,16.626,78.71,6,P-GPS,
0.305861026401304,36.8800445699644,5849.5562163853,22.637796,0,2.66352042644,8800,2018-04-14 11:52:44,14,0,16.586,5849.5562163853,22.637796,0.9171454,2.66352042644,0,0,-8.500372,30.4, -6, -2.1,0,1,1024,1024,1585,1024,30.2,-0.5,99,4.167,4.178,4.169,4.167,0,0,16.626,78.71,6,P-GPS,
0.305860983916829,36.8800445758326,5850.8685523853,23.950132,0,2.6786090096,8900,2018-04-14 11:52:44,14,0,16.586,5850.8685523853,23.950132,0.9171454,2.6786090096,0,0,-8.500372,30.5, -5.4, -2.4,0,1,1024,1024,1590,1024,30.2,-0.5,99,4.167,4.178,4.169,4.167,0,0,16.626,78.71,6,P-GPS,
0.305860951398023,36.8800445352583,5852.1808883853,25.262468,0,2.6923229208,9000,2018-04-14 11:52:44,14,0,16.586,5852.1808883853,25.262468,0.9171454,2.6923229208,0,0,-8.724066,30.5, -5, -1.2,0,1,1024,1024,1591,1024,30.2,-0.5,99,4.167,4.178,4.169,4.167,0,0,16.626,78.71,6,P-GPS,
0.305860924118737,36.8800444483467,5853.4932243853,26.574804,0,2.70660441732,9100,2018-04-14 11:52:44,14,0,16.586,5853.4932243853,26.574804,0.9171454,2.70660441732,0,0,-8.724066,30.5, -5.5, -0.1,0,1,1024,1024,1609,1024,30.2,-0.5,99,4.167,4.178,4.169,4.167,0,0,16.626,78.71,6,P-GPS,
0.305860847706852,36.880044336874,5854.8055603853,27.88714,0,2.74033145252,9200,2018-04-14 11:52:44,14,0,16.586,5854.8055603853,27.88714,0.9171454,2.74033145252,0,0,-8.724066,30.5, -6.2, 0.1,0,1,1024,1024,1613,1024,30.2,-0.5,99,4.167,4.178,4.169,4.167,0,0,16.626,78.71,6,P-GPS,
0.305860773449806,36.8800442320325,5856.1178963853,29.199476,0,2.77333342208,9300,2018-04-14 11:52:44,14,0,16.586,5856.1178963853,29.199476,0.9171454,2.77333342208,0,0,-8.94776,30.5, -6, 0,0,1,1024,1024,1612,1024,30.2,-0.5,99,4.167,4.178,4.169,4.167,0,0,16.626,78.71,6,P-GPS,
0.30586067994048,36.8800441730539,5857.4302323853,30.511812,0,2.81065625792,9400,2018-04-14 11:52:44,14,0,16.586,5857.4302323853,30.511812,0.9171454,2.81065625792,0,0,-9.171454,30.5, -5.8, -0.4,0,1,1024,1024,1619,1024,30.2,-0.5,99,4.167,4.178,4.169,4.167,0,0,16.626,78.71,6,P-GPS,
0.305860609182146,36.8800441518592,5858.7425683853,31.824148,0,2.83743119316,9500,2018-04-14 11:52:44,14,0,16.586,5858.7425683853,31.824148,0.9171454,2.83743119316,0,0,-9.171454,30.5, -6.3, -0.7,0,1,1024,1024,1620,1024,30.2,-0.5,99,4.167,4.178,4.169,4.167,0,0,16.626,78.71,6,P-GPS,
0.3058605480585,36.8800441424929,5860.0549043853,33.136484,0,2.85998696816,9600,2018-04-14 11:52:44,13,0,16.613,5860.0549043853,33.136484,0.9171454,2.85998696816,0,0,-9.171454,30.5, -6.5, -0.8,0,1,1024,1024,1614,1024,30.2,-1,99,4.167,4.178,4.169,4.167,0,0,16.072,78.71,6,P-GPS,
0.305860536808395,36.8800441310499,5861.3672403853,34.44882,0,2.8647638712,9700,2018-04-14 11:52:45,13,0,16.613,5861.3672403853,34.44882,0.9171454,2.8647638712,0,0,-9.395148,30.5, -6.4, -0.8,0,1,1024,1024,1615,1024,30.2,-2,99,4.167,4.178,4.169,4.167,0,0,16.072,78.71,6,P-GPS,
0.305860545216866,36.8800441435672,5863.0076603853,36.08924,0,2.86093841176,9800,2018-04-14 11:52:45,14,0,16.613,5863.0076603853,36.08924,0.9171454,2.8647638712,0,0,-9.395148,30.5, -5.9, -0.8,0,1,1024,1024,1621,1024,30.2,-3.3,99,4.167,4.178,4.169,4.167,0,0,16.072,78.71,6,P-GPS,
0.305860569997712,36.8800441557294,5864.3199963853,37.401576,0,2.85125665292,9900,2018-04-14 11:52:45,14,0,16.613,5864.3199963853,37.401576,0.9171454,2.8647638712,0,0,-9.395148,30.6, -5.8, -0.8,0,1,1024,1024,1624,1024,30.2,-4.6,99,4.167,4.178,4.169,4.167,0,0,16.072,78.71,6,P-GPS,
0.305860605083352,36.8800441934915,5865.6323323853,38.713912,0,2.83626321412,10000,2018-04-14 11:52:45,14,0,16.613,5865.6323323853,38.713912,0.9171454,2.8647638712,0,0,-9.395148,30.6, -5.9, -1.2,0,1,1024,1024,1625,1024,30.2,-6,99,4.167,4.178,4.169,4.167,0,0,16.072,78.71,6,P-GPS,
0.305860646159224,36.8800442211593,5866.9446683853,40.026248,0,2.81977699312,10100,2018-04-14 11:52:45,14,0,16.613,5866.9446683853,40.026248,0.9171454,2.8647638712,0,0,-9.395148,30.6, -6.1, -1.2,0,1,1024,1024,1625,1024,30.2,-7.5,99,4.167,4.178,4.169,4.167,0,0,16.072,78.71,6,P-GPS,
0.305860683630534,36.8800442286382,5868.5850883853,41.666668,0,2.80584326564,10200,2018-04-14 11:52:45,14,0,16.613,5868.5850883853,41.666668,0.9171454,2.8647638712,0,0,-9.618842,30.6, -6.4, -1,0,1,1024,1024,1629,1024,30.2,-8.9,99,4.167,4.178,4.169,4.167,0,0,16.072,78.71,6,P-GPS,
0.305860710957453,36.880044198963,5869.8974243853,42.979004,0,2.7978675436,10300,2018-04-14 11:52:45,14,0,16.613,5869.8974243853,42.979004,0.9171454,2.8647638712,0,0,-9.618842,30.6, -6.6, -1,0,1,1024,1024,1629,1024,30.2,-10.8,99,4.167,4.178,4.169,4.167,0,0,16.072,78.71,6,P-GPS,
0.305860752908613,36.8800441768743,5871.2097603853,44.29134,0,2.78420612584,10400,2018-04-14 11:52:45,14,0,16.613,5871.2097603853,44.29134,0.9171454,2.8647638712,0,0,-9.618842,30.6, -6.7, -0.9,0,1,1024,1024,1629,1024,30.2,-12.7,99,4.167,4.178,4.169,4.167,0,0,16.072,78.71,6,P-GPS,
0.305860811271639,36.8800441543871,5872.8501803853,45.93176,0,2.76472121708,10500,2018-04-14 11:52:45,14,0,16.613,5872.8501803853,45.93176,0.9171454,2.8647638712,0,0,-9.842536,30.6, -6.8, -0.6,0,1,1024,1024,1630,1024,30.2,-12.7,99,4.167,4.178,4.169,4.167,0,0,16.072,78.71,6,P-GPS,
0.305860865453227,36.8800441282104,5874.1625163853,47.244096,0,2.74703748948,10600,2018-04-14 11:52:46,14,0,16.532,5874.1625163853,47.244096,0.9171454,2.8647638712,0,0,-9.842536,30.6, -6.6, -0.5,0,1,1024,1024,1638,1024,30.2,-15.4,99,4.15,4.168,4.161,4.166,0,0,16.072,78.71,6,P-GPS,
0.305860913938519,36.8800440935875,5875.8029363853,48.884516,0,2.73204405068,10700,2018-04-14 11:52:46,14,0,16.532,5875.8029363853,48.884516,0.9171454,2.8647638712,0,0,-9.618842,30.6, -6.5, -0.6,0,1,1024,1024,1646,1024,30.2,-15.4,99,4.15,4.168,4.161,4.166,0,0,16.072,78.71,6,P-GPS,
0.305860949090518,36.8800440537854,5877.1152723853,50.196852,0,2.72228027084,10800,2018-04-14 11:52:46,14,0,16.532,5877.1152723853,50.196852,0.9171454,2.8647638712,0,0,-9.618842,30.5, -6.5, -0.6,0,1,1024,1024,1645,1024,30.2,-16.6,99,4.15,4.168,4.161,4.166,0,0,16.072,78.71,6,P-GPS,
0.305860992172633,36.8800440157581,5878.7556923853,51.837272,0,2.70965887936,10900,2018-04-14 11:52:46,14,0,16.532,5878.7556923853,51.837272,0.9171454,2.8647638712,0,0,-9.842536,30.5, -6.2, -0.6,0,1,1024,1024,1644,1024,30.2,-16.9,99,4.15,4.168,4.161,4.166,0,0,16.072,78.71,6,P-GPS,
0.305861058212958,36.8800439923534,5880.0680283853,53.149608,0,2.68783473168,11000,2018-04-14 11:52:46,14,0,16.532,5880.0680283853,53.149608,0.9171454,2.8647638712,0,0,-10.06623,30.5, -6, -0.5,0,1,1024,1024,1644,1024,30.2,-16.9,99,4.15,4.168,4.161,4.166,0,0,16.072,78.71,6,P-GPS,
0.30586115379977,36.8800439772345,5881.7084483853,54.790028,0,2.65490165976,11100,2018-04-14 11:52:46,14,0,16.532,5881.7084483853,54.790028,0.9171454,2.8647638712,0,0,-10.06623,30.5, -6.1, 0.1,0,1,1024,1024,1648,1024,30.2,-16.9,99,4.15,4.168,4.161,4.166,0,0,16.072,78.71,6,P-GPS,
0.305861234951649,36.8800439596535,5883.3488683853,56.430448,0,2.62736556964,11200,2018-04-14 11:52:46,14,0,16.532,5883.3488683853,56.430448,0.9171454,2.8647638712,0,0,-10.06623,30.5, -6.4, 0.5,0,1,1024,1024,1648,1024,30.2,-16.9,99,4.15,4.168,4.161,4.166,0,0,16.072,78.71,6,P-GPS,
0.305861303072718,36.8800439597253,5884.6612043853,57.742784,0,2.60310703868,11300,2018-04-14 11:52:46,14,0,16.532,5884.6612043853,57.742784,0.9171454,2.8647638712,0,0,-9.842536,30.5, -6.1, -0.1,0,1,1024,1024,1645,1024,30.3,-16.9,99,4.15,4.168,4.161,4.166,0,0,16.072,78.71,6,P-GPS,
0.305861355604286,36.8800439823035,5886.3016243853,59.383204,0,2.58260178868,11400,2018-04-14 11:52:46,14,0,16.532,5886.3016243853,59.383204,0.9171454,2.8647638712,0,0,-10.289924,30.6, -5.9, -0.3,0,1,1024,1024,1647,1024,30.3,-16.9,99,4.15,4.168,4.161,4.166,0,0,16.072,78.71,6,P-GPS,
0.305861409540793,36.8800440155664,5887.9420443853,61.023624,0,2.5607612368,11500,2018-04-14 11:52:46,14,0,16.532,5887.9420443853,61.023624,0.9171454,2.8647638712,0,0,-10.289924,30.6, -5.9, -0.4,0,1,1024,1024,1656,1024,30.3,-16.9,99,4.15,4.168,4.161,4.166,0,0,16.072,78.71,6,P-GPS,
0.305861472371862,36.880044061203,5889.5824643853,62.664044,0,2.53481963492,11600,2018-04-14 11:52:46,14,0,16.478,5889.5824643853,62.664044,0.9171454,2.8647638712,0,0,-10.289924,30.6, -5.3, -0.7,0,1,1024,1024,1661,1024,30.3,-16.9,99,4.155,4.162,4.153,4.16,0,0,15.996,78.71,6,P-GPS,
0.305861552010509,36.8800440999037,5891.2228843853,64.304464,0,2.50345152368,11700,2018-04-14 11:52:47,14,0,16.478,5891.2228843853,64.304464,0.9171454,2.8647638712,0,0,-10.513618,30.6, -5.5, -0.3,0,1,1024,1024,1661,1024,30.3,-16.9,99,4.155,4.162,4.153,4.16,0,0,15.996,78.71,6,P-GPS,
0.30586159053868,36.8800441379718,5892.8633043853,65.944884,0,2.48684063076,11800,2018-04-14 11:52:47,14,0,16.478,5892.8633043853,65.944884,0.9171454,2.8647638712,0,0,-10.513618,30.6, -5.2, -0.6,0,1,1024,1024,1666,1024,30.3,-16.9,99,4.155,4.162,4.153,4.16,0,0,15.996,78.71,6,P-GPS,
0.305861603767752,36.8800441792556,5894.5037243853,67.585304,0,2.47908800584,11900,2018-04-14 11:52:47,14,0,16.478,5894.5037243853,67.585304,0.9171454,2.8647638712,0,0,-10.737312,30.6, -5.2, -1.3,0,1,1024,1024,1665,1024,30.3,-16.9,99,4.155,4.162,4.153,4.16,0,0,15.996,78.71,6,P-GPS,
0.305861618886633,36.8800441890063,5896.1441443853,69.225724,0,2.47297580092,12000,2018-04-14 11:52:47,14,0,16.478,5896.1441443853,69.225724,0.9171454,2.8647638712,0,0,-10.737312,30.6, -5.2, -1.7,0,1,1024,1024,1666,1024,30.3,-16.9,99,4.155,4.162,4.153,4.16,0,0,15.996,78.71,6,P-GPS,
0.305861668493515,36.8800441696489,5897.7845643853,70.866144,0,2.45664706024,12100,2018-04-14 11:52:47,14,0,16.478,5897.7845643853,70.866144,0.9171454,2.8647638712,0,0,-10.513618,30.6, -5.7, -1.1,0,1,1024,1024,1669,1024,30.3,-16.9,99,4.155,4.162,4.153,4.16,0,0,15.996,78.71,6,P-GPS,
0.305861731502085,36.8800441279537,5899.4249843853,72.506564,0,2.4372704192,12200,2018-04-14 11:52:47,14,0,16.478,5899.4249843853,72.506564,0.9171454,2.8647638712,0,0,-10.737312,30.6, -6.1, -0.2,0,1,1024,1024,1669,1024,30.3,-16.9,99,4.155,4.162,4.153,4.16,0,0,15.996,78.71,6,P-GPS,
0.305861812482569,36.8800441099183,5901.0654043853,74.146984,0,2.40978682252,12300,2018-04-14 11:52:47,14,0,16.478,5901.0654043853,74.146984,0.9171454,2.8647638712,0,0,-10.737312,30.5, -5.5, 0.6,0,1,1024,1024,1669,1024,30.3,-16.9,99,4.155,4.162,4.153,4.16,0,0,15.996,78.71,6,P-GPS,
0.305861884406055,36.8800441046114,5902.7058243853,75.787404,0,2.38458340964,12400,2018-04-14 11:52:47,14,0,16.478,5902.7058243853,75.787404,0.9171454,2.8647638712,0,0,-10.961006,30.5, -5, 0.9,0,1,1024,1024,1684,1024,30.3,-16.9,99,4.155,4.162,4.153,4.16,0,0,15.996,78.71,6,P-GPS,
0.305861949053653,36.8800441365147,5906.3147483853,79.396328,0,2.3590387894,12600,2018-04-14 11:52:48,14,0,16.505,5906.3147483853,79.396328,0.9171454,2.8647638712,0,0,-10.961006,30.5, -5.8, 0,0,1,1024,1024,1682,1024,30.3,-16.9,99,4.141,4.149,4.137,4.143,0,0,17.14,78.71,6,P-GPS,
0.305861972954733,36.8800441680069,5907.9551683853,81.036748,0,2.34807094128,12700,2018-04-14 11:52:48,14,0,16.505,5907.9551683853,81.036748,0.9171454,2.8647638712,0,0,-10.737312,30.6, -5.4, 0.1,0,1,1024,1024,1682,1024,30.3,-16.9,99,4.141,4.149,4.137,4.143,0,0,17.14,78.71,6,P-GPS,
0.305861998346653,36.880044196142,5909.5955883853,82.677168,0,2.33686687268,12800,2018-04-14 11:52:48,14,0,16.505,5909.5955883853,82.677168,0.9171454,2.8647638712,0,0,-10.737312,30.6, -5.3, 0,0,1,1024,1024,1684,1024,30.3,-16.9,99,4.141,4.149,4.137,4.143,0,0,17.14,78.71,6,P-GPS,
0.305862019435817,36.880044221534,5911.2360083853,84.317588,0,2.327427896,12900,2018-04-14 11:52:48,14,0,16.505,5911.2360083853,84.317588,0.9171454,2.8647638712,0,0,-10.961006,30.6, -5.9, 0,0,1,1024,1024,1684,1024,30.3,-16.9,99,4.141,4.149,4.137,4.143,0,0,17.14,78.71,6,P-GPS,
0.305862023276909,36.8800442373006,5913.2045123853,86.286092,0,2.32488852584,13000,2018-04-14 11:52:48,14,0,16.505,5913.2045123853,86.286092,0.9171454,2.8647638712,0,0,-11.1847,30.5, -6.1, -0.3,0,1,1024,1024,1684,1024,30.3,-16.9,99,4.141,4.149,4.137,4.143,0,0,17.14,78.71,6,P-GPS,
0.305862033922862,36.8800442562123,5914.8449323853,87.926512,0,2.31969495612,13100,2018-04-14 11:52:48,14,0,16.505,5914.8449323853,87.926512,0.9171454,2.8647638712,0,0,-10.961006,30.6, -6, -0.4,0,1,1024,1024,1684,1024,30.3,-16.9,99,4.141,4.149,4.137,4.143,0,0,17.14,78.71,6,P-GPS,
0.305862025950814,36.8800442591767,5916.4853523853,89.566932,0,2.32233275148,13200,2018-04-14 11:52:48,14,0,16.505,5916.4853523853,89.566932,0.9171454,2.8647638712,0,0,-11.1847,30.6, -5.9, -0.2,0,1,1024,1024,1684,1024,30.3,-16.9,99,4.141,4.149,4.137,4.143,0,0,17.14,78.71,6,P-GPS,
0.305862024409085,36.8800442677409,5918.4538563853,91.535436,0,2.32226385384,13300,2018-04-14 11:52:48,14,0,16.505,5918.4538563853,91.535436,0.9171454,2.8647638712,0,0,-11.1847,30.6, -5.7, 0,0,1,1024,1024,1684,1024,30.3,-16.9,99,4.141,4.149,4.137,4.143,0,0,17.14,78.71,6,P-GPS,
0.305862008337157,36.8800442642709,5920.0942763853,93.175856,0,2.32826122936,13400,2018-04-14 11:52:48,14,0,16.505,5920.0942763853,93.175856,0.9171454,2.8647638712,0,0,-10.961006,30.6, -5.7, 0,0,1,1024,1024,1684,1024,30.3,-16.9,99,4.141,4.149,4.137,4.143,0,0,17.14,78.71,6,P-GPS,
0.30586200741505,36.8800442734704,5921.7346963853,94.816276,0,2.32792986452,13500,2018-04-14 11:52:48,14,0,16.505,5921.7346963853,94.816276,0.9171454,2.8647638712,0,0,-10.961006,30.6, -5.4, 0,0,1,1024,1024,1684,1024,30.3,-16.9,99,4.141,4.149,4.137,4.143,0,0,17.14,78.71,6,P-GPS,
0.305861977803018,36.8800442873873,5923.7032003853,96.78478,0,2.33753944488,13600,2018-04-14 11:52:48,14,0,16.371,5923.7032003853,96.78478,0.9171454,2.8647638712,0,0,-10.961006,30.6, -5.3, -0.1,0,1,1024,1024,1684,1024,30.3,-16.9,99,4.141,4.149,4.137,4.143,0,0,17.14,78.71,6,P-GPS,
0.305861947855118,36.8800443201302,5925.3436203853,98.4252,0,2.34599416956,13700,2018-04-14 11:52:49,14,0,16.371,5925.3436203853,98.4252,0.9171454,2.8647638712,0,0,-10.737312,30.6, -5.9, -0.4,0,1,1024,1024,1684,1024,30.3,-16.9,99,4.141,4.149,4.137,4.143,0,0,17.14,78.71,6,P-GPS,
0.305861908656029,36.8800443562843,5926.9840403853,100.06562,0,2.35762146652,13800,2018-04-14 11:52:49,14,0,16.371,5926.9840403853,100.06562,0.9171454,2.8647638712,0,0,-10.737312,30.6, -6, -0.4,0,1,1024,1024,1684,1024,30.3,-16.9,99,4.141,4.149,4.137,4.143,0,0,17.14,78.71,6,P-GPS,
0.305861896088919,36.880044402271,5928.6244603853,101.70604,0,2.35916018048,13900,2018-04-14 11:52:49,14,0,16.371,5928.6244603853,101.70604,0.9171454,2.8647638712,0,0,-10.961006,30.6, -6, -0.1,0,1,1024,1024,1684,1024,30.3,-16.9,99,4.141,4.149,4.137,4.143,0,0,17.14,78.71,6,P-GPS,
0.305861888602555,36.8800444445911,5930.2648803853,103.34646,0,2.35922251644,14000,2018-04-14 11:52:49,14,0,16.371,5930.2648803853,103.34646,0.9171454,2.8647638712,0,0,-10.737312,30.7, -5.8, -0.4,0,1,1024,1024,1684,1024,30.3,-16.9,99,4.141,4.149,4.137,4.143,0,0,17.14,78.71,6,P-GPS,
0.305861901961903,36.8800444863264,5931.9053003853,104.98688,0,2.35191280492,14100,2018-04-14 11:52:49,14,0,16.371,5931.9053003853,104.98688,0.9171454,2.8647638712,0,0,-10.961006,30.6, -5.1, 0,0,1,1024,1024,1684,1024,30.3,-16.9,99,4.141,4.149,4.137,4.143,0,0,17.14,78.71,6,P-GPS,
0.305861877638242,36.8800445367033,5933.8738043853,106.955384,0,2.3577920702,14200,2018-04-14 11:52:49,14,0,16.371,5933.8738043853,106.955384,0.9171454,2.8647638712,0,0,-11.1847,30.5, -4.8, -0.4,0,1,1024,1024,1684,1024,30.3,-16.9,99,4.141,4.149,4.137,4.143,0,0,17.14,78.71,6,P-GPS,
0.305861819683955,36.8800445991696,5935.5142243853,108.595804,0,2.37534128336,14300,2018-04-14 11:52:49,14,0,16.371,5935.5142243853,108.595804,0.9171454,2.8647638712,0,0,-11.1847,30.6, -5.6, -0.8,0,1,1024,1024,1684,1024,30.3,-16.9,99,4.141,4.149,4.137,4.143,0,0,17.14,78.71,6,P-GPS,
0.305861720391618,36.8800446750607,5937.1546443853,110.236224,0,2.40748367284,14400,2018-04-14 11:52:49,14,0,16.371,5937.1546443853,110.236224,0.9171454,2.8647638712,0,0,-11.1847,30.6, -6.3, -1.2,0,1,1024,1024,1684,1024,30.3,-16.9,99,4.141,4.149,4.137,4.143,0,0,17.14,78.71,6,P-GPS,
0.305861634301891,36.8800447652863,5939.1231483853,112.204728,0,2.43466543224,14500,2018-04-14 11:52:49,14,0,16.371,5939.1231483853,112.204728,0.9171454,2.8647638712,0,0,-11.1847,30.6, -6.3, -1.8,0,1,1024,1024,1684,1024,30.3,-16.9,99,4.141,4.149,4.137,4.143,0,0,17.14,78.71,6,P-GPS,
0.305861555341898,36.8800448329535,5940.7635683853,113.845148,0,2.46063328084,14600,2018-04-14 11:52:50,14,0,16.451,5940.7635683853,113.845148,0.9171454,2.8647638712,0,0,-11.1847,30.6, -6.1, -1.7,0,1,1024,1024,1684,1024,30.3,-16.9,99,4.136,4.143,4.129,4.132,0,0,17.588,78.71,6,P-GPS,
0.305861515607458,36.8800448608346,5942.4039883853,115.485568,0,2.47403879308,14700,2018-04-14 11:52:50,14,0,16.451,5942.4039883853,115.485568,0.9171454,2.8647638712,0,0,-11.1847,30.6, -6, -0.9,0,1,1024,1024,1684,1024,30.3,-16.9,99,4.136,4.143,4.129,4.132,0,0,17.588,78.71,6,P-GPS,
0.305861452088778,36.8800448616466,5944.3724923853,117.454072,0,2.49707357072,14800,2018-04-14 11:52:50,14,0,16.451,5944.3724923853,117.454072,0.9171454,2.8647638712,0,0,-11.408394,30.5, -6.3, -0.5,0,1,1024,1024,1684,1024,30.3,-16.9,99,4.136,4.143,4.129,4.132,0,0,17.588,78.71,6,P-GPS,
0.305861393933379,36.880044859734,5946.0129123853,119.094492,0,2.51826123544,14900,2018-04-14 11:52:50,14,0,16.451,5946.0129123853,119.094492,0.9171454,2.8647638712,0,0,-11.1847,30.5, -6.5, -0.6,0,1,1024,1024,1684,1024,30.3,-16.9,99,4.136,4.143,4.129,4.132,0,0,17.588,78.71,6,P-GPS,
0.305861329619205,36.8800448444106,5947.6533323853,120.734912,0,2.54215559316,15000,2018-04-14 11:52:50,14,0,16.451,5947.6533323853,120.734912,0.9171454,2.8647638712,0,0,-10.961006,30.6, -6.6, -0.4,0,1,1024,1024,1684,1024,30.3,-16.9,99,4.136,4.143,4.129,4.132,0,0,17.588,78.71,6,P-GPS,
0.305861295819628,36.8800448299486,5949.2937523853,122.375332,0,2.55494758832,15100,2018-04-14 11:52:50,14,0,16.451,5949.2937523853,122.375332,0.9171454,2.8647638712,0,0,-10.961006,30.5, -6.6, 0,0,1,1024,1024,1684,1024,30.3,-16.9,99,4.136,4.143,4.129,4.132,0,0,17.588,78.71,6,P-GPS,
0.305861255738736,36.8800448231067,5951.2622563853,124.343836,0,2.56974745756,15200,2018-04-14 11:52:50,14,0,16.451,5951.2622563853,124.343836,0.9171454,2.8647638712,0,0,-10.961006,30.5, -6.2, -0.1,0,1,1024,1024,1684,1024,30.3,-16.9,99,4.136,4.143,4.129,4.132,0,0,17.588,78.71,6,P-GPS,
0.305861237307193,36.8800448329366,5952.9026763853,125.984256,0,2.57608604044,15300,2018-04-14 11:52:50,14,0,16.451,5952.9026763853,125.984256,0.9171454,2.8647638712,0,0,-10.961006,30.5, -5.9, -0.2,0,1,1024,1024,1684,1024,30.3,-16.9,99,4.136,4.143,4.129,4.132,0,0,17.588,78.71,6,P-GPS,
0.305861198397152,36.8800448598849,5954.5430963853,127.624676,0,2.5892717364,15400,2018-04-14 11:52:50,14,0,16.451,5954.5430963853,127.624676,0.9171454,2.8647638712,0,0,-10.961006,30.5, -6.2, -0.5,0,1,1024,1024,1684,1024,30.3,-16.9,99,4.136,4.143,4.129,4.132,0,0,17.588,78.71,6,P-GPS,
0.305861172314364,36.8800448989256,5956.1835163853,129.265096,0,2.5974574322,15500,2018-04-14 11:52:50,14,0,16.451,5956.1835163853,129.265096,0.9171454,2.8647638712,0,0,-10.961006,30.5, -6.3, -0.7,0,1,1024,1024,1684,1024,30.3,-16.9,99,4.136,4.143,4.129,4.132,0,0,17.588,78.71,6,P-GPS,
0.305861132852281,36.8800449291403,5957.8239363853,130.905516,0,2.61085638276,15600,2018-04-14 11:52:51,14,0,16.478,5957.8239363853,130.905516,0.9171454,2.8647638712,0,0,-10.961006,30.5, -6, -0.4,0,1,1024,1024,1684,1024,30.3,-16.9,99,4.129,4.138,4.127,4.133,0,0,17.408,78.71,6,P-GPS,
0.305861089358577,36.8800449646488,5961.1047763853,134.186356,0,2.62563000528,15800,2018-04-14 11:52:51,14,0,16.478,5961.1047763853,134.186356,0.9171454,2.8647638712,0,0,-10.961006,30.5, -6.1, 0,0,1,1024,1024,1684,1024,30.3,-16.9,99,4.129,4.138,4.127,4.133,0,0,17.408,78.71,6,P-GPS,
0.30586109385634,36.8800449961164,5962.7451963853,135.826776,0,2.62312344352,15900,2018-04-14 11:52:51,14,0,16.478,5962.7451963853,135.826776,0.9171454,2.8647638712,0,0,-10.961006,30.5, -5.9, -0.7,0,1,1024,1024,1684,1024,30.3,-16.9,99,4.129,4.138,4.127,4.133,0,0,17.408,78.71,6,P-GPS,
0.30586109383802,36.8800450361645,5964.3856163853,137.467196,0,2.6220965406,16000,2018-04-14 11:52:51,14,0,16.478,5964.3856163853,137.467196,0.9171454,2.8647638712,0,0,-10.961006,30.6, -5.8, -1,0,1,1024,1024,1684,1024,30.3,-16.9,99,4.129,4.138,4.127,4.133,0,0,17.408,78.71,6,P-GPS,
0.305861115134403,36.8800450741622,5966.3541203853,139.4357,0,2.613435123,16100,2018-04-14 11:52:51,14,0,16.478,5966.3541203853,139.4357,0.9171454,2.8647638712,0,0,-10.961006,30.6, -6, -0.8,0,1,1024,1024,1684,1024,30.3,-16.9,99,4.129,4.138,4.127,4.133,0,0,17.408,78.71,6,P-GPS,
0.305861111365777,36.8800451114082,5967.9945403853,141.07612,0,2.61398958496,16200,2018-04-14 11:52:51,14,0,16.478,5967.9945403853,141.07612,0.9171454,2.8647638712,0,0,-11.1847,30.5, -5.9, -0.4,0,1,1024,1024,1684,1024,30.3,-16.9,99,4.129,4.138,4.127,4.133,0,0,17.408,78.71,6,P-GPS,
0.305861121451952,36.880045150135,5969.6349603853,142.71654,0,2.60953420424,16300,2018-04-14 11:52:51,14,0,16.478,5969.6349603853,142.71654,0.9171454,2.8647638712,0,0,-11.1847,30.6, -5.6, -0.4,0,1,1024,1024,1684,1024,30.3,-16.9,99,4.129,4.138,4.127,4.133,0,0,17.408,78.71,6,P-GPS,
0.305861116045518,36.8800451977192,5971.2753803853,144.35696,0,2.61065297068,16400,2018-04-14 11:52:51,14,0,16.478,5971.2753803853,144.35696,0.9171454,2.8647638712,0,0,-11.1847,30.6, -5.1, -0.1,0,1,1024,1024,1684,1024,30.3,-16.9,99,4.129,4.138,4.127,4.133,0,0,17.408,78.71,6,P-GPS,
0.305861122646415,36.8800452439788,5973.2438843853,146.325464,0,2.607529611,16500,2018-04-14 11:52:51,14,0,16.478,5973.2438843853,146.325464,0.9171454,2.8647638712,0,0,-11.1847,30.6, -5.4, -0.2,0,1,1024,1024,1684,1024,30.3,-16.9,99,4.129,4.138,4.127,4.133,0,0,17.408,78.71,6,P-GPS,
0.30586107753811,36.8800452799723,5974.8843043853,147.965884,0,2.62349417844,16600,2018-04-14 11:52:52,14,0,16.478,5974.8843043853,147.965884,0.9171454,2.8647638712,0,0,-10.961006,30.5, -5.2, -0.5,0,1,1024,1024,1684,1024,30.3,-16.9,98,4.129,4.138,4.127,4.133,0,0,17.408,78.71,6,P-GPS,
0.30586103547703,36.8800452946491,5976.5247243853,149.606304,0,2.63865494008,16700,2018-04-14 11:52:52,14,0,16.478,5976.5247243853,149.606304,0.9171454,2.8647638712,0,0,-11.1847,30.6, -5, -0.5,0,1,1024,1024,1684,1024,30.3,-16.9,98,4.129,4.138,4.127,4.133,0,0,17.408,78.71,6,P-GPS,
0.305860955889272,36.8800452755,5978.1651443853,151.246724,0,2.66790690952,16800,2018-04-14 11:52:52,14,0,16.478,5978.1651443853,151.246724,0.9171454,2.8647638712,0,0,-11.408394,30.6, -6.1, -0.3,0,1,1024,1024,1684,1024,30.3,-16.9,98,4.129,4.138,4.127,4.133,0,0,17.408,78.71,6,P-GPS,
0.30586091206133,36.880045251238,5980.1336483853,153.215228,0,2.6842028418,16900,2018-04-14 11:52:52,14,0,16.478,5980.1336483853,153.215228,0.9171454,2.8647638712,0,0,-11.408394,30.6, -6.6, 0,0,1,1024,1024,1684,1024,30.3,-16.9,98,4.129,4.138,4.127,4.133,0,0,17.408,78.71,6,P-GPS,
0.305860856852193,36.8800452365032,5981.7740683853,154.855648,0,2.70453748812,17000,2018-04-14 11:52:52,14,0,16.478,5981.7740683853,154.855648,0.9171454,2.8647638712,0,0,-11.408394,30.6, -6.1, 0,0,1,1024,1024,1684,1024,30.3,-16.9,98,4.129,4.138,4.127,4.133,0,0,17.408,78.71,6,P-GPS,
0.305860817478046,36.8800452467174,5983.4144883853,156.496068,0,2.718750087,17100,2018-04-14 11:52:52,14,0,16.478,5983.4144883853,156.496068,0.9171454,2.8647638712,0,0,-11.408394,30.6, -6, -0.2,0,1,1024,1024,1684,1024,30.3,-16.9,98,4.129,4.138,4.127,4.133,0,0,17.408,78.71,6,P-GPS,
0.305860744215979,36.8800452615975,5985.0549083853,158.136488,0,2.74526583588,17200,2018-04-14 11:52:52,14,0,16.478,5985.0549083853,158.136488,0.9171454,2.8647638712,0,0,-11.1847,30.6, -6, -0.5,0,1,1024,1024,1684,1024,30.3,-16.9,98,4.129,4.138,4.127,4.133,0,0,17.408,78.71,6,P-GPS,
0.305860691318418,36.8800452854222,5986.6953283853,159.776908,0,2.76426518032,17300,2018-04-14 11:52:52,14,0,16.478,5986.6953283853,159.776908,0.9171454,2.8647638712,0,0,-10.961006,30.6, -6.2, -0.9,0,1,1024,1024,1684,1024,30.3,-16.9,98,4.129,4.138,4.127,4.133,0,0,17.408,78.71,6,P-GPS,
0.305860605769741,36.8800452996385,5988.6638323853,161.745412,0,2.79530520756,17400,2018-04-14 11:52:52,14,0,16.478,5988.6638323853,161.745412,0.9171454,2.8647638712,0,0,-11.1847,30.6, -6.3, -0.9,0,1,1024,1024,1684,1024,30.3,-16.9,98,4.129,4.138,4.127,4.133,0,0,17.408,78.71,6,P-GPS,
0.305860540453667,36.8800453095471,5990.3042523853,163.385832,0,2.81902239992,17500,2018-04-14 11:52:52,14,0,16.478,5990.3042523853,163.385832,0.9171454,2.8647638712,0,0,-10.961006,30.6, -5.8, -0.6,0,1,1024,1024,1684,1024,30.3,-16.9,98,4.129,4.138,4.127,4.133,0,0,17.408,78.71,6,P-GPS,
0.305860451568308,36.8800453295886,5991.6165883853,164.698168,0,2.8512468104,17600,2018-04-14 11:52:52,14,0,16.451,5991.6165883853,164.698168,0.9171454,2.8647638712,0,0,-10.961006,30.6, -6, -0.9,0,1,1024,1024,1684,1024,30.3,-16.9,98,4.123,4.131,4.12,4.125,0,0,17.112,78.71,6,P-GPS,
0.305860386210708,36.8800453565337,5993.5850923853,166.666672,0,2.87485573504,17700,2018-04-14 11:52:53,14,0,16.451,5993.5850923853,166.666672,0.9171454,2.87485573504,0,0,-10.961006,30.5, -6.1, -1.2,0,1,1024,1024,1684,1024,30.3,-16.9,98,4.123,4.131,4.12,4.125,0,0,17.112,78.71,6,P-GPS,
0.305860281347872,36.8800453611937,5995.2255123853,168.307092,0,2.91307095936,17800,2018-04-14 11:52:53,14,0,16.451,5995.2255123853,168.307092,0.9171454,2.91307095936,0,0,-10.961006,30.5, -6.1, -1.1,0,1,1024,1024,1684,1024,30.3,-16.9,98,4.123,4.131,4.12,4.125,0,0,17.112,78.71,6,P-GPS,
0.305860195497118,36.8800453393352,5996.8659323853,169.947512,0,2.94456046168,17900,2018-04-14 11:52:53,14,0,16.451,5996.8659323853,169.947512,0.9171454,2.94456046168,0,0,-10.961006,30.5, -6.5, -0.7,0,1,1024,1024,1684,1024,30.3,-16.9,98,4.123,4.131,4.12,4.125,0,0,17.112,78.71,6,P-GPS,
0.305860089186595,36.8800453014917,5998.5063523853,171.587932,0,2.98368447868,18000,2018-04-14 11:52:53,14,0,16.451,5998.5063523853,171.587932,0.9171454,2.98368447868,0,0,-11.1847,30.5, -6.7, -0.6,0,1,1024,1024,1684,1024,30.3,-16.9,98,4.123,4.131,4.12,4.125,0,0,17.112,78.71,6,P-GPS,
0.305860017777697,36.880045257778,6000.1467723853,173.228352,0,3.0102035084,18100,2018-04-14 11:52:53,14,0,16.451,6000.1467723853,173.228352,0.9171454,3.0102035084,0,0,-11.1847,30.5, -7.4, -0.4,0,1,1024,1024,1684,1024,30.3,-16.9,98,4.123,4.131,4.12,4.125,0,0,17.112,78.71,6,P-GPS,
0.305859936792734,36.8800451976825,6001.7871923853,174.868772,0,3.04051518916,18200,2018-04-14 11:52:53,14,0,16.451,6001.7871923853,174.868772,0.9171454,3.04051518916,0,0,-10.961006,30.5, -7.7, -0.8,0,1,1024,1024,1684,1024,30.3,-16.9,98,4.123,4.131,4.12,4.125,0,0,17.112,78.71,6,P-GPS,
0.305859907699768,36.8800451434858,6003.4276123853,176.509192,0,3.05196203992,18300,2018-04-14 11:52:53,14,0,16.451,6003.4276123853,176.509192,0.9171454,3.05196203992,0,0,-10.961006,30.5, -7.4, 0.2,0,1,1024,1024,1684,1024,30.3,-16.9,98,4.123,4.131,4.12,4.125,0,0,17.112,78.71,6,P-GPS,
0.305859873790679,36.8800450947073,6005.0680323853,178.149612,0,3.06518054428,18400,2018-04-14 11:52:53,14,0,16.451,6005.0680323853,178.149612,0.9171454,3.06518054428,0,0,-10.961006,30.3, -6.7, 0.5,0,1,1024,1024,1684,1024,30.3,-16.9,98,4.123,4.131,4.12,4.125,0,0,17.112,78.71,6,P-GPS,
0.305859840762577,36.8800450769047,6006.7084523853,179.790032,0,3.07755259192,18500,2018-04-14 11:52:53,14,0,16.451,6006.7084523853,179.790032,0.9171454,3.07755259192,0,0,-10.961006,30.5, -6.4, -0.3,0,1,1024,1024,1684,1024,30.3,-16.9,98,4.123,4.131,4.12,4.125,0,0,17.112,78.71,6,P-GPS,
0.305859777666886,36.8800450598952,6008.3488723853,181.430452,0,3.10087608348,18600,2018-04-14 11:52:54,14,0,16.424,6008.3488723853,181.430452,0.9171454,3.10087608348,0,0,-10.961006,30.5, -6.6, 0,0,1,1024,1024,1684,1024,30.3,-16.9,98,4.123,4.131,4.12,4.125,0,0,17.112,78.71,6,P-GPS,
0.305859728029471,36.8800450506887,6009.9892923853,183.070872,0,3.1191438006,18700,2018-04-14 11:52:54,14,0,16.424,6009.9892923853,183.070872,0.9171454,3.1191438006,0,0,-11.1847,30.5, -6.9, 0.3,0,1,1024,1024,1684,1024,30.3,-16.9,98,4.123,4.131,4.12,4.125,0,0,17.112,78.71,6,P-GPS,
0.305859658903651,36.8800450375873,6011.9577963853,185.039376,0,3.14458999564,18800,2018-04-14 11:52:54,14,0,16.424,6011.9577963853,185.039376,0.9171454,3.14458999564,0,0,-11.1847,30.6, -6.9, 0.4,0,1,1024,1024,1684,1024,30.3,-16.9,98,4.123,4.131,4.12,4.125,0,0,17.112,78.71,6,P-GPS,
0.305859617822081,36.8800450329182,6013.5982163853,186.679796,0,3.15965233208,18900,2018-04-14 11:52:54,14,0,16.424,6013.5982163853,186.679796,0.9171454,3.15965233208,0,0,-11.1847,30.5, -7.1, -0.3,0,1,1024,1024,1684,1024,30.3,-16.9,98,4.123,4.131,4.12,4.125,0,0,17.112,78.71,6,P-GPS,
0.305859452670176,36.8800449527182,6016.8790563853,189.960636,0,3.22157490624,19100,2018-04-14 11:52:54,14,0,16.424,6016.8790563853,189.960636,0.9171454,3.22157490624,0,0,-11.408394,30.5, -7.9, -1,0,1,1024,1024,1684,1024,30.4,-16.9,98,4.123,4.131,4.12,4.125,0,0,17.112,78.71,6,P-GPS,
0.305859373781835,36.8800448518654,6018.8475603853,191.92914,0,3.252870839,19200,2018-04-14 11:52:54,14,0,16.424,6018.8475603853,191.92914,0.9171454,3.252870839,0,0,-11.408394,30.5, -7.3, -0.3,0,1,1024,1024,1684,1024,30.3,-16.9,98,4.123,4.131,4.12,4.125,0,0,17.112,78.71,6,P-GPS,
0.305859320067609,36.8800447203849,6020.4879803853,193.56956,0.223694,3.2763616534,19300,2018-04-14 11:52:54,14,0,16.424,6020.4879803853,193.56956,0.9171454,3.2763616534,0,-0.223694,-11.408394,30.5, -8.4, 0.6,0,1,1024,1024,1684,1024,30.3,-16.9,98,4.123,4.131,4.12,4.125,0,0,17.112,78.71,6,P-GPS,
0.305859252977345,36.8800445721776,6022.1284003853,195.20998,0.223694,3.3060040428,19400,2018-04-14 11:52:54,14,0,16.424,6022.1284003853,195.20998,0.9171454,3.3060040428,0,-0.223694,-11.1847,30.4, -9, 0.5,0,1,1024,1024,1684,1024,30.3,-16.9,98,4.123,4.131,4.12,4.125,0,0,17.112,78.71,6,P-GPS,
0.305859249992407,36.880044458274,6024.0969043853,197.178484,0.3131716,3.3117127044,19500,2018-04-14 11:52:54,14,0,16.424,6024.0969043853,197.178484,0.9171454,3.3117127044,0.223694,-0.223694,-10.961006,30.4, -9.2, 0.8,0,1,1024,1024,1684,1024,30.3,-16.9,98,4.123,4.131,4.12,4.125,0,0,17.112,78.71,6,P-GPS,
0.305859266062707,36.8800443291513,6025.4092403853,198.49082,0.223694,3.3117455128,19600,2018-04-14 11:52:54,14,0,16.424,6025.4092403853,198.49082,0.9171454,3.3117455128,0.223694,0,-10.737312,30.3, -8.1, 2.1,0,1,1024,1024,1684,1024,30.4,-17,98,4.12,4.129,4.116,4.121,0,0,17.542,78.71,6,P-GPS,
0.305859324965969,36.8800442281751,6027.0496603853,200.13124,0.223694,3.2955381632,19700,2018-04-14 11:52:55,14,0,16.424,6027.0496603853,200.13124,0.9171454,3.3117455128,0.223694,0,-10.961006,30.4, -5.7, 2.6,0,1,1024,1024,1684,1024,30.3,-17.1,98,4.12,4.129,4.116,4.121,0,0,17.542,78.71,6,P-GPS,
0.30585931929817,36.8800441465983,6028.6900803853,201.77166,0,3.302001418,19800,2018-04-14 11:52:55,14,0,16.424,6028.6900803853,201.77166,0.9171454,3.3117455128,0,0,-10.961006,30.4, -5.4, 1.3,0,1,1024,1024,1684,1024,30.4,-17.3,98,4.12,4.129,4.116,4.121,0,0,17.542,78.71,6,P-GPS,
0.305859287690886,36.8800440742709,6030.6585843853,203.740164,0,3.3174869828,19900,2018-04-14 11:52:55,14,0,16.424,6030.6585843853,203.740164,0.9171454,3.3174869828,0,0,-11.1847,30.4, -7.2, 0.8,0,1,1024,1024,1684,1024,30.4,-17.5,98,4.12,4.129,4.116,4.121,0,0,17.542,78.71,6,P-GPS,
0.305859218614734,36.8800440006488,6032.2990043853,205.380584,0,3.3467192672,20000,2018-04-14 11:52:55,14,0,16.424,6032.2990043853,205.380584,0.9171454,3.3467192672,0,0,-10.961006,30.4, -9, 1.3,0,1,1024,1024,1684,1024,30.4,-17.5,98,4.12,4.129,4.116,4.121,0,0,17.542,78.71,6,P-GPS,
0.305859206746634,36.8800439635639,6033.9394243853,207.021004,0.223694,3.3532809472,20100,2018-04-14 11:52:55,14,0,16.424,6033.9394243853,207.021004,0.9171454,3.3532809472,0.223694,0,-10.961006,30.4, -8.3, 1.8,0,1,1024,1024,1684,1024,30.4,-17.7,98,4.12,4.129,4.116,4.121,0,0,17.542,78.71,6,P-GPS,
0.305859184155231,36.8800439306925,6035.5798443853,208.661424,0.223694,3.3634515512,20200,2018-04-14 11:52:55,14,0,16.424,6035.5798443853,208.661424,0.9171454,3.3634515512,0.223694,0,-10.961006,30.4, -7.9, 2.1,0,1,1024,1024,1684,1024,30.4,-17.8,98,4.12,4.129,4.116,4.121,0,0,17.542,78.71,6,P-GPS,
0.305859193136099,36.8800438977105,6037.2202643853,210.301844,0.223694,3.3623360656,20300,2018-04-14 11:52:55,14,0,16.424,6037.2202643853,210.301844,0.9171454,3.3634515512,0.223694,0,-10.961006,30.4, -7.4, 2.1,0,1,1024,1024,1684,1024,30.4,-18,98,4.12,4.129,4.116,4.121,0,0,17.542,78.71,6,P-GPS,
0.305859168277088,36.8800438537933,6038.8606843853,211.942264,0.223694,3.3741142812,20400,2018-04-14 11:52:55,14,0,16.424,6038.8606843853,211.942264,0.9171454,3.3741142812,0.223694,0,-10.961006,30.4, -7.5, 2.2,0,1,1024,1024,1684,1024,30.4,-18.3,98,4.12,4.129,4.116,4.121,0,0,17.542,78.71,6,P-GPS,
0.305859160128354,36.8800438201443,6040.5011043853,213.582684,0,3.3792652,20500,2018-04-14 11:52:55,14,0,16.424,6040.5011043853,213.582684,0.9171454,3.3792652,0,0,-11.1847,30.4, -7.1, 1.8,0,1,1024,1024,1684,1024,30.4,-18.8,98,4.12,4.129,4.116,4.121,0,0,17.542,78.71,6,P-GPS,
0.305859119287793,36.8800437790951,6042.1415243853,215.223104,0,3.3966864604,20600,2018-04-14 11:52:56,14,0,16.424,6042.1415243853,215.223104,0.9171454,3.3966864604,0,0,-10.961006,30.5, -7, 1.7,0,1,1024,1024,1684,1024,30.4,-19.3,98,4.115,4.128,4.119,4.124,0,0,17.136,78.71,6,P-GPS,
0.305859089690009,36.8800437520282,6043.7819443853,216.863524,0,3.4091864608,20700,2018-04-14 11:52:56,14,0,16.424,6043.7819443853,216.863524,0.9171454,3.4091864608,0,0,-10.961006,30.5, -7.8, 1.8,0,1,1024,1024,1684,1024,30.4,-19.9,98,4.115,4.128,4.119,4.124,0,0,17.136,78.71,6,P-GPS,
0.30585903370329,36.880043759482,6045.4223643853,218.503944,0,3.4287074588,20800,2018-04-14 11:52:56,14,0,16.424,6045.4223643853,218.503944,0.9171454,3.4287074588,0,0,-10.961006,30.5, -8.1, 1.9,0,1,1024,1024,1684,1024,30.4,-20.5,98,4.115,4.128,4.119,4.124,0,0,17.136,78.71,6,P-GPS,
0.305859005021506,36.8800438314501,6047.0627843853,220.144364,0,3.4341864616,20900,2018-04-14 11:52:56,14,0,16.424,6047.0627843853,220.144364,0.9171454,3.4341864616,0,0,-10.961006,30.5, -7.4, 1.4,0,1,1024,1024,1684,1024,30.4,-21.1,98,4.115,4.128,4.119,4.124,0,0,17.136,78.71,6,P-GPS,
0.305858932081057,36.8800439289686,6048.7032043853,221.784784,0.223694,3.4541667772,21000,2018-04-14 11:52:56,14,0,16.424,6048.7032043853,221.784784,0.9171454,3.4541667772,0,0.223694,-10.737312,30.5, -7.9, 0,0,1,1024,1024,1684,1024,30.4,-21.7,98,4.115,4.128,4.119,4.124,0,0,17.136,78.71,6,P-GPS,
0.305858881788192,36.8800440209092,6050.3436243853,223.425204,0,3.4667980112,21100,2018-04-14 11:52:56,14,0,16.424,6050.3436243853,223.425204,0.9171454,3.4667980112,0,0,-10.961006,30.5, -8.1, -0.5,0,1,1024,1024,1684,1024,30.4,-22.4,98,4.115,4.128,4.119,4.124,0,0,17.136,78.71,6,P-GPS,
0.305858816366269,36.8800440884701,6051.9840443853,225.065624,0,3.4865814764,21200,2018-04-14 11:52:56,14,0,16.424,6051.9840443853,225.065624,0.9171454,3.4865814764,0,0,-10.961006,30.5, -8.2, 0,0,1,1024,1024,1684,1024,30.4,-23.1,98,4.115,4.128,4.119,4.124,0,0,17.136,78.71,6,P-GPS,
0.305858789788434,36.8800441407355,6053.6244643853,226.706044,0,3.4933728152,21300,2018-04-14 11:52:56,14,0,16.424,6053.6244643853,226.706044,0.9171454,3.4933728152,0,0,-10.961006,30.4, -8.3, 0.4,0,1,1024,1024,1684,1024,30.4,-23.9,98,4.115,4.128,4.119,4.124,0,0,17.136,78.71,6,P-GPS,
0.305858761426639,36.8800441922769,6055.2648843853,228.346464,0.223694,3.5009515556,21400,2018-04-14 11:52:56,14,0,16.424,6055.2648843853,228.346464,0.9171454,3.5009515556,0.223694,0,-10.961006,30.4, -7.4, 0.6,0,1,1024,1024,1684,1024,30.4,-24.6,98,4.115,4.128,4.119,4.124,0,0,17.136,78.71,6,P-GPS,
0.30585878151431,36.8800442582469,6056.9053043853,229.986884,0.223694,3.4904200592,21500,2018-04-14 11:52:56,14,0,16.424,6056.9053043853,229.986884,0.9171454,3.5009515556,0.223694,0,-10.961006,30.4, -6.6, 0.3,0,1,1024,1024,1684,1024,30.4,-25.3,98,4.115,4.128,4.119,4.124,0,0,17.136,78.71,6,P-GPS,
0.305858765387829,36.8800442952949,6058.5457243853,231.627304,0.223694,3.4944883008,21600,2018-04-14 11:52:56,14,0,16.344,6058.5457243853,231.627304,0.9171454,3.5009515556,0.223694,0,-10.737312,30.4, -6.4, 0.2,0,1,1024,1024,1684,1024,30.4,-25.3,98,4.106,4.116,4.108,4.113,0,0,18.274,78.71,6,P-GPS,
0.305858751669003,36.8800443146734,6060.1861443853,233.267724,0.223694,3.4985565424,21700,2018-04-14 11:52:57,14,0,16.344,6060.1861443853,233.267724,0.9171454,3.5009515556,0.223694,0,-10.961006,30.5, -6.6, 0.4,0,1,1024,1024,1649,1024,30.4,-25.6,98,4.106,4.116,4.108,4.113,0,0,18.274,78.71,6,P-GPS,
