latitude,longitude,altitude(feet),ascent(feet),speed(mph),distance(feet),time(millisecond),datetime(utc),satellites,gpslevel,voltage(v),max_altitude(feet),max_ascent(feet),max_speed(mph),max_distance(feet), xSpeed(mph), ySpeed(mph), zSpeed(mph), compass_heading(degrees), pitch(degrees), roll(degrees),isPhoto,isVideo,rc_elevator,rc_aileron,rc_throttle,rc_rudder,gimbal_heading(degrees),gimbal_pitch(degrees),battery_percent,voltageCell1,voltageCell2,voltageCell3,voltageCell4,voltageCell5,voltageCell6,current(A),battery_temperature(f),flycStateRaw,flycState,message
0.368472475539338,36.9024080425,5524.370665625,0,0,0,0,2018-04-08 07:48:57,9,0,0,5524.370665625,0,0,0,0,0,0,176.9, 0.6, -2.8,0,0,364,364,364,1684,181.6,0,99,4.295,4.297,4.296,4.295,0,0,0,94.91,41,Motors_Started,
0.368472452248924,36.9024080079293,5524.370665625,0,0,0.0152082353948,100,2018-04-08 07:48:57,9,0,0,5524.370665625,0,0,0.0152082353948,0,0,0,176.9, 0.6, -2.8,0,0,364,364,364,1684,181.6,0,99,4.295,4.297,4.296,4.295,0,0,0,94.91,41,Motors_Started,
0.368472438710448,36.9024079888424,5524.370665625,0,0,0.0237443249068,200,2018-04-08 07:48:57,9,0,0,5524.370665625,0,0,0.0237443249068,0,0,0,177, 0.6, -2.8,0,0,364,364,364,1684,181.6,0,99,4.295,4.297,4.296,4.295,0,0,0,94.91,41,Motors_Started,
0.368472433170075,36.902407978465,5524.370665625,0,0,0.0280138460408,300,2018-04-08 07:48:57,9,0,0,5524.370665625,0,0,0.0280138460408,0,0,0,176.9, 0.7, -2.8,0,0,385,364,364,1684,181.6,0,99,4.295,4.297,4.296,4.295,0,0,0,94.91,41,Motors_Started,
0.368472430172923,36.9024079724864,5524.370665625,0,0,0.0304377306328,400,2018-04-08 07:48:57,9,0,0,5524.370665625,0,0,0.0304377306328,0,0,0,177, 0.7, -2.8,0,0,692,618,364,1684,181.6,0,99,4.295,4.297,4.296,4.295,0,0,0,94.91,41,Motors_Started,
0.36847243465033,36.9024079628827,5524.370665625,0,0,0.0326546270292,500,2018-04-08 07:48:57,9,0,17.156,5524.370665625,0,0,0.0326546270292,0,0,0,176.9, 0.7, -2.8,0,0,1024,1024,896,1303,181.6,0,99,4.295,4.297,4.296,4.295,0,0,1.502,94.91,41,Motors_Started,Setting new Return-To-Home altitude to 30m (98 ft). Setting new Maximum Flight Altitude to 150m (492 ft)
0.368472436784813,36.9024079344569,5524.370665625,0,0,0.041877954096,600,2018-04-08 07:48:57,9,0,17.156,5524.370665625,0,0,0.041877954096,0,0,0,176.9, 0.7, -2.8,0,0,1024,1024,1024,1024,181.4,0,99,4.295,4.297,4.296,4.295,0,0,1.502,94.91,41,Motors_Started,
0.368472446868953,36.902407911174,5524.370665625,0,0,0.049041668236,700,2018-04-08 07:48:57,9,0,17.156,5524.370665625,0,0,0.049041668236,0,0,0,176.9, 0.7, -2.8,0,0,1024,1024,1024,1024,179.7,0,99,4.295,4.297,4.296,4.295,0,0,1.502,94.91,41,Motors_Started,
0.368472452234676,36.9024078981623,5524.370665625,0,0,0.053342521392,800,2018-04-08 07:48:57,9,0,17.156,5524.370665625,0,0,0.053342521392,0,0,0,176.9, 0.7, -2.8,0,0,1024,1024,1024,1024,178.7,0,99,4.295,4.297,4.296,4.295,0,0,1.502,94.91,41,Motors_Started,
0.368472450727551,36.9024078934631,5524.370665625,0,0,0.055123361344,900,2018-04-08 07:48:58,9,0,17.156,5524.370665625,0,0,0.055123361344,0,0,0,176.9, 0.7, -2.9,0,0,1024,1024,1024,1024,178.2,0,99,4.295,4.297,4.296,4.295,0,0,1.502,94.91,41,Motors_Started,
0.368472427590211,36.9024078921615,5524.370665625,0,0,0.05757218032,1000,2018-04-08 07:48:58,9,0,17.156,5524.370665625,0,0,0.05757218032,0,0,0,176.9, 0.8, -3,0,0,1024,1024,1024,1024,178,0,99,4.295,4.297,4.296,4.295,0,0,1.502,94.91,41,Motors_Started,
0.368472404928785,36.9024079003854,5524.370665625,0,0,0.05789698348,1100,2018-04-08 07:48:58,9,0,17.156,5524.370665625,0,0,0.05789698348,0,0,0,176.9, 0.8, -2.9,0,0,1024,1024,1024,1024,177.8,0,99,4.295,4.297,4.296,4.295,0,0,1.502,94.91,41,Motors_Started,
0.36847238750077,36.9024079005337,5524.370665625,0,0,0.06094652426,1200,2018-04-08 07:48:58,9,0,17.156,5524.370665625,0,0,0.06094652426,0,0,0,176.9, 0.7, -2.9,0,0,1024,1024,1024,1024,177.7,0,99,4.295,4.297,4.296,4.295,0,0,1.502,94.91,41,Motors_Started,
0.368472380184171,36.9024078987525,5524.370665625,0,0,0.062935369468,1300,2018-04-08 07:48:58,9,0,17.156,5524.370665625,0,0,0.062935369468,0,0,0,176.9, 0.8, -2.9,0,0,1024,1024,1024,1024,177.6,0,99,4.295,4.297,4.296,4.295,0,0,1.502,94.91,41,Motors_Started,
0.368472373000697,36.9024078741198,5524.370665625,0,0,0.071927167656,1400,2018-04-08 07:48:58,9,0,17.156,5524.370665625,0,0,0.071927167656,0,0,0,176.8, 0.8, -3,0,0,1024,1024,1024,1024,177.5,0,99,4.295,4.297,4.296,4.295,0,0,1.502,94.91,41,Motors_Started,
0.368472362018064,36.9024078543681,5524.370665625,0,0,0.080166669232,1500,2018-04-08 07:48:58,9,0,17.103,5524.370665625,0,0,0.080166669232,0,0,0,176.8, 0.8, -3,0,0,1024,1024,1024,1024,177.4,0,99,4.29,4.293,4.293,4.292,0,0,1.566,94.91,10,Assisted_Takeoff,
0.36847229979359,36.9024078265005,5524.370665625,0,0,0.10159613186,1700,2018-04-08 07:48:58,9,0,17.103,5524.370665625,0,0,0.10159613186,0,0,0,176.8, 0.8, -2.9,0,0,1024,1024,1024,1024,177.4,0,99,4.29,4.293,4.293,4.292,0,0,1.566,94.91,10,Assisted_Takeoff,
0.368472281515528,36.9024078239458,5524.370665625,0,0,0.106626643832,1800,2018-04-08 07:48:58,9,0,17.103,5524.370665625,0,0,0.106626643832,0,0,0,176.9, 0.6, -2.8,0,0,1024,1024,1024,1024,177.4,0,99,4.29,4.293,4.293,4.292,0,0,1.566,94.91,10,Assisted_Takeoff,
0.368472269932813,36.9024078119699,5524.370665625,0,0,0.11270013484,1900,2018-04-08 07:48:59,9,0,17.103,5524.370665625,0,0,0.11270013484,0,0,0,176.8, 0.7, -2.9,0,0,1024,1024,1024,1024,177.4,0,99,4.29,4.293,4.293,4.292,0,0,1.566,94.91,10,Assisted_Takeoff,
0.368472261475489,36.9024077818894,5524.370665625,0,0,0.123045935696,2000,2018-04-08 07:48:59,9,0,17.103,5524.370665625,0,0,0.123045935696,0,0,0,176.9, 0.6, -2.8,0,0,1024,1024,1024,1024,177.4,0,99,4.29,4.293,4.293,4.292,0,0,1.566,94.91,10,Assisted_Takeoff,
0.368472261153871,36.9024077545883,5524.370665625,0,0,0.130965555372,2100,2018-04-08 07:48:59,9,0,17.103,5524.370665625,0,0,0.130965555372,0,0,0,176.9, 0.7, -2.9,0,0,1024,1024,1024,1024,177.3,0,99,4.29,4.293,4.293,4.292,0,0,1.566,94.91,10,Assisted_Takeoff,
0.368472258387959,36.902407738687,5524.370665625,0,0,0.136247379688,2200,2018-04-08 07:48:59,9,0,17.103,5524.370665625,0,0,0.136247379688,0,0,0,176.9, 0.6, -2.8,0,0,1024,1024,1024,1024,177.3,0,99,4.29,4.293,4.293,4.292,0,0,1.566,94.91,10,Assisted_Takeoff,
0.368472250257952,36.9024077288304,5524.370665625,0,0,0.140898298472,2300,2018-04-08 07:48:59,9,0,17.103,5524.370665625,0,0,0.140898298472,0,0,0,176.9, 0.7, -2.8,0,0,1024,1024,1024,1024,177.3,0,99,4.29,4.293,4.293,4.292,0,0,1.566,94.91,10,Assisted_Takeoff,
0.368472220693959,36.9024077223724,5524.370665625,0,0,0.149287078268,2400,2018-04-08 07:48:59,9,0,17.103,5524.370665625,0,0,0.149287078268,0,0,0,176.9, 0.6, -2.8,0,1,1024,1024,1024,1024,177.3,0,99,4.29,4.293,4.293,4.292,0,0,1.566,94.91,10,Assisted_Takeoff,
0.368472195147744,36.9024077228644,5524.370665625,0,0,0.155128285804,2500,2018-04-08 07:48:59,9,0,16.971,5524.370665625,0,0,0.155128285804,0,0,0,176.9, 0.7, -2.8,0,1,1024,1024,1024,1024,177.3,0,99,4.266,4.272,4.291,4.292,0,0,3.92,94.91,10,Assisted_Takeoff,
0.368472169607635,36.9024077135795,5524.370665625,0,0,0.16388944094,2700,2018-04-08 07:48:59,9,0,16.971,5524.370665625,0,0,0.16388944094,0,0,0,176.8, 0.7, -2.8,0,1,1024,1024,1024,1024,177.3,0,99,4.266,4.272,4.291,4.292,0,0,3.92,94.91,10,Assisted_Takeoff,
0.368472162844707,36.9024076856253,5524.370665625,0,0,0.173114178768,2800,2018-04-08 07:49:00,9,0,16.971,5524.370665625,0,0,0.173114178768,0,0,0,176.8, 0.6, -2.8,0,1,1024,1024,1024,1024,177.2,0,99,4.266,4.272,4.291,4.292,0,0,3.92,94.91,10,Assisted_Takeoff,
0.368472161955984,36.902407643283,5524.370665625,0,0,0.185213588604,3000,2018-04-08 07:49:00,9,0,16.971,5524.370665625,0,0,0.185213588604,0,0,0,176.8, 0.7, -2.8,0,1,1024,1024,1024,1024,177.2,0,99,4.266,4.272,4.291,4.292,0,0,3.92,94.91,10,Assisted_Takeoff,
0.368472167537069,36.9024076322247,5524.370665625,0,0,0.187173234336,3100,2018-04-08 07:49:00,9,0,16.971,5524.370665625,0,0,0.187173234336,0,0,0,176.8, 0.7, -2.8,0,1,1024,1024,1024,1024,177.2,0,99,4.266,4.272,4.291,4.292,0,0,3.92,94.91,10,Assisted_Takeoff,
0.368472169014067,36.9024076257046,5524.370665625,0,0,0.188761160896,3200,2018-04-08 07:49:00,9,0,16.971,5524.370665625,0,0,0.188761160896,0,0,0,176.8, 0.7, -2.8,0,1,1024,1024,1024,1024,177.2,0,99,4.266,4.272,4.291,4.292,0,0,3.92,94.91,10,Assisted_Takeoff,
0.36847217652038,36.902407625134,5524.370665625,0,0,0.187320872136,3300,2018-04-08 07:49:00,9,0,16.971,5524.370665625,0,0,0.188761160896,0,0,0,176.8, 0.6, -2.8,0,1,1024,1024,1024,1024,177.2,0,99,4.266,4.272,4.291,4.292,0,0,3.92,94.91,10,Assisted_Takeoff,
0.36847217933311,36.9024076241164,5524.370665625,0,0,0.187027893124,3400,2018-04-08 07:49:00,9,0,16.971,5524.370665625,0,0,0.188761160896,0,0,0,176.8, 0.6, -2.8,0,1,1024,1024,1024,1024,177.2,0,99,4.266,4.272,4.291,4.292,0,0,3.92,94.91,10,Assisted_Takeoff,
0.36847218719198,36.9024076287061,5524.370665625,0,0,0.184009520324,3500,2018-04-08 07:49:00,9,0,17.156,5524.370665625,0,0,0.188761160896,0,0,0,176.8, 0.6, -2.8,0,1,1024,1024,1024,1024,177.2,0,99,4.289,4.291,4.291,4.289,0,0,1.962,94.91,10,Assisted_Takeoff,
0.368472190603978,36.9024076313163,5524.370665625,0,0,0.182517066208,3600,2018-04-08 07:49:00,9,0,17.156,5524.370665625,0,0,0.188761160896,0,0,0,176.8, 0.6, -2.8,0,1,1024,1024,1024,1024,177.2,0,99,4.289,4.291,4.291,4.289,0,0,1.962,94.91,10,Assisted_Takeoff,
0.368472183418469,36.9024076392961,5524.370665625,0,0,0.181657486128,3700,2018-04-08 07:49:00,9,0,17.156,5524.370665625,0,0,0.188761160896,0,0,0,176.8, 0.6, -2.8,0,1,1024,1024,1024,1024,177.2,0,99,4.289,4.291,4.291,4.289,0,0,1.962,94.91,10,Assisted_Takeoff,
0.368472156565834,36.9024076431476,5524.370665625,0,0,0.186473431164,3800,2018-04-08 07:49:00,9,0,17.156,5524.370665625,0,0,0.188761160896,0,0,0,176.8, 0.6, -2.8,0,1,1024,1024,1024,1024,177.2,0,99,4.289,4.291,4.291,4.289,0,0,1.962,94.91,10,Assisted_Takeoff,
0.368472130655255,36.9024076457214,5524.370665625,0,0,0.191805124248,3900,2018-04-08 07:49:00,9,0,17.156,5524.370665625,0,0,0.191805124248,0,0,0,176.8, 0.6, -2.8,0,1,1024,1024,1024,1024,177.2,0,99,4.289,4.291,4.291,4.289,0,0,1.962,94.91,10,Assisted_Takeoff,
0.368472112463907,36.9024076118327,5524.370665625,0,0,0.205514442272,4000,2018-04-08 07:49:01,11,0,17.156,5524.370665625,0,0,0.205514442272,0,0,0,176.8, 0.6, -2.8,0,1,1024,1024,1024,1024,177.2,0,99,4.289,4.291,4.291,4.289,0,0,1.962,94.91,10,Assisted_Takeoff,
0.368472083710471,36.9024075821601,5524.370665625,0,0,0.220555453252,4100,2018-04-08 07:49:01,11,0,17.156,5524.370665625,0,0,0.220555453252,0,0,0,176.8, 0.6, -2.8,0,1,1024,1024,1064,1024,177.2,0,99,4.289,4.291,4.291,4.289,0,0,1.962,94.91,10,Assisted_Takeoff,
0.368472043782246,36.9024075660774,5524.370665625,0,0,0.234579403832,4200,2018-04-08 07:49:01,11,0,17.156,5524.370665625,0,0,0.234579403832,0,0,0,176.8, 0.6, -2.8,0,1,1024,1024,1112,1024,177.2,0,99,4.289,4.291,4.291,4.289,0,0,1.962,94.91,10,Assisted_Takeoff,
0.368472022251366,36.9024075432744,5524.370665625,0,0,0.246019364828,4400,2018-04-08 07:49:01,11,0,17.156,5524.370665625,0,0,0.246019364828,0,0,0,176.8, 0.7, -2.9,0,1,1024,1024,1116,1024,177.2,0,99,4.289,4.291,4.291,4.289,0,0,1.962,94.91,10,Assisted_Takeoff,
0.36847203686258,36.9024075381242,5524.370665625,0,0,0.243882553736,4500,2018-04-08 07:49:01,11,0,17.156,5524.370665625,0,0,0.246019364828,0,0,0,176.8, 0.7, -2.8,0,1,1024,1024,1177,1024,177.2,0,99,4.289,4.291,4.291,4.289,0,0,1.962,94.91,10,Assisted_Takeoff,
0.368472057665952,36.9024075334183,5524.370665625,0,0,0.240294627112,4700,2018-04-08 07:49:01,11,0,17.156,5524.370665625,0,0,0.246019364828,0,0,0,176.8, 0.7, -2.9,0,1,1024,1024,1192,1024,177.2,0,99,4.289,4.291,4.291,4.289,0,0,1.962,94.91,10,Assisted_Takeoff,
0.368472065468234,36.9024075326191,5524.370665625,0,0,0.238725729424,4800,2018-04-08 07:49:01,11,0,17.156,5524.370665625,0,0,0.246019364828,0,0,0,176.8, 0.8, -3,0,1,1024,1024,1199,1024,177.2,0,99,4.289,4.291,4.291,4.289,0,0,1.962,94.91,10,Assisted_Takeoff,
0.368472079663381,36.9024075356939,5524.370665625,0,0,0.234629600684,4900,2018-04-08 07:49:02,11,0,17.156,5524.370665625,0,0,0.246019364828,0,0,0,176.7, 0.8, -3.1,0,1,1024,1024,1224,1024,177.2,0,99,4.289,4.291,4.291,4.289,0,0,1.962,94.91,10,Assisted_Takeoff,
0.368472088836813,36.9024075387205,5524.370665625,0,0,0.231707356496,5000,2018-04-08 07:49:02,11,0,17.156,5524.370665625,0,0,0.246019364828,0,0,0,176.8, 0.8, -3.2,0,1,1024,1024,1218,1024,177.2,0,99,4.289,4.291,4.291,4.289,0,0,1.962,94.91,10,Assisted_Takeoff,
0.368472089419796,36.9024075547219,5524.370665625,0,0,0.226972120124,5100,2018-04-08 07:49:02,11,0,17.156,5524.370665625,0,0,0.246019364828,0,0,0,176.6, 1.3, -2.6,0,1,1024,1024,1209,1024,177.2,0,99,4.289,4.291,4.291,4.289,0,0,1.962,94.91,10,Assisted_Takeoff,
0.368472080632305,36.9024076093644,5524.370665625,0,0,0.213849744376,5200,2018-04-08 07:49:02,11,0,17.156,5524.370665625,0,0,0.246019364828,0,0,-0.223694,176.5, 2.1, -0.8,0,1,1024,1024,1235,1024,177.2,0,99,4.289,4.291,4.291,4.289,0,0,1.962,94.91,10,Assisted_Takeoff,
0.368472106943889,36.9024076828475,5524.370665625,0,0.223694,0.187891082128,5300,2018-04-08 07:49:02,11,0,17.156,5524.370665625,0,0.223694,0.246019364828,0.223694,0,-0.447388,176.5, 1.8, -0.2,0,1,1024,1024,1242,1024,177.2,0,99,4.289,4.291,4.291,4.289,0,0,1.962,94.91,6,P-GPS,
0.368472216039866,36.9024077551402,5524.370665625,0,0.223694,0.141264112132,5400,2018-04-08 07:49:02,11,0,17.156,5524.370665625,0,0.223694,0.246019364828,0.223694,0,-0.671082,176.4, 0.6, 0.1,0,1,1024,1024,1248,1024,177.2,0,99,4.289,4.291,4.291,4.289,0,0,1.962,94.91,6,P-GPS,
0.368472324562224,36.9024078273089,5524.370665625,0,0,0.0959071553,5500,2018-04-08 07:49:02,11,0,17.024,5524.370665625,0,0.223694,0.246019364828,0,0,-1.11847,176.4, 0, 0.4,0,1,1024,1024,1249,1024,177.1,0,99,4.289,4.291,4.285,4.284,0,0,2.296,94.91,6,P-GPS,Home Point Recorded. RTH Altitude:  30m.
0.368472431531046,36.9024078878338,5524.698749625,0.328084,0,0.058668637048,5600,2018-04-08 07:49:02,11,0,17.024,5524.698749625,0.328084,0.223694,0.246019364828,0,0,-1.342164,176.4, -0.1, 0.8,0,1,1024,1024,1244,1024,177.1,0,99,4.289,4.291,4.285,4.284,0,0,2.296,94.91,6,P-GPS,
0.368472531897342,36.9024079365588,5524.698749625,0.328084,0,0.043780841296,5700,2018-04-08 07:49:02,11,0,17.024,5524.698749625,0.328084,0.223694,0.246019364828,0,0,-1.342164,176.4, -0.2, 0.8,0,1,1024,1024,1252,1024,177.1,0,99,4.289,4.291,4.285,4.284,0,0,2.296,94.91,6,P-GPS,
0.368472642474796,36.90240799703,5525.026833625,0.656168,0,0.06312500202,5800,2018-04-08 07:49:02,11,0,17.024,5525.026833625,0.656168,0.223694,0.246019364828,0,0,-1.565858,176.4, -0.5, 0.7,0,1,1024,1024,1264,1024,177.1,0,99,4.289,4.291,4.285,4.284,0,0,2.296,94.91,6,P-GPS,
0.368472749804318,36.9024080400124,5525.354917625,0.984252,0,0.100069557008,5900,2018-04-08 07:49:03,11,0,17.024,5525.354917625,0.984252,0.223694,0.246019364828,0,0,-1.565858,176.4, -1, 0.7,0,1,1024,1024,1262,1024,177.1,0,99,4.289,4.291,4.285,4.284,0,0,2.296,94.91,6,P-GPS,
0.368472860808425,36.9024081073984,5525.354917625,0.984252,0,0.142545608236,6000,2018-04-08 07:49:03,11,0,17.024,5525.354917625,0.984252,0.223694,0.246019364828,0,0,-1.565858,176.4, -1.2, 0.4,0,1,1024,1024,1281,1023,177.1,0,99,4.289,4.291,4.285,4.284,0,0,2.296,94.91,6,P-GPS,
0.368472956118402,36.9024081561099,5525.683001625,1.312336,0,0.180171593692,6100,2018-04-08 07:49:03,11,0,17.024,5525.683001625,1.312336,0.223694,0.246019364828,0,0,-1.789552,176.4, -1.4, 0.2,0,1,1024,1024,1308,1024,177.1,0,99,4.289,4.291,4.285,4.284,0,0,2.296,94.91,6,P-GPS,
0.368473043926545,36.9024082150183,5526.011085625,1.64042,0,0.216717198536,6200,2018-04-08 07:49:03,10,0,17.024,5526.011085625,1.64042,0.223694,0.246019364828,0,0,-1.789552,176.4, -1.3, 0.5,0,1,1024,1024,1327,1024,177.1,0,99,4.289,4.291,4.285,4.284,0,0,2.296,94.91,6,P-GPS,
0.368473107034449,36.9024082588481,5526.339169625,1.968504,0,0.243546267636,6300,2018-04-08 07:49:03,11,0,17.024,5526.339169625,1.968504,0.223694,0.246019364828,0,0,-2.23694,176.4, -1, 1,0,1,1024,1024,1324,1024,177.1,0,99,4.289,4.291,4.285,4.284,0,0,2.296,94.91,6,P-GPS,
0.368473145964846,36.9024082655625,5526.667253625,2.296588,0,0.257787409824,6400,2018-04-08 07:49:03,11,0,17.024,5526.667253625,2.296588,0.223694,0.257787409824,0,0,-2.460634,176.4, -1.1, 0.8,0,1,1024,1024,1318,1024,177.1,0,99,4.289,4.291,4.285,4.284,0,0,2.296,94.91,6,P-GPS,
0.368473176742437,36.9024082542753,5526.995337625,2.624672,0,0.267246399628,6500,2018-04-08 07:49:03,11,0,16.761,5526.995337625,2.624672,0.223694,0.267246399628,0,0,-2.684328,176.4, -1, 0.2,0,1,1024,1024,1323,1024,177.1,0,99,4.211,4.213,4.212,4.208,0,0,12.102,94.91,6,P-GPS,
0.368473145875689,36.9024083033359,5527.651505625,3.28084,0,0.262433735432,6600,2018-04-08 07:49:03,11,0,16.761,5527.651505625,3.28084,0.223694,0.267246399628,0,0,-3.131716,176.3, -1.2, -0.2,0,1,1024,1024,1337,1024,177.1,0,99,4.211,4.213,4.212,4.208,0,0,12.102,94.91,6,P-GPS,
0.368473121146952,36.9024083481927,5527.979589625,3.608924,0,0.260619430912,6700,2018-04-08 07:49:03,11,0,16.761,5527.979589625,3.608924,0.223694,0.267246399628,0,0,-3.35541,176.3, -1.3, -0.2,0,1,1024,1024,1342,1024,177.1,0,99,4.211,4.213,4.212,4.208,0,0,12.102,94.91,6,P-GPS,
0.368473136221865,36.9024084039208,5528.635757625,4.265092,0,0.27475886706,6800,2018-04-08 07:49:03,11,0,16.761,5528.635757625,4.265092,0.223694,0.27475886706,0,0,-3.579104,176.3, -1.1, 0,0,1,1024,1024,1341,1024,177,0,99,4.211,4.213,4.212,4.208,0,0,12.102,94.91,6,P-GPS,
0.368473134635354,36.9024084676348,5529.291925625,4.92126,0,0.286154536716,6900,2018-04-08 07:49:04,11,0,16.761,5529.291925625,4.92126,0.223694,0.286154536716,0,0,-3.802798,176.3, -0.7, 0.4,0,1,1024,1024,1334,1024,177,0,99,4.211,4.213,4.212,4.208,0,0,12.102,94.91,6,P-GPS,
0.368473154960778,36.9024085686654,5529.620009625,5.249344,0,0.31352691292,7000,2018-04-08 07:49:04,11,0,16.761,5529.620009625,5.249344,0.223694,0.31352691292,0,0,-4.026492,176.4, -0.6, 0.7,0,1,1024,1024,1328,1024,177,0,99,4.211,4.213,4.212,4.208,0,0,12.102,94.91,6,P-GPS,
0.368473166379834,36.9024086630493,5530.276177625,5.905512,0,0.33880578512,7100,2018-04-08 07:49:04,11,0,16.761,5530.276177625,5.905512,0.223694,0.33880578512,0,0,-4.026492,176.5, -0.7, 1.3,0,1,1024,1024,1331,1024,177,0,99,4.211,4.213,4.212,4.208,0,0,12.102,94.91,6,P-GPS,
0.368473225090533,36.9024087910424,5530.932345625,6.56168,0,0.38648623284,7200,2018-04-08 07:49:04,11,0,16.761,5530.932345625,6.56168,0.223694,0.38648623284,0,0,-4.026492,176.5, -1.2, 1.5,0,1,1024,1024,1320,1024,177,0,99,4.211,4.213,4.212,4.208,0,0,12.102,94.91,6,P-GPS,
0.368473261411347,36.9024088863473,5531.588513625,7.217848,0,0.42070867488,7300,2018-04-08 07:49:04,11,0,16.761,5531.588513625,7.217848,0.223694,0.42070867488,0,0,-3.802798,176.5, -1.1, 1.7,0,1,1024,1024,1325,1024,177,0,99,4.211,4.213,4.212,4.208,0,0,12.102,94.91,6,P-GPS,
0.368473289885912,36.9024089840322,5532.244681625,7.874016,0,0.45417652372,7400,2018-04-08 07:49:04,11,0,16.761,5532.244681625,7.874016,0.223694,0.45417652372,0,0,-3.802798,176.5, -0.8, 1.6,0,1,1024,1024,1329,1024,177,0,99,4.211,4.213,4.212,4.208,0,0,12.102,94.91,6,P-GPS,
0.368473315258698,36.9024090454445,5532.572765625,8.2021,0,0.47724082892,7500,2018-04-08 07:49:04,11,0,16.629,5532.572765625,8.2021,0.223694,0.47724082892,0,0,-3.579104,176.5, -0.2, 1,0,1,1024,1024,1327,1024,177,0,99,4.211,4.213,4.212,4.208,0,0,14.478,94.91,6,P-GPS,
0.368473403149485,36.9024090777296,5533.228933625,8.858268,0,0.50714240468,7600,2018-04-08 07:49:04,11,0,16.629,5533.228933625,8.858268,0.223694,0.50714240468,0,0,-3.579104,176.5, -0.4, 0.6,0,1,1024,1024,1327,1024,177,0,99,4.211,4.213,4.212,4.208,0,0,14.478,94.91,6,P-GPS,
0.368473515308972,36.9024091012537,5533.885101625,9.514436,0.223694,0.54141077848,7700,2018-04-08 07:49:04,11,0,16.629,5533.885101625,9.514436,0.223694,0.54141077848,0.223694,0,-3.579104,176.6, -1.6, 0.7,0,1,1024,1024,1327,1024,177,0,99,4.211,4.213,4.212,4.208,0,0,14.478,94.91,6,P-GPS,
0.368473671817096,36.9024090909445,5534.213185625,9.84252,0.223694,0.58036091096,7800,2018-04-08 07:49:04,11,0,16.629,5534.213185625,9.84252,0.223694,0.58036091096,0.223694,0,-3.579104,176.6, -2.2, 1.5,0,1,1024,1024,1325,1024,177,0,99,4.211,4.213,4.212,4.208,0,0,14.478,94.91,6,P-GPS,
0.368473822295499,36.9024090657072,5534.869353625,10.498688,0,0.61708663392,7900,2018-04-08 07:49:05,11,0,16.629,5534.869353625,10.498688,0.223694,0.61708663392,0,0,-3.579104,176.6, -2.6, 1,0,1,1024,1024,1326,1024,177,0,99,4.211,4.213,4.212,4.208,0,0,14.478,94.91,6,P-GPS,
0.368474037237079,36.9024089991822,5535.525521625,11.154856,0.3131716,0.6681922786,8000,2018-04-08 07:49:05,11,0,16.629,5535.525521625,11.154856,0.3131716,0.6681922786,0.223694,-0.223694,-3.579104,176.6, -2.9, 0.2,0,1,1024,1024,1326,1024,177,0,99,4.211,4.213,4.212,4.208,0,0,14.478,94.91,6,P-GPS,
0.368474227787825,36.9024089308565,5535.853605625,11.48294,0.223694,0.71677167648,8100,2018-04-08 07:49:05,11,0,16.629,5535.853605625,11.48294,0.3131716,0.71677167648,0.223694,0,-3.35541,176.5, -3.1, -0.1,0,1,1024,1024,1315,1024,177,0,99,4.211,4.213,4.212,4.208,0,0,14.478,94.91,6,P-GPS,
0.368474389520405,36.9024088256232,5536.509773625,12.139108,0.223694,0.75450461732,8200,2018-04-08 07:49:05,11,0,16.629,5536.509773625,12.139108,0.3131716,0.75450461732,0.223694,0,-3.35541,176.5, -3.4, -0.6,0,1,1024,1024,1315,1024,177,0,99,4.211,4.213,4.212,4.208,0,0,14.478,94.91,6,P-GPS,
0.368474540818322,36.9024087381702,5536.837857625,12.467192,0.223694,0.79511485484,8300,2018-04-08 07:49:05,11,0,16.629,5536.837857625,12.467192,0.3131716,0.79511485484,0.223694,0,-3.35541,176.6, -3.8, -0.4,0,1,1024,1024,1316,1024,177,0,99,4.211,4.213,4.212,4.208,0,0,14.478,94.91,6,P-GPS,
0.368474645957995,36.9024086552202,5537.494025625,13.12336,0.3131716,0.82282482948,8400,2018-04-08 07:49:05,11,0,16.629,5537.494025625,13.12336,0.3131716,0.82282482948,0.223694,-0.223694,-3.35541,176.5, -3.8, -0.2,0,1,1024,1024,1317,1024,177,0,99,4.211,4.213,4.212,4.208,0,0,14.478,94.91,6,P-GPS,
0.36847474503782,36.9024085623803,5538.150193625,13.779528,0.3131716,0.84947181196,8500,2018-04-08 07:49:05,11,0,16.735,5538.150193625,13.779528,0.3131716,0.84947181196,0.223694,-0.223694,-3.35541,176.4, -3.7, -1.1,0,1,1024,1024,1315,1024,177,0,99,4.195,4.197,4.193,4.191,0,0,14.478,94.91,6,P-GPS,
0.368474894281048,36.9024084837955,5538.478277625,14.107612,0.3131716,0.89704399196,8600,2018-04-08 07:49:05,11,0,16.735,5538.478277625,14.107612,0.3131716,0.89704399196,0.223694,-0.223694,-3.35541,176.4, -3.8, -1.9,0,1,1024,1024,1312,1024,177,0,99,4.195,4.197,4.193,4.191,0,0,14.478,94.91,6,P-GPS,
0.36847503003445,36.9024084279194,5539.134445625,14.76378,0.223694,0.94255580444,8700,2018-04-08 07:49:05,11,0,16.735,5539.134445625,14.76378,0.3131716,0.94255580444,0.223694,0,-3.35541,176.4, -4.3, -1.9,0,1,1024,1024,1312,1024,177,-0.1,99,4.195,4.197,4.193,4.191,0,0,14.478,94.91,6,P-GPS,
0.368475135353455,36.902408384908,5539.462529625,15.091864,0,0.97843835152,8800,2018-04-08 07:49:05,11,0,16.735,5539.462529625,15.091864,0.3131716,0.97843835152,0,0,-3.35541,176.5, -4.4, -1.1,0,1,1024,1024,1302,1024,177,-0.6,99,4.195,4.197,4.193,4.191,0,0,14.478,94.91,6,P-GPS,
0.368475233385376,36.9024083699965,5540.118697625,15.748032,0,1.01326774896,8900,2018-04-08 07:49:06,11,0,16.735,5540.118697625,15.748032,0.3131716,1.01326774896,0,0,-3.35541,176.5, -4.5, -0.8,0,1,1024,1024,1337,1023,177,-1.3,99,4.195,4.197,4.193,4.191,0,0,14.478,94.91,6,P-GPS,
0.368475409203182,36.9024083848026,5541.102949625,16.732284,0,1.07760502136,9100,2018-04-08 07:49:06,11,0,16.735,5541.102949625,16.732284,0.3131716,1.07760502136,0,0,-3.35541,176.5, -3.7, -0.1,0,1,1024,1024,1343,1023,177,-2.1,99,4.195,4.197,4.193,4.191,0,0,14.478,94.91,6,P-GPS,
0.368475478228038,36.9024083964931,5541.431033625,17.060368,0,1.1031168332,9200,2018-04-08 07:49:06,11,0,16.735,5541.431033625,17.060368,0.3131716,1.1031168332,0,0,-3.579104,176.5, -3.6, -0.4,0,1,1024,1024,1361,1024,177,-2.3,99,4.195,4.197,4.193,4.191,0,0,14.478,94.91,6,P-GPS,
0.368475537732196,36.902408403595,5542.087201625,17.716536,0,1.12498035096,9300,2018-04-08 07:49:06,11,0,16.735,5542.087201625,17.716536,0.3131716,1.12498035096,0,0,-3.579104,176.5, -3.6, -0.3,0,1,1024,1024,1360,1023,176.9,-2.3,99,4.195,4.197,4.193,4.191,0,0,14.478,94.91,6,P-GPS,
0.368475569839412,36.9024083602689,5542.743369625,18.372704,0,1.1348917686,9400,2018-04-08 07:49:06,11,0,16.735,5542.743369625,18.372704,0.3131716,1.1348917686,0,0,-3.802798,176.4, -3.8, -0.5,0,1,1024,1024,1345,1021,176.9,-2.3,99,4.195,4.197,4.193,4.191,0,0,14.478,94.91,6,P-GPS,
0.36847558994866,36.9024083260189,5543.071453625,18.700788,0,1.14098756932,9500,2018-04-08 07:49:06,11,0,16.603,5543.071453625,18.700788,0.3131716,1.14098756932,0,0,-4.026492,176.5, -3.7, -1.1,0,1,1024,1024,1359,1023,176.9,-2.3,99,4.192,4.193,4.19,4.185,0,0,13.44,94.91,6,P-GPS,
0.368475553931142,36.9024083057945,5543.727621625,19.356956,0,1.12725069224,9600,2018-04-08 07:49:06,11,0,16.603,5543.727621625,19.356956,0.3131716,1.14098756932,0,0,-4.026492,176.5, -3.7, -0.9,0,1,1024,1024,1376,1024,176.9,-2.3,99,4.192,4.193,4.19,4.185,0,0,13.44,94.91,6,P-GPS,
0.368475517518117,36.9024083030139,5544.383789625,20.013124,0,1.113927201,9700,2018-04-08 07:49:06,11,0,16.603,5544.383789625,20.013124,0.3131716,1.14098756932,0,0,-4.026492,176.5, -3.2, 0,0,1,1024,1024,1413,1024,176.9,-2.3,99,4.192,4.193,4.19,4.185,0,0,13.44,94.91,6,P-GPS,
0.368475455169474,36.9024082952426,5545.039957625,20.669292,0,1.09102037612,9800,2018-04-08 07:49:06,11,0,16.603,5545.039957625,20.669292,0.3131716,1.14098756932,0,0,-4.250186,176.4, -2.6, 0,0,1,1024,1024,1446,1024,176.9,-2.3,99,4.192,4.193,4.19,4.185,0,0,13.44,94.91,6,P-GPS,
0.368475409618639,36.9024082590368,5545.696125625,21.32546,0,1.073408827,9900,2018-04-08 07:49:07,11,0,16.603,5545.696125625,21.32546,0.3131716,1.14098756932,0,0,-4.47388,176.4, -2.5, -0.7,0,1,1024,1024,1469,1024,176.9,-2.3,99,4.192,4.193,4.19,4.185,0,0,13.44,94.91,6,P-GPS,
0.368475425954171,36.9024082095919,5546.352293625,21.981628,0,1.0781824492,10000,2018-04-08 07:49:07,11,0,16.603,5546.352293625,21.981628,0.3131716,1.14098756932,0,0,-4.921268,176.4, -2.6, -1,0,1,1024,1024,1475,1024,176.9,-2.3,99,4.192,4.193,4.19,4.185,0,0,13.44,94.91,6,P-GPS,
0.368475439831567,36.9024081599098,5547.008461625,22.637796,0,1.08236880104,10100,2018-04-08 07:49:07,11,0,16.603,5547.008461625,22.637796,0.3131716,1.14098756932,0,0,-5.368656,176.5, -3, -1,0,1,1024,1024,1482,1024,176.9,-2.3,99,4.192,4.193,4.19,4.185,0,0,13.44,94.91,6,P-GPS,
0.368475475925418,36.902408082049,5547.992713625,23.622048,0.223694,1.0947834996,10200,2018-04-08 07:49:07,11,0,16.603,5547.992713625,23.622048,0.3131716,1.14098756932,0,-0.223694,-5.816044,176.5, -4, -0.7,0,1,1024,1024,1477,1024,176.9,-2.3,99,4.192,4.193,4.19,4.185,0,0,13.44,94.91,6,P-GPS,
0.368475481975087,36.9024079805091,5548.976965625,24.6063,0.223694,1.0971293002,10300,2018-04-08 07:49:07,11,0,16.603,5548.976965625,24.6063,0.3131716,1.14098756932,0,-0.223694,-6.039738,176.4, -3.8, -1.6,0,1,1024,1024,1477,1024,176.9,-2.3,99,4.192,4.193,4.19,4.185,0,0,13.44,94.91,6,P-GPS,
0.368475471966264,36.9024078537977,5549.961217625,25.590552,0.223694,1.09541014004,10400,2018-04-08 07:49:07,11,0,16.603,5549.961217625,25.590552,0.3131716,1.14098756932,0,-0.223694,-6.263432,176.3, -3.4, -3.3,0,1,1024,1024,1499,1024,176.9,-2.3,99,4.192,4.193,4.19,4.185,0,0,13.44,94.91,6,P-GPS,
0.368475464148104,36.9024077484269,5550.617385625,26.24672,0.223694,1.09565948388,10500,2018-04-08 07:49:07,11,0,16.629,5550.617385625,26.24672,0.3131716,1.14098756932,0,-0.223694,-6.487126,176.3, -2.8, -3.6,0,1,1024,1024,1504,1024,176.9,-2.3,99,4.165,4.167,4.166,4.164,0,0,15.096,94.91,6,P-GPS,
0.368475492313671,36.902407622822,5551.601637625,27.230972,0,1.11126643976,10600,2018-04-08 07:49:07,11,0,16.629,5551.601637625,27.230972,0.3131716,1.14098756932,0,0,-6.71082,176.4, -3.3, -2.9,0,1,1024,1024,1504,1024,176.9,-2.3,99,4.165,4.167,4.166,4.164,0,0,15.096,94.91,6,P-GPS,
0.368475544964523,36.902407526644,5552.585889625,28.215224,0,1.13558402584,10700,2018-04-08 07:49:07,11,0,16.629,5552.585889625,28.215224,0.3131716,1.14098756932,0,0,-6.71082,176.4, -4.4, -2.4,0,1,1024,1024,1504,1024,176.9,-2.3,99,4.165,4.167,4.166,4.164,0,0,15.096,94.91,6,P-GPS,
0.36847560851455,36.9024074370749,5553.898225625,29.52756,0.223694,1.16420935484,10800,2018-04-08 07:49:07,11,0,16.629,5553.898225625,29.52756,0.3131716,1.16420935484,0,-0.223694,-6.934514,176.5, -4.6, -2.6,0,1,1024,1024,1514,1024,176.9,-2.3,99,4.165,4.167,4.166,4.164,0,0,15.096,94.91,6,P-GPS,
0.368475664697903,36.9024073451986,5554.882477625,30.511812,0.223694,1.19104990688,10900,2018-04-08 07:49:07,11,0,16.629,5554.882477625,30.511812,0.3131716,1.19104990688,0,-0.223694,-6.934514,176.6, -4.2, -3.3,0,1,1024,1024,1524,1024,176.9,-2.3,99,4.165,4.167,4.166,4.164,0,0,15.096,94.91,6,P-GPS,
0.368475787087683,36.9024072864273,5555.866729625,31.496064,0.223694,1.2393045016,11000,2018-04-08 07:49:08,11,0,16.629,5555.866729625,31.496064,0.3131716,1.2393045016,0,-0.223694,-6.934514,176.6, -4.3, -3.1,0,1,1024,1024,1522,1024,176.9,-2.3,99,4.165,4.167,4.166,4.164,0,0,15.096,94.91,6,P-GPS,
0.36847591956608,36.9024072347638,5556.850981625,32.480316,0.3131716,1.29064636676,11100,2018-04-08 07:49:08,11,0,16.629,5556.850981625,32.480316,0.3131716,1.29064636676,0.223694,-0.223694,-7.158208,176.5, -4.8, -4.5,0,1,1024,1024,1509,1024,176.8,-2.3,99,4.165,4.167,4.166,4.164,0,0,15.096,94.91,6,P-GPS,
0.368476106389521,36.9024072866447,5557.835233625,33.464568,0.223694,1.35311356036,11200,2018-04-08 07:49:08,11,0,16.629,5557.835233625,33.464568,0.3131716,1.35311356036,0.223694,0,-7.158208,176.7, -5.9, -4.6,0,1,1024,1024,1515,1024,176.8,-2.3,99,4.165,4.167,4.166,4.164,0,0,15.096,94.91,6,P-GPS,
0.36847627469959,36.9024073997694,5559.147569625,34.776904,0.223694,1.40581697412,11300,2018-04-08 07:49:08,11,0,16.629,5559.147569625,34.776904,0.3131716,1.40581697412,0.223694,0,-7.381902,176.6, -6.7, -2.4,0,1,1024,1024,1515,1024,176.8,-2.3,99,4.165,4.167,4.166,4.164,0,0,15.096,94.91,6,P-GPS,
0.368476454074528,36.902407576556,5560.131821625,35.761156,0,1.46148626724,11400,2018-04-08 07:49:08,11,0,16.629,5560.131821625,35.761156,0.3131716,1.46148626724,0,0,-7.158208,176.5, -5.8, -1,0,1,1024,1024,1514,1024,176.8,-2.3,99,4.165,4.167,4.166,4.164,0,0,15.096,94.91,6,P-GPS,
0.368476607931647,36.9024077379595,5561.116073625,36.745408,0,1.51178810612,11500,2018-04-08 07:49:08,11,0,16.524,5561.116073625,36.745408,0.3131716,1.51178810612,0,0,-7.381902,176.6, -5.3, -0.8,0,1,1024,1024,1506,1024,176.8,-2.3,99,4.165,4.167,4.166,4.164,0,0,15.296,94.91,6,P-GPS,
0.368476756720946,36.9024078753513,5562.428409625,38.057744,0,1.56317590304,11600,2018-04-08 07:49:08,11,0,16.524,5562.428409625,38.057744,0.3131716,1.56317590304,0,0,-7.381902,176.6, -6, -0.7,0,1,1024,1024,1502,1024,176.8,-2.3,99,4.165,4.167,4.166,4.164,0,0,15.296,94.91,6,P-GPS,
0.368476901356594,36.9024080059195,5563.412661625,39.041996,0,1.6148130438,11700,2018-04-08 07:49:08,11,0,16.524,5563.412661625,39.041996,0.3131716,1.6148130438,0,0,-7.158208,176.6, -6.3, -0.9,0,1,1024,1024,1504,1024,176.8,-2.3,99,4.165,4.167,4.166,4.164,0,0,15.296,94.91,6,P-GPS,
0.368477019667834,36.9024081196467,5564.396913625,40.026248,0,1.65816278272,11800,2018-04-08 07:49:08,11,0,16.524,5564.396913625,40.026248,0.3131716,1.65816278272,0,0,-7.158208,176.6, -6.1, -0.4,0,1,1024,1024,1512,1024,176.8,-2.3,99,4.165,4.167,4.166,4.164,0,0,15.296,94.91,6,P-GPS,
0.368477130445078,36.9024082279336,5565.709249625,41.338584,0,1.69968509376,11900,2018-04-08 07:49:09,11,0,16.524,5565.709249625,41.338584,0.3131716,1.69968509376,0,0,-6.934514,176.6, -5.8, -0.6,0,1,1024,1024,1515,1024,176.8,-2.3,99,4.165,4.167,4.166,4.164,0,0,15.296,94.91,6,P-GPS,
0.368477282128021,36.9024083070263,5566.693501625,42.322836,0,1.75633535804,12000,2018-04-08 07:49:09,12,0,16.524,5566.693501625,42.322836,0.3131716,1.75633535804,0,0,-7.158208,176.6, -5.6, -0.4,0,1,1024,1024,1514,1024,176.8,-2.6,99,4.165,4.167,4.166,4.164,0,0,15.296,94.91,6,P-GPS,
0.368477448918242,36.9024083808065,5567.677753625,43.307088,0,1.81872709232,12100,2018-04-08 07:49:09,12,0,16.524,5567.677753625,43.307088,0.3131716,1.81872709232,0,0,-7.158208,176.6, -5.8, -0.4,0,1,1024,1024,1514,1024,176.8,-3.7,99,4.165,4.167,4.166,4.164,0,0,15.296,94.91,6,P-GPS,
0.368477679838165,36.9024084535255,5568.662005625,44.29134,0,1.90469822368,12200,2018-04-08 07:49:09,12,0,16.524,5568.662005625,44.29134,0.3131716,1.90469822368,0,0,-7.158208,176.7, -6.2, -0.8,0,1,1024,1024,1520,1024,176.8,-5.1,99,4.165,4.167,4.166,4.164,0,0,15.296,94.91,6,P-GPS,
0.368477885839562,36.9024085390206,5569.974341625,45.603676,0,1.98224087708,12300,2018-04-08 07:49:09,12,0,16.524,5569.974341625,45.603676,0.3131716,1.98224087708,0,0,-7.381902,176.7, -6.6, -0.8,0,1,1024,1024,1516,1024,176.8,-6.8,99,4.165,4.167,4.166,4.164,0,0,15.296,94.91,6,P-GPS,
0.368478138894264,36.9024086410064,5570.958593625,46.587928,0,2.07777893788,12400,2018-04-08 07:49:09,12,0,16.524,5570.958593625,46.587928,0.3131716,2.07777893788,0,0,-7.158208,176.7, -6.7, -0.8,0,1,1024,1024,1509,1024,176.8,-9.3,99,4.165,4.167,4.166,4.164,0,0,15.296,94.91,6,P-GPS,
0.36847835166306,36.9024087529792,5572.270929625,47.900264,0,2.1595145048,12500,2018-04-08 07:49:09,12,0,16.577,5572.270929625,47.900264,0.3131716,2.1595145048,0,0,-7.158208,176.7, -6.6, -0.8,0,1,1024,1024,1512,1024,176.8,-11.9,99,4.165,4.166,4.164,4.168,0,0,15.296,94.91,6,P-GPS,
0.368478579390375,36.9024088497913,5573.255181625,48.884516,0.223694,2.24637802464,12600,2018-04-08 07:49:09,12,0,16.577,5573.255181625,48.884516,0.3131716,2.24637802464,0,0.223694,-6.934514,176.6, -7.3, 0,0,1,1024,1024,1514,1024,176.8,-14.3,99,4.165,4.166,4.164,4.168,0,0,15.296,94.91,6,P-GPS,
0.368478760172391,36.9024089691175,5574.239433625,49.868768,0.223694,2.3177330138,12700,2018-04-08 07:49:09,12,0,16.577,5574.239433625,49.868768,0.3131716,2.3177330138,0,0,-6.934514,176.5, -7, 0.5,0,1,1024,1024,1509,1024,176.8,-16.7,99,4.165,4.166,4.164,4.168,0,0,15.296,94.91,6,P-GPS,
0.368478873438864,36.9024090723503,5575.223685625,50.85302,0.223694,2.36431766096,12800,2018-04-08 07:49:09,12,0,16.577,5575.223685625,50.85302,0.3131716,2.36431766096,0,0.223694,-7.158208,176.5, -5.7, -0.3,0,1,1024,1024,1501,1024,176.8,-19,99,4.165,4.166,4.164,4.168,0,0,15.296,94.91,6,P-GPS,
0.368478967337133,36.9024091974844,5576.536021625,52.165356,0.223694,2.40572186176,12900,2018-04-08 07:49:09,12,0,16.577,5576.536021625,52.165356,0.3131716,2.40572186176,0,0.223694,-7.158208,176.5, -5.7, 0.6,0,1,1024,1024,1483,1024,176.8,-20.5,99,4.165,4.166,4.164,4.168,0,0,15.296,94.91,6,P-GPS,
0.368479098905077,36.9024093023582,5577.520273625,53.149608,0.223694,2.4598590026,13000,2018-04-08 07:49:10,12,0,16.577,5577.520273625,53.149608,0.3131716,2.4598590026,0,0.223694,-6.934514,176.5, -6, 1.2,0,1,1024,1024,1458,1024,176.8,-20.5,99,4.165,4.166,4.164,4.168,0,0,15.296,94.91,6,P-GPS,
0.368479206369608,36.902409398185,5578.832609625,54.461944,0,2.5050525736,13100,2018-04-08 07:49:10,12,0,16.577,5578.832609625,54.461944,0.3131716,2.5050525736,0,0,-7.158208,176.5, -5.5, 1.6,0,1,1024,1024,1450,1024,176.8,-20.5,99,4.165,4.166,4.164,4.168,0,0,15.296,94.91,6,P-GPS,
0.368479308380225,36.9024094415957,5579.816861625,55.446196,0,2.54467855912,13200,2018-04-08 07:49:10,12,0,16.577,5579.816861625,55.446196,0.3131716,2.54467855912,0,0,-6.71082,176.5, -5.9, 1.1,0,1,1024,1024,1457,1024,176.8,-20.5,99,4.165,4.166,4.164,4.168,0,0,15.296,94.91,6,P-GPS,
0.368479401426462,36.9024094698751,5580.801113625,56.430448,0,2.58000992508,13300,2018-04-08 07:49:10,12,0,16.577,5580.801113625,56.430448,0.3131716,2.58000992508,0,0,-6.487126,176.5, -6.3, 0.1,0,1,1024,1024,1460,1024,176.8,-20.5,99,4.165,4.166,4.164,4.168,0,0,15.296,94.91,6,P-GPS,
0.368479495249263,36.9024094446242,5581.785365625,57.4147,0,2.61172580536,13400,2018-04-08 07:49:10,12,0,16.577,5581.785365625,57.4147,0.3131716,2.61172580536,0,0,-6.263432,176.6, -6, -0.2,0,1,1024,1024,1460,1024,176.8,-20.5,99,4.165,4.166,4.164,4.168,0,0,15.296,94.91,6,P-GPS,
0.36847957265633,36.9024094384245,5582.769617625,58.398952,0,2.63898958576,13500,2018-04-08 07:49:10,12,0,16.603,5582.769617625,58.398952,0.3131716,2.63898958576,0,0,-6.487126,176.6, -5.5, -0.2,0,1,1024,1024,1462,1024,176.8,-20.5,99,4.159,4.163,4.159,4.16,0,0,14.756,94.91,6,P-GPS,
0.368479671416879,36.9024094298098,5583.753869625,59.383204,0,2.67375664724,13600,2018-04-08 07:49:10,12,0,16.603,5583.753869625,59.383204,0.3131716,2.67375664724,0,0,-6.263432,176.6, -6, -0.7,0,1,1024,1024,1462,1024,176.8,-20.5,99,4.159,4.163,4.159,4.16,0,0,14.756,94.91,6,P-GPS,
0.368479760064994,36.9024094330969,5584.738121625,60.367456,0,2.70574483724,13700,2018-04-08 07:49:10,12,0,16.603,5584.738121625,60.367456,0.3131716,2.70574483724,0,0,-6.263432,176.6, -6.1, -0.7,0,1,1024,1024,1478,1024,176.8,-20.5,99,4.159,4.163,4.159,4.16,0,0,14.756,94.91,6,P-GPS,
0.368479825047237,36.9024094757105,5585.722373625,61.351708,0,2.7319718722,13800,2018-04-08 07:49:10,12,0,16.603,5585.722373625,61.351708,0.3131716,2.7319718722,0,0,-6.263432,176.6, -5.9, 0.5,0,1,1024,1024,1478,1024,176.8,-20.5,99,4.159,4.163,4.159,4.16,0,0,14.756,94.91,6,P-GPS,
0.368479893840548,36.9024095023201,5586.706625625,62.33596,0,2.75846793604,13900,2018-04-08 07:49:11,12,0,16.603,5586.706625625,62.33596,0.3131716,2.75846793604,0,0,-6.263432,176.6, -6.2, 0.1,0,1,1024,1024,1476,1024,176.8,-20.5,99,4.159,4.163,4.159,4.16,0,0,14.756,94.91,6,P-GPS,
0.368479972867816,36.9024095271511,5587.690877625,63.320212,0,2.78851058792,14000,2018-04-08 07:49:11,12,0,16.603,5587.690877625,63.320212,0.3131716,2.78851058792,0,0,-6.487126,176.6, -6.8, -0.4,0,1,1024,1024,1479,1024,176.8,-20.5,99,4.159,4.163,4.159,4.16,0,0,14.756,94.91,6,P-GPS,
0.368480037235525,36.9024095584218,5588.675129625,64.304464,0,2.81376977508,14100,2018-04-08 07:49:11,12,0,16.603,5588.675129625,64.304464,0.3131716,2.81376977508,0,0,-6.039738,176.6, -7, 0,0,1,1024,1024,1480,1024,176.8,-20.5,99,4.159,4.163,4.159,4.16,0,0,14.756,94.91,6,P-GPS,
0.368480104412301,36.9024096162678,5589.659381625,65.288716,0,2.8419948416,14200,2018-04-08 07:49:11,12,0,16.603,5589.659381625,65.288716,0.3131716,2.8419948416,0,0,-6.263432,176.5, -6.7, 0.5,0,1,1024,1024,1484,1024,176.8,-20.5,99,4.159,4.163,4.159,4.16,0,0,14.756,94.91,6,P-GPS,
0.368480136010017,36.9024096458957,5590.643633625,66.272968,0,2.85548237484,14300,2018-04-08 07:49:11,12,0,16.603,5590.643633625,66.272968,0.3131716,2.85548237484,0,0,-6.487126,176.6, -6.2, 0.1,0,1,1024,1024,1485,1024,176.8,-20.5,99,4.159,4.163,4.159,4.16,0,0,14.756,94.91,6,P-GPS,
0.368480189463284,36.9024096409342,5591.627885625,67.25722,0,2.87420612872,14400,2018-04-08 07:49:11,12,0,16.603,5591.627885625,67.25722,0.3131716,2.87420612872,0,0,-6.71082,176.6, -6.4, 0.2,0,1,1024,1024,1485,1024,176.8,-20.5,99,4.159,4.163,4.159,4.16,0,0,14.756,94.91,6,P-GPS,
0.368480215657213,36.9024096168524,5592.940221625,68.569556,0,2.88180127332,14500,2018-04-08 07:49:11,12,0,16.603,5592.940221625,68.569556,0.3131716,2.88180127332,0,0,-6.71082,176.5, -6.7, -0.1,0,1,1024,1024,1485,1024,176.8,-20.5,99,4.159,4.163,4.159,4.16,0,0,14.756,94.91,6,P-GPS,
0.368480233856093,36.9024095578814,5593.924473625,69.553808,0,2.884104423,14600,2018-04-08 07:49:11,12,0,16.603,5593.924473625,69.553808,0.3131716,2.884104423,0,0,-6.71082,176.6, -5.8, -1.4,0,1,1024,1024,1486,1024,176.8,-20.5,99,4.159,4.163,4.159,4.16,0,0,14.756,94.91,6,P-GPS,
0.368480230508419,36.9024095190524,5595.236809625,70.866144,0,2.88022318928,14700,2018-04-08 07:49:11,12,0,16.603,5595.236809625,70.866144,0.3131716,2.884104423,0,0,-6.934514,176.6, -5.4, -1.7,0,1,1024,1024,1486,1024,176.8,-20.5,99,4.159,4.163,4.159,4.16,0,0,14.756,94.91,6,P-GPS,
0.368480238682801,36.9024094860494,5596.221061625,71.850396,0,2.88092856988,14800,2018-04-08 07:49:11,12,0,16.603,5596.221061625,71.850396,0.3131716,2.884104423,0,0,-6.71082,176.7, -5.7, -1,0,1,1024,1024,1481,1024,176.8,-20.5,99,4.159,4.163,4.159,4.16,0,0,14.756,94.91,6,P-GPS,
0.368480254222227,36.9024094811227,5597.205313625,72.834648,0,2.88617463304,14900,2018-04-08 07:49:11,12,0,16.603,5597.205313625,72.834648,0.3131716,2.88617463304,0,0,-6.71082,176.6, -6, -0.3,0,1,1024,1024,1481,1024,176.8,-20.5,99,4.159,4.163,4.159,4.16,0,0,14.756,94.91,6,P-GPS,
0.368480293709145,36.9024095075463,5598.189565625,73.8189,0,2.90210311124,15000,2018-04-08 07:49:12,12,0,16.603,5598.189565625,73.8189,0.3131716,2.90210311124,0,0,-6.71082,176.6, -6.5, -0.2,0,1,1024,1024,1482,1024,176.8,-20.5,99,4.159,4.163,4.159,4.16,0,0,14.756,94.91,6,P-GPS,
0.368480326155891,36.9024095306552,5599.173817625,74.803152,0,2.91529864972,15100,2018-04-08 07:49:12,12,0,16.603,5599.173817625,74.803152,0.3131716,2.91529864972,0,0,-6.487126,176.6, -6.7, 0,0,1,1024,1024,1482,1024,176.8,-20.5,99,4.159,4.163,4.159,4.16,0,0,14.756,94.91,6,P-GPS,
0.36848038538871,36.9024095410487,5600.158069625,75.787404,0,2.9372376268,15200,2018-04-08 07:49:12,12,0,16.603,5600.158069625,75.787404,0.3131716,2.9372376268,0,0,-6.487126,176.5, -6.7, -0.1,0,1,1024,1024,1482,1024,176.8,-20.5,99,4.159,4.163,4.159,4.16,0,0,14.756,94.91,6,P-GPS,
0.368480418743517,36.9024095515822,5601.142321625,76.771656,0,2.94990823088,15300,2018-04-08 07:49:12,12,0,16.603,5601.142321625,76.771656,0.3131716,2.94990823088,0,0,-6.487126,176.6, -6.6, -0.7,0,1,1024,1024,1482,1023,176.8,-20.5,99,4.159,4.163,4.159,4.16,0,0,14.756,94.91,6,P-GPS,
0.368480464116038,36.9024095290929,5602.126573625,77.755908,0,2.96466216836,15400,2018-04-08 07:49:12,12,0,16.603,5602.126573625,77.755908,0.3131716,2.96466216836,0,0,-6.263432,176.6, -6.5, -0.3,0,1,1024,1024,1487,1023,176.8,-20.5,99,4.159,4.163,4.159,4.16,0,0,14.756,94.91,6,P-GPS,
0.368480499035984,36.9024095378443,5603.110825625,78.74016,0,2.977772405,15500,2018-04-08 07:49:12,12,0,16.629,5603.110825625,78.74016,0.3131716,2.977772405,0,0,-6.263432,176.7, -6.6, 0.2,0,1,1024,1024,1502,1023,176.8,-20.5,99,4.165,4.167,4.16,4.155,0,0,14.636,94.91,6,P-GPS,
0.368480523951177,36.9024095527518,5605.079329625,80.708664,0,2.98770678852,15700,2018-04-08 07:49:12,12,0,16.629,5605.079329625,80.708664,0.3131716,2.98770678852,0,0,-6.71082,176.6, -6.6, 0.3,0,1,1024,1024,1509,1024,176.8,-20.5,99,4.165,4.167,4.16,4.155,0,0,14.636,94.91,6,P-GPS,
0.368480515813843,36.9024095037919,5606.063581625,81.692916,0,2.98154209016,15800,2018-04-08 07:49:12,12,0,16.629,5606.063581625,81.692916,0.3131716,2.98770678852,0,0,-6.71082,176.5, -6.5, 0.2,0,1,1024,1024,1504,1024,176.8,-20.5,99,4.165,4.167,4.16,4.155,0,0,14.636,94.91,6,P-GPS,
0.368480502863845,36.9024094754239,5607.375917625,83.005252,0,2.97505915032,15900,2018-04-08 07:49:13,12,0,16.629,5607.375917625,83.005252,0.3131716,2.98770678852,0,0,-6.934514,176.6, -6.6, 0.1,0,1,1024,1024,1505,1024,176.8,-20.5,99,4.165,4.167,4.16,4.155,0,0,14.636,94.91,6,P-GPS,
0.368480486882907,36.9024094401,5608.360169625,83.989504,0,2.9670768666,16000,2018-04-08 07:49:13,12,0,16.629,5608.360169625,83.989504,0.3131716,2.98770678852,0,0,-6.934514,176.6, -6.9, 0.3,0,1,1024,1024,1505,1024,176.8,-20.5,99,4.165,4.167,4.16,4.155,0,0,14.636,94.91,6,P-GPS,
0.368480464692304,36.9024094274114,5609.344421625,84.973756,0,2.95830718128,16100,2018-04-08 07:49:13,12,0,16.629,5609.344421625,84.973756,0.3131716,2.98770678852,0,0,-6.71082,176.6, -6.8, 0.2,0,1,1024,1024,1505,1024,176.8,-20.5,99,4.165,4.167,4.16,4.155,0,0,14.636,94.91,6,P-GPS,
0.368480471589782,36.9024094184927,5610.328673625,85.958008,0,2.96023303436,16200,2018-04-08 07:49:13,12,0,16.629,5610.328673625,85.958008,0.3131716,2.98770678852,0,0,-6.934514,176.6, -6.6, 0.6,0,1,1024,1024,1505,1024,176.8,-20.5,99,4.165,4.167,4.16,4.155,0,0,14.636,94.91,6,P-GPS,
0.368480448821489,36.902409422,5611.641009625,87.270344,0.223694,2.952263874,16300,2018-04-08 07:49:13,12,0,16.629,5611.641009625,87.270344,0.3131716,2.98770678852,-0.223694,0,-6.934514,176.6, -6.1, 0.9,0,1,1024,1024,1506,1024,176.8,-20.5,99,4.165,4.167,4.16,4.155,0,0,14.636,94.91,6,P-GPS,
0.36848042483919,36.9024094069611,5612.625261625,88.254596,0.223694,2.94271006792,16400,2018-04-08 07:49:13,12,0,16.629,5612.625261625,88.254596,0.3131716,2.98770678852,-0.223694,0,-6.71082,176.7, -6, 0.9,0,1,1024,1024,1505,1024,176.8,-20.5,99,4.165,4.167,4.16,4.155,0,0,14.636,94.91,6,P-GPS,
0.368480376336189,36.9024093958907,5613.609513625,89.238848,0.223694,2.92458670776,16500,2018-04-08 07:49:13,12,0,16.577,5613.609513625,89.238848,0.3131716,2.98770678852,-0.223694,0,-6.934514,176.7, -5.6, 1,0,1,1024,1024,1505,1024,176.8,-20.5,99,4.165,4.167,4.16,4.155,0,0,14.636,94.91,6,P-GPS,
0.368480272154246,36.9024093630978,5614.593765625,90.2231,0.223694,2.8851050792,16600,2018-04-08 07:49:13,12,0,16.577,5614.593765625,90.2231,0.3131716,2.98770678852,-0.223694,0,-6.934514,176.7, -5.3, 0.8,0,1,1024,1024,1504,1024,176.8,-20.5,99,4.165,4.167,4.16,4.155,0,0,14.636,94.91,6,P-GPS,
0.368480170619948,36.9024093330409,5615.906101625,91.535436,0.223694,2.8467520596,16700,2018-04-08 07:49:13,12,0,16.577,5615.906101625,91.535436,0.3131716,2.98770678852,-0.223694,0,-6.934514,176.7, -5.3, 0.5,0,1,1024,1024,1504,1024,176.8,-20.5,99,4.165,4.167,4.16,4.155,0,0,14.636,94.91,6,P-GPS,
0.368480081463047,36.9024093014639,5616.890353625,92.519688,0.223694,2.81277239972,16800,2018-04-08 07:49:13,12,0,16.577,5616.890353625,92.519688,0.3131716,2.98770678852,-0.223694,0,-6.934514,176.6, -5.3, 0.2,0,1,1024,1024,1505,1024,176.8,-20.5,99,4.165,4.167,4.16,4.155,0,0,14.636,94.91,6,P-GPS,
0.368479988452839,36.9024092871094,5617.874605625,93.50394,0.223694,2.77843840912,16900,2018-04-08 07:49:14,12,0,16.577,5617.874605625,93.50394,0.3131716,2.98770678852,-0.223694,0,-6.934514,176.7, -5, 0.4,0,1,1024,1024,1503,1024,176.8,-20.5,99,4.165,4.167,4.16,4.155,0,0,14.636,94.91,6,P-GPS,
0.368479919862066,36.9024092922026,5618.858857625,94.488192,0.223694,2.75406176792,17000,2018-04-08 07:49:14,12,0,16.577,5618.858857625,94.488192,0.3131716,2.98770678852,-0.223694,0,-6.934514,176.7, -4.7, 0.6,0,1,1024,1024,1502,1024,176.8,-20.5,99,4.165,4.167,4.16,4.155,0,0,14.636,94.91,6,P-GPS,
0.368479845164322,36.9024092992863,5620.171193625,95.800528,0.223694,2.72762147836,17100,2018-04-08 07:49:14,12,0,16.577,5620.171193625,95.800528,0.3131716,2.98770678852,-0.223694,0,-6.934514,176.6, -4.6, 0.6,0,1,1024,1024,1513,1024,176.8,-20.5,99,4.165,4.167,4.16,4.155,0,0,14.636,94.91,6,P-GPS,
0.368479769620601,36.902409272305,5621.155445625,96.78478,0.223694,2.69879929896,17200,2018-04-08 07:49:14,12,0,16.577,5621.155445625,96.78478,0.3131716,2.98770678852,-0.223694,0,-6.71082,176.6, -4.6, 0.6,0,1,1024,1024,1513,1024,176.8,-20.5,99,4.165,4.167,4.16,4.155,0,0,14.636,94.91,6,P-GPS,
0.368479697739047,36.9024092558406,5622.139697625,97.769032,0.223694,2.67194234272,17300,2018-04-08 07:49:14,12,0,16.577,5622.139697625,97.769032,0.3131716,2.98770678852,-0.223694,0,-6.934514,176.6, -4.5, 0.8,0,1,1024,1024,1535,1024,176.8,-20.5,99,4.165,4.167,4.16,4.155,0,0,14.636,94.91,6,P-GPS,
0.368479662873247,36.902409235492,5623.123949625,98.753284,0,2.65817265724,17400,2018-04-08 07:49:14,12,0,16.577,5623.123949625,98.753284,0.3131716,2.98770678852,0,0,-7.158208,176.5, -4.6, 0.8,0,1,1024,1024,1524,1024,176.8,-20.5,99,4.165,4.167,4.16,4.155,0,0,14.636,94.91,6,P-GPS,
0.36847962249435,36.9024092128442,5624.436285625,100.06562,0,2.6422901108,17500,2018-04-08 07:49:14,12,0,16.471,5624.436285625,100.06562,0.3131716,2.98770678852,0,0,-7.381902,176.6, -4.5, 0.3,0,1,1024,1024,1508,1024,176.8,-20.5,99,4.161,4.16,4.156,4.152,0,0,14.446,94.91,6,P-GPS,
0.368479598159799,36.9024091174031,5626.732873625,102.362208,0,2.62811032032,17700,2018-04-08 07:49:14,12,0,16.471,5626.732873625,102.362208,0.3131716,2.98770678852,0,0,-7.605596,176.6, -5.3, 0.5,0,1,1024,1024,1548,1024,176.8,-20.5,99,4.161,4.16,4.156,4.152,0,0,14.446,94.91,6,P-GPS,
0.36847961535576,36.9024090946501,5628.045209625,103.674544,0,2.63309063544,17800,2018-04-08 07:49:14,12,0,16.471,5628.045209625,103.674544,0.3131716,2.98770678852,0,0,-7.381902,176.6, -5.9, 0.6,0,1,1024,1024,1575,1024,176.8,-20.5,99,4.161,4.16,4.156,4.152,0,0,14.446,94.91,6,P-GPS,
0.368479624676058,36.9024090752667,5629.029461625,104.658796,0,2.6354331552,17900,2018-04-08 07:49:15,12,0,16.471,5629.029461625,104.658796,0.3131716,2.98770678852,0,0,-7.605596,176.5, -5.1, -0.1,0,1,1024,1024,1581,1024,176.8,-20.5,99,4.161,4.16,4.156,4.152,0,0,14.446,94.91,6,P-GPS,
0.368479659200088,36.9024090785288,5630.341797625,105.971132,0,2.64807095088,18000,2018-04-08 07:49:15,12,0,16.471,5630.341797625,105.971132,0.3131716,2.98770678852,0,0,-7.82929,176.6, -4.9, 0,0,1,1024,1024,1576,1024,176.8,-20.5,99,4.161,4.16,4.156,4.152,0,0,14.446,94.91,6,P-GPS,
0.368479701563041,36.9024091045493,5631.654133625,107.283468,0,2.66473433724,18100,2018-04-08 07:49:15,12,0,16.471,5631.654133625,107.283468,0.3131716,2.98770678852,0,0,-8.500372,176.5, -5.4, 0.4,0,1,1024,1024,1574,1024,176.8,-20.5,99,4.161,4.16,4.156,4.152,0,0,14.446,94.91,6,P-GPS,
0.36847979220142,36.9024091108662,5632.966469625,108.595804,0,2.6977855194,18200,2018-04-08 07:49:15,12,0,16.471,5632.966469625,108.595804,0.3131716,2.98770678852,0,0,-8.724066,176.5, -6.6, 1,0,1,1024,1024,1587,1024,176.8,-20.5,99,4.161,4.16,4.156,4.152,0,0,14.446,94.91,6,P-GPS,
0.368479862890749,36.902409121787,5634.278805625,109.90814,0,2.7238846016,18300,2018-04-08 07:49:15,12,0,16.471,5634.278805625,109.90814,0.3131716,2.98770678852,0,0,-8.94776,176.5, -6.6, 1.5,0,1,1024,1024,1590,1024,176.8,-20.5,99,4.161,4.16,4.156,4.152,0,0,14.446,94.91,6,P-GPS,
0.368479942510465,36.9024091399981,5635.919225625,111.54856,0,2.75358932696,18400,2018-04-08 07:49:15,12,0,16.471,5635.919225625,111.54856,0.3131716,2.98770678852,0,0,-8.94776,176.5, -6.5, 1.4,0,1,1024,1024,1599,1024,176.8,-20.5,99,4.161,4.16,4.156,4.152,0,0,14.446,94.91,6,P-GPS,
0.368480013437038,36.9024091419185,5637.231561625,112.860896,0,2.77929470836,18500,2018-04-08 07:49:15,12,0,16.524,5637.231561625,112.860896,0.3131716,2.98770678852,0,0,-9.171454,176.6, -6.5, 1.1,0,1,1024,1024,1602,1024,176.8,-20.5,98,4.152,4.157,4.154,4.151,0,0,14.932,94.91,6,P-GPS,
0.36848009029593,36.9024090767398,5638.543897625,114.173232,0,2.80374680888,18600,2018-04-08 07:49:15,12,0,16.524,5638.543897625,114.173232,0.3131716,2.98770678852,0,0,-8.94776,176.5, -7, 0.3,0,1,1024,1024,1604,1024,176.8,-20.5,98,4.152,4.157,4.154,4.151,0,0,14.932,94.91,6,P-GPS,
0.368480144410753,36.9024090268501,5640.184317625,115.813652,0,2.82093841048,18700,2018-04-08 07:49:15,12,0,16.524,5640.184317625,115.813652,0.3131716,2.98770678852,0,0,-9.171454,176.5, -6.2, -1,0,1,1024,1024,1608,1024,176.8,-20.5,98,4.152,4.157,4.154,4.151,0,0,14.932,94.91,6,P-GPS,
0.368480206245621,36.902409000142,5641.496653625,117.125988,0,2.84209982848,18800,2018-04-08 07:49:15,12,0,16.524,5641.496653625,117.125988,0.3131716,2.98770678852,0,0,-9.395148,176.6, -6.4, 0,0,1,1024,1024,1609,1024,176.8,-20.5,98,4.152,4.157,4.154,4.151,0,0,14.932,94.91,6,P-GPS,
0.368480291130096,36.9024090312639,5642.808989625,118.438324,0,2.87424221796,18900,2018-04-08 07:49:16,12,0,16.524,5642.808989625,118.438324,0.3131716,2.98770678852,0,0,-9.171454,176.5, -7.6, 1.7,0,1,1024,1024,1608,1024,176.8,-20.5,98,4.152,4.157,4.154,4.151,0,0,14.932,94.91,6,P-GPS,
0.368480369537029,36.9024090683861,5644.449409625,120.078744,0,2.90433736328,19000,2018-04-08 07:49:16,12,0,16.524,5644.449409625,120.078744,0.3131716,2.98770678852,0,0,-9.171454,176.5, -7.9, 2,0,1,1024,1024,1608,1024,176.8,-20.5,98,4.152,4.157,4.154,4.151,0,0,14.932,94.91,6,P-GPS,
0.368480418101707,36.9024090932848,5645.761745625,121.39108,0,2.92308736388,19100,2018-04-08 07:49:16,12,0,16.524,5645.761745625,121.39108,0.3131716,2.98770678852,0,0,-9.395148,176.5, -7.7, 1.2,0,1,1024,1024,1610,1024,176.8,-20.5,98,4.152,4.157,4.154,4.151,0,0,14.932,94.91,6,P-GPS,
0.368480464600297,36.9024090797549,5647.074081625,122.703416,0,2.93926846676,19200,2018-04-08 07:49:16,12,0,16.524,5647.074081625,122.703416,0.3131716,2.98770678852,0,0,-9.171454,176.5, -7.5, 1.3,0,1,1024,1024,1615,1024,176.8,-20.5,98,4.152,4.157,4.154,4.151,0,0,14.932,94.91,6,P-GPS,
0.36848046819529,36.9024090871315,5648.386417625,124.015752,0,2.94091544844,19300,2018-04-08 07:49:16,12,0,16.524,5648.386417625,124.015752,0.3131716,2.98770678852,0,0,-8.94776,176.4, -7.1, 1.3,0,1,1024,1024,1619,1024,176.8,-20.5,98,4.152,4.157,4.154,4.151,0,0,14.932,94.91,6,P-GPS,
0.368480442859959,36.9024091185649,5649.698753625,125.328088,0,2.93326452956,19400,2018-04-08 07:49:16,12,0,16.524,5649.698753625,125.328088,0.3131716,2.98770678852,0,0,-8.94776,176.5, -6.3, 1.3,0,1,1024,1024,1624,1024,176.8,-20.5,98,4.152,4.157,4.154,4.151,0,0,14.932,94.91,6,P-GPS,
0.368480390972644,36.9024091681702,5651.011089625,126.640424,0.223694,2.91699812484,19500,2018-04-08 07:49:16,12,0,16.366,5651.011089625,126.640424,0.3131716,2.98770678852,-0.223694,0,-9.171454,176.5, -5.7, 1.8,0,1,1024,1024,1623,1024,176.8,-20.5,98,4.145,4.142,4.134,4.13,0,0,16.488,94.91,6,P-GPS,
0.368480373269219,36.9024092251629,5652.323425625,127.95276,0.223694,2.91360901712,19600,2018-04-08 07:49:16,12,0,16.366,5652.323425625,127.95276,0.3131716,2.98770678852,-0.223694,0,-9.171454,176.5, -5, 2.2,0,1,1024,1024,1623,1024,176.8,-20.5,98,4.145,4.142,4.134,4.13,0,0,16.488,94.91,6,P-GPS,
0.368480346528947,36.902409256184,5653.635761625,129.265096,0,2.90566282264,19700,2018-04-08 07:49:16,12,0,16.366,5653.635761625,129.265096,0.3131716,2.98770678852,0,0,-9.395148,176.5, -4.8, 1.8,0,1,1024,1024,1622,1024,176.8,-20.5,98,4.145,4.142,4.134,4.13,0,0,16.488,94.91,6,P-GPS,
0.368480369649798,36.902409227582,5655.276181625,130.905516,0,2.9124344764,19800,2018-04-08 07:49:16,12,0,16.366,5655.276181625,130.905516,0.3131716,2.98770678852,0,0,-9.395148,176.5, -5.5, 1.2,0,1,1024,1024,1622,1024,176.8,-20.5,98,4.145,4.142,4.134,4.13,0,0,16.488,94.91,6,P-GPS,
0.368480376640505,36.9024092052081,5656.588517625,132.217852,0,2.91375665492,19900,2018-04-08 07:49:17,12,0,16.366,5656.588517625,132.217852,0.3131716,2.98770678852,0,0,-9.171454,176.5, -5.8, 1.2,0,1,1024,1024,1622,1024,176.8,-20.5,98,4.145,4.142,4.134,4.13,0,0,16.488,94.91,6,P-GPS,
0.368480405091661,36.9024091618737,5657.900853625,133.530188,0,2.92177502788,20000,2018-04-08 07:49:17,12,0,16.366,5657.900853625,133.530188,0.3131716,2.98770678852,0,0,-9.395148,176.4, -5.5, 1.2,0,1,1024,1024,1624,1024,176.8,-20.5,98,4.145,4.142,4.134,4.13,0,0,16.488,94.91,6,P-GPS,
0.368480403146281,36.9024091210429,5659.213189625,134.842524,0,2.91902568396,20100,2018-04-08 07:49:17,12,0,16.366,5659.213189625,134.842524,0.3131716,2.98770678852,0,0,-9.171454,176.4, -5.2, 0.9,0,1,1024,1024,1626,1024,176.8,-20.5,98,4.145,4.142,4.134,4.13,0,0,16.488,94.91,6,P-GPS,
0.368480417888177,36.9024090806492,5660.525525625,136.15486,0,2.92241151084,20200,2018-04-08 07:49:17,12,0,16.366,5660.525525625,136.15486,0.3131716,2.98770678852,0,0,-9.395148,176.5, -5.1, 0.5,0,1,1024,1024,1625,1024,176.8,-20.5,98,4.145,4.142,4.134,4.13,0,0,16.488,94.91,6,P-GPS,
0.368480419590512,36.9024090543753,5662.165945625,137.79528,0,2.92179799376,20300,2018-04-08 07:49:17,12,0,16.366,5662.165945625,137.79528,0.3131716,2.98770678852,0,0,-9.395148,176.4, -5.3, 0.9,0,1,1024,1024,1625,1024,176.8,-20.5,98,4.145,4.142,4.134,4.13,0,0,16.488,94.91,6,P-GPS,
0.368480403521841,36.902409043497,5663.478281625,139.107616,0,2.91548237676,20400,2018-04-08 07:49:17,12,0,16.366,5663.478281625,139.107616,0.3131716,2.98770678852,0,0,-9.618842,176.4, -5.3, 0.8,0,1,1024,1024,1626,1024,176.8,-20.5,98,4.145,4.142,4.134,4.13,0,0,16.488,94.91,6,P-GPS,
0.368480377095044,36.902409028869,5664.790617625,140.419952,0,2.90525271764,20500,2018-04-08 07:49:17,12,0,16.366,5664.790617625,140.419952,0.3131716,2.98770678852,0,0,-9.618842,176.5, -5.2, 0.1,0,1,1024,1024,1619,1024,176.8,-20.5,98,4.145,4.142,4.134,4.13,0,0,16.488,94.91,6,P-GPS,
0.368480449571184,36.9024090002092,5667.743373625,143.372708,0,2.93022975256,20700,2018-04-08 07:49:17,12,0,16.366,5667.743373625,143.372708,0.3131716,2.98770678852,0,0,-9.618842,176.6, -5.7, 1.1,0,1,1024,1024,1620,1023,176.8,-20.5,98,4.145,4.142,4.134,4.13,0,0,16.488,94.91,6,P-GPS,
0.368480496519428,36.9024089976261,5669.383793625,145.013128,0,2.94712279772,20800,2018-04-08 07:49:17,12,0,16.366,5669.383793625,145.013128,0.3131716,2.98770678852,0,0,-9.618842,176.5, -5.6, 1.1,0,1,1024,1024,1629,1023,176.8,-20.5,98,4.145,4.142,4.134,4.13,0,0,16.488,94.91,6,P-GPS,
0.368480525259836,36.9024089822274,5670.696129625,146.325464,0,2.95688001588,20900,2018-04-08 07:49:18,12,0,16.366,5670.696129625,146.325464,0.3131716,2.98770678852,0,0,-9.618842,176.5, -5.3, 0.8,0,1,1024,1024,1629,1023,176.8,-20.5,98,4.145,4.142,4.134,4.13,0,0,16.488,94.91,6,P-GPS,
0.36848056575252,36.9024089211685,5672.336549625,147.965884,0,2.96906833648,21000,2018-04-08 07:49:18,12,0,16.366,5672.336549625,147.965884,0.3131716,2.98770678852,0,0,-9.842536,176.5, -6.1, 0,0,1,1024,1024,1635,1023,176.8,-20.5,98,4.145,4.142,4.134,4.13,0,0,16.488,94.91,6,P-GPS,
0.368480594665137,36.9024088930994,5673.648885625,149.27822,0,2.97847122392,21100,2018-04-08 07:49:18,12,0,16.366,5673.648885625,149.27822,0.3131716,2.98770678852,0,0,-9.842536,176.5, -6.7, -0.5,0,1,1024,1024,1638,1023,176.8,-20.5,98,4.145,4.142,4.134,4.13,0,0,16.488,94.91,6,P-GPS,
0.36848064995366,36.9024088951226,5675.289305625,150.91864,0,2.99860901984,21200,2018-04-08 07:49:18,12,0,16.366,5675.289305625,150.91864,0.3131716,2.99860901984,0,0,-10.06623,176.5, -6.7, 0,0,1,1024,1024,1639,1022,176.8,-20.5,98,4.145,4.142,4.134,4.13,0,0,16.488,94.91,6,P-GPS,
0.368480676618209,36.9024089626711,5676.601641625,152.230976,0.223694,3.01093185488,21300,2018-04-08 07:49:18,12,0,16.366,5676.601641625,152.230976,0.3131716,3.01093185488,0,0.223694,-10.06623,176.5, -6, 1.4,0,1,1024,1024,1639,1022,176.8,-20.5,98,4.145,4.142,4.134,4.13,0,0,16.488,94.91,6,P-GPS,
0.368480721326732,36.9024090639752,5678.242061625,153.871396,0.223694,3.03146663244,21400,2018-04-08 07:49:18,12,0,16.366,5678.242061625,153.871396,0.3131716,3.03146663244,0,0.223694,-10.06623,176.6, -5.5, 2.7,0,1,1024,1024,1644,1022,176.8,-20.5,98,4.145,4.142,4.134,4.13,0,0,16.488,94.91,6,P-GPS,
0.36848075700879,36.9024091613715,5679.882481625,155.511816,0.223694,3.04894038628,21500,2018-04-08 07:49:18,12,0,16.419,5679.882481625,155.511816,0.3131716,3.04894038628,0,0.223694,-10.289924,176.6, -5.7, 3,0,1,1024,1024,1640,1022,176.8,-20.5,98,4.128,4.131,4.127,4.123,0,0,17.35,94.91,6,P-GPS,
0.368480832711284,36.9024092206051,5681.194817625,156.824152,0,3.07925534788,21600,2018-04-08 07:49:18,12,0,16.419,5681.194817625,156.824152,0.3131716,3.07925534788,0,0,-10.289924,176.5, -6.2, 3.1,0,1,1024,1024,1641,1022,176.8,-20.5,98,4.128,4.131,4.127,4.123,0,0,17.35,94.91,6,P-GPS,
0.368480897284991,36.9024092696742,5682.835237625,158.464572,0,3.1051182096,21700,2018-04-08 07:49:18,12,0,16.419,5682.835237625,158.464572,0.3131716,3.1051182096,0,0,-10.289924,176.5, -6.5, 2.9,0,1,1024,1024,1624,1022,176.8,-20.5,98,4.128,4.131,4.127,4.123,0,0,17.35,94.91,6,P-GPS,
0.368480987942708,36.9024092718998,5684.475657625,160.104992,0,3.13796597968,21800,2018-04-08 07:49:18,12,0,16.419,5684.475657625,160.104992,0.3131716,3.13796597968,0,0,-10.513618,176.5, -6.9, 2.9,0,1,1024,1024,1639,1022,176.8,-20.5,98,4.128,4.131,4.127,4.123,0,0,17.35,94.91,6,P-GPS,
0.36848106132304,36.9024092678769,5685.787993625,161.417328,0,3.16425863144,21900,2018-04-08 07:49:19,12,0,16.419,5685.787993625,161.417328,0.3131716,3.16425863144,0,0,-10.06623,176.4, -7.6, 3,0,1,1024,1024,1640,1023,176.8,-20.5,98,4.128,4.131,4.127,4.123,0,0,17.35,94.91,6,P-GPS,
0.368481134072555,36.9024092318024,5687.428413625,163.057748,0,3.18872057448,22000,2018-04-08 07:49:19,12,0,16.419,5687.428413625,163.057748,0.3131716,3.18872057448,0,0,-9.842536,176.4, -7.4, 2.1,0,1,1024,1024,1625,1023,176.8,-20.5,98,4.128,4.131,4.127,4.123,0,0,17.35,94.91,6,P-GPS,
0.368481169340988,36.9024092063456,5689.068833625,164.698168,0,3.20022319952,22100,2018-04-08 07:49:19,12,0,16.419,5689.068833625,164.698168,0.3131716,3.20022319952,0,0,-10.289924,176.5, -7, 1.8,0,1,1024,1024,1624,1023,176.8,-20.5,98,4.128,4.131,4.127,4.123,0,0,17.35,94.91,6,P-GPS,
0.368481238966332,36.9024091293267,5690.381169625,166.010504,0,3.22182425008,22200,2018-04-08 07:49:19,12,0,16.419,5690.381169625,166.010504,0.3131716,3.22182425008,0,0,-9.842536,176.5, -7.3, 1.9,0,1,1024,1024,1642,1024,176.8,-20.5,98,4.128,4.131,4.127,4.123,0,0,17.35,94.91,6,P-GPS,
