latitude,longitude,altitude(feet),ascent(feet),speed(mph),distance(feet),time(millisecond),datetime(utc),satellites,gpslevel,voltage(v),max_altitude(feet),max_ascent(feet),max_speed(mph),max_distance(feet), xSpeed(mph), ySpeed(mph), zSpeed(mph), compass_heading(degrees), pitch(degrees), roll(degrees),isPhoto,isVideo,rc_elevator,rc_aileron,rc_throttle,rc_rudder,gimbal_heading(degrees),gimbal_pitch(degrees),battery_percent,voltageCell1,voltageCell2,voltageCell3,voltageCell4,voltageCell5,voltageCell6,current(A),battery_temperature(f),flycStateRaw,flycState,message
0.347652618187613,36.8999803424081,5713.3814118308,0,0,0,0,2018-04-04 13:21:32,12,0,0,5713.3814118308,0,0,0,0,0,0,134.9, -1.4, 4.2,0,0,364,364,364,1684,139.5,0,99,4.299,4.305,4.304,4.302,0,0,0,87.71,41,Motors_Started,
0.34765263357366,36.899980342504,5713.3814118308,0,0,0.0056137140904,100,2018-04-04 13:21:32,12,0,0,5713.3814118308,0,0,0.0056137140904,0,0,0,134.9, -1.4, 4.2,0,0,364,364,364,1684,139.5,0,99,4.299,4.305,4.304,4.302,0,0,0,87.71,41,Motors_Started,
0.347652643084079,36.8999803419538,5713.3814118308,0,0,0.009084974044,200,2018-04-04 13:21:32,12,0,0,5713.3814118308,0,0,0.009084974044,0,0,0,134.9, -1.3, 4.2,0,0,364,364,364,1684,139.5,0,99,4.299,4.305,4.304,4.302,0,0,0,87.71,41,Motors_Started,
0.347652648361255,36.8999803276491,5713.3814118308,0,0,0.0122551841192,300,2018-04-04 13:21:32,12,0,0,5713.3814118308,0,0,0.0122551841192,0,0,0,134.8, -1.3, 4.2,0,0,364,364,364,1684,139.5,0,99,4.299,4.305,4.304,4.302,0,0,0,87.71,41,Motors_Started,
0.347652651691118,36.8999802998221,5713.3814118308,0,0,0.0197692919712,400,2018-04-04 13:21:32,12,0,0,5713.3814118308,0,0,0.0197692919712,0,0,0,134.9, -1.3, 4.2,0,0,364,364,364,1684,139.5,0,99,4.299,4.305,4.304,4.302,0,0,0,87.71,41,Motors_Started,
0.347652669900378,36.8999802757349,5713.3814118308,0,0,0.0307846466544,500,2018-04-04 13:21:33,12,0,0,5713.3814118308,0,0,0.0307846466544,0,0,0,134.8, -1.3, 4.2,0,0,364,364,364,1684,139.5,0,99,4.299,4.305,4.304,4.302,0,0,0,87.71,41,Motors_Started,
0.347652699281986,36.8999802604979,5713.3814118308,0,0,0.042053150952,600,2018-04-04 13:21:33,12,0,17.195,5713.3814118308,0,0,0.042053150952,0,0,0,134.8, -1.3, 4.2,0,0,364,364,364,1684,139.5,0,99,4.299,4.305,4.304,4.302,0,0,1.506,87.71,41,Motors_Started,Setting new Return-To-Home altitude to 30m (98 ft). Setting new Maximum Flight Altitude to 150m (492 ft)
0.347652726033454,36.8999802320447,5713.3814118308,0,0,0.056298558232,700,2018-04-04 13:21:33,12,0,17.195,5713.3814118308,0,0,0.056298558232,0,0,0,134.8, -1.3, 4.2,0,0,364,364,364,1684,139.5,0,99,4.299,4.305,4.304,4.302,0,0,1.506,87.71,41,Motors_Started,
0.34765274175893,36.8999801941959,5713.3814118308,0,0,0.07040354556,800,2018-04-04 13:21:33,12,0,17.195,5713.3814118308,0,0,0.07040354556,0,0,0,134.8, -1.3, 4.3,0,0,364,364,364,1684,139.5,0,99,4.299,4.305,4.304,4.302,0,0,1.506,87.71,41,Motors_Started,
0.347652759134835,36.8999800903023,5713.3814118308,0,0,0.105378284212,1000,2018-04-04 13:21:33,12,0,17.195,5713.3814118308,0,0,0.105378284212,0,0,0,134.9, -1.2, 4.3,0,0,364,364,364,1684,139.5,0,99,4.299,4.305,4.304,4.302,0,0,1.506,87.71,41,Motors_Started,
0.347652779954186,36.8999800446506,5713.3814118308,0,0,0.123632221804,1100,2018-04-04 13:21:33,12,0,17.195,5713.3814118308,0,0,0.123632221804,0,0,0,134.8, -1.3, 4.3,0,0,408,364,493,1536,139.4,0,99,4.299,4.305,4.304,4.302,0,0,1.506,87.71,41,Motors_Started,
0.34765280982392,36.8999800249365,5713.3814118308,0,0,0.135294295668,1200,2018-04-04 13:21:33,12,0,17.195,5713.3814118308,0,0,0.135294295668,0,0,0,134.8, -1.3, 4.2,0,0,536,415,683,1304,139.1,0,99,4.299,4.305,4.304,4.302,0,0,1.506,87.71,41,Motors_Started,
0.347652838183781,36.8999800024124,5713.3814118308,0,0,0.147748692392,1300,2018-04-04 13:21:33,12,0,17.195,5713.3814118308,0,0,0.147748692392,0,0,0,134.8, -1.3, 4.3,0,0,873,754,914,1048,139.1,0,99,4.299,4.305,4.304,4.302,0,0,1.506,87.71,41,Motors_Started,
0.347652854839201,36.8999799953784,5713.3814118308,0,0,0.153249348736,1400,2018-04-04 13:21:33,12,0,17.195,5713.3814118308,0,0,0.153249348736,0,0,0,134.8, -1.3, 4.3,0,0,1024,953,1024,1024,138.2,0,99,4.299,4.305,4.304,4.302,0,0,1.506,87.71,41,Motors_Started,
0.347652865610747,36.89997997232,5713.3814118308,0,0,0.162420936956,1500,2018-04-04 13:21:34,12,0,17.195,5713.3814118308,0,0,0.162420936956,0,0,0,134.8, -0.9, 4.4,0,0,1024,1024,1024,1024,137,0,99,4.299,4.305,4.304,4.302,0,0,1.506,87.71,10,Assisted_Takeoff,
0.347652873508599,36.8999799448599,5713.3814118308,0,0,0.17238025486,1600,2018-04-04 13:21:34,12,0,17.195,5713.3814118308,0,0,0.17238025486,0,0,0,134.7, -1.6, 4.1,0,0,1024,1024,1024,1024,136.4,0,99,4.271,4.279,4.306,4.297,0,0,2.92,87.71,10,Assisted_Takeoff,
0.347652871834965,36.8999799097556,5713.3814118308,0,0,0.182977696144,1700,2018-04-04 13:21:34,12,0,17.195,5713.3814118308,0,0,0.182977696144,0,0,0,134.7, -1.2, 4.3,0,0,1024,1024,1024,1024,136,0,99,4.271,4.279,4.306,4.297,0,0,2.92,87.71,10,Assisted_Takeoff,
0.347652871274068,36.8999798624032,5713.3814118308,0,0,0.197978680876,1800,2018-04-04 13:21:34,12,0,17.195,5713.3814118308,0,0,0.197978680876,0,0,0,134.7, -1.4, 4.1,0,0,1024,1024,1024,1024,135.8,0,99,4.271,4.279,4.306,4.297,0,0,2.92,87.71,10,Assisted_Takeoff,
0.34765286510654,36.8999798297328,5713.3814118308,0,0,0.207610242864,1900,2018-04-04 13:21:34,12,0,17.195,5713.3814118308,0,0,0.207610242864,0,0,0,134.7, -1.3, 4.2,0,0,1024,1024,1024,1024,135.7,0,99,4.271,4.279,4.306,4.297,0,0,2.92,87.71,10,Assisted_Takeoff,
0.34765286090373,36.8999798052248,5713.3814118308,0,0,0.215065295596,2000,2018-04-04 13:21:34,12,0,17.195,5713.3814118308,0,0,0.215065295596,0,0,0,134.7, -1.4, 4.1,0,0,1024,1024,1024,1024,135.6,0,99,4.271,4.279,4.306,4.297,0,0,2.92,87.71,10,Assisted_Takeoff,
0.347652870509921,36.8999797750475,5713.3814118308,0,0,0.226545610924,2100,2018-04-04 13:21:34,12,0,17.195,5713.3814118308,0,0,0.226545610924,0,0,0,134.7, -1.3, 4.2,0,0,1024,1024,1024,1024,135.5,0,99,4.271,4.279,4.306,4.297,0,0,2.92,87.71,10,Assisted_Takeoff,
0.347652894784423,36.8999797369318,5713.3814118308,0,0,0.242863196748,2200,2018-04-04 13:21:34,12,0,17.195,5713.3814118308,0,0,0.242863196748,0,0,0,134.7, -1.4, 4.2,0,0,1024,1024,1024,1024,135.5,0,99,4.271,4.279,4.306,4.297,0,0,2.92,87.71,10,Assisted_Takeoff,
0.34765291724148,36.8999797082861,5713.3814118308,0,0,0.255792659104,2300,2018-04-04 13:21:34,12,0,17.195,5713.3814118308,0,0,0.255792659104,0,0,0,134.7, -1.3, 4.2,0,0,1024,1024,1024,1024,135.4,0,99,4.271,4.279,4.306,4.297,0,0,2.92,87.71,10,Assisted_Takeoff,
0.34765293079105,36.8999796910126,5713.3814118308,0,0,0.263607619984,2400,2018-04-04 13:21:34,12,0,17.195,5713.3814118308,0,0,0.263607619984,0,0,0,134.7, -1.3, 4.2,0,0,1024,1024,1050,1024,135.4,0,99,4.271,4.279,4.306,4.297,0,0,2.92,87.71,10,Assisted_Takeoff,
0.347652940689343,36.8999796646764,5713.3814118308,0,0,0.273834326348,2500,2018-04-04 13:21:35,12,0,17.195,5713.3814118308,0,0,0.273834326348,0,0,0,134.7, -1.3, 4.2,0,0,1024,1024,1109,1024,135.3,0,99,4.271,4.279,4.306,4.297,0,0,2.92,87.71,10,Assisted_Takeoff,
0.347652947117219,36.8999796301852,5713.3814118308,0,0,0.28622376244,2600,2018-04-04 13:21:35,12,0,16.929,5713.3814118308,0,0,0.28622376244,0,0,0,134.7, -1.3, 4.2,0,0,1024,1024,1271,1024,135.3,0,99,4.271,4.279,4.306,4.297,0,0,2.92,87.71,10,Assisted_Takeoff,
0.34765294933516,36.899979604238,5713.3814118308,0,0,0.295175206296,2700,2018-04-04 13:21:35,12,0,16.929,5713.3814118308,0,0,0.295175206296,0,0,0,134.7, -1.3, 4.2,0,0,1024,1024,1271,1024,135.3,0,99,4.271,4.279,4.306,4.297,0,0,2.92,87.71,10,Assisted_Takeoff,
0.347652951024569,36.8999795874346,5713.3814118308,0,0,0.301027240604,2800,2018-04-04 13:21:35,12,0,16.929,5713.3814118308,0,0,0.301027240604,0,0,0,134.7, -1.3, 4.3,0,0,1024,1024,1339,1024,135.3,0,99,4.271,4.279,4.306,4.297,0,0,2.92,87.71,10,Assisted_Takeoff,
0.347652947933069,36.8999795612494,5713.3814118308,0,0,0.309352372104,2900,2018-04-04 13:21:35,12,0,16.929,5713.3814118308,0,0,0.309352372104,0,0,0,134.8, -1.1, 4.4,0,0,1024,1024,1461,1024,135.3,0,99,4.271,4.279,4.306,4.297,0,0,2.92,87.71,10,Assisted_Takeoff,
0.347652944540308,36.8999794777662,5713.3814118308,0,0,0.33718176932,3100,2018-04-04 13:21:35,12,0,16.929,5713.3814118308,0,0,0.33718176932,0,0,0,135, 1, 4.7,0,0,1024,1024,1482,1024,135.2,0,99,4.271,4.279,4.306,4.297,0,0,2.92,87.71,10,Assisted_Takeoff,
0.347652909586979,36.8999794007438,5713.3814118308,0,0.223694,0.35963255744,3200,2018-04-04 13:21:35,12,0,16.929,5713.3814118308,0,0.223694,0.35963255744,0,-0.223694,0,135.2, 4.1, 3.8,0,0,1024,1024,1494,1024,135.2,0,99,4.271,4.279,4.306,4.297,0,0,2.92,87.71,10,Assisted_Takeoff,
0.347652882533334,36.899979215653,5713.3814118308,0,0.447388,0.42225066968,3300,2018-04-04 13:21:35,12,0,16.929,5713.3814118308,0,0.447388,0.42225066968,0,-0.447388,-0.447388,135.1, 4.9, 2.6,0,0,1024,1024,1492,1024,135.2,0,99,4.271,4.279,4.306,4.297,0,0,2.92,87.71,6,P-GPS,
0.347652909817709,36.8999788963807,5713.3814118308,0,0.671082,0.53819555528,3400,2018-04-04 13:21:35,12,0,16.929,5713.3814118308,0,0.671082,0.53819555528,0,-0.671082,-1.11847,134.9, 1.7, 0.5,0,0,1024,1024,1499,1024,135.2,0,99,4.271,4.279,4.306,4.297,0,0,2.92,87.71,6,P-GPS,
0.347652972096125,36.8999785184841,5713.7094958308,0.328084,0.671082,0.67785763324,3500,2018-04-04 13:21:36,12,0,16.929,5713.7094958308,0.328084,0.671082,0.67785763324,0,-0.671082,-1.789552,134.9, -0.1, -0.8,0,0,1024,1024,1511,1024,135.2,0,99,4.271,4.279,4.306,4.297,0,0,2.92,87.71,6,P-GPS,
0.347653044405552,36.8999781638888,5713.7094958308,0.328084,0.447388,0.80988519652,3600,2018-04-04 13:21:36,12,0,17.168,5713.7094958308,0.328084,0.671082,0.80988519652,0,-0.447388,-2.460634,134.8, -0.2, -1.7,0,0,1024,1024,1518,1024,135.2,0,99,4.293,4.299,4.299,4.295,0,0,1.676,87.71,6,P-GPS,
0.347653152479172,36.8999778553889,5714.3656638308,0.984252,0.4921268,0.92807417668,3700,2018-04-04 13:21:36,12,0,17.168,5714.3656638308,0.984252,0.671082,0.92807417668,0.223694,-0.447388,-3.35541,134.9, -0.5, -1.4,0,0,1024,1024,1520,1024,135.2,0,99,4.293,4.299,4.299,4.295,0,0,1.676,87.71,6,P-GPS,Home Point Recorded. RTH Altitude:  30m.
0.34765329293837,36.8999775912719,5714.6937478308,1.312336,0.4921268,1.0334810042,3800,2018-04-04 13:21:36,12,0,17.168,5714.6937478308,1.312336,0.671082,1.0334810042,0.223694,-0.447388,-4.250186,135, -1.4, -1,0,0,1024,1024,1508,1024,135.2,0,99,4.293,4.299,4.299,4.295,0,0,1.676,87.71,6,P-GPS,Obstacle Avoided. Revise Flight Route
0.347653483527588,36.8999773716399,5715.6779998308,2.296588,0.3131716,1.12891079728,3900,2018-04-04 13:21:36,12,0,17.168,5715.6779998308,2.296588,0.671082,1.12891079728,0.223694,-0.223694,-4.921268,135, -2.8, -0.2,0,0,1024,1024,1486,1024,135.2,0,99,4.293,4.299,4.299,4.295,0,0,1.676,87.71,6,P-GPS,
0.347653671367381,36.8999771851025,5716.3341678308,2.952756,0.223694,1.21431762416,4000,2018-04-04 13:21:36,12,0,17.168,5716.3341678308,2.952756,0.671082,1.21431762416,0,-0.223694,-5.816044,135, -4, 0.5,0,0,1024,1024,1455,1024,135.2,0,99,4.293,4.299,4.299,4.295,0,0,1.676,87.71,6,P-GPS,
0.347653774117719,36.8999770539436,5717.3184198308,3.937008,0.223694,1.27173888584,4100,2018-04-04 13:21:36,12,0,17.168,5717.3184198308,3.937008,0.671082,1.27173888584,0,-0.223694,-6.487126,135, -3.7, -0.4,0,0,1024,1024,1445,1024,135.2,0,99,4.293,4.299,4.299,4.295,0,0,1.676,87.71,6,P-GPS,
0.347653798818976,36.8999769578439,5718.3026718308,4.92126,0.223694,1.3078084408,4200,2018-04-04 13:21:36,12,0,17.168,5718.3026718308,4.92126,0.671082,1.3078084408,0,-0.223694,-6.71082,135.1, -2.5, -1,0,0,1024,1024,1444,1024,135.2,0,99,4.293,4.299,4.299,4.295,0,0,1.676,87.71,6,P-GPS,
0.34765380137034,36.8999769019204,5719.2869238308,5.905512,0,1.32739177476,4300,2018-04-04 13:21:36,12,0,17.168,5719.2869238308,5.905512,0.671082,1.32739177476,0,0,-6.71082,135.1, -1.5, -0.6,0,0,1024,1024,1446,1024,135.2,0,99,4.293,4.299,4.299,4.295,0,0,1.676,87.71,6,P-GPS,
0.347653780871487,36.8999767664513,5721.2554278308,7.874016,0.223694,1.37189308852,4500,2018-04-04 13:21:37,12,0,17.168,5721.2554278308,7.874016,0.671082,1.37189308852,0,-0.223694,-6.487126,135, -1.4, -2.2,0,0,1024,1024,1446,1024,135.2,0,99,4.293,4.299,4.299,4.295,0,0,1.676,87.71,6,P-GPS,
0.347653768310077,36.8999767160355,5722.2396798308,8.858268,0,1.38800529376,4600,2018-04-04 13:21:37,12,0,16.478,5722.2396798308,8.858268,0.671082,1.38800529376,0,0,-6.263432,135.1, -1.6, -2.5,0,0,1024,1024,1448,1024,135.2,0,99,4.151,4.16,4.15,4.145,0,0,15.766,87.71,6,P-GPS,
0.347653762240867,36.8999767005867,5723.2239318308,9.84252,0,1.39271329916,4700,2018-04-04 13:21:37,12,0,16.478,5723.2239318308,9.84252,0.671082,1.39271329916,0,0,-6.263432,134.9, -1.3, -1.7,0,0,1024,1024,1446,1024,135.2,0,99,4.151,4.16,4.15,4.145,0,0,15.766,87.71,6,P-GPS,
0.347653770286398,36.8999767023243,5724.2081838308,10.826772,0,1.39299217056,4800,2018-04-04 13:21:37,12,0,16.478,5724.2081838308,10.826772,0.671082,1.39299217056,0,0,-6.039738,134.9, -0.7, -1,0,0,1024,1024,1441,1024,135.2,0,99,4.151,4.16,4.15,4.145,0,0,15.766,87.71,6,P-GPS,
0.347653776209252,36.8999767094053,5724.8643518308,11.48294,0,1.39118442772,4900,2018-04-04 13:21:37,12,0,16.478,5724.8643518308,11.48294,0.671082,1.39299217056,0,0,-5.816044,134.8, -0.5, -1,0,0,1024,1024,1442,1024,135.2,0,99,4.151,4.16,4.15,4.145,0,0,15.766,87.71,6,P-GPS,
0.347653792553334,36.8999767209533,5725.8486038308,12.467192,0,1.38899938828,5000,2018-04-04 13:21:37,12,0,16.478,5725.8486038308,12.467192,0.671082,1.39299217056,0,0,-5.816044,134.9, -1, -1,0,0,1024,1024,1439,1024,135.2,0,99,4.151,4.16,4.15,4.145,0,0,15.766,87.71,6,P-GPS,
0.347653798789867,36.8999767477778,5726.8328558308,13.451444,0,1.38040030664,5100,2018-04-04 13:21:37,12,0,16.478,5726.8328558308,13.451444,0.671082,1.39299217056,0,0,-5.59235,135, -1.2, -0.8,0,0,1024,1024,1440,1024,135.2,0,99,4.151,4.16,4.15,4.145,0,0,15.766,87.71,6,P-GPS,
0.347653792760553,36.8999767966369,5727.4890238308,14.107612,0,1.36278219584,5200,2018-04-04 13:21:37,12,0,16.478,5727.4890238308,14.107612,0.671082,1.39299217056,0,0,-5.59235,135, -0.9, -0.5,0,0,1024,1024,1441,1024,135.2,0,99,4.151,4.16,4.15,4.145,0,0,15.766,87.71,6,P-GPS,
0.347653753805323,36.8999768750911,5728.4732758308,15.091864,0,1.33114833656,5300,2018-04-04 13:21:37,12,0,16.478,5728.4732758308,15.091864,0.671082,1.39299217056,0,0,-5.59235,135, -0.2, -0.3,0,0,1024,1024,1440,1024,135.2,0,99,4.151,4.16,4.15,4.145,0,0,15.766,87.71,6,P-GPS,
0.347653698975614,36.8999769659261,5729.1294438308,15.748032,0,1.29345804664,5400,2018-04-04 13:21:37,12,0,16.478,5729.1294438308,15.748032,0.671082,1.39299217056,0,0,-5.59235,135, 0.3, -0.7,0,0,1024,1024,1434,1024,135.2,0,99,4.151,4.16,4.15,4.145,0,0,15.766,87.71,6,P-GPS,
0.347653635032521,36.8999770528652,5730.1136958308,16.732284,0,1.25619754676,5500,2018-04-04 13:21:38,12,0,16.478,5730.1136958308,16.732284,0.671082,1.39299217056,0,0,-5.816044,134.9, 0.4, -1.3,0,0,1024,1024,1442,1024,135.2,0,99,4.151,4.16,4.15,4.145,0,0,15.766,87.71,6,P-GPS,
0.347653586801674,36.8999771364377,5731.0979478308,17.716536,0,1.22189636456,5600,2018-04-04 13:21:38,12,0,16.638,5731.0979478308,17.716536,0.671082,1.39299217056,0,0,-5.816044,134.8, 1.2, -2.1,0,0,1024,1024,1445,1024,135.2,0,99,4.169,4.178,4.171,4.168,0,0,14.568,87.71,6,P-GPS,
0.347653567390825,36.8999772164588,5731.7541158308,18.372704,0,1.19190292528,5700,2018-04-04 13:21:38,12,0,16.638,5731.7541158308,18.372704,0.671082,1.39299217056,0,0,-5.816044,134.9, 1.8, -1.3,0,0,1024,1024,1442,1024,135.2,0,99,4.169,4.178,4.171,4.168,0,0,14.568,87.71,6,P-GPS,
0.347653607246992,36.899977275741,5732.7383678308,19.356956,0,1.17560371216,5800,2018-04-04 13:21:38,12,0,16.638,5732.7383678308,19.356956,0.671082,1.39299217056,0,0,-5.816044,135, 0.7, -0.3,0,0,1024,1024,1444,1024,135.2,0,99,4.169,4.178,4.171,4.168,0,0,14.568,87.71,6,P-GPS,
0.347653684981173,36.8999773218074,5733.7226198308,20.341208,0,1.16875659908,5900,2018-04-04 13:21:38,12,0,16.638,5733.7226198308,20.341208,0.671082,1.39299217056,0,0,-5.816044,135, -0.7, 0,0,0,1024,1024,1446,1024,135.2,0,99,4.169,4.178,4.171,4.168,0,0,14.568,87.71,6,P-GPS,
0.347653775307298,36.8999773761509,5734.3787878308,20.997376,0,1.1616470188,6000,2018-04-04 13:21:38,12,0,16.638,5734.3787878308,20.997376,0.671082,1.39299217056,0,0,-5.816044,135, -1.3, -0.1,0,0,1024,1024,1446,1024,135.2,0,99,4.169,4.178,4.171,4.168,0,0,14.568,87.71,6,P-GPS,
0.347653855366286,36.8999774288093,5735.3630398308,21.981628,0,1.1548720842,6100,2018-04-04 13:21:38,12,0,16.638,5735.3630398308,21.981628,0.671082,1.39299217056,0,0,-5.816044,135, -1.5, -0.4,0,0,1024,1024,1448,1024,135.2,0,99,4.169,4.178,4.171,4.168,0,0,14.568,87.71,6,P-GPS,
0.347653930266975,36.899977467856,5736.0192078308,22.637796,0,1.15284780592,6200,2018-04-04 13:21:38,12,0,16.638,5736.0192078308,22.637796,0.671082,1.39299217056,0,0,-5.816044,135, -1.5, -0.3,0,0,1024,1024,1454,1024,135.2,0,99,4.169,4.178,4.171,4.168,0,0,14.568,87.71,6,P-GPS,
0.347654018523958,36.8999774852424,5737.0034598308,23.622048,0,1.16088914476,6300,2018-04-04 13:21:38,12,0,16.638,5737.0034598308,23.622048,0.671082,1.39299217056,0,0,-5.816044,135, -2.7, -0.4,0,0,1024,1024,1449,1024,135.2,0,99,4.169,4.178,4.171,4.168,0,0,14.568,87.71,6,P-GPS,
0.34765409988102,36.899977500337,5737.9877118308,24.6063,0,1.16937011616,6400,2018-04-04 13:21:38,12,0,16.638,5737.9877118308,24.6063,0.671082,1.39299217056,0,0,-5.816044,135, -2.8, -0.2,0,0,1024,1024,1452,1024,135.2,0,99,4.169,4.178,4.171,4.168,0,0,14.568,87.71,6,P-GPS,
0.347654122965842,36.8999775410491,5738.6438798308,25.262468,0,1.16018048332,6500,2018-04-04 13:21:38,12,0,16.638,5738.6438798308,25.262468,0.671082,1.39299217056,0,0,-5.816044,135, -2.3, 0,0,0,1024,1024,1457,1024,135.2,0,99,4.169,4.178,4.171,4.168,0,0,14.568,87.71,6,P-GPS,
0.347654092060825,36.8999775954421,5739.6281318308,26.24672,0,1.13736224112,6600,2018-04-04 13:21:39,12,0,16.638,5739.6281318308,26.24672,0.671082,1.39299217056,0,0,-5.816044,135, -2, -0.5,0,0,1024,1024,1450,1024,135.2,0,99,4.169,4.178,4.171,4.168,0,0,14.568,87.71,6,P-GPS,
0.347654027426865,36.8999776567063,5740.6123838308,27.230972,0,1.10656499604,6700,2018-04-04 13:21:39,12,0,16.638,5740.6123838308,27.230972,0.671082,1.39299217056,0,0,-5.816044,135, -1.3, -1.5,0,0,1024,1024,1449,1024,135.2,0,99,4.169,4.178,4.171,4.168,0,0,14.568,87.71,6,P-GPS,
0.347653969524689,36.899977736472,5741.5966358308,28.215224,0,1.07099084792,6800,2018-04-04 13:21:39,12,0,16.638,5741.5966358308,28.215224,0.671082,1.39299217056,0,0,-5.816044,135, -0.1, -2,0,0,1024,1024,1450,1024,135.2,0,99,4.169,4.178,4.171,4.168,0,0,14.568,87.71,6,P-GPS,
0.347653917279116,36.8999778475954,5742.2528038308,28.871392,0,1.02622706696,6900,2018-04-04 13:21:39,12,0,16.638,5742.2528038308,28.871392,0.671082,1.39299217056,0,0,-5.816044,135, 0.7, -1.9,0,0,1024,1024,1450,1024,135.2,0,99,4.169,4.178,4.171,4.168,0,0,14.568,87.71,6,P-GPS,
0.34765391171452,36.8999779623249,5743.2370558308,29.855644,0,0.98831696076,7000,2018-04-04 13:21:39,12,0,16.638,5743.2370558308,29.855644,0.671082,1.39299217056,0,0,-5.816044,135.1, -0.2, -1.3,0,0,1024,1024,1451,1024,135.2,0,99,4.169,4.178,4.171,4.168,0,0,14.568,87.71,6,P-GPS,
0.347653937216563,36.8999780618133,5743.8932238308,30.511812,0,0.96120737984,7100,2018-04-04 13:21:39,12,0,16.638,5743.8932238308,30.511812,0.671082,1.39299217056,0,0,-5.816044,135.1, -1.4, 0,0,0,1024,1024,1446,1024,135.2,0,99,4.169,4.178,4.171,4.168,0,0,14.568,87.71,6,P-GPS,
0.347653962493475,36.8999781331419,5744.8774758308,31.496064,0,0.94353021392,7200,2018-04-04 13:21:39,12,0,16.638,5744.8774758308,31.496064,0.671082,1.39299217056,0,0,-5.816044,135, -1.1, 0.3,0,0,1024,1024,1444,1024,135.2,0,99,4.169,4.178,4.171,4.168,0,0,14.568,87.71,6,P-GPS,
0.347653947992588,36.8999781787552,5745.8617278308,32.480316,0,0.9265748328,7300,2018-04-04 13:21:39,12,0,16.638,5745.8617278308,32.480316,0.671082,1.39299217056,0,0,-5.816044,135, -0.5, -0.3,0,0,1024,1024,1445,1024,135.2,0,99,4.169,4.178,4.171,4.168,0,0,14.568,87.71,6,P-GPS,
0.347653920136628,36.8999781941389,5746.5178958308,33.136484,0,0.91648953064,7400,2018-04-04 13:21:39,12,0,16.638,5746.5178958308,33.136484,0.671082,1.39299217056,0,0,-5.816044,135, -0.5, -1.3,0,0,1024,1024,1447,1024,135.2,0,99,4.169,4.178,4.171,4.168,0,0,14.568,87.71,6,P-GPS,
0.34765390428454,36.8999781688401,5747.5021478308,34.120736,0,0.92143703736,7500,2018-04-04 13:21:40,12,0,16.638,5747.5021478308,34.120736,0.671082,1.39299217056,0,0,-5.816044,135, -1.4, -1.6,0,0,1024,1024,1446,1024,135.2,0,99,4.169,4.178,4.171,4.168,0,0,14.568,87.71,6,P-GPS,
0.347653903257806,36.8999781261257,5748.4863998308,35.104988,0,0.9346949118,7600,2018-04-04 13:21:40,12,0,16.531,5748.4863998308,35.104988,0.671082,1.39299217056,0,0,-5.816044,135, -1.9, -1.5,0,0,1024,1024,1446,1024,135.2,0,99,4.171,4.179,4.168,4.164,0,0,14.59,87.71,6,P-GPS,
0.347653900269205,36.8999780937371,5749.1425678308,35.761156,0,0.94439307484,7700,2018-04-04 13:21:40,12,0,16.531,5749.1425678308,35.761156,0.671082,1.39299217056,0,0,-5.816044,135, -1.1, -1.4,0,0,1024,1024,1445,1024,135.2,0,99,4.171,4.179,4.168,4.164,0,0,14.59,87.71,6,P-GPS,
0.347653922450647,36.8999780664017,5750.1268198308,36.745408,0,0.9570702406,7800,2018-04-04 13:21:40,12,0,16.531,5750.1268198308,36.745408,0.671082,1.39299217056,0,0,-5.816044,135, -2.1, -0.9,0,0,1024,1024,1445,1024,135.2,0,99,4.171,4.179,4.168,4.164,0,0,14.59,87.71,6,P-GPS,
0.34765397556072,36.8999780124634,5751.1110718308,37.72966,0,0.98380252492,7900,2018-04-04 13:21:40,12,0,16.531,5751.1110718308,37.72966,0.671082,1.39299217056,0,0,-6.039738,135, -3.2, -0.2,0,0,1024,1024,1446,1024,135.2,0,99,4.171,4.179,4.168,4.164,0,0,14.59,87.71,6,P-GPS,
0.3476540177592,36.8999779508944,5751.7672398308,38.385828,0,1.01096459928,8000,2018-04-04 13:21:40,12,0,16.531,5751.7672398308,38.385828,0.671082,1.39299217056,0,0,-5.816044,135, -3, -0.4,0,0,1024,1024,1442,1024,135.2,0,99,4.171,4.179,4.168,4.164,0,0,14.59,87.71,6,P-GPS,
0.347654018229209,36.899977881696,5752.7514918308,39.37008,0,1.03291669972,8100,2018-04-04 13:21:40,12,0,16.531,5752.7514918308,39.37008,0.671082,1.39299217056,0,0,-6.039738,135, -2.5, -1.4,0,0,1024,1024,1445,1024,135.2,0,99,4.171,4.179,4.168,4.164,0,0,14.59,87.71,6,P-GPS,
0.347653993073414,36.8999778301406,5753.7357438308,40.354332,0,1.04486879984,8200,2018-04-04 13:21:40,12,0,16.531,5753.7357438308,40.354332,0.671082,1.39299217056,0,0,-6.039738,135.1, -2.6, -2,0,0,1024,1024,1445,1024,135.2,0,99,4.171,4.179,4.168,4.164,0,0,14.59,87.71,6,P-GPS,
0.347653945702181,36.8999777896183,5754.7199958308,41.338584,0,1.04977693648,8300,2018-04-04 13:21:40,12,0,16.531,5754.7199958308,41.338584,0.671082,1.39299217056,0,0,-5.816044,135.1, -3.1, -2.1,0,0,1024,1024,1442,1024,135.2,0,99,4.171,4.179,4.168,4.164,0,0,14.59,87.71,6,P-GPS,
0.347653885243145,36.8999777718099,5755.3761638308,41.994752,0,1.04560698884,8400,2018-04-04 13:21:40,12,0,16.531,5755.3761638308,41.994752,0.671082,1.39299217056,0,0,-5.816044,135.1, -2.9, -1.3,0,0,1024,1024,1443,1024,135.2,0,99,4.171,4.179,4.168,4.164,0,0,14.59,87.71,6,P-GPS,
0.347653809209059,36.8999777600186,5756.3604158308,42.979004,0,1.03754596496,8500,2018-04-04 13:21:40,12,0,16.531,5756.3604158308,42.979004,0.671082,1.39299217056,0,0,-5.816044,135, -3, -1.2,0,0,1024,1024,1442,1024,135.2,0,99,4.171,4.179,4.168,4.164,0,0,14.59,87.71,6,P-GPS,
0.347653730217719,36.8999777494306,5757.3446678308,43.963256,0,1.02936026916,8600,2018-04-04 13:21:41,12,0,16.638,5757.3446678308,43.963256,0.671082,1.39299217056,0,0,-5.816044,135.1, -2.9, -1.6,0,0,1024,1024,1441,1024,135.2,0,99,4.162,4.168,4.161,4.158,0,0,14.754,87.71,6,P-GPS,
0.34765365749426,36.8999777535591,5758.0008358308,44.619424,0,1.01779530816,8700,2018-04-04 13:21:41,12,0,16.638,5758.0008358308,44.619424,0.671082,1.39299217056,0,0,-5.816044,135.1, -2.7, -1.8,0,0,1024,1024,1435,1024,135.2,0,99,4.162,4.168,4.161,4.158,0,0,14.754,87.71,6,P-GPS,
0.34765360940814,36.8999777750637,5758.9850878308,45.603676,0,1.0040682736,8800,2018-04-04 13:21:41,12,0,16.638,5758.9850878308,45.603676,0.671082,1.39299217056,0,0,-5.59235,135.2, -2.5, -1.3,0,0,1024,1024,1429,1024,135.2,0,99,4.162,4.168,4.161,4.158,0,0,14.754,87.71,6,P-GPS,
0.347653543637119,36.8999778184467,5759.9693398308,46.587928,0,0.98080055632,8900,2018-04-04 13:21:41,12,0,16.638,5759.9693398308,46.587928,0.671082,1.39299217056,0,0,-5.816044,135.2, -3.1, -0.6,0,0,1024,1024,1427,1024,135.2,0,99,4.162,4.168,4.161,4.158,0,0,14.754,87.71,6,P-GPS,
0.347653446256168,36.8999778694328,5760.6255078308,47.244096,0,0.95148625092,9000,2018-04-04 13:21:41,12,0,16.638,5760.6255078308,47.244096,0.671082,1.39299217056,0,0,-5.816044,135.2, -3.4, -0.3,0,0,1024,1024,1430,1024,135.2,0,99,4.162,4.168,4.161,4.158,0,0,14.754,87.71,6,P-GPS,
0.347653293138261,36.8999779234372,5761.6097598308,48.228348,0,0.916256591,9100,2018-04-04 13:21:41,12,0,16.638,5761.6097598308,48.228348,0.671082,1.39299217056,0,0,-5.816044,135.1, -2.9, -1,0,0,1024,1024,1446,1024,135.2,0,99,4.162,4.168,4.161,4.158,0,0,14.754,87.71,6,P-GPS,
0.347653106360925,36.8999779635551,5762.5940118308,49.2126,0.223694,0.88599412284,9200,2018-04-04 13:21:41,12,0,16.638,5762.5940118308,49.2126,0.671082,1.39299217056,-0.223694,0,-5.816044,135, -1.8, -2.1,0,0,1024,1024,1460,1024,135.2,0,99,4.162,4.168,4.161,4.158,0,0,14.754,87.71,6,P-GPS,
0.347652901281813,36.8999780022485,5763.5782638308,50.196852,0.223694,0.86001643172,9300,2018-04-04 13:21:41,12,0,16.638,5763.5782638308,50.196852,0.671082,1.39299217056,-0.223694,0,-5.816044,135, -0.8, -2.1,0,0,1024,1024,1477,1024,135.2,0,99,4.162,4.168,4.161,4.158,0,0,14.754,87.71,6,P-GPS,
0.347652717879529,36.8999780290904,5764.5625158308,51.181104,0,0.84478021076,9400,2018-04-04 13:21:41,12,0,16.638,5764.5625158308,51.181104,0.671082,1.39299217056,0,0,-6.263432,134.9, -0.3, -1.9,0,0,1024,1024,1480,1024,135.2,0,99,4.162,4.168,4.161,4.158,0,0,14.754,87.71,6,P-GPS,
0.34765256260088,36.8999780360562,5765.5467678308,52.165356,0,0.841699502,9500,2018-04-04 13:21:42,12,0,16.638,5765.5467678308,52.165356,0.671082,1.39299217056,0,0,-6.039738,134.9, -1, -2.1,0,0,1024,1024,1484,1024,135.2,0,99,4.162,4.168,4.161,4.158,0,0,14.754,87.71,6,P-GPS,
0.347652456041001,36.8999780252648,5766.5310198308,53.149608,0,0.84746065704,9600,2018-04-04 13:21:42,12,0,16.558,5766.5310198308,53.149608,0.671082,1.39299217056,0,0,-6.487126,135, -1.8, -2.3,0,0,1024,1024,1491,1024,135.2,0,99,4.162,4.168,4.161,4.158,0,0,14.95,87.71,6,P-GPS,
0.347652373342712,36.8999780009025,5767.5152718308,54.13386,0,0.8589403162,9700,2018-04-04 13:21:42,12,0,16.558,5767.5152718308,54.13386,0.671082,1.39299217056,0,0,-6.71082,134.9, -2.1, -2.3,0,0,1024,1024,1495,1024,135.2,0,99,4.162,4.168,4.161,4.158,0,0,14.95,87.71,6,P-GPS,
0.347652312446438,36.8999779633045,5768.4995238308,55.118112,0,0.87513782328,9800,2018-04-04 13:21:42,12,0,16.558,5768.4995238308,55.118112,0.671082,1.39299217056,0,0,-6.71082,134.9, -1.9, -2.1,0,0,1024,1024,1497,1024,135.2,0,99,4.162,4.168,4.161,4.158,0,0,14.95,87.71,6,P-GPS,
0.347652243653839,36.89997789714,5769.4837758308,56.102364,0,0.9025426798,9900,2018-04-04 13:21:42,12,0,16.558,5769.4837758308,56.102364,0.671082,1.39299217056,0,0,-6.934514,134.9, -1.8, -2.5,0,0,1024,1024,1498,1024,135.2,0,99,4.162,4.168,4.161,4.158,0,0,14.95,87.71,6,P-GPS,
0.347652170547136,36.8999778056648,5770.7961118308,57.4147,0.223694,0.9398130222,10000,2018-04-04 13:21:42,12,0,16.558,5770.7961118308,57.4147,0.671082,1.39299217056,0,-0.223694,-6.934514,135, -2.9, -2.7,0,0,1024,1024,1498,1024,135.2,0,99,4.162,4.168,4.161,4.158,0,0,14.95,87.71,6,P-GPS,
0.347652087043072,36.8999777189457,5771.7803638308,58.398952,0,0.97657155356,10100,2018-04-04 13:21:42,12,0,16.558,5771.7803638308,58.398952,0.671082,1.39299217056,0,0,-6.934514,135.1, -3.6, -2.7,0,0,1024,1024,1497,1024,135.2,0,99,4.162,4.168,4.161,4.158,0,0,14.95,87.71,6,P-GPS,
0.347651994091896,36.8999776625844,5772.7646158308,59.383204,0,1.00387798488,10200,2018-04-04 13:21:42,12,0,16.558,5772.7646158308,59.383204,0.671082,1.39299217056,0,0,-6.71082,135.1, -3.5, -3.3,0,0,1024,1024,1497,1024,135.2,0,99,4.162,4.168,4.161,4.158,0,0,14.95,87.71,6,P-GPS,
0.347651871723795,36.8999776315972,5774.0769518308,60.69554,0,1.02583336616,10300,2018-04-04 13:21:42,12,0,16.558,5774.0769518308,60.69554,0.671082,1.39299217056,0,0,-6.71082,135.1, -3.1, -3.3,0,0,1024,1024,1497,1024,135.2,0,99,4.162,4.168,4.161,4.158,0,0,14.95,87.71,6,P-GPS,
0.347651741937521,36.8999776210081,5775.0612038308,61.679792,0,1.04308402288,10400,2018-04-04 13:21:42,12,0,16.558,5775.0612038308,61.679792,0.671082,1.39299217056,0,0,-6.934514,135.2, -2.8, -3.7,0,0,1024,1024,1497,1024,135.2,0,99,4.162,4.168,4.161,4.158,0,0,14.95,87.71,6,P-GPS,
0.347651572383194,36.89997765133,5776.0454558308,62.664044,0,1.05335633292,10500,2018-04-04 13:21:43,12,0,16.558,5776.0454558308,62.664044,0.671082,1.39299217056,0,0,-6.71082,135.3, -2.8, -4.1,0,0,1024,1024,1494,1024,135.2,0,99,4.162,4.168,4.161,4.158,0,0,14.95,87.71,6,P-GPS,
0.347651395523953,36.8999777422701,5777.3577918308,63.97638,0.223694,1.04829071596,10600,2018-04-04 13:21:43,12,0,16.585,5777.3577918308,63.97638,0.671082,1.39299217056,-0.223694,0,-6.71082,135.3, -2.5, -3.6,0,0,1024,1024,1495,1024,135.2,0,99,4.149,4.164,4.154,4.143,0,0,14.95,87.71,6,P-GPS,
0.347651180345708,36.8999778969639,5778.3420438308,64.960632,0.3131716,1.03500003312,10700,2018-04-04 13:21:43,12,0,16.585,5778.3420438308,64.960632,0.671082,1.39299217056,-0.223694,0.223694,-6.487126,135.1, -1, -3,0,0,1024,1024,1498,1024,135.2,0,99,4.149,4.164,4.154,4.143,0,0,14.95,87.71,6,P-GPS,
0.347650969586939,36.8999780650372,5779.3262958308,65.944884,0.3131716,1.02574806432,10800,2018-04-04 13:21:43,12,0,16.585,5779.3262958308,65.944884,0.671082,1.39299217056,-0.223694,0.223694,-6.487126,135.1, 0.6, -2.6,0,0,1024,1024,1496,1024,135.2,0,99,4.149,4.164,4.154,4.143,0,0,14.95,87.71,6,P-GPS,
0.347650740747608,36.8999782310236,5780.3105478308,66.929136,0.3131716,1.0308235238,10900,2018-04-04 13:21:43,12,0,16.585,5780.3105478308,66.929136,0.671082,1.39299217056,-0.223694,0.223694,-6.71082,135, 1.3, -2.4,0,0,1024,1024,1490,1024,135.2,0,99,4.149,4.164,4.154,4.143,0,0,14.95,87.71,6,P-GPS,
0.347650533280993,36.8999783679461,5781.2947998308,67.913388,0.3131716,1.04764439048,11000,2018-04-04 13:21:43,12,0,16.585,5781.2947998308,67.913388,0.671082,1.39299217056,-0.223694,0.223694,-6.487126,135, 1.3, -2.5,0,0,1024,1024,1495,1024,135.2,0,99,4.149,4.164,4.154,4.143,0,0,14.95,87.71,6,P-GPS,
0.347650321136774,36.899978481499,5782.2790518308,68.89764,0.3131716,1.07857943084,11100,2018-04-04 13:21:43,12,0,16.585,5782.2790518308,68.89764,0.671082,1.39299217056,-0.223694,0.223694,-6.487126,135, 1.6, -3,0,0,1024,1024,1495,1024,135.2,0,99,4.149,4.164,4.154,4.143,0,0,14.95,87.71,6,P-GPS,
0.347650143347737,36.8999785737507,5783.5913878308,70.209976,0.223694,1.10981958932,11200,2018-04-04 13:21:43,12,0,16.585,5783.5913878308,70.209976,0.671082,1.39299217056,-0.223694,0,-6.71082,135, 2.5, -2.9,0,0,1024,1024,1480,1024,135.2,0,99,4.149,4.164,4.154,4.143,0,0,14.95,87.71,6,P-GPS,
0.347649979534006,36.899978635453,5784.5756398308,71.194228,0,1.14658468236,11300,2018-04-04 13:21:43,12,0,16.585,5784.5756398308,71.194228,0.671082,1.39299217056,0,0,-6.71082,135, 2.4, -3,0,0,1024,1024,1481,1024,135.2,0,99,4.149,4.164,4.154,4.143,0,0,14.95,87.71,6,P-GPS,
0.347649874407055,36.8999786656247,5785.5598918308,72.17848,0,1.1731955756,11400,2018-04-04 13:21:43,12,0,16.585,5785.5598918308,72.17848,0.671082,1.39299217056,0,0,-6.71082,135.1, 0.6, -3.8,0,0,1024,1024,1491,1024,135.2,0,99,4.149,4.164,4.154,4.143,0,0,14.95,87.71,6,P-GPS,
0.347649806536359,36.8999787197749,5786.5441438308,73.162732,0,1.18439636336,11500,2018-04-04 13:21:44,12,0,16.585,5786.5441438308,73.162732,0.671082,1.39299217056,0,0,-6.71082,135.1, 0.5, -3.4,0,0,1024,1024,1492,1024,135.2,0,99,4.149,4.164,4.154,4.143,0,0,14.95,87.71,6,P-GPS,
0.347649800042227,36.8999788058265,5787.8564798308,74.475068,0,1.17109911884,11600,2018-04-04 13:21:44,12,0,16.505,5787.8564798308,74.475068,0.671082,1.39299217056,0,0,-6.71082,135, 0.9, -1.9,0,0,1024,1024,1491,1024,135.2,0,99,4.144,4.152,4.145,4.142,0,0,14.718,87.71,6,P-GPS,
0.347649794019935,36.8999788771203,5788.8407318308,75.45932,0,1.16082352796,11700,2018-04-04 13:21:44,12,0,16.505,5788.8407318308,75.45932,0.671082,1.39299217056,0,0,-7.158208,135, 1.3, -1.6,0,0,1024,1024,1493,1024,135.2,0,99,4.144,4.152,4.145,4.142,0,0,14.718,87.71,6,P-GPS,
0.347649800670297,36.8999788897036,5790.1530678308,76.771656,0,1.15655843596,11800,2018-04-04 13:21:44,12,0,16.505,5790.1530678308,76.771656,0.671082,1.39299217056,0,0,-6.934514,135, 0.2, -1.7,0,0,1024,1024,1496,1024,135.2,0,99,4.144,4.152,4.145,4.142,0,0,14.718,87.71,6,P-GPS,
0.347649810327988,36.8999788307779,5791.1373198308,77.755908,0.223694,1.16346460416,11900,2018-04-04 13:21:44,12,0,16.505,5791.1373198308,77.755908,0.671082,1.39299217056,0,-0.223694,-7.158208,135.1, -1.4, -2.7,0,0,1024,1024,1497,1024,135.2,0,99,4.144,4.152,4.145,4.142,0,0,14.718,87.71,6,P-GPS,
0.347649819554446,36.8999787347631,5792.1215718308,78.74016,0.223694,1.17755253112,12000,2018-04-04 13:21:44,12,0,16.505,5792.1215718308,78.74016,0.671082,1.39299217056,0,-0.223694,-6.934514,135.2, -2.9, -3.3,0,0,1024,1024,1498,1024,135.2,0,99,4.144,4.152,4.145,4.142,0,0,14.718,87.71,6,P-GPS,
0.347649763503404,36.8999786328656,5793.4339078308,80.052496,0.223694,1.21400266352,12100,2018-04-04 13:21:44,12,0,16.505,5793.4339078308,80.052496,0.671082,1.39299217056,0,-0.223694,-7.158208,135.2, -2.5, -3.9,0,0,1024,1024,1497,1024,135.2,0,99,4.144,4.152,4.145,4.142,0,0,14.718,87.71,6,P-GPS,
0.347649653884492,36.89997853179,5794.7462438308,81.364832,0,1.26730975184,12200,2018-04-04 13:21:44,12,0,16.505,5794.7462438308,81.364832,0.671082,1.39299217056,0,0,-7.381902,135.2, -1.8, -4.6,0,0,1024,1024,1496,1024,135.2,0,99,4.144,4.152,4.145,4.142,0,0,14.718,87.71,6,P-GPS,
0.347649340746111,36.8999784267219,5797.0428318308,83.66142,0.223694,1.38505253776,12400,2018-04-04 13:21:44,12,0,16.505,5797.0428318308,83.66142,0.671082,1.39299217056,-0.223694,0,-7.158208,135.2, -0.9, -5.1,0,0,1024,1024,1496,1024,135.2,0,99,4.144,4.152,4.145,4.142,0,0,14.718,87.71,6,P-GPS,
0.347649115215574,36.8999784325356,5798.0270838308,84.645672,0.223694,1.45566605708,12500,2018-04-04 13:21:45,12,0,16.505,5798.0270838308,84.645672,0.671082,1.45566605708,-0.223694,0,-6.934514,135.1, 1.1, -5.8,0,0,1024,1024,1497,1024,135.2,0,99,4.144,4.152,4.145,4.142,0,0,14.718,87.71,6,P-GPS,
0.347648901664481,36.8999784385855,5799.0113358308,85.629924,0.223694,1.5235236708,12600,2018-04-04 13:21:45,12,0,16.558,5799.0113358308,85.629924,0.671082,1.5235236708,-0.223694,0,-6.934514,134.9, 2.3, -6.2,0,0,1024,1024,1497,1024,135.2,0,99,4.143,4.153,4.147,4.146,0,0,14.866,87.71,6,P-GPS,
0.347648722772377,36.8999784271858,5800.3236718308,86.94226,0,1.58372380396,12700,2018-04-04 13:21:45,12,0,16.558,5800.3236718308,86.94226,0.671082,1.58372380396,0,0,-6.934514,134.9, 1.6, -6.1,0,0,1024,1024,1492,1024,135.2,0,99,4.143,4.153,4.147,4.146,0,0,14.866,87.71,6,P-GPS,
0.347648620286457,36.8999783996148,5801.3079238308,87.926512,0,1.6217356162,12800,2018-04-04 13:21:45,12,0,16.558,5801.3079238308,87.926512,0.671082,1.6217356162,0,0,-6.934514,134.9, 1.2, -6,0,0,1024,1024,1489,1024,135.2,0,99,4.143,4.153,4.147,4.146,0,0,14.866,87.71,6,P-GPS,
0.347648547957489,36.8999783449633,5802.2921758308,88.910764,0,1.65419624716,12900,2018-04-04 13:21:45,12,0,16.558,5802.2921758308,88.910764,0.671082,1.65419624716,0,0,-6.71082,134.9, 1, -6,0,0,1024,1024,1485,1024,135.2,0,99,4.143,4.153,4.147,4.146,0,0,14.866,87.71,6,P-GPS,
0.347648524840709,36.8999782514807,5803.2764278308,89.895016,0.223694,1.67701120852,13000,2018-04-04 13:21:45,12,0,16.558,5803.2764278308,89.895016,0.671082,1.67701120852,0,-0.223694,-6.934514,135, -0.3, -6.2,0,0,1024,1024,1482,1024,135.2,0,99,4.143,4.153,4.147,4.146,0,0,14.866,87.71,6,P-GPS,
0.347648547741924,36.8999781263433,5804.2606798308,90.879268,0.223694,1.69092197012,13100,2018-04-04 13:21:45,12,0,16.558,5804.2606798308,90.879268,0.671082,1.69092197012,0,-0.223694,-6.487126,135.1, -1.5, -6,0,0,1024,1024,1482,1024,135.2,0,99,4.143,4.153,4.147,4.146,0,0,14.866,87.71,6,P-GPS,
0.347648596749539,36.8999780094183,5805.2449318308,91.86352,0.223694,1.69624021176,13200,2018-04-04 13:21:45,12,0,16.558,5805.2449318308,91.86352,0.671082,1.69624021176,0,-0.223694,-6.487126,135.1, -1.5, -5.7,0,0,1024,1024,1484,1024,135.2,0,99,4.143,4.153,4.147,4.146,0,0,14.866,87.71,6,P-GPS,
0.347648639683261,36.8999779059055,5806.2291838308,92.847772,0.223694,1.70212275788,13300,2018-04-04 13:21:45,12,0,16.558,5806.2291838308,92.847772,0.671082,1.70212275788,0,-0.223694,-6.71082,135, -1.2, -5.9,0,0,1024,1024,1484,1024,135.2,0,99,4.143,4.153,4.147,4.146,0,0,14.866,87.71,6,P-GPS,
0.347648675591469,36.8999778239167,5807.2134358308,93.832024,0.223694,1.70687997588,13400,2018-04-04 13:21:45,12,0,16.558,5807.2134358308,93.832024,0.671082,1.70687997588,0,-0.223694,-6.487126,135.1, -1.6, -6.1,0,0,1024,1024,1483,1024,135.2,0,99,4.143,4.153,4.147,4.146,0,0,14.866,87.71,6,P-GPS,
0.347648704679143,36.8999777131235,5808.5257718308,95.14436,0.223694,1.72015753536,13500,2018-04-04 13:21:45,12,0,16.558,5808.5257718308,95.14436,0.671082,1.72015753536,0,-0.223694,-6.71082,135.1, -1.7, -6.5,0,0,1024,1024,1482,1024,135.2,0,99,4.143,4.153,4.147,4.146,0,0,14.866,87.71,6,P-GPS,
0.347648728238453,36.899977581379,5809.5100238308,96.128612,0.223694,1.74040031816,13600,2018-04-04 13:21:46,12,0,16.531,5809.5100238308,96.128612,0.671082,1.74040031816,0,-0.223694,-6.71082,135, -1.9, -6.6,0,0,1024,1024,1482,1024,135.1,0,99,4.143,4.153,4.147,4.146,0,0,14.866,87.71,6,P-GPS,
0.347648737959042,36.8999774227275,5810.4942758308,97.112864,0.223694,1.77169625092,13700,2018-04-04 13:21:46,12,0,16.531,5810.4942758308,97.112864,0.671082,1.77169625092,0,-0.223694,-6.487126,135.1, -2.1, -6.8,0,0,1024,1024,1479,1024,135.2,0,99,4.143,4.153,4.147,4.146,0,0,14.866,87.71,6,P-GPS,
0.347648745565911,36.8999772668713,5811.4785278308,98.097116,0.223694,1.8042815538,13800,2018-04-04 13:21:46,12,0,16.531,5811.4785278308,98.097116,0.671082,1.8042815538,0,-0.223694,-6.487126,135.1, -2.6, -7.1,0,0,1024,1024,1478,1024,135.1,0,99,4.143,4.153,4.147,4.146,0,0,14.866,87.71,6,P-GPS,
0.347648737430205,36.8999771183815,5812.4627798308,99.081368,0.223694,1.84074480956,13900,2018-04-04 13:21:46,12,0,16.531,5812.4627798308,99.081368,0.671082,1.84074480956,0,-0.223694,-6.487126,135.1, -2.3, -7.2,0,0,1024,1024,1479,1024,135.1,0,99,4.143,4.153,4.147,4.146,0,0,14.866,87.71,6,P-GPS,
0.347648736199915,36.8999770024925,5813.4470318308,100.06562,0.223694,1.86838588656,14000,2018-04-04 13:21:46,12,0,16.531,5813.4470318308,100.06562,0.671082,1.86838588656,0,-0.223694,-6.263432,135.1, -1.9, -7.4,0,0,1024,1024,1479,1024,135.1,0,99,4.143,4.153,4.147,4.146,0,0,14.866,87.71,6,P-GPS,
0.347648756358831,36.8999768524305,5814.4312838308,101.049872,0.223694,1.8990814256,14100,2018-04-04 13:21:46,12,0,16.531,5814.4312838308,101.049872,0.671082,1.8990814256,0,-0.223694,-6.263432,135, -2.3, -7.4,0,0,1024,1024,1479,1024,135.1,0,99,4.143,4.153,4.147,4.146,0,0,14.866,87.71,6,P-GPS,
0.347648805231081,36.899976669861,5815.4155358308,102.034124,0.223694,1.93148956312,14200,2018-04-04 13:21:46,12,0,16.531,5815.4155358308,102.034124,0.671082,1.93148956312,0,-0.223694,-6.487126,135.1, -3, -7.5,0,0,1024,1024,1477,1024,135.1,0,99,4.143,4.153,4.147,4.146,0,0,14.866,87.71,6,P-GPS,
0.34764883408487,36.8999764542037,5816.3997878308,103.018376,0.223694,1.97952434156,14300,2018-04-04 13:21:46,12,0,16.531,5816.3997878308,103.018376,0.671082,1.97952434156,0,-0.223694,-6.71082,135.2, -3.5, -8.2,0,0,1024,1024,1479,1024,135.1,0,99,4.143,4.153,4.147,4.146,0,0,14.866,87.71,6,P-GPS,
0.347648842368968,36.8999762496517,5817.3840398308,104.002628,0.223694,2.03162079992,14400,2018-04-04 13:21:46,12,0,16.531,5817.3840398308,104.002628,0.671082,2.03162079992,0,-0.223694,-6.71082,135.2, -3.5, -8.5,0,0,1024,1024,1479,1024,135.1,0,99,4.143,4.153,4.147,4.146,0,0,14.866,87.71,6,P-GPS,
0.347648846277437,36.8999760364151,5818.6963758308,105.314964,0.223694,2.08852696972,14500,2018-04-04 13:21:47,12,0,16.531,5818.6963758308,105.314964,0.671082,2.08852696972,0,-0.223694,-6.934514,135.3, -3.6, -8.8,0,0,1024,1024,1480,1024,135.1,0,99,4.143,4.153,4.147,4.146,0,0,14.866,87.71,6,P-GPS,
0.347648851111066,36.8999758373826,5819.6806278308,106.299216,0.447388,2.14254928116,14600,2018-04-04 13:21:47,12,0,16.505,5819.6806278308,106.299216,0.671082,2.14254928116,0,-0.447388,-7.158208,135.4, -4.9, -9,0,0,1024,1024,1480,1024,135.1,0,99,4.145,4.154,4.147,4.147,0,0,14.064,87.71,6,P-GPS,
0.347648816822142,36.8999756093754,5820.9929638308,107.611552,0.223694,2.21482290552,14700,2018-04-04 13:21:47,12,0,16.505,5820.9929638308,107.611552,0.671082,2.21482290552,0,-0.223694,-6.934514,135.4, -4.8, -10.5,0,0,1024,1024,1480,1024,135.1,0,99,4.145,4.154,4.147,4.147,0,0,14.064,87.71,6,P-GPS,
0.347648752153985,36.8999754046398,5821.9772158308,108.595804,0.223694,2.28801188424,14800,2018-04-04 13:21:47,12,0,16.505,5821.9772158308,108.595804,0.671082,2.28801188424,0,-0.223694,-6.934514,135.4, -4, -10.8,0,0,1024,1024,1480,1024,135.1,0,99,4.145,4.154,4.147,4.147,0,0,14.064,87.71,6,P-GPS,
0.347648661801398,36.8999752180167,5822.9614678308,109.580056,0.3131716,2.36199810708,14900,2018-04-04 13:21:47,12,0,16.505,5822.9614678308,109.580056,0.671082,2.36199810708,-0.223694,-0.223694,-6.71082,135.3, -3.1, -11.3,0,0,1024,1024,1481,1024,135.1,0,99,4.145,4.154,4.147,4.147,0,0,14.064,87.71,6,P-GPS,
0.347648552681605,36.8999750681517,5824.2738038308,110.892392,0.223694,2.4296096578,15000,2018-04-04 13:21:47,12,0,16.505,5824.2738038308,110.892392,0.671082,2.4296096578,0,-0.223694,-6.71082,135.1, -2.1, -12.2,0,0,1024,1024,1481,1024,135.1,0,99,4.145,4.154,4.147,4.147,0,0,14.064,87.71,6,P-GPS,
0.347648477511816,36.8999749008449,5825.2580558308,111.876644,0.223694,2.49474745516,15100,2018-04-04 13:21:47,12,0,16.505,5825.2580558308,111.876644,0.671082,2.49474745516,0,-0.223694,-6.71082,135, -1.9, -12.1,0,0,1024,1024,1481,1024,135.1,0,99,4.145,4.154,4.147,4.147,0,0,14.064,87.71,6,P-GPS,
0.347648473940027,36.8999745481538,5827.2265598308,113.845148,0.223694,2.59907488632,15300,2018-04-04 13:21:47,12,0,16.505,5827.2265598308,113.845148,0.671082,2.59907488632,0,-0.223694,-6.487126,135.2, -3.4, -11.2,0,0,1024,1024,1482,1024,135.1,0,99,4.145,4.154,4.147,4.147,0,0,14.064,87.71,6,P-GPS,
0.347648525427356,36.8999743717779,5828.2108118308,114.8294,0.223694,2.6410105832,15400,2018-04-04 13:21:47,12,0,16.505,5828.2108118308,114.8294,0.671082,2.6410105832,0,-0.223694,-6.263432,135.2, -4, -11.2,0,0,1024,1024,1481,1024,135.1,0,99,4.145,4.154,4.147,4.147,0,0,14.064,87.71,6,P-GPS,
0.347648615245202,36.8999741748299,5829.1950638308,115.813652,0.3131716,2.68260179188,15500,2018-04-04 13:21:48,12,0,16.505,5829.1950638308,115.813652,0.671082,2.68260179188,0.223694,-0.223694,-6.487126,135.2, -4.2, -10.8,0,0,1024,1024,1481,1024,135.1,0,99,4.145,4.154,4.147,4.147,0,0,14.064,87.71,6,P-GPS,
0.347648740824493,36.8999740011708,5830.1793158308,116.797904,0.3131716,2.71178486368,15600,2018-04-04 13:21:48,12,0,16.505,5830.1793158308,116.797904,0.671082,2.71178486368,0.223694,-0.223694,-6.487126,135.3, -5.1, -10.5,0,0,1024,1024,1482,1024,135.1,0,99,4.145,4.154,4.147,4.147,0,0,14.064,87.71,6,P-GPS,
0.347648885377802,36.8999738168966,5831.1635678308,117.782156,0.223694,2.7427986442,15700,2018-04-04 13:21:48,12,0,16.505,5831.1635678308,117.782156,0.671082,2.7427986442,0.223694,0,-6.487126,135.4, -6, -10.5,0,0,1024,1024,1482,1024,135.1,0,99,4.145,4.154,4.147,4.147,0,0,14.064,87.71,6,P-GPS,
0.347649018208961,36.8999736756322,5832.1478198308,118.766408,0.223694,2.76430126956,15800,2018-04-04 13:21:48,12,0,16.505,5832.1478198308,118.766408,0.671082,2.76430126956,0.223694,0,-6.487126,135.5, -6.3, -10.1,0,0,1024,1024,1481,1024,135,0,99,4.145,4.154,4.147,4.147,0,0,14.064,87.71,6,P-GPS,
0.3476491554129,36.8999735247121,5833.4601558308,120.078744,0.223694,2.78984917064,15900,2018-04-04 13:21:48,12,0,16.505,5833.4601558308,120.078744,0.671082,2.78984917064,0.223694,0,-6.71082,135.5, -6.5, -9.9,0,0,1024,1024,1480,1024,135,0,99,4.145,4.154,4.147,4.147,0,0,14.064,87.71,6,P-GPS,
0.347649271964097,36.8999733939059,5834.4444078308,121.062996,0,2.81376977508,16000,2018-04-04 13:21:48,12,0,16.505,5834.4444078308,121.062996,0.671082,2.81376977508,0,0,-6.487126,135.5, -6.7, -10.5,0,0,1024,1024,1480,1024,135,0,99,4.145,4.154,4.147,4.147,0,0,14.064,87.71,6,P-GPS,
0.34764936454867,36.8999732572548,5835.1005758308,121.719164,0,2.84450796504,16100,2018-04-04 13:21:48,12,0,16.505,5835.1005758308,121.719164,0.671082,2.84450796504,0,0,-6.487126,135.6, -6.4, -10.8,0,0,1024,1024,1478,1024,135,0,99,4.145,4.154,4.147,4.147,0,0,14.064,87.71,6,P-GPS,
0.347649427682019,36.8999731562761,5836.4129118308,123.0315,0,2.86860573484,16200,2018-04-04 13:21:48,12,0,16.505,5836.4129118308,123.0315,0.671082,2.86860573484,0,0,-6.487126,135.4, -6.1, -10.8,0,0,1024,1024,1479,1024,135,0,99,4.145,4.154,4.147,4.147,0,0,14.064,87.71,6,P-GPS,
0.34764951083383,36.8999729656388,5838.0533318308,124.67192,0,2.92040035592,16400,2018-04-04 13:21:48,12,0,16.505,5838.0533318308,124.67192,0.671082,2.92040035592,0,0,-6.263432,135.6, -6.5, -10.7,0,0,1024,1024,1475,1024,135,0,99,4.145,4.154,4.147,4.147,0,0,14.064,87.71,6,P-GPS,
0.347649524347472,36.8999728737517,5839.0375838308,125.656172,0,2.94943250908,16500,2018-04-04 13:21:49,12,0,16.505,5839.0375838308,125.656172,0.671082,2.94943250908,0,0,-6.263432,135.7, -6.7, -11.2,0,0,1024,1024,1471,1024,135,0,99,4.145,4.154,4.147,4.147,0,0,14.064,87.71,6,P-GPS,
0.347649530849849,36.89997281571,5840.0218358308,126.640424,0,2.96810705036,16600,2018-04-04 13:21:49,12,0,16.399,5840.0218358308,126.640424,0.671082,2.96810705036,0,0,-6.039738,135.6, -6.3, -11.7,0,0,1024,1024,1467,1024,135,0,99,4.134,4.145,4.142,4.145,0,0,14.772,87.71,6,P-GPS,
0.347649537433852,36.8999727670544,5841.0060878308,127.624676,0,2.98363198524,16700,2018-04-04 13:21:49,12,0,16.399,5841.0060878308,127.624676,0.671082,2.98363198524,0,0,-6.039738,135.5, -5.8, -11.8,0,0,1024,1024,1466,1024,135,0,99,4.134,4.145,4.142,4.145,0,0,14.772,87.71,6,P-GPS,
0.347649565950349,36.8999727498744,5841.6622558308,128.280844,0,2.98554143412,16800,2018-04-04 13:21:49,12,0,16.399,5841.6622558308,128.280844,0.671082,2.98554143412,0,0,-5.816044,135.5, -5.9, -11.3,0,0,1024,1024,1467,1024,135,0,99,4.134,4.145,4.142,4.145,0,0,14.772,87.71,6,P-GPS,
0.347649602884476,36.8999727455278,5842.6465078308,129.265096,0,2.98201781196,16900,2018-04-04 13:21:49,12,0,16.399,5842.6465078308,129.265096,0.671082,2.98554143412,0,0,-5.816044,135.5, -5.8, -11.1,0,0,1024,1024,1457,1024,135,0,99,4.134,4.145,4.142,4.145,0,0,14.772,87.71,6,P-GPS,
0.347649645297097,36.8999727901301,5843.3026758308,129.921264,0,2.96119432048,17000,2018-04-04 13:21:49,12,0,16.399,5843.3026758308,129.921264,0.671082,2.98554143412,0,0,-5.816044,135.4, -5.4, -10.8,0,0,1024,1024,1457,1024,135,0,99,4.134,4.145,4.142,4.145,0,0,14.772,87.71,6,P-GPS,
0.347649692778452,36.8999728355274,5844.2869278308,130.905516,0,2.93945547464,17100,2018-04-04 13:21:49,12,0,16.399,5844.2869278308,130.905516,0.671082,2.98554143412,0,0,-5.816044,135.5, -5.7, -10.6,0,0,1024,1024,1459,1024,134.9,0,99,4.134,4.145,4.142,4.145,0,0,14.772,87.71,6,P-GPS,
0.347649728113448,36.8999728884473,5844.9430958308,131.561684,0,2.91678815108,17200,2018-04-04 13:21:49,12,0,16.399,5844.9430958308,131.561684,0.671082,2.98554143412,0,0,-5.816044,135.5, -5.6, -10.7,0,0,1024,1024,1466,1024,134.9,0,99,4.134,4.145,4.142,4.145,0,0,14.772,87.71,6,P-GPS,
0.347649744712788,36.899972934298,5845.9273478308,132.545936,0,2.89900271744,17300,2018-04-04 13:21:49,12,0,16.399,5845.9273478308,132.545936,0.671082,2.98554143412,0,0,-5.816044,135.4, -4.9, -10.7,0,0,1024,1024,1471,1024,134.9,0,99,4.134,4.145,4.142,4.145,0,0,14.772,87.71,6,P-GPS,
0.347649747786884,36.8999729836592,5846.9115998308,133.530188,0,2.88181111584,17400,2018-04-04 13:21:49,12,0,16.399,5846.9115998308,133.530188,0.671082,2.98554143412,0,0,-5.816044,135.3, -4.6, -10.7,0,0,1024,1024,1474,1024,134.9,0,99,4.134,4.145,4.142,4.145,0,0,14.772,87.71,6,P-GPS,
0.347649770892061,36.8999730262199,5847.5677678308,134.186356,0,2.86428158772,17500,2018-04-04 13:21:50,12,0,16.399,5847.5677678308,134.186356,0.671082,2.98554143412,0,0,-5.59235,135.3, -4.6, -10.5,0,0,1024,1024,1482,1024,134.9,0,99,4.134,4.145,4.142,4.145,0,0,14.772,87.71,6,P-GPS,
0.347649814606623,36.8999730821326,5848.5520198308,135.170608,0,2.83949812236,17600,2018-04-04 13:21:50,12,0,16.452,5848.5520198308,135.170608,0.671082,2.98554143412,0,0,-6.039738,135.3, -4.9, -10.5,0,0,1024,1024,1484,1024,134.9,0,99,4.13,4.141,4.132,4.132,0,0,15.444,87.71,6,P-GPS,
0.347649857957736,36.8999731406822,5849.2081878308,135.826776,0,2.81388132364,17700,2018-04-04 13:21:50,12,0,16.452,5849.2081878308,135.826776,0.671082,2.98554143412,0,0,-6.263432,135.4, -5.2, -10.3,0,0,1024,1024,1489,1024,134.9,0,99,4.13,4.141,4.132,4.132,0,0,15.444,87.71,6,P-GPS,
0.347649887949094,36.899973228417,5850.1924398308,136.811028,0,2.78007554828,17800,2018-04-04 13:21:50,12,0,16.452,5850.1924398308,136.811028,0.671082,2.98554143412,0,0,-6.487126,135.5, -5.5, -10.4,0,0,1024,1024,1494,1024,134.9,0,99,4.13,4.141,4.132,4.132,0,0,15.444,87.71,6,P-GPS,
0.347649908637152,36.8999733082005,5851.1766918308,137.79528,0.223694,2.7501969384,17900,2018-04-04 13:21:50,12,0,16.452,5851.1766918308,137.79528,0.671082,2.98554143412,0,0.223694,-6.487126,135.5, -5.5, -10.7,0,0,1024,1024,1484,1024,134.9,0,99,4.13,4.141,4.132,4.132,0,0,15.444,87.71,6,P-GPS,
0.347649919531849,36.8999734007802,5852.1609438308,138.779532,0.223694,2.71726386648,18000,2018-04-04 13:21:50,12,0,16.452,5852.1609438308,138.779532,0.671082,2.98554143412,0,0.223694,-6.71082,135.4, -5, -10.6,0,0,1024,1024,1479,1024,134.9,0,99,4.13,4.141,4.132,4.132,0,0,15.444,87.71,6,P-GPS,
0.347649915761493,36.8999735088945,5853.1451958308,139.763784,0.223694,2.68104339288,18100,2018-04-04 13:21:50,12,0,16.452,5853.1451958308,139.763784,0.671082,2.98554143412,0,0.223694,-6.71082,135.3, -4.5, -10.6,0,0,1024,1024,1482,1024,134.9,0,99,4.13,4.141,4.132,4.132,0,0,15.444,87.71,6,P-GPS,
0.347649902629517,36.8999736193035,5854.1294478308,140.748036,0.223694,2.64541675132,18200,2018-04-04 13:21:50,12,0,16.452,5854.1294478308,140.748036,0.671082,2.98554143412,0,0.223694,-6.487126,135.4, -5.2, -11.1,0,0,1024,1024,1481,1024,134.9,0,99,4.13,4.141,4.132,4.132,0,0,15.444,87.71,6,P-GPS,
0.347649884803856,36.8999737212425,5855.1136998308,141.732288,0.223694,2.61344168468,18300,2018-04-04 13:21:50,12,0,16.452,5855.1136998308,141.732288,0.671082,2.98554143412,0,0.223694,-6.263432,135.5, -5.1, -11.2,0,0,1024,1024,1479,1024,134.9,0,99,4.13,4.141,4.132,4.132,0,0,15.444,87.71,6,P-GPS,
0.347649868227212,36.8999738415665,5856.0979518308,142.71654,0.223694,2.57526911128,18400,2018-04-04 13:21:50,12,0,16.452,5856.0979518308,142.71654,0.671082,2.98554143412,0,0.223694,-6.263432,135.4, -4.6, -10.8,0,0,1024,1024,1479,1024,134.9,0,99,4.13,4.141,4.132,4.132,0,0,15.444,87.71,6,P-GPS,
0.347649840133602,36.8999739764918,5856.7541198308,143.372708,0.223694,2.5340880076,18500,2018-04-04 13:21:51,12,0,16.452,5856.7541198308,143.372708,0.671082,2.98554143412,0,0.223694,-6.263432,135.4, -4.2, -10.6,0,0,1024,1024,1480,1024,134.9,0,99,4.13,4.141,4.132,4.132,0,0,15.444,87.71,6,P-GPS,
0.347649801896821,36.8999741308817,5857.7383718308,144.35696,0.223694,2.48829404288,18600,2018-04-04 13:21:51,12,0,16.478,5857.7383718308,144.35696,0.671082,2.98554143412,0,0.223694,-6.039738,135.3, -4, -10.3,0,0,1024,1024,1480,1024,134.9,0,99,4.13,4.141,4.132,4.132,0,0,15.444,87.71,6,P-GPS,
0.347649766458114,36.8999742741588,5858.7226238308,145.341212,0.223694,2.44625007828,18700,2018-04-04 13:21:51,12,0,16.478,5858.7226238308,145.341212,0.671082,2.98554143412,0,0.223694,-6.039738,135.3, -3.9, -10.2,0,0,1024,1024,1481,1024,134.9,0,99,4.13,4.141,4.132,4.132,0,0,15.444,87.71,6,P-GPS,
0.347649744477275,36.8999743967754,5859.3787918308,145.99738,0.223694,2.4093176624,18800,2018-04-04 13:21:51,12,0,16.478,5859.3787918308,145.99738,0.671082,2.98554143412,0,0.223694,-6.263432,135.3, -4.2, -10.6,0,0,1024,1024,1481,1024,134.9,0,99,4.13,4.141,4.132,4.132,0,0,15.444,87.71,6,P-GPS,
0.347649729501595,36.8999745235433,5860.3630438308,146.981632,0.223694,2.37018708372,18900,2018-04-04 13:21:51,12,0,16.478,5860.3630438308,146.981632,0.671082,2.98554143412,0,0.223694,-6.263432,135.3, -3.9, -10.6,0,0,1024,1024,1481,1024,134.9,0,99,4.13,4.141,4.132,4.132,0,0,15.444,87.71,6,P-GPS,
0.347649734042002,36.8999746706473,5861.3472958308,147.965884,0.223694,2.32148629476,19000,2018-04-04 13:21:51,12,0,16.478,5861.3472958308,147.965884,0.671082,2.98554143412,0,0.223694,-6.263432,135.3, -4, -10,0,0,1024,1024,1481,1024,134.9,0,99,4.13,4.141,4.132,4.132,0,0,15.444,87.71,6,P-GPS,
0.347649733040204,36.899974824595,5862.0034638308,148.622052,0.223694,2.27173235616,19100,2018-04-04 13:21:51,12,0,16.478,5862.0034638308,148.622052,0.671082,2.98554143412,0,0.223694,-6.039738,135.3, -3.9, -9.7,0,0,1024,1024,1470,1024,134.9,0,99,4.13,4.141,4.132,4.132,0,0,15.444,87.71,6,P-GPS,
0.347649711477875,36.8999749861125,5862.9877158308,149.606304,0.223694,2.22342198716,19200,2018-04-04 13:21:51,12,0,16.478,5862.9877158308,149.606304,0.671082,2.98554143412,0,0.223694,-5.816044,135.3, -3.4, -10,0,0,1024,1024,1470,1024,134.9,0,99,4.13,4.141,4.132,4.132,0,0,15.444,87.71,6,P-GPS,
0.347649693213247,36.8999751457136,5863.6438838308,150.262472,0.223694,2.17568248432,19300,2018-04-04 13:21:51,12,0,16.478,5863.6438838308,150.262472,0.671082,2.98554143412,0,0.223694,-5.816044,135.3, -3.2, -9.7,0,0,1024,1024,1461,1024,134.9,0,99,4.13,4.141,4.132,4.132,0,0,15.444,87.71,6,P-GPS,
0.347649689179998,36.8999752973612,5864.6281358308,151.246724,0.223694,2.1283793332,19400,2018-04-04 13:21:51,12,0,16.478,5864.6281358308,151.246724,0.671082,2.98554143412,0,0.223694,-5.816044,135.3, -3.1, -9.4,0,0,1024,1024,1461,1024,134.9,0,99,4.13,4.141,4.132,4.132,0,0,15.444,87.71,6,P-GPS,
0.347649683675654,36.8999754352826,5865.2843038308,151.902892,0.223694,2.08604337384,19500,2018-04-04 13:21:52,12,0,16.478,5865.2843038308,151.902892,0.671082,2.98554143412,0,0.223694,-6.039738,135.3, -3.4, -9.7,0,0,1024,1024,1464,1024,134.9,0,99,4.13,4.141,4.132,4.132,0,0,15.444,87.71,6,P-GPS,
0.347649673109495,36.8999755655374,5866.2685558308,152.887144,0.223694,2.0474246062,19600,2018-04-04 13:21:52,12,0,16.372,5866.2685558308,152.887144,0.671082,2.98554143412,0,0.223694,-6.039738,135.4, -3.4, -10,0,0,1024,1024,1464,1024,134.9,0,99,4.124,4.133,4.125,4.121,0,0,15.902,87.71,6,P-GPS,
0.347649644479821,36.8999757004183,5866.9247238308,153.543312,0.223694,2.01131568116,19700,2018-04-04 13:21:52,12,0,16.372,5866.9247238308,153.543312,0.671082,2.98554143412,0,0.223694,-5.59235,135.4, -3.1, -9.7,0,0,1024,1024,1469,1024,134.9,0,99,4.124,4.133,4.125,4.121,0,0,15.902,87.71,6,P-GPS,
0.347649601961149,36.899975837495,5867.9089758308,154.527564,0.223694,1.97797906592,19800,2018-04-04 13:21:52,12,0,16.372,5867.9089758308,154.527564,0.671082,2.98554143412,0,0.223694,-6.039738,135.3, -2.8, -9.7,0,0,1024,1024,1474,1024,134.9,0,99,4.124,4.133,4.125,4.121,0,0,15.902,87.71,6,P-GPS,
0.347649544282883,36.8999759733967,5868.5651438308,155.183732,0.223694,1.94900924872,19900,2018-04-04 13:21:52,12,0,16.372,5868.5651438308,155.183732,0.671082,2.98554143412,0,0.223694,-6.263432,135.2, -2.5, -9.9,0,0,1024,1024,1471,1024,134.9,0,99,4.124,4.133,4.125,4.121,0,0,15.902,87.71,6,P-GPS,
0.34764950778294,36.899976112354,5869.5493958308,156.167984,0.223694,1.91562670172,20000,2018-04-04 13:21:52,12,0,16.372,5869.5493958308,156.167984,0.671082,2.98554143412,0,0.223694,-6.039738,135.3, -2.7, -9.5,0,0,1024,1024,1471,1024,134.9,0,99,4.124,4.133,4.125,4.121,0,0,15.902,87.71,6,P-GPS,
0.347649481163376,36.8999762524557,5870.2055638308,156.824152,0.223694,1.88058733052,20100,2018-04-04 13:21:52,12,0,16.372,5870.2055638308,156.824152,0.671082,2.98554143412,0,0.223694,-5.816044,135.3, -3.1, -9.8,0,0,1024,1024,1470,1024,134.9,0,99,4.124,4.133,4.125,4.121,0,0,15.902,87.71,6,P-GPS,
0.347649479650959,36.8999763976497,5871.1898158308,157.808404,0.223694,1.83917984888,20200,2018-04-04 13:21:52,12,0,16.372,5871.1898158308,157.808404,0.671082,2.98554143412,0,0.223694,-5.816044,135.3, -2.8, -9.7,0,0,1024,1024,1471,1024,134.9,0,99,4.124,4.133,4.125,4.121,0,0,15.902,87.71,6,P-GPS,
0.347649474982821,36.8999765617302,5872.1740678308,158.792656,0.223694,1.79380911252,20300,2018-04-04 13:21:52,12,0,16.372,5872.1740678308,158.792656,0.671082,2.98554143412,0,0.223694,-6.263432,135.3, -2.5, -9.1,0,0,1024,1024,1471,1024,134.9,0,99,4.124,4.133,4.125,4.121,0,0,15.902,87.71,6,P-GPS,
0.34764945701803,36.8999767062673,5873.1583198308,159.776908,0.223694,1.75787735284,20400,2018-04-04 13:21:52,12,0,16.372,5873.1583198308,159.776908,0.671082,2.98554143412,0,0.223694,-6.263432,135.2, -2.6, -9.2,0,0,1024,1024,1477,1024,134.9,0,99,4.124,4.133,4.125,4.121,0,0,15.902,87.71,6,P-GPS,
0.34764942502623,36.8999768278795,5874.1425718308,160.76116,0,1.73246724704,20500,2018-04-04 13:21:53,12,0,16.372,5874.1425718308,160.76116,0.671082,2.98554143412,0,0,-6.487126,135.1, -2.7, -9.2,0,0,1024,1024,1477,1024,134.9,0,99,4.124,4.133,4.125,4.121,0,0,15.902,87.71,6,P-GPS,
0.347649389713626,36.8999769094144,5875.1268238308,161.745412,0,1.71936685292,20600,2018-04-04 13:21:53,12,0,16.346,5875.1268238308,161.745412,0.671082,2.98554143412,0,0,-6.934514,135.2, -3, -9.7,0,0,1024,1024,1477,1024,134.9,0,98,4.111,4.119,4.114,4.11,0,0,16.182,87.71,6,P-GPS,
0.347649340563522,36.8999769583366,5876.1110758308,162.729664,0,1.71883863768,20700,2018-04-04 13:21:53,12,0,16.346,5876.1110758308,162.729664,0.671082,2.98554143412,0,0,-6.71082,135.2, -3.1, -11.3,0,0,1024,1024,1479,1024,134.9,0,98,4.111,4.119,4.114,4.11,0,0,16.182,87.71,6,P-GPS,
0.347649307263877,36.8999769944772,5877.0953278308,163.713916,0,1.71791015996,20800,2018-04-04 13:21:53,12,0,16.346,5877.0953278308,163.713916,0.671082,2.98554143412,0,0,-6.487126,135.4, -3.2, -11.2,0,0,1024,1024,1479,1024,134.9,0,98,4.111,4.119,4.114,4.11,0,0,16.182,87.71,6,P-GPS,
0.347649285167317,36.8999770282167,5878.0795798308,164.698168,0,1.71488850632,20900,2018-04-04 13:21:53,12,0,16.346,5878.0795798308,164.698168,0.671082,2.98554143412,0,0,-6.934514,135.3, -2.6, -10.3,0,0,1024,1024,1480,1024,134.9,0,98,4.111,4.119,4.114,4.11,0,0,16.182,87.71,6,P-GPS,
0.347649270734622,36.8999770341529,5879.3919158308,166.010504,0,1.71710307332,21000,2018-04-04 13:21:53,12,0,16.346,5879.3919158308,166.010504,0.671082,2.98554143412,0,0,-6.934514,135.2, -2.6, -10.8,0,0,1024,1024,1477,1024,134.9,0,98,4.111,4.119,4.114,4.11,0,0,16.182,87.71,6,P-GPS,
0.347649271966336,36.8999770002314,5880.3761678308,166.994756,0,1.7255085854,21100,2018-04-04 13:21:53,12,0,16.346,5880.3761678308,166.994756,0.671082,2.98554143412,0,0,-6.71082,135.4, -3.7, -10.9,0,0,1024,1024,1477,1024,134.9,0,98,4.111,4.119,4.114,4.11,0,0,16.182,87.71,6,P-GPS,
0.34764928132419,36.8999769756713,5881.3604198308,167.979008,0,1.7294455934,21200,2018-04-04 13:21:53,12,0,16.346,5881.3604198308,167.979008,0.671082,2.98554143412,0,0,-6.71082,135.5, -4.4, -10.6,0,0,1024,1024,1479,1024,134.9,0,98,4.111,4.119,4.114,4.11,0,0,16.182,87.71,6,P-GPS,
0.347649278083586,36.8999769711814,5882.3446718308,168.96326,0,1.73144034412,21300,2018-04-04 13:21:53,12,0,16.346,5882.3446718308,168.96326,0.671082,2.98554143412,0,0,-6.487126,135.4, -4, -11.4,0,0,1024,1024,1479,1024,134.9,0,98,4.111,4.119,4.114,4.11,0,0,16.182,87.71,6,P-GPS,
0.347649300146559,36.8999770093117,5883.3289238308,169.947512,0,1.71589900504,21400,2018-04-04 13:21:53,12,0,16.346,5883.3289238308,169.947512,0.671082,2.98554143412,0,0,-6.487126,135.3, -3.4, -11.2,0,0,1024,1024,1479,1024,134.9,0,98,4.111,4.119,4.114,4.11,0,0,16.182,87.71,6,P-GPS,
0.347649342607015,36.8999770515229,5884.3131758308,170.931764,0,1.69405517232,21500,2018-04-04 13:21:54,12,0,16.346,5884.3131758308,170.931764,0.671082,2.98554143412,0,0,-6.263432,135.3, -3.5, -10.3,0,0,1024,1024,1477,1024,134.9,0,98,4.111,4.119,4.114,4.11,0,0,16.182,87.71,6,P-GPS,
