latitude,longitude,altitude(feet),ascent(feet),speed(mph),distance(feet),time(millisecond),datetime(utc),satellites,voltage(v),max_altitude(feet),max_ascent(feet),max_speed(mph),max_distance(feet),compass_heading(degrees), pitch(degrees), roll(degrees),isPhoto,isVideo,rc_elevator,rc_aileron,rc_throttle,rc_rudder,gimbal_heading(degrees),gimbal_pitch(degrees),battery_percent,voltageCell1,voltageCell2,voltageCell3,voltageCell4,voltageCell5,voltageCell6,battery_temperature(f),flycStateRaw,flycState,message
0.371605891655904,36.9034651832341,5500.7203426897,0,0,0,100,2017-11-10 07:15:44,16,0,5500.7203426897,0,0,0,223.2, 1.9, 0.7,0,0,1024,1024,1024,1024,227.7,0,99,4.284,4.285,4.283,4.282,0,0,82.31,41,Motors_Started,
0.371605908892576,36.9034651675994,5500.7203426897,0,0,0.0084903874108,200,2017-11-10 07:15:44,16,0,5500.7203426897,0,0,0.0084903874108,223.2, 1.9, 0.7,0,0,1024,1024,1024,1024,227.7,0,99,4.284,4.285,4.283,4.282,0,0,82.31,41,Motors_Started,
0.371605925729466,36.9034651613962,5500.7203426897,0,0,0.0147657156956,300,2017-11-10 07:15:44,16,0,5500.7203426897,0,0,0.0147657156956,223.2, 1.9, 0.7,0,0,1024,1024,1024,1024,227.7,0,99,4.284,4.285,4.283,4.282,0,0,82.31,41,Motors_Started,
0.371605935331586,36.9034651774051,5500.7203426897,0,0,0.0160763128504,400,2017-11-10 07:15:44,16,0,5500.7203426897,0,0,0.0160763128504,223.2, 1.8, 0.7,0,0,1024,1024,1024,1024,227.7,0,99,4.284,4.285,4.283,4.282,0,0,82.31,41,Motors_Started,
0.371605943117991,36.9034651802262,5500.7203426897,0,0,0.0188079402344,500,2017-11-10 07:15:44,16,0,5500.7203426897,0,0,0.0188079402344,223.2, 1.9, 0.7,0,0,1024,1024,1024,1024,227.7,0,99,4.284,4.285,4.283,4.282,0,0,82.31,41,Motors_Started,
0.371605946216106,36.9034651582368,5500.7203426897,0,0,0.021895998076,600,2017-11-10 07:15:44,16,0,5500.7203426897,0,0,0.021895998076,223.2, 1.9, 0.7,0,0,1024,1024,1024,1024,227.7,0,99,4.284,4.285,4.283,4.282,0,0,82.31,41,Motors_Started,
0.371605946655379,36.9034651293886,5500.7203426897,0,0,0.0280819234708,700,2017-11-10 07:15:44,16,0,5500.7203426897,0,0,0.0280819234708,223.2, 1.9, 0.7,0,0,1024,1024,1024,1024,227.7,0,99,4.284,4.285,4.283,4.282,0,0,82.31,41,Motors_Started,
0.371605945877797,36.9034651131875,5500.7203426897,0,0,0.0323181768872,800,2017-11-10 07:15:45,16,0,5500.7203426897,0,0,0.0323181768872,223.2, 1.9, 0.7,0,0,1024,1024,1024,1024,227.7,0,99,4.284,4.285,4.283,4.282,0,0,82.31,41,Motors_Started,
0.371605942966953,36.9034650948618,5500.7203426897,0,0,0.037282809592,900,2017-11-10 07:15:45,16,17.125,5500.7203426897,0,0,0.037282809592,223.2, 1.9, 0.7,0,0,1024,1024,1024,1024,227.7,0,99,4.284,4.285,4.283,4.282,0,0,82.31,41,Motors_Started,Setting new Return-To-Home altitude to 30m (98 ft). Setting new Maximum Flight Altitude to 100m (328 ft)
0.371605940734356,36.903465082083,5500.7203426897,0,0,0.041019030184,1000,2017-11-10 07:15:45,16,17.125,5500.7203426897,0,0,0.041019030184,223.2, 1.8, 0.7,0,0,1024,1024,1024,1024,226.2,0,99,4.284,4.285,4.283,4.282,0,0,82.31,41,Motors_Started,
0.371605936567982,36.9034650707698,5500.7203426897,0,0,0.044182744196,1100,2017-11-10 07:15:45,16,17.125,5500.7203426897,0,0,0.044182744196,223.2, 1.9, 0.7,0,0,1024,1024,1024,1024,225,0,99,4.284,4.285,4.283,4.282,0,0,82.31,41,Motors_Started,
0.371605934042673,36.9034650625636,5500.7203426897,0,0,0.046662731152,1200,2017-11-10 07:15:45,16,17.125,5500.7203426897,0,0,0.046662731152,223.2, 1.9, 0.7,0,0,1024,1024,1024,1024,225,0,99,4.284,4.285,4.283,4.282,0,0,82.31,41,Motors_Started,
0.371605929998025,36.9034650569873,5500.7203426897,0,0,0.048137468732,1300,2017-11-10 07:15:45,16,17.125,5500.7203426897,0,0,0.048137468732,223.2, 1.9, 0.7,0,0,1024,1024,1024,1024,224.5,0,99,4.284,4.285,4.283,4.282,0,0,82.31,41,Motors_Started,
0.371605926660122,36.9034650523788,5500.7203426897,0,0,0.049420277172,1400,2017-11-10 07:15:45,16,17.125,5500.7203426897,0,0,0.049420277172,223.2, 1.8, 0.7,0,0,1024,1024,1024,1024,224.3,0,99,4.284,4.285,4.283,4.282,0,0,82.31,41,Motors_Started,
0.371605923410969,36.9034650510325,5500.7203426897,0,0,0.04960466038,1500,2017-11-10 07:15:45,16,17.125,5500.7203426897,0,0,0.04960466038,223.2, 1.8, 0.8,0,0,1024,1024,1024,1024,224.1,0,99,4.284,4.285,4.283,4.282,0,0,82.31,41,Motors_Started,
0.371605922272687,36.9034650473988,5500.7203426897,0,0,0.050801838896,1600,2017-11-10 07:15:45,16,17.125,5500.7203426897,0,0,0.050801838896,223.2, 1.9, 0.8,0,0,1024,1024,1024,1024,224,0,99,4.284,4.285,4.283,4.282,0,0,82.31,10,Assisted_Takeoff,
0.37160591989353,36.9034650487682,5500.7203426897,0,0,0.050128938612,1700,2017-11-10 07:15:45,16,17.125,5500.7203426897,0,0,0.050801838896,223.2, 1.9, 0.8,0,0,1024,1024,1024,1024,223.9,0,99,4.284,4.285,4.283,4.282,0,0,82.31,10,Assisted_Takeoff,
0.371605918987301,36.9034650469374,5500.7203426897,0,0,0.05071686514,1800,2017-11-10 07:15:46,16,17.125,5500.7203426897,0,0,0.050801838896,223.2, 1.8, 0.8,0,0,1024,1024,1024,1024,223.8,0,99,4.284,4.285,4.283,4.282,0,0,82.31,10,Assisted_Takeoff,
0.371605918326153,36.9034650326035,5500.7203426897,0,0,0.055811025408,1900,2017-11-10 07:15:46,16,17.097,5500.7203426897,0,0,0.055811025408,223.2, 1.8, 0.7,0,0,1024,1024,1024,1024,223.8,0,99,4.279,4.28,4.279,4.279,0,0,82.31,10,Assisted_Takeoff,
0.371605917040903,36.9034650017671,5500.7203426897,0,0,0.066851380092,2000,2017-11-10 07:15:46,16,17.097,5500.7203426897,0,0,0.066851380092,223.2, 1.8, 0.7,0,0,1024,1024,1024,1024,223.7,0,99,4.279,4.28,4.279,4.279,0,0,82.31,10,Assisted_Takeoff,
0.371605916253143,36.9034649709795,5500.7203426897,0,0,0.07795767966,2100,2017-11-10 07:15:46,16,17.097,5500.7203426897,0,0,0.07795767966,223.2, 1.8, 0.7,0,1,1024,1024,1024,1024,223.7,0,99,4.279,4.28,4.279,4.279,0,0,82.31,10,Assisted_Takeoff,
0.371605915338365,36.9034649521334,5500.7203426897,0,0,0.084756892476,2200,2017-11-10 07:15:46,16,17.097,5500.7203426897,0,0,0.084756892476,223.2, 1.8, 0.7,0,1,1024,1024,1024,1024,223.7,0,99,4.279,4.28,4.279,4.279,0,0,82.31,10,Assisted_Takeoff,
0.37160591496993,36.9034649379767,5500.7203426897,0,0,0.08988353306,2300,2017-11-10 07:15:46,16,17.097,5500.7203426897,0,0,0.08988353306,223.2, 1.8, 0.7,0,1,1024,1024,1024,1024,223.6,0,99,4.279,4.28,4.279,4.279,0,0,82.31,10,Assisted_Takeoff,
0.371605914366591,36.9034649277936,5500.7203426897,0,0,0.09356299512,2400,2017-11-10 07:15:46,16,17.097,5500.7203426897,0,0,0.09356299512,223.2, 1.8, 0.7,0,1,1024,1024,1024,1024,223.6,0,99,4.279,4.28,4.279,4.279,0,0,82.31,10,Assisted_Takeoff,
0.37160593082446,36.9034649239196,5500.7203426897,0,0,0.095682089676,2500,2017-11-10 07:15:46,16,17.097,5500.7203426897,0,0,0.095682089676,223.2, 1.8, 0.7,0,1,1024,1024,1024,1024,223.6,0,99,4.279,4.28,4.279,4.279,0,0,82.31,10,Assisted_Takeoff,
0.371605960084749,36.9034649196928,5500.7203426897,0,0,0.099339242024,2600,2017-11-10 07:15:46,16,17.097,5500.7203426897,0,0,0.099339242024,223.2, 1.8, 0.7,0,1,1024,1024,1024,1024,223.6,0,99,4.279,4.28,4.279,4.279,0,0,82.31,10,Assisted_Takeoff,
0.371605993431618,36.9034649215262,5500.7203426897,0,0,0.102448166008,2700,2017-11-10 07:15:46,16,17.097,5500.7203426897,0,0,0.102448166008,223.3, 1.9, 0.7,0,1,1024,1024,1024,1024,223.6,0,99,4.279,4.28,4.279,4.279,0,0,82.31,10,Assisted_Takeoff,
0.371606011695432,36.9034649203121,5500.7203426897,0,0,0.105450134608,2800,2017-11-10 07:15:47,16,17.097,5500.7203426897,0,0,0.105450134608,223.3, 1.8, 0.7,0,1,1024,1024,1024,1024,223.6,0,99,4.279,4.28,4.279,4.279,0,0,82.31,10,Assisted_Takeoff,
0.37160602938359,36.9034649250057,5500.7203426897,0,0,0.106775593968,2900,2017-11-10 07:15:47,16,17.097,5500.7203426897,0,0,0.106775593968,223.3, 1.9, 0.7,0,1,1024,1024,1024,1024,223.6,0,99,4.271,4.272,4.276,4.276,0,0,82.31,10,Assisted_Takeoff,
0.371606038894111,36.9034649258729,5500.7203426897,0,0,0.108177168816,3000,2017-11-10 07:15:47,16,17.097,5500.7203426897,0,0,0.108177168816,223.3, 1.9, 0.7,0,1,1024,1024,1024,1024,223.6,0,99,4.271,4.272,4.276,4.276,0,0,82.31,10,Assisted_Takeoff,
0.371606046024253,36.9034649334833,5500.7203426897,0,0,0.107120738336,3100,2017-11-10 07:15:47,16,17.097,5500.7203426897,0,0,0.108177168816,223.3, 1.9, 0.7,0,1,1024,1024,1024,1024,223.6,0,99,4.271,4.272,4.276,4.276,0,0,82.31,10,Assisted_Takeoff,
0.371606049937404,36.9034649350775,5500.7203426897,0,0,0.107387470628,3200,2017-11-10 07:15:47,16,17.097,5500.7203426897,0,0,0.108177168816,223.2, 1.8, 0.7,0,1,1024,1024,1024,1024,223.6,0,99,4.271,4.272,4.276,4.276,0,0,82.31,10,Assisted_Takeoff,
0.371606051159958,36.9034649242466,5500.7203426897,0,0,0.110972444496,3300,2017-11-10 07:15:47,16,17.097,5500.7203426897,0,0,0.110972444496,223.3, 1.8, 0.7,0,1,1024,1024,1024,1024,223.5,0,99,4.271,4.272,4.276,4.276,0,0,82.31,10,Assisted_Takeoff,
0.371606050861953,36.9034648965391,5500.7203426897,0,0,0.119644360784,3400,2017-11-10 07:15:47,16,17.097,5500.7203426897,0,0,0.119644360784,223.3, 1.9, 0.7,0,1,1024,1024,1024,1024,223.5,0,99,4.271,4.272,4.276,4.276,0,0,82.31,10,Assisted_Takeoff,
0.371606047749996,36.9034648865648,5500.7203426897,0,0,0.122305778192,3500,2017-11-10 07:15:47,16,17.097,5500.7203426897,0,0,0.122305778192,223.3, 1.9, 0.7,0,1,1024,1024,1024,1024,223.5,0,99,4.271,4.272,4.276,4.276,0,0,82.31,10,Assisted_Takeoff,
0.371606044973092,36.9034649007466,5500.7203426897,0,0,0.117264767532,3600,2017-11-10 07:15:47,16,17.097,5500.7203426897,0,0,0.122305778192,223.3, 1.9, 0.7,0,1,1024,1024,1024,1024,223.5,0,99,4.271,4.272,4.276,4.276,0,0,82.31,10,Assisted_Takeoff,
0.371606039699376,36.9034649063299,5500.7203426897,0,0,0.114559058784,3700,2017-11-10 07:15:47,16,17.097,5500.7203426897,0,0,0.122305778192,223.3, 1.9, 0.7,0,1,1024,1024,1024,1024,223.5,0,99,4.271,4.272,4.276,4.276,0,0,82.31,10,Assisted_Takeoff,
0.371606035486591,36.9034648883468,5500.7203426897,0,0,0.11970308782,3800,2017-11-10 07:15:48,16,17.097,5500.7203426897,0,0,0.122305778192,223.3, 1.9, 0.7,0,1,1024,1024,1024,1024,223.5,0,99,4.271,4.272,4.276,4.276,0,0,82.31,10,Assisted_Takeoff,
0.371606029934412,36.9034648722046,5500.7203426897,0,0,0.12418635568,3900,2017-11-10 07:15:48,16,17.097,5500.7203426897,0,0,0.12418635568,223.3, 1.8, 0.7,0,1,1024,1024,1024,1024,223.5,0,99,4.278,4.279,4.278,4.276,0,0,82.31,10,Assisted_Takeoff,
0.371606025996834,36.903464862538,5500.7203426897,0,0,0.126854990936,4000,2017-11-10 07:15:48,16,17.097,5500.7203426897,0,0,0.126854990936,223.3, 1.8, 0.7,0,1,1024,1024,1024,1024,223.5,0,99,4.278,4.279,4.278,4.276,0,0,82.31,10,Assisted_Takeoff,
0.371606021532048,36.9034648559575,5500.7203426897,0,0,0.12846293062,4100,2017-11-10 07:15:48,16,17.097,5500.7203426897,0,0,0.12846293062,223.3, 1.8, 0.7,0,1,1024,1024,1024,1024,223.5,0,99,4.278,4.279,4.278,4.276,0,0,82.31,10,Assisted_Takeoff,
0.37160601750857,36.9034648510402,5500.7203426897,0,0,0.12960466294,4200,2017-11-10 07:15:48,16,17.097,5500.7203426897,0,0,0.12960466294,223.3, 1.8, 0.7,0,1,1024,1024,1024,1024,223.5,0,99,4.278,4.279,4.278,4.276,0,0,82.31,10,Assisted_Takeoff,
0.371605997345176,36.9034648497554,5500.7203426897,0,0,0.12763123768,4300,2017-11-10 07:15:48,16,17.097,5500.7203426897,0,0,0.12960466294,223.3, 1.8, 0.7,0,1,1024,1024,1024,1024,223.5,0,99,4.278,4.279,4.278,4.276,0,0,82.31,10,Assisted_Takeoff,
0.371605964039832,36.9034648476447,5500.7203426897,0,0,0.125252956764,4400,2017-11-10 07:15:48,16,17.097,5500.7203426897,0,0,0.12960466294,223.3, 1.8, 0.7,0,1,1024,1024,1024,1024,223.5,0,99,4.278,4.279,4.278,4.276,0,0,82.31,10,Assisted_Takeoff,
0.37160593328626,36.9034648437921,5500.7203426897,0,0,0.124770673284,4500,2017-11-10 07:15:48,16,17.097,5500.7203426897,0,0,0.12960466294,223.3, 1.8, 0.7,0,1,1024,1024,1024,1024,223.5,0,99,4.278,4.279,4.278,4.276,0,0,82.31,10,Assisted_Takeoff,
0.371605908724033,36.9034648482341,5500.7203426897,0,0,0.122380581344,4600,2017-11-10 07:15:48,16,17.097,5500.7203426897,0,0,0.12960466294,223.3, 1.8, 0.7,0,1,1024,1024,1024,1024,223.5,0,99,4.278,4.279,4.278,4.276,0,0,82.31,10,Assisted_Takeoff,
0.371605888390059,36.9034648369814,5500.7203426897,0,0,0.126333009292,4700,2017-11-10 07:15:48,16,17.097,5500.7203426897,0,0,0.12960466294,223.3, 1.8, 0.7,0,1,1024,1024,1024,1024,223.5,0,99,4.278,4.279,4.278,4.276,0,0,82.31,10,Assisted_Takeoff,
0.371605875110099,36.9034648081401,5500.7203426897,0,0,0.136982944016,4800,2017-11-10 07:15:49,16,17.097,5500.7203426897,0,0,0.136982944016,223.3, 1.8, 0.7,0,1,1024,1024,1024,1024,223.5,0,99,4.278,4.279,4.278,4.276,0,0,82.31,10,Assisted_Takeoff,
0.371605866353141,36.9034647797833,5500.7203426897,0,0,0.147484912856,4900,2017-11-10 07:15:49,16,17.097,5500.7203426897,0,0,0.147484912856,223.3, 1.8, 0.7,0,1,1024,1024,1024,1024,223.5,0,99,4.278,4.279,4.278,4.276,0,0,82.31,10,Assisted_Takeoff,
0.371605858852121,36.9034647628076,5500.7203426897,0,0,0.153855319884,5000,2017-11-10 07:15:49,16,17.097,5500.7203426897,0,0,0.153855319884,223.3, 1.8, 0.7,0,1,1024,1024,1024,1024,223.5,0,99,4.278,4.279,4.278,4.276,0,0,82.31,10,Assisted_Takeoff,
0.371605857198843,36.9034647334862,5500.7203426897,0,0,0.164567590568,5100,2017-11-10 07:15:49,16,17.097,5500.7203426897,0,0,0.164567590568,223.3, 1.8, 0.7,0,1,1024,1024,1024,1024,223.5,0,99,4.278,4.279,4.278,4.276,0,0,82.31,10,Assisted_Takeoff,
0.37160585386664,36.9034646951909,5500.7203426897,0,0,0.178591541148,5200,2017-11-10 07:15:49,16,17.097,5500.7203426897,0,0,0.178591541148,223.3, 1.8, 0.7,0,1,1024,1024,1024,1024,223.5,0,99,4.278,4.279,4.278,4.276,0,0,82.31,10,Assisted_Takeoff,
0.371605839575008,36.9034646588237,5500.7203426897,0,0,0.192268050772,5300,2017-11-10 07:15:49,16,17.097,5500.7203426897,0,0,0.192268050772,223.3, 1.8, 0.7,0,1,1024,1024,1024,1024,223.5,0,99,4.278,4.279,4.278,4.276,0,0,82.31,10,Assisted_Takeoff,
0.371605808670805,36.9034646367872,5500.7203426897,0,0,0.201652565508,5400,2017-11-10 07:15:49,16,17.097,5500.7203426897,0,0,0.201652565508,223.3, 1.8, 0.7,0,1,1024,1024,1024,1024,223.5,0,99,4.278,4.279,4.278,4.276,0,0,82.31,10,Assisted_Takeoff,
0.371605780690473,36.9034646210803,5500.7203426897,0,0,0.209054796716,5500,2017-11-10 07:15:49,16,17.097,5500.7203426897,0,0,0.209054796716,223.3, 1.8, 0.7,0,1,1024,1024,1024,1024,223.5,0,99,4.278,4.279,4.278,4.276,0,0,82.31,10,Assisted_Takeoff,
0.37160576272385,36.9034646113901,5500.7203426897,0,0,0.213870085584,5600,2017-11-10 07:15:49,16,17.097,5500.7203426897,0,0,0.213870085584,223.3, 1.8, 0.7,0,1,1024,1024,1024,1024,223.5,0,99,4.278,4.279,4.278,4.276,0,0,82.31,10,Assisted_Takeoff,
0.371605751253498,36.9034646114207,5500.7203426897,0,0,0.214818576428,5700,2017-11-10 07:15:49,16,17.097,5500.7203426897,0,0,0.214818576428,223.3, 1.8, 0.7,0,1,1024,1024,1024,1024,223.5,0,99,4.278,4.279,4.278,4.276,0,0,82.31,10,Assisted_Takeoff,
0.371605740564799,36.9034646091188,5500.7203426897,0,0,0.216593510868,5800,2017-11-10 07:15:50,16,17.097,5500.7203426897,0,0,0.216593510868,223.3, 1.8, 0.7,0,1,1024,1024,1024,1024,223.5,0,99,4.278,4.279,4.278,4.276,0,0,82.31,10,Assisted_Takeoff,
0.371605735944496,36.9034646139259,5500.7203426897,0,0,0.215336621064,5900,2017-11-10 07:15:50,16,17.097,5500.7203426897,0,0,0.216593510868,223.3, 1.8, 0.7,0,1,1024,1024,1024,1024,223.5,0,99,4.278,4.279,4.278,4.276,0,0,82.31,10,Assisted_Takeoff,
0.371605731605507,36.9034646172437,5500.7203426897,0,0,0.214594495056,6000,2017-11-10 07:15:50,16,17.097,5500.7203426897,0,0,0.216593510868,223.3, 1.8, 0.7,0,1,1024,1024,1024,1024,223.5,0,99,4.278,4.279,4.278,4.276,0,0,82.31,10,Assisted_Takeoff,
0.371605735230423,36.9034646109308,5500.7203426897,0,0,0.216459324512,6100,2017-11-10 07:15:50,16,17.097,5500.7203426897,0,0,0.216593510868,223.3, 1.8, 0.7,0,1,1024,1024,1026,1024,223.5,0,99,4.278,4.279,4.278,4.276,0,0,82.31,10,Assisted_Takeoff,
0.371605734680009,36.9034645856328,5500.7203426897,0,0,0.225426844484,6200,2017-11-10 07:15:50,16,17.097,5500.7203426897,0,0,0.225426844484,223.3, 1.8, 0.7,0,1,1024,1024,1025,1024,223.5,0,99,4.278,4.279,4.278,4.276,0,0,82.31,10,Assisted_Takeoff,
0.371605757170449,36.9034645624636,5500.7203426897,0,0,0.23173721214,6300,2017-11-10 07:15:50,16,17.097,5500.7203426897,0,0,0.23173721214,223.4, 1.8, 0.7,0,1,1024,1024,1025,1024,223.5,0,99,4.278,4.279,4.278,4.276,0,0,82.31,10,Assisted_Takeoff,
0.371605787524238,36.90346454837,5500.7203426897,0,0,0.234720151868,6400,2017-11-10 07:15:50,16,17.097,5500.7203426897,0,0,0.234720151868,223.4, 1.8, 0.6,0,1,1024,1024,1025,1024,223.5,0,99,4.278,4.279,4.278,4.276,0,0,82.31,10,Assisted_Takeoff,
0.37160582718662,36.9034645391189,5500.7203426897,0,0,0.236174220156,6500,2017-11-10 07:15:50,16,17.097,5500.7203426897,0,0,0.236174220156,223.4, 1.8, 0.6,0,1,1024,1024,1024,1024,223.5,0,99,4.278,4.279,4.278,4.276,0,0,82.31,10,Assisted_Takeoff,
0.371605846736905,36.9034645324559,5500.7203426897,0,0,0.237996070608,6600,2017-11-10 07:15:50,16,17.097,5500.7203426897,0,0,0.237996070608,223.4, 1.8, 0.7,0,1,1024,1024,1024,1024,223.5,0,99,4.278,4.279,4.278,4.276,0,0,82.31,10,Assisted_Takeoff,
0.371605870186091,36.9034645309763,5500.7203426897,0,0,0.238099745152,6700,2017-11-10 07:15:50,16,17.097,5500.7203426897,0,0,0.238099745152,223.4, 1.8, 0.7,0,1,1024,1024,1024,1024,223.5,0,99,4.278,4.279,4.278,4.276,0,0,82.31,10,Assisted_Takeoff,
0.371605880816981,36.9034645296054,5500.7203426897,0,0,0.23850394464,6800,2017-11-10 07:15:51,16,17.097,5500.7203426897,0,0,0.23850394464,223.4, 1.8, 0.6,0,1,1024,1024,1025,1024,223.5,0,99,4.278,4.279,4.278,4.276,0,0,82.31,10,Assisted_Takeoff,
0.371605892858103,36.9034645337561,5500.7203426897,0,0,0.23695702858,6900,2017-11-10 07:15:51,16,17.097,5500.7203426897,0,0,0.23850394464,223.4, 1.8, 0.6,0,1,1024,1024,1024,1024,223.5,0,99,4.278,4.279,4.278,4.276,0,0,82.31,10,Assisted_Takeoff,
0.371605896303076,36.9034645348503,5500.7203426897,0,0,0.236563655864,7000,2017-11-10 07:15:51,16,17.097,5500.7203426897,0,0,0.23850394464,223.4, 1.8, 0.7,0,1,1024,1024,1024,1024,223.5,0,99,4.278,4.279,4.278,4.276,0,0,82.31,10,Assisted_Takeoff,
0.371605900679519,36.9034645416177,5500.7203426897,0,0,0.234111556048,7100,2017-11-10 07:15:51,16,17.097,5500.7203426897,0,0,0.23850394464,223.4, 1.8, 0.6,0,1,1024,1024,1024,1024,223.5,0,99,4.278,4.279,4.278,4.276,0,0,82.31,10,Assisted_Takeoff,
0.371605899585612,36.9034645439778,5500.7203426897,0,0,0.233245414288,7200,2017-11-10 07:15:51,16,17.097,5500.7203426897,0,0,0.23850394464,223.4, 1.8, 0.6,0,1,1024,1024,1024,1024,223.5,0,99,4.278,4.279,4.278,4.276,0,0,82.31,10,Assisted_Takeoff,
0.371605898832864,36.9034645501681,5500.7203426897,0,0,0.230983603192,7300,2017-11-10 07:15:51,16,17.097,5500.7203426897,0,0,0.23850394464,223.4, 1.8, 0.7,0,1,1024,1024,1024,1024,223.5,0,99,4.278,4.279,4.278,4.276,0,0,82.31,10,Assisted_Takeoff,
0.371605895394811,36.903464553206,5500.7203426897,0,0,0.229864508668,7400,2017-11-10 07:15:51,16,17.097,5500.7203426897,0,0,0.23850394464,223.4, 1.8, 0.7,0,1,1024,1024,1024,1024,223.5,0,99,4.278,4.279,4.278,4.276,0,0,82.31,10,Assisted_Takeoff,
0.371605876580584,36.9034645430935,5500.7203426897,0,0,0.233614836872,7500,2017-11-10 07:15:51,16,17.097,5500.7203426897,0,0,0.23850394464,223.4, 1.8, 0.7,0,1,1024,1024,1024,1024,223.5,0,99,4.278,4.279,4.278,4.276,0,0,82.31,10,Assisted_Takeoff,
0.371605841439169,36.9034645145226,5500.7203426897,0,0,0.244660768984,7600,2017-11-10 07:15:51,16,17.097,5500.7203426897,0,0,0.244660768984,223.4, 1.8, 0.7,0,1,1024,1024,1024,1024,223.5,0,99,4.278,4.279,4.278,4.276,0,0,82.31,10,Assisted_Takeoff,
0.371605804898107,36.903464485571,5500.7203426897,0,0,0.256497383536,7700,2017-11-10 07:15:51,16,17.097,5500.7203426897,0,0,0.256497383536,223.4, 1.8, 0.7,0,1,1024,1024,1024,1024,223.5,0,99,4.278,4.279,4.278,4.276,0,0,82.31,10,Assisted_Takeoff,
0.3716057799821,36.903464467407,5500.7203426897,0,0,0.264322843104,7800,2017-11-10 07:15:52,16,17.097,5500.7203426897,0,0,0.264322843104,223.4, 1.8, 0.7,0,1,1024,1024,1024,1024,223.5,0,99,4.278,4.279,4.278,4.276,0,0,82.31,10,Assisted_Takeoff,
0.371605758340079,36.9034644522979,5500.7203426897,0,0,0.271075467992,7900,2017-11-10 07:15:52,16,17.07,5500.7203426897,0,0,0.271075467992,223.4, 1.7, 0.7,0,1,1024,1024,1024,1024,223.5,0,99,4.278,4.279,4.278,4.276,0,0,82.31,10,Assisted_Takeoff,
0.371605741703895,36.9034644420629,5500.7203426897,0,0,0.27588911644,8000,2017-11-10 07:15:52,16,17.07,5500.7203426897,0,0,0.27588911644,223.4, 1.7, 0.6,0,1,1024,1024,1024,1024,223.5,0,99,4.278,4.279,4.278,4.276,0,0,82.31,10,Assisted_Takeoff,
0.371605731328264,36.9034644367039,5500.7203426897,0,0,0.2785761244,8100,2017-11-10 07:15:52,16,17.07,5500.7203426897,0,0,0.2785761244,223.4, 1.7, 0.6,0,1,1024,1024,1024,1024,223.5,0,99,4.278,4.279,4.278,4.276,0,0,82.31,10,Assisted_Takeoff,
0.371605720416061,36.9034644320532,5500.7203426897,0,0,0.281093184848,8200,2017-11-10 07:15:52,16,17.07,5500.7203426897,0,0,0.281093184848,223.4, 1.7, 0.6,0,1,1024,1024,1024,1024,223.5,0,99,4.278,4.279,4.278,4.276,0,0,82.31,10,Assisted_Takeoff,
0.37160571881123,36.9034644146862,5500.7203426897,0,0,0.287402240168,8300,2017-11-10 07:15:52,16,17.07,5500.7203426897,0,0,0.287402240168,223.4, 1.7, 0.6,0,1,1024,1024,1028,1024,223.5,0,99,4.278,4.279,4.278,4.276,0,0,82.31,10,Assisted_Takeoff,
0.371605711038666,36.9034643831347,5500.7203426897,0,0,0.299255587004,8400,2017-11-10 07:15:52,16,17.07,5500.7203426897,0,0,0.299255587004,223.4, 1.7, 0.6,0,1,1024,1024,1035,1024,223.5,0,99,4.278,4.279,4.278,4.276,0,0,82.31,10,Assisted_Takeoff,
0.371605710838775,36.9034643549914,5500.7203426897,0,0,0.309294957404,8500,2017-11-10 07:15:52,16,17.07,5500.7203426897,0,0,0.309294957404,223.4, 1.7, 0.6,0,1,1024,1024,1061,1024,223.5,0,99,4.278,4.279,4.278,4.276,0,0,82.31,10,Assisted_Takeoff,
0.371605708258098,36.9034643364205,5500.7203426897,0,0,0.316115823764,8600,2017-11-10 07:15:52,16,17.07,5500.7203426897,0,0,0.316115823764,223.4, 1.7, 0.7,0,1,1024,1024,1111,1024,223.5,0,99,4.278,4.279,4.278,4.276,0,0,82.31,10,Assisted_Takeoff,
0.371605713723563,36.9034643231433,5500.7203426897,0,0,0.320441939388,8700,2017-11-10 07:15:52,16,17.07,5500.7203426897,0,0,0.320441939388,223.4, 1.7, 0.7,0,1,1024,1024,1231,1024,223.5,0,99,4.278,4.279,4.278,4.276,0,0,82.31,10,Assisted_Takeoff,
0.371605713132438,36.9034643137128,5500.7203426897,0,0,0.323855325324,8800,2017-11-10 07:15:53,16,17.07,5500.7203426897,0,0,0.323855325324,223.4, 1.7, 0.6,0,1,1024,1024,1447,1024,223.5,0,99,4.278,4.279,4.278,4.276,0,0,82.31,10,Assisted_Takeoff,
0.371605705575237,36.9034643101461,5500.7203426897,0,0,0.325693579976,8900,2017-11-10 07:15:53,16,17.097,5500.7203426897,0,0,0.325693579976,223.5, 1.7, 0.7,0,1,1024,1024,1612,1024,223.5,0,99,4.278,4.279,4.277,4.276,0,0,82.31,10,Assisted_Takeoff,
0.371605672626522,36.9034643053893,5500.7203426897,0,0,0.33009515492,9000,2017-11-10 07:15:53,16,17.097,5500.7203426897,0,0,0.33009515492,223.4, 1.5, 0.5,0,1,1024,1024,1684,1024,223.5,0,99,4.278,4.279,4.277,4.276,0,0,82.31,10,Assisted_Takeoff,
0.37160564282274,36.9034643062239,5500.7203426897,0,0,0.33260171668,9100,2017-11-10 07:15:53,16,17.097,5500.7203426897,0,0,0.33260171668,223.5, 1.2, 0.4,0,1,1024,1024,1684,1024,223.5,0,99,4.278,4.279,4.277,4.276,0,0,82.31,10,Assisted_Takeoff,
0.371605617574123,36.9034643001669,5500.7203426897,0,0,0.33734253048,9200,2017-11-10 07:15:53,16,17.097,5500.7203426897,0,0,0.33734253048,223.7, 0.3, 0,0,1,1024,1024,1684,1024,223.5,0,99,4.278,4.279,4.277,4.276,0,0,82.31,10,Assisted_Takeoff,
0.37160557979463,36.9034642753425,5500.7203426897,0,0,0.35023295084,9300,2017-11-10 07:15:53,16,17.097,5500.7203426897,0,0,0.35023295084,224, -0.9, -0.8,0,1,1024,1024,1684,1024,223.5,0,99,4.278,4.279,4.277,4.276,0,0,82.31,10,Assisted_Takeoff,
0.371605487769631,36.9034642128615,5500.7203426897,0,0.223694,0.38347442172,9400,2017-11-10 07:15:53,16,17.097,5500.7203426897,0,0.223694,0.38347442172,224.3, -0.6, 0,0,1,1024,1024,1684,1024,223.5,0,99,4.278,4.279,4.277,4.276,0,0,82.31,6,GPS_Atti,
0.37160534038975,36.9034641053938,5500.7203426897,0,0.31540854,0.44169292752,9500,2017-11-10 07:15:53,16,17.097,5500.7203426897,0,0.31540854,0.44169292752,224.2, 0.3, 1.4,0,1,1024,1024,1684,1028,223.5,0,99,4.278,4.279,4.277,4.276,0,0,82.31,6,GPS_Atti,
0.371605175956803,36.9034639363823,5501.0484266897,0.328084,0.63305402,0.52452101416,9600,2017-11-10 07:15:53,16,17.097,5501.0484266897,0.328084,0.63305402,0.52452101416,224.1, 0.2, 1,0,1,1024,1024,1684,1024,223.6,0,99,4.278,4.279,4.277,4.276,0,0,82.31,6,GPS_Atti,
0.371604989466989,36.9034636931607,5501.3765106897,0.656168,0.63305402,0.63552495472,9700,2017-11-10 07:15:53,16,17.097,5501.3765106897,0.656168,0.63305402,0.63552495472,224.1, 1.6, 0.2,0,1,1024,1024,1684,1024,223.6,0,99,4.278,4.279,4.277,4.276,0,0,82.31,6,GPS_Atti,
0.371604762642246,36.9034634094908,5502.0326786897,1.312336,0.80753534,0.76711288544,9800,2017-11-10 07:15:54,16,17.097,5502.0326786897,1.312336,0.80753534,0.76711288544,224.1, 3.6, 0.2,0,1,1024,1024,1684,1024,223.6,0,99,4.278,4.279,4.277,4.276,0,0,82.31,6,GPS_Atti,
0.371604538363168,36.9034631293186,5502.6888466897,1.968504,0.80753534,0.89739504184,9900,2017-11-10 07:15:54,16,16.988,5502.6888466897,1.968504,0.80753534,0.89739504184,224.1, 3.8, 0.3,0,1,1024,1024,1684,1024,223.6,0,99,4.271,4.268,4.261,4.254,0,0,82.31,6,GPS_Atti,
0.371604327804952,36.9034628498203,5503.6730986897,2.952756,0.80753534,1.02484583332,10000,2017-11-10 07:15:54,16,16.988,5503.6730986897,2.952756,0.80753534,1.02484583332,224.2, 3.7, -1,0,1,1024,1024,1684,1024,223.6,0,99,4.271,4.268,4.261,4.254,0,0,82.31,6,GPS_Atti,Home Point Recorded. RTH Altitude:  30m.
0.371604098078729,36.9034625599841,5504.6573506897,3.937008,0.80753534,1.1593996434,10100,2017-11-10 07:15:54,16,16.988,5504.6573506897,3.937008,0.80753534,1.1593996434,224.2, 4.1, -1.7,0,1,1024,1024,1684,1024,223.6,0,99,4.271,4.268,4.261,4.254,0,0,82.31,6,GPS_Atti,
0.37160382422086,36.9034622656514,5505.9696866897,5.249344,0.80753534,1.30462274516,10200,2017-11-10 07:15:54,16,16.988,5505.9696866897,5.249344,0.80753534,1.30462274516,224.2, 5.8, -1.8,0,1,1024,1024,1684,1024,223.6,0,99,4.271,4.268,4.261,4.254,0,0,82.31,6,GPS_Atti,
0.371603511016526,36.9034620235861,5507.2820226897,6.56168,0.80753534,1.44336618792,10300,2017-11-10 07:15:54,16,16.988,5507.2820226897,6.56168,0.80753534,1.44336618792,224.1, 7.3, 0.3,0,1,1024,1024,1684,1024,223.6,0,99,4.271,4.268,4.261,4.254,0,0,82.31,6,GPS_Atti,
0.371603218591138,36.9034618369411,5508.9224426897,8.2021,0.50107456,1.562582071,10400,2017-11-10 07:15:54,16,16.988,5508.9224426897,8.2021,0.80753534,1.562582071,224, 7.4, 1.8,0,1,1024,1024,1684,1024,223.6,0,99,4.271,4.268,4.261,4.254,0,0,82.31,6,GPS_Atti,
0.371603003682127,36.9034616656086,5510.5628626897,9.84252,0.31540854,1.66050858332,10500,2017-11-10 07:15:54,16,16.988,5510.5628626897,9.84252,0.80753534,1.66050858332,223.9, 6.2, 0.8,0,1,1024,1024,1684,1024,223.6,0,99,4.271,4.268,4.261,4.254,0,0,82.31,6,GPS_Atti,
0.371602878422215,36.9034615192797,5512.2032826897,11.48294,0.31540854,1.73077105276,10600,2017-11-10 07:15:54,16,16.988,5512.2032826897,11.48294,0.80753534,1.73077105276,223.9, 5.8, -0.1,0,1,1024,1024,1684,1024,223.6,0,99,4.271,4.268,4.261,4.254,0,0,82.31,6,GPS_Atti,
0.371602709658421,36.9034613635299,5513.8437026897,13.12336,0.31540854,1.81380583232,10700,2017-11-10 07:15:54,16,16.988,5513.8437026897,13.12336,0.80753534,1.81380583232,223.9, 5.6, 0.2,0,1,1024,1024,1684,1024,223.6,0,99,4.271,4.268,4.261,4.254,0,0,82.31,6,GPS_Atti,
0.371602475800021,36.9034611812525,5515.4841226897,14.76378,0.31540854,1.9196522924,10800,2017-11-10 07:15:55,16,16.988,5515.4841226897,14.76378,0.80753534,1.9196522924,224, 4.9, 1.3,0,1,1024,1024,1684,1024,223.6,0,99,4.271,4.268,4.261,4.254,0,0,82.31,6,GPS_Atti,
0.371602253473448,36.9034609935273,5517.1245426897,16.4042,0.447388,2.02447841124,10900,2017-11-10 07:15:55,16,16.278,5517.1245426897,16.4042,0.80753534,2.02447841124,223.9, 4.9, 1.5,0,1,1024,1024,1684,1024,223.6,0,99,4.117,4.12,4.13,4.118,0,0,82.31,6,GPS_Atti,
0.371602093931532,36.903460828983,5519.0930466897,18.372704,0.447388,2.10797907008,11000,2017-11-10 07:15:55,16,16.278,5519.0930466897,18.372704,0.80753534,2.10797907008,223.9, 5.2, -0.3,0,1,1024,1024,1684,1024,223.6,0,99,4.117,4.12,4.13,4.118,0,0,82.31,6,GPS_Atti,
0.371601950593449,36.9034606953933,5520.4053826897,19.68504,0.223694,2.17909783876,11100,2017-11-10 07:15:55,16,16.278,5520.4053826897,19.68504,0.80753534,2.17909783876,223.9, 5, -1.4,0,1,1024,1024,1684,1024,223.6,0,99,4.117,4.12,4.13,4.118,0,0,82.31,6,GPS_Atti,
0.371601795427163,36.9034606060543,5522.0458026897,21.32546,0.31540854,2.2410433788,11200,2017-11-10 07:15:55,16,16.278,5522.0458026897,21.32546,0.80753534,2.2410433788,223.9, 4.8, -1.2,0,1,1024,1024,1684,1024,223.6,0,99,4.117,4.12,4.13,4.118,0,0,82.31,6,GPS_Atti,
0.371601650303491,36.9034605900974,5523.6862226897,22.96588,0.223694,2.28096792076,11300,2017-11-10 07:15:55,16,16.278,5523.6862226897,22.96588,0.80753534,2.28096792076,223.8, 5, 0,0,1,1024,1024,1684,1024,223.6,0,99,4.117,4.12,4.13,4.118,0,0,82.31,6,GPS_Atti,
0.371601517534009,36.903460579797,5525.3266426897,24.6063,0.31540854,2.31682750196,11400,2017-11-10 07:15:55,16,16.278,5525.3266426897,24.6063,0.80753534,2.31682750196,223.8, 5.3, 1,0,1,1024,1024,1684,1024,223.6,-0.8,99,4.117,4.12,4.13,4.118,0,0,82.31,6,GPS_Atti,
0.371601434552574,36.9034605716761,5526.9670626897,26.24672,0.223694,2.33991477304,11500,2017-11-10 07:15:55,16,16.278,5526.9670626897,26.24672,0.80753534,2.33991477304,223.9, 5.2, 0.4,0,1,1024,1024,1684,1024,223.6,-2.4,99,4.117,4.12,4.13,4.118,0,0,82.31,6,GPS_Atti,
0.371601344643738,36.9034605016218,5528.6074826897,27.88714,0.223694,2.38109587672,11600,2017-11-10 07:15:55,16,16.278,5528.6074826897,27.88714,0.80753534,2.38109587672,223.9, 5.1, -0.9,0,1,1024,1024,1684,1024,223.6,-4,99,4.117,4.12,4.13,4.118,0,0,82.31,6,GPS_Atti,
0.371601279926931,36.9034604557433,5530.2479026897,29.52756,0.31540854,2.40956044456,11700,2017-11-10 07:15:55,16,16.278,5530.2479026897,29.52756,0.80753534,2.40956044456,223.9, 4.8, -1.4,0,1,1024,1024,1684,1024,223.6,-6.6,99,4.117,4.12,4.13,4.118,0,0,82.31,6,GPS_Atti,
0.371601122186889,36.9034604201101,5533.5287426897,32.8084,0.223694,2.45926517056,11900,2017-11-10 07:15:56,16,16.442,5533.5287426897,32.8084,0.80753534,2.45926517056,223.9, 5.6, -0.5,0,1,1024,1024,1684,1024,223.6,-7.7,99,4.117,4.12,4.13,4.118,0,0,82.31,6,GPS_Atti,
0.371601040456099,36.9034604255466,5535.1691626897,34.44882,0.223694,2.47906503996,12000,2017-11-10 07:15:56,16,16.442,5535.1691626897,34.44882,0.80753534,2.47906503996,223.9, 5.8, 0.4,0,1,1024,1024,1684,1024,223.6,-7.7,99,4.117,4.12,4.13,4.118,0,0,82.31,6,GPS_Atti,
0.371600983143013,36.9034604552532,5536.8095826897,36.08924,0,2.48650598508,12100,2017-11-10 07:15:56,16,16.442,5536.8095826897,36.08924,0.80753534,2.48650598508,223.9, 5.8, 0.5,0,1,1024,1024,1684,1024,223.6,-7.7,99,4.117,4.12,4.13,4.118,0,0,82.31,6,GPS_Atti,
0.371600909922471,36.903460477238,5538.4500026897,37.72966,0,2.50030191728,12200,2017-11-10 07:15:56,16,16.442,5538.4500026897,37.72966,0.80753534,2.50030191728,223.9, 5.7, 0.2,0,1,1024,1024,1684,1024,223.6,-7.7,99,4.117,4.12,4.13,4.118,0,0,82.31,6,GPS_Atti,
0.371600889506669,36.9034605169423,5540.0904226897,39.37008,0,2.495817009,12300,2017-11-10 07:15:56,16,16.442,5540.0904226897,39.37008,0.80753534,2.50030191728,223.8, 5.2, -0.8,0,1,1024,1024,1684,1024,223.6,-7.7,99,4.117,4.12,4.13,4.118,0,0,82.31,6,GPS_Atti,
0.371600869225213,36.9034605492451,5541.7308426897,41.0105,0,2.4932251454,12400,2017-11-10 07:15:56,16,16.442,5541.7308426897,41.0105,0.80753534,2.50030191728,224, 4.8, -0.6,0,1,1024,1024,1684,1024,223.7,-7.7,99,4.117,4.12,4.13,4.118,0,0,82.31,6,GPS_Atti,
0.37160085809317,36.903460601501,5543.3712626897,42.65092,0,2.48333997448,12500,2017-11-10 07:15:56,16,16.442,5543.3712626897,42.65092,0.80753534,2.50030191728,224, 4.7, -0.7,0,1,1024,1024,1684,1024,223.7,-7.7,99,4.117,4.12,4.13,4.118,0,0,82.31,6,GPS_Atti,
0.371600809410022,36.9034606366787,5545.0116826897,44.29134,0,2.48792986964,12600,2017-11-10 07:15:56,16,16.442,5545.0116826897,44.29134,0.80753534,2.50030191728,223.9, 5.5, -0.4,0,1,1024,1024,1684,1024,223.6,-7.9,99,4.117,4.12,4.13,4.118,0,0,82.31,6,GPS_Atti,
0.371600768699737,36.9034607138928,5546.6521026897,45.93176,0,2.48041018436,12700,2017-11-10 07:15:56,16,16.442,5546.6521026897,45.93176,0.80753534,2.50030191728,223.9, 5.9, 0.3,0,1,1024,1024,1684,1024,223.6,-8.4,99,4.117,4.12,4.13,4.118,0,0,82.31,6,GPS_Atti,
0.371600725139674,36.903460802489,5548.2925226897,47.57218,0,2.47138131268,12800,2017-11-10 07:15:57,16,16.442,5548.2925226897,47.57218,0.80753534,2.50030191728,223.9, 6.6, 0.4,0,1,1024,1024,1684,1024,223.7,-9,99,4.117,4.12,4.13,4.118,0,0,82.31,6,GPS_Atti,
0.371600755778034,36.9034609193086,5549.9329426897,49.2126,0,2.43542330628,12900,2017-11-10 07:15:57,16,16.469,5549.9329426897,49.2126,0.80753534,2.50030191728,223.9, 5.9, 0.2,0,1,1024,1024,1684,1024,223.7,-9.6,99,4.144,4.141,4.149,4.139,0,0,82.31,6,GPS_Atti,
0.37160082495352,36.9034610317407,5551.5733626897,50.85302,0,2.38985243868,13000,2017-11-10 07:15:57,16,16.469,5551.5733626897,50.85302,0.80753534,2.50030191728,223.9, 4.5, 0.3,0,1,1024,1024,1684,1024,223.7,-10.2,99,4.144,4.141,4.149,4.139,0,0,82.31,6,GPS_Atti,
0.371600941509399,36.9034611480704,5553.2137826897,52.49344,0,2.33006569136,13100,2017-11-10 07:15:57,16,16.469,5553.2137826897,52.49344,0.80753534,2.50030191728,223.9, 3.9, -0.4,0,1,1024,1024,1684,1024,223.7,-10.7,99,4.144,4.141,4.149,4.139,0,0,82.31,6,GPS_Atti,
0.371601039212782,36.9034612325135,5554.8542026897,54.13386,0,2.28296923316,13200,2017-11-10 07:15:57,16,16.469,5554.8542026897,54.13386,0.80753534,2.50030191728,223.9, 3.7, -1,0,1,1024,1024,1684,1024,223.7,-11.3,99,4.144,4.141,4.149,4.139,0,0,82.31,6,GPS_Atti,
0.371601155698638,36.9034613311412,5556.4946226897,55.77428,0,2.22729337836,13300,2017-11-10 07:15:57,16,16.469,5556.4946226897,55.77428,0.80753534,2.50030191728,223.9, 3.6, -0.9,0,1,1024,1024,1684,1024,223.7,-11.9,99,4.144,4.141,4.149,4.139,0,0,82.31,6,GPS_Atti,
0.371601259668274,36.9034614259724,5558.1350426897,57.4147,0,2.17603681504,13400,2017-11-10 07:15:57,16,16.469,5558.1350426897,57.4147,0.80753534,2.50030191728,224, 3.5, -0.7,0,1,1024,1024,1684,1024,223.7,-12.5,99,4.144,4.141,4.149,4.139,0,0,82.31,6,GPS_Atti,
0.37160138205154,36.9034615295811,5559.7754626897,59.05512,0,2.11754599952,13500,2017-11-10 07:15:57,16,16.469,5559.7754626897,59.05512,0.80753534,2.50030191728,224, 3, -0.5,0,1,1024,1024,1684,1024,223.7,-13.1,99,4.144,4.141,4.149,4.139,0,0,82.31,6,GPS_Atti,
0.37160146826625,36.9034616126115,5561.4158826897,60.69554,0,2.07403878028,13600,2017-11-10 07:15:57,16,16.469,5561.4158826897,60.69554,0.80753534,2.50030191728,223.9, 3.2, -0.7,0,1,1024,1024,1684,1024,223.7,-13.1,99,4.144,4.141,4.149,4.139,0,0,82.31,6,GPS_Atti,
0.371601539475664,36.9034616812658,5563.3843866897,62.664044,0,2.03809389724,13700,2017-11-10 07:15:57,16,16.469,5563.3843866897,62.664044,0.80753534,2.50030191728,223.9, 4, -1.5,0,1,1024,1024,1684,1024,223.7,-13.6,99,4.144,4.141,4.149,4.139,0,0,82.31,6,GPS_Atti,
0.371601565301971,36.903461749087,5565.0248066897,64.304464,0,2.01528549756,13800,2017-11-10 07:15:58,16,16.469,5565.0248066897,64.304464,0.80753534,2.50030191728,224, 4.1, -0.4,0,1,1024,1024,1684,1024,223.7,-14.2,99,4.144,4.141,4.149,4.139,0,0,82.31,6,GPS_Atti,
0.371601612598499,36.9034618396374,5566.6652266897,65.944884,0,1.98128615264,13900,2017-11-10 07:15:58,16,16.469,5566.6652266897,65.944884,0.80753534,2.50030191728,224, 3.5, 1,0,1,1024,1024,1684,1024,223.7,-14.7,99,4.149,4.147,4.153,4.142,0,0,82.31,6,GPS_Atti,
0.371601676205521,36.9034619033556,5568.3056466897,67.585304,0,1.94869100724,14000,2017-11-10 07:15:58,16,16.469,5568.3056466897,67.585304,0.80753534,2.50030191728,224, 3.5, 1,0,1,1024,1024,1684,1024,223.7,-15.3,99,4.149,4.147,4.153,4.142,0,0,82.31,6,GPS_Atti,
0.371601777380747,36.9034619257036,5569.9460666897,69.225724,0,1.91461948384,14100,2017-11-10 07:15:58,16,16.469,5569.9460666897,69.225724,0.80753534,2.50030191728,223.9, 4, 0.4,0,1,1024,1024,1684,1024,223.7,-15.8,99,4.149,4.147,4.153,4.142,0,0,82.31,6,GPS_Atti,
0.37160188543452,36.9034619056071,5571.5864866897,70.866144,0,1.88850399744,14200,2017-11-10 07:15:58,16,16.469,5571.5864866897,70.866144,0.80753534,2.50030191728,223.9, 4.1, -0.9,0,1,1024,1024,1684,1024,223.7,-16.3,99,4.149,4.147,4.153,4.142,0,0,82.31,6,GPS_Atti,
0.371602041259511,36.9034619010093,5573.2269066897,72.506564,0,1.84593837928,14300,2017-11-10 07:15:58,16,16.469,5573.2269066897,72.506564,0.80753534,2.50030191728,223.8, 4.4, -1.3,0,1,1024,1024,1684,1024,223.7,-16.8,99,4.149,4.147,4.153,4.142,0,0,82.31,6,GPS_Atti,
0.371602204991413,36.9034619015543,5574.8673266897,74.146984,0.223694,1.80076121248,14400,2017-11-10 07:15:58,16,16.469,5574.8673266897,74.146984,0.80753534,2.50030191728,223.8, 5.2, -1.6,0,1,1024,1024,1684,1024,223.7,-17.3,99,4.149,4.147,4.153,4.142,0,0,82.31,6,GPS_Atti,
0.371602425626033,36.9034619254257,5576.5077466897,75.787404,0.223694,1.73547905816,14500,2017-11-10 07:15:58,16,16.469,5576.5077466897,75.787404,0.80753534,2.50030191728,224, 5, -3,0,1,1024,1024,1684,1024,223.7,-17.8,99,4.149,4.147,4.153,4.142,0,0,82.31,6,GPS_Atti,
0.371602615333245,36.9034619675255,5578.1481666897,77.427824,0.223694,1.6749180326,14600,2017-11-10 07:15:58,16,16.469,5578.1481666897,77.427824,0.80753534,2.50030191728,223.9, 4.3, -3.5,0,1,1024,1024,1684,1024,223.7,-18.3,99,4.149,4.147,4.153,4.142,0,0,82.31,6,GPS_Atti,
0.371602799857934,36.9034620951839,5579.7885866897,79.068244,0,1.5943077938,14700,2017-11-10 07:15:58,16,16.469,5579.7885866897,79.068244,0.80753534,2.50030191728,224, 2, -3.6,0,1,1024,1024,1684,1024,223.7,-18.8,99,4.149,4.147,4.153,4.142,0,0,82.31,6,GPS_Atti,
0.371602858429808,36.9034622644796,5581.4290066897,80.708664,0.223694,1.53580385492,14800,2017-11-10 07:15:59,16,16.469,5581.4290066897,80.708664,0.80753534,2.50030191728,224, 0.5, -2.7,0,1,1024,1024,1684,1024,223.7,-19.3,99,4.149,4.147,4.153,4.142,0,0,82.31,6,GPS_Atti,
0.371602823657643,36.9034624812581,5583.0694266897,82.349084,0.31540854,1.49155844668,14900,2017-11-10 07:15:59,16,16.497,5583.0694266897,82.349084,0.80753534,2.50030191728,224, 0.5, -0.1,0,1,1024,1024,1684,1024,223.7,-19.6,99,4.136,4.126,4.123,4.111,0,0,82.31,6,GPS_Atti,
0.371602658581461,36.90346263754,5584.7098466897,83.989504,0.447388,1.50134847324,15000,2017-11-10 07:15:59,16,16.497,5584.7098466897,83.989504,0.80753534,2.50030191728,224, 3, 2.6,0,1,1024,1024,1684,1024,223.7,-19.6,99,4.136,4.126,4.123,4.111,0,0,82.31,6,GPS_Atti,
0.371602488783605,36.9034627384528,5586.3502666897,85.629924,0.447388,1.5287238022,15100,2017-11-10 07:15:59,16,16.497,5586.3502666897,85.629924,0.80753534,2.50030191728,224, 5.7, 3.3,0,1,1024,1024,1684,1024,223.7,-19.6,99,4.136,4.126,4.123,4.111,0,0,82.31,6,GPS_Atti,
0.371602354259475,36.9034627715257,5587.9906866897,87.270344,0.223694,1.56201776652,15200,2017-11-10 07:15:59,16,16.497,5587.9906866897,87.270344,0.80753534,2.50030191728,224.1, 6.4, 3.3,0,1,1024,1024,1684,1024,223.7,-19.6,99,4.136,4.126,4.123,4.111,0,0,82.31,6,GPS_Atti,
0.371602319249558,36.9034628074496,5589.9591906897,89.238848,0.223694,1.56529204484,15300,2017-11-10 07:15:59,16,16.497,5589.9591906897,89.238848,0.80753534,2.50030191728,223.9, 4.5, 3.8,0,1,1024,1024,1684,1024,223.7,-19.6,99,4.136,4.126,4.123,4.111,0,0,82.31,6,GPS_Atti,
0.371602329795361,36.9034627686463,5591.5996106897,90.879268,0.223694,1.56999020772,15400,2017-11-10 07:15:59,16,16.497,5591.5996106897,90.879268,0.80753534,2.50030191728,223.9, 4.1, 2.7,0,1,1024,1024,1684,1024,223.7,-19.6,99,4.136,4.126,4.123,4.111,0,0,82.31,6,GPS_Atti,
0.37160240526397,36.903462609826,5593.2400306897,92.519688,0.447388,1.58098430256,15500,2017-11-10 07:15:59,16,16.497,5593.2400306897,92.519688,0.80753534,2.50030191728,223.9, 5, 0,0,1,1024,1024,1684,1024,223.7,-19.6,99,4.136,4.126,4.123,4.111,0,0,82.31,6,GPS_Atti,
0.371602448785764,36.9034623655767,5594.8804506897,94.160108,0.671082,1.62315950076,15600,2017-11-10 07:15:59,16,16.497,5594.8804506897,94.160108,0.80753534,2.50030191728,223.8, 6.8, -1.5,0,1,1024,1024,1684,1024,223.7,-19.6,99,4.136,4.126,4.123,4.111,0,0,82.31,6,GPS_Atti,
0.371602502175115,36.9034620979793,5596.8489546897,96.128612,0.447388,1.6722277438,15700,2017-11-10 07:15:59,16,16.497,5596.8489546897,96.128612,0.80753534,2.50030191728,223.7, 8.1, -3.5,0,1,1024,1024,1684,1024,223.7,-19.6,99,4.136,4.126,4.123,4.111,0,0,82.31,6,GPS_Atti,
0.371602514506507,36.9034618515866,5598.4893746897,97.769032,0.447388,1.730807142,15800,2017-11-10 07:16:00,16,16.497,5598.4893746897,97.769032,0.80753534,2.50030191728,223.7, 7.9, -3.6,0,1,1024,1024,1684,1024,223.7,-19.6,99,4.136,4.126,4.123,4.111,0,0,82.31,6,GPS_Atti,
0.371602518436756,36.9034616501494,5599.8017106897,99.081368,0.447388,1.78219821976,15900,2017-11-10 07:16:00,16,16.36,5599.8017106897,99.081368,0.80753534,2.50030191728,223.8, 7.9, -2.9,0,1,1024,1024,1684,1024,223.7,-19.6,99,4.136,4.126,4.123,4.111,0,0,82.31,6,GPS_Atti,
0.371602494045922,36.9034614652779,5601.4421306897,100.721788,0.447388,1.8375656756,16000,2017-11-10 07:16:00,16,16.36,5601.4421306897,100.721788,0.80753534,2.50030191728,223.8, 8.3, -3.2,0,1,1024,1024,1684,1024,223.7,-19.6,99,4.136,4.126,4.123,4.111,0,0,82.31,6,GPS_Atti,
0.371602491192074,36.9034613069052,5603.0825506897,102.362208,0.223694,1.88130911532,16100,2017-11-10 07:16:00,16,16.36,5603.0825506897,102.362208,0.80753534,2.50030191728,223.9, 8.2, -3.4,0,1,1024,1024,1684,1024,223.7,-19.7,99,4.136,4.126,4.123,4.111,0,0,82.31,6,GPS_Atti,
0.371602461700139,36.9034611684212,5604.7229706897,104.002628,0.223694,1.92655189892,16200,2017-11-10 07:16:00,16,16.36,5604.7229706897,104.002628,0.80753534,2.50030191728,223.9, 7.8, -3.2,0,1,1024,1024,1684,1024,223.8,-20,99,4.136,4.126,4.123,4.111,0,0,82.31,6,GPS_Atti,
0.371602423987004,36.9034610761782,5606.3633906897,105.643048,0.31540854,1.96110898664,16300,2017-11-10 07:16:00,16,16.36,5606.3633906897,105.643048,0.80753534,2.50030191728,223.8, 8.8, -3.1,0,1,1024,1024,1684,1024,223.8,-20,99,4.136,4.126,4.123,4.111,0,0,82.31,6,GPS_Atti,
0.371602371691968,36.90346103292,5608.0038106897,107.283468,0.223694,1.985482347,16400,2017-11-10 07:16:00,16,16.36,5608.0038106897,107.283468,0.80753534,2.50030191728,223.9, 8.6, -1.4,0,1,1024,1024,1684,1024,223.7,-20.4,99,4.136,4.126,4.123,4.111,0,0,82.31,6,GPS_Atti,
0.371602335943551,36.9034610070636,5609.6442306897,108.923888,0,2.0011155496,16500,2017-11-10 07:16:00,16,16.36,5609.6442306897,108.923888,0.80753534,2.50030191728,223.8, 7.5, -1,0,1,1024,1024,1684,1024,223.8,-20.7,99,4.136,4.126,4.123,4.111,0,0,82.31,6,GPS_Atti,
0.371602339877058,36.9034610019867,5611.2846506897,110.564308,0,2.00159783308,16600,2017-11-10 07:16:00,16,16.36,5611.2846506897,110.564308,0.80753534,2.50030191728,223.9, 6.9, -1.4,0,1,1024,1024,1684,1024,223.8,-21.1,99,4.136,4.126,4.123,4.111,0,0,82.31,6,GPS_Atti,
0.371602316964851,36.9034609706499,5612.9250706897,112.204728,0,2.01572513012,16700,2017-11-10 07:16:00,17,16.36,5612.9250706897,112.204728,0.80753534,2.50030191728,223.8, 6.7, -1.7,0,1,1024,1024,1684,1024,223.8,-21.6,99,4.136,4.126,4.123,4.111,0,0,82.31,6,GPS_Atti,
0.371602212323482,36.903460894413,5614.5654906897,113.845148,0.223694,2.0616634518,16800,2017-11-10 07:16:01,17,16.36,5614.5654906897,113.845148,0.80753534,2.50030191728,223.8, 7.4, -1.5,0,1,1024,1024,1684,1024,223.8,-22.1,99,4.136,4.126,4.123,4.111,0,0,82.31,6,GPS_Atti,
0.371602059599862,36.9034608063422,5616.2059106897,115.485568,0.223694,2.1224410128,16900,2017-11-10 07:16:01,17,16.36,5616.2059106897,115.485568,0.80753534,2.50030191728,223.9, 8.5, -0.9,0,1,1024,1024,1684,1024,223.8,-22.6,99,4.136,4.126,4.123,4.111,0,0,82.31,6,GPS_Atti,
0.371601877815844,36.9034607178265,5617.8463306897,117.125988,0.223694,2.19061358716,17000,2017-11-10 07:16:01,17,16.36,5617.8463306897,117.125988,0.80753534,2.50030191728,223.9, 9.1, -0.5,0,1,1024,1024,1684,1024,223.8,-23.2,99,4.136,4.126,4.123,4.111,0,0,82.31,6,GPS_Atti,
0.371601690972251,36.90346062789,5619.4867506897,118.766408,0.223694,2.26077106972,17100,2017-11-10 07:16:01,17,16.36,5619.4867506897,118.766408,0.80753534,2.50030191728,223.9, 9.2, -0.2,0,1,1024,1024,1684,1024,223.8,-23.7,99,4.136,4.126,4.123,4.111,0,0,82.31,6,GPS_Atti,
0.3716015151003,36.903460549903,5621.1271706897,120.406828,0.223694,2.32535440512,17200,2017-11-10 07:16:01,17,16.36,5621.1271706897,120.406828,0.80753534,2.50030191728,223.9, 9.4, -0.2,0,1,1024,1024,1684,1024,223.8,-24.2,99,4.136,4.126,4.123,4.111,0,0,82.31,6,GPS_Atti,
0.371601345928581,36.9034604663922,5622.7675906897,122.047248,0.223694,2.390009919,17300,2017-11-10 07:16:01,17,16.36,5622.7675906897,122.047248,0.80753534,2.50030191728,223.9, 9.3, -0.2,0,1,1024,1024,1684,1024,223.8,-24.2,99,4.136,4.126,4.123,4.111,0,0,82.31,6,GPS_Atti,
0.371601197082286,36.903460394922,5624.4080106897,123.687668,0.223694,2.44655847724,17400,2017-11-10 07:16:01,17,16.36,5624.4080106897,123.687668,0.80753534,2.50030191728,223.9, 9, -0.2,0,1,1024,1024,1684,1024,223.8,-24.2,99,4.136,4.126,4.123,4.111,0,0,82.31,6,GPS_Atti,
0.371601049665764,36.9034603269795,5626.0484306897,125.328088,0.223694,2.5020013924,17500,2017-11-10 07:16:01,17,16.36,5626.0484306897,125.328088,0.80753534,2.5020013924,223.9, 8.6, -0.2,0,1,1024,1024,1684,1024,223.8,-24.2,99,4.136,4.126,4.123,4.111,0,0,82.31,6,GPS_Atti,
0.371600895337313,36.9034602726158,5627.6888506897,126.968508,0.223694,2.55593512116,17600,2017-11-10 07:16:01,17,16.36,5627.6888506897,126.968508,0.80753534,2.55593512116,223.9, 8.9, 0,0,1,1024,1024,1684,1024,223.8,-24.2,99,4.136,4.126,4.123,4.111,0,0,82.31,6,GPS_Atti,
0.371600720233986,36.9034602088771,5629.6573546897,128.937012,0.223694,2.61795283968,17700,2017-11-10 07:16:01,17,16.36,5629.6573546897,128.937012,0.80753534,2.61795283968,224, 9.3, 0.1,0,1,1024,1024,1684,1024,223.8,-24.2,99,4.136,4.126,4.123,4.111,0,0,82.31,6,GPS_Atti,
0.371600533114372,36.9034601491459,5631.2977746897,130.577432,0.223694,2.6824475924,17800,2017-11-10 07:16:02,17,16.36,5631.2977746897,130.577432,0.80753534,2.6824475924,224, 9.6, 0.2,0,1,1024,1024,1684,1024,223.8,-24.2,99,4.136,4.126,4.123,4.111,0,0,82.31,6,GPS_Atti,
0.371600374520211,36.9034600830031,5632.9381946897,132.217852,0.223694,2.74123368352,17900,2017-11-10 07:16:02,17,16.497,5632.9381946897,132.217852,0.80753534,2.74123368352,223.9, 9.8, 0.2,0,1,1024,1024,1684,1024,223.8,-24.2,98,4.14,4.142,4.148,4.141,0,0,82.31,6,GPS_Atti,
0.371600259710838,36.903460015564,5634.5786146897,133.858272,0,2.78871071916,18000,2017-11-10 07:16:02,17,16.497,5634.5786146897,133.858272,0.80753534,2.78871071916,223.9, 9.9, 0.1,0,1,1024,1024,1684,1024,223.8,-24.3,98,4.14,4.142,4.148,4.141,0,0,82.31,6,GPS_Atti,
0.371600170916673,36.9034599495427,5636.2190346897,135.498692,0,2.8288714816,18100,2017-11-10 07:16:02,17,16.497,5636.2190346897,135.498692,0.80753534,2.8288714816,223.9, 10, -0.2,0,1,1024,1024,1684,1024,223.8,-24.3,98,4.14,4.142,4.148,4.141,0,0,82.31,6,GPS_Atti,
0.371600092117896,36.9034598956654,5637.8594546897,137.139112,0,2.86335639084,18200,2017-11-10 07:16:02,17,16.497,5637.8594546897,137.139112,0.80753534,2.86335639084,223.9, 9.6, -0.6,0,1,1024,1024,1684,1024,223.8,-24.4,98,4.14,4.142,4.148,4.141,0,0,82.31,6,GPS_Atti,
0.371600030782553,36.9034598614593,5639.4998746897,138.779532,0,2.88830717904,18300,2017-11-10 07:16:02,17,16.497,5639.4998746897,138.779532,0.80753534,2.88830717904,223.8, 9.6, -0.6,0,1,1024,1024,1684,1024,223.8,-24.5,98,4.14,4.142,4.148,4.141,0,0,82.31,6,GPS_Atti,
0.371599972454946,36.9034598454485,5641.1402946897,140.419952,0,2.9080053424,18400,2017-11-10 07:16:02,17,16.497,5641.1402946897,140.419952,0.80753534,2.9080053424,223.9, 9.6, -0.2,0,1,1024,1024,1684,1024,223.8,-24.7,98,4.14,4.142,4.148,4.141,0,0,82.31,6,GPS_Atti,
0.371599928847658,36.9034598568958,5642.7807146897,142.060372,0,2.91705717996,18500,2017-11-10 07:16:02,17,16.497,5642.7807146897,142.060372,0.80753534,2.91705717996,223.9, 9, -0.2,0,1,1024,1024,1684,1024,223.8,-24.9,98,4.14,4.142,4.148,4.141,0,0,82.31,6,GPS_Atti,
0.371599885280267,36.9034598784159,5644.4211346897,143.700792,0,2.92372712768,18600,2017-11-10 07:16:02,17,16.497,5644.4211346897,143.700792,0.80753534,2.92372712768,223.9, 8.6, -0.3,0,1,1024,1024,1684,1024,223.8,-25.1,98,4.14,4.142,4.148,4.141,0,0,82.31,6,GPS_Atti,
0.371599849113341,36.903459925838,5646.0615546897,145.341212,0,2.922244188,18700,2017-11-10 07:16:02,17,16.497,5646.0615546897,145.341212,0.80753534,2.92372712768,223.9, 8.5, -0.6,0,1,1024,1024,1684,1024,223.8,-25.3,98,4.14,4.142,4.148,4.141,0,0,82.31,6,GPS_Atti,
0.371599808972196,36.903459971841,5648.0300586897,147.309716,0,2.92236229824,18800,2017-11-10 07:16:03,17,16.497,5648.0300586897,147.309716,0.80753534,2.92372712768,223.9, 8.3, -0.5,0,1,1024,1024,1684,1024,223.8,-25.5,98,4.14,4.142,4.148,4.141,0,0,82.31,6,GPS_Atti,
0.37159977283051,36.903460017368,5649.6704786897,148.950136,0,2.92164707512,18900,2017-11-10 07:16:03,17,16.442,5649.6704786897,148.950136,0.80753534,2.92372712768,223.9, 8.4, -0.3,0,1,1024,1024,1684,1024,223.8,-25.8,98,4.118,4.116,4.126,4.116,0,0,82.31,6,GPS_Atti,
0.371599738475227,36.9034600376476,5651.3108986897,150.590556,0,2.92648303328,19000,2017-11-10 07:16:03,17,16.442,5651.3108986897,150.590556,0.80753534,2.92648303328,223.9, 8.7, -0.3,0,1,1024,1024,1684,1024,223.8,-25.8,98,4.118,4.116,4.126,4.116,0,0,82.31,6,GPS_Atti,
0.371599718197842,36.9034600692727,5652.9513186897,152.230976,0,2.924786839,19100,2017-11-10 07:16:03,17,16.442,5652.9513186897,152.230976,0.80753534,2.92648303328,223.9, 8.9, -0.2,0,1,1024,1024,1684,1024,223.8,-26.1,98,4.118,4.116,4.126,4.116,0,0,82.31,6,GPS_Atti,
0.371599700105015,36.9034601030937,5654.5917386897,153.871396,0,2.9220309334,19200,2017-11-10 07:16:03,17,16.442,5654.5917386897,153.871396,0.80753534,2.92648303328,223.8, 8.9, -0.1,0,1,1024,1024,1684,1024,223.8,-26.4,98,4.118,4.116,4.126,4.116,0,0,82.31,6,GPS_Atti,
0.3715996891635,36.9034601524587,5656.2321586897,155.511816,0,2.91374025072,19300,2017-11-10 07:16:03,17,16.442,5656.2321586897,155.511816,0.80753534,2.92648303328,223.9, 9, 0,0,1,1024,1024,1684,1024,223.8,-26.7,98,4.118,4.116,4.126,4.116,0,0,82.31,6,GPS_Atti,
0.371599661048414,36.9034601920307,5658.2006626897,157.48032,0,2.91266741604,19400,2017-11-10 07:16:03,17,16.442,5658.2006626897,157.48032,0.80753534,2.92648303328,223.8, 9.1, 0,0,1,1024,1024,1684,1024,223.8,-27,98,4.118,4.116,4.126,4.116,0,0,82.31,6,GPS_Atti,
0.371599656348725,36.903460225099,5659.8410826897,159.12074,0,2.9064797518,19500,2017-11-10 07:16:03,17,16.442,5659.8410826897,159.12074,0.80753534,2.92648303328,223.9, 9.2, -0.1,0,1,1024,1024,1684,1024,223.8,-27.3,98,4.118,4.116,4.126,4.116,0,0,82.31,6,GPS_Atti,
0.371599660920582,36.9034602225354,5661.4815026897,160.76116,0,2.905757967,19600,2017-11-10 07:16:03,17,16.442,5661.4815026897,160.76116,0.80753534,2.92648303328,223.8, 9.2, -0.5,0,1,1024,1024,1684,1024,223.8,-27.6,98,4.118,4.116,4.126,4.116,0,0,82.31,6,GPS_Atti,
0.371599684705635,36.9034602317681,5663.1219226897,162.40158,0,2.89687345228,19700,2017-11-10 07:16:03,17,16.442,5663.1219226897,162.40158,0.80753534,2.92648303328,223.8, 9.1, -0.5,0,1,1024,1024,1684,1024,223.8,-28,98,4.118,4.116,4.126,4.116,0,0,82.31,6,GPS_Atti,
0.371599701132563,36.9034602449525,5664.7623426897,164.042,0,2.88918644416,19800,2017-11-10 07:16:04,17,16.442,5664.7623426897,164.042,0.80753534,2.92648303328,223.8, 9, -0.7,0,1,1024,1024,1684,1024,223.8,-28.2,98,4.118,4.116,4.126,4.116,0,0,82.31,6,GPS_Atti,
0.371599740586505,36.9034602618128,5666.7308466897,166.010504,0,2.87410114184,19900,2017-11-10 07:16:04,17,16.333,5666.7308466897,166.010504,0.80753534,2.92648303328,223.8, 9.3, -1,0,1,1024,1024,1684,1024,223.8,-28.5,98,4.111,4.111,4.118,4.105,0,0,82.31,6,GPS_Atti,
0.371599771790748,36.9034602645239,5668.3712666897,167.650924,0,2.8645998292,20000,2017-11-10 07:16:04,17,16.333,5668.3712666897,167.650924,0.80753534,2.92648303328,223.8, 9.7, -1,0,1,1024,1024,1684,1024,223.8,-28.8,98,4.111,4.111,4.118,4.105,0,0,82.31,6,GPS_Atti,
0.371599809326383,36.9034602973781,5670.0116866897,169.291344,0,2.84641741392,20100,2017-11-10 07:16:04,17,16.333,5670.0116866897,169.291344,0.80753534,2.92648303328,223.9, 9.7, -0.5,0,1,1024,1024,1684,1024,223.8,-29.1,98,4.111,4.111,4.118,4.105,0,0,82.31,6,GPS_Atti,
0.371599832375379,36.9034603392533,5671.6521066897,170.931764,0,2.83030192784,20200,2017-11-10 07:16:04,17,16.333,5671.6521066897,170.931764,0.80753534,2.92648303328,223.9, 9.1, -0.1,0,1,1024,1024,1684,1024,223.8,-29.4,98,4.111,4.111,4.118,4.105,0,0,82.31,6,GPS_Atti,
0.371599879670278,36.9034603667049,5673.2925266897,172.572184,0,2.81057095608,20300,2017-11-10 07:16:04,17,16.333,5673.2925266897,172.572184,0.80753534,2.92648303328,223.9, 8.9, -0.5,0,1,1024,1024,1684,1024,223.8,-29.4,98,4.111,4.111,4.118,4.105,0,0,82.31,6,GPS_Atti,
0.371599916302126,36.9034603434027,5674.9329466897,174.212604,0,2.8054954966,20400,2017-11-10 07:16:04,17,16.333,5674.9329466897,174.212604,0.80753534,2.92648303328,223.9, 9.2, -1.2,0,1,1024,1024,1684,1024,223.8,-29.7,98,4.111,4.111,4.118,4.105,0,0,82.31,6,GPS_Atti,
0.371599944720916,36.9034603051909,5676.5733666897,175.853024,0,2.806266494,20500,2017-11-10 07:16:04,17,16.333,5676.5733666897,175.853024,0.80753534,2.92648303328,223.9, 9.6, -1.8,0,1,1024,1024,1684,1024,223.8,-30,98,4.111,4.111,4.118,4.105,0,0,82.31,6,GPS_Atti,
0.371600035963447,36.9034602822302,5678.2137866897,177.493444,0,2.78597777944,20600,2017-11-10 07:16:04,17,16.333,5678.2137866897,177.493444,0.80753534,2.92648303328,223.8, 9.5, -1.7,0,1,1024,1024,1684,1024,223.8,-30.3,98,4.111,4.111,4.118,4.105,0,0,82.31,6,GPS_Atti,
0.371600127751508,36.9034602736961,5680.1822906897,179.461948,0,2.76239838236,20700,2017-11-10 07:16:04,17,16.333,5680.1822906897,179.461948,0.80753534,2.92648303328,223.8, 9.6, -1.4,0,1,1024,1024,1684,1024,223.8,-30.6,98,4.111,4.111,4.118,4.105,0,0,82.31,6,GPS_Atti,
0.371600183940968,36.9034602595383,5681.8227106897,181.102368,0,2.75019365756,20800,2017-11-10 07:16:05,17,16.333,5681.8227106897,181.102368,0.80753534,2.92648303328,223.8, 9.6, -1.3,0,1,1024,1024,1684,1024,223.8,-30.9,98,4.111,4.111,4.118,4.105,0,0,82.31,6,GPS_Atti,
0.3716002612945,36.9034602558331,5683.4631306897,182.742788,0,2.72977699024,20900,2017-11-10 07:16:05,17,16.333,5683.4631306897,182.742788,0.80753534,2.92648303328,223.8, 9.7, -1.6,0,1,1024,1024,1684,1024,223.8,-31.2,98,4.111,4.111,4.118,4.105,0,0,82.31,6,GPS_Atti,
0.371600330031121,36.9034602404147,5685.1035506897,184.383208,0,2.71468840708,21000,2017-11-10 07:16:05,17,16.333,5685.1035506897,184.383208,0.80753534,2.92648303328,223.8, 9.7, -2.1,0,1,1024,1024,1684,1024,223.8,-31.4,98,4.111,4.111,4.118,4.105,0,0,82.31,6,GPS_Atti,
0.371600429570575,36.9034602296004,5686.7439706897,186.023628,0,2.69029864252,21100,2017-11-10 07:16:05,17,16.333,5686.7439706897,186.023628,0.80753534,2.92648303328,223.8, 9.6, -2.7,0,1,1024,1024,1684,1024,223.8,-31.5,98,4.111,4.111,4.118,4.105,0,0,82.31,6,GPS_Atti,
0.371600517964143,36.9034602175461,5688.3843906897,187.664048,0,2.66948171272,21200,2017-11-10 07:16:05,17,16.333,5688.3843906897,187.664048,0.80753534,2.92648303328,223.8, 9.5, -2.6,0,1,1024,1024,1684,1024,223.8,-31.7,98,4.111,4.111,4.118,4.105,0,0,82.31,6,GPS_Atti,
0.371600623689241,36.90346024634,5690.3528946897,189.632552,0,2.63408472996,21300,2017-11-10 07:16:05,17,16.333,5690.3528946897,189.632552,0.80753534,2.92648303328,223.8, 9, -2.2,0,1,1024,1024,1684,1024,223.8,-31.8,98,4.111,4.111,4.118,4.105,0,0,82.31,6,GPS_Atti,
0.371600698261392,36.9034602898822,5691.9933146897,191.272972,0,2.6033793484,21400,2017-11-10 07:16:05,17,16.333,5691.9933146897,191.272972,0.80753534,2.92648303328,223.8, 8.8, -1.9,0,1,1024,1024,1684,1024,223.8,-31.9,98,4.111,4.111,4.118,4.105,0,0,82.31,6,GPS_Atti,
0.371600767477589,36.9034603578421,5693.6337346897,192.913392,0,2.567995489,21500,2017-11-10 07:16:05,17,16.333,5693.6337346897,192.913392,0.80753534,2.92648303328,223.8, 8.7, -1.3,0,1,1024,1024,1684,1024,223.8,-32,98,4.111,4.111,4.118,4.105,0,0,82.31,6,GPS_Atti,
0.371600808685365,36.9034604267704,5695.2741546897,194.553812,0,2.53982291592,21600,2017-11-10 07:16:05,17,16.333,5695.2741546897,194.553812,0.80753534,2.92648303328,223.8, 8.8, -1.1,0,1,1024,1024,1684,1024,223.8,-32,98,4.111,4.111,4.118,4.105,0,0,82.31,6,GPS_Atti,
0.371600876611021,36.903460487225,5696.9145746897,196.194232,0,2.50665690436,21700,2017-11-10 07:16:05,17,16.333,5696.9145746897,196.194232,0.80753534,2.92648303328,223.8, 8.7, -1.3,0,1,1024,1024,1684,1024,223.8,-32.2,98,4.111,4.111,4.118,4.105,0,0,82.31,6,GPS_Atti,
0.371600945326472,36.9034605114763,5698.5549946897,197.834652,0,2.4823327566,21800,2017-11-10 07:16:06,17,16.333,5698.5549946897,197.834652,0.80753534,2.92648303328,223.8, 8.6, -1.3,0,1,1024,1024,1684,1024,223.8,-32.4,98,4.111,4.111,4.118,4.105,0,0,82.31,6,GPS_Atti,
0.371601024972854,36.9034605398053,5700.1954146897,199.475072,0,2.45414049848,21900,2017-11-10 07:16:06,17,16.305,5700.1954146897,199.475072,0.80753534,2.92648303328,223.8, 8.8, -1.3,0,1,1024,1024,1684,1024,223.8,-32.5,98,4.102,4.101,4.109,4.097,0,0,84.11,6,GPS_Atti,
0.371601080687623,36.9034605675561,5701.8358346897,201.115492,0,2.43245414608,22000,2017-11-10 07:16:06,17,16.305,5701.8358346897,201.115492,0.80753534,2.92648303328,223.8, 8.7, -1.4,0,1,1024,1024,1684,1024,223.8,-32.7,98,4.102,4.101,4.109,4.097,0,0,84.11,6,GPS_Atti,
0.371601150269406,36.9034606048702,5703.8043386897,203.083996,0,2.40472120556,22100,2017-11-10 07:16:06,17,16.305,5703.8043386897,203.083996,0.80753534,2.92648303328,223.8, 8.7, -1.5,0,1,1024,1024,1684,1024,223.8,-32.9,98,4.102,4.101,4.109,4.097,0,0,84.11,6,GPS_Atti,
0.371601200879817,36.9034606441516,5705.4447586897,204.724416,0,2.38148629668,22200,2017-11-10 07:16:06,17,16.305,5705.4447586897,204.724416,0.80753534,2.92648303328,223.8, 8.6, -1.6,0,1,1024,1024,1684,1024,223.8,-33.1,98,4.102,4.101,4.109,4.097,0,0,84.11,6,GPS_Atti,
0.371601275602598,36.9034606833637,5707.0851786897,206.364836,0,2.35196201752,22300,2017-11-10 07:16:06,17,16.305,5707.0851786897,206.364836,0.80753534,2.92648303328,223.8, 8.4, -1.7,0,1,1024,1024,1684,1024,223.8,-33.2,98,4.102,4.101,4.109,4.097,0,0,84.11,6,GPS_Atti,
0.371601345183568,36.9034607062935,5708.7255986897,208.005256,0,2.32797251544,22400,2017-11-10 07:16:06,17,16.305,5708.7255986897,208.005256,0.80753534,2.92648303328,223.8, 8.3, -1.7,0,1,1024,1024,1684,1024,223.8,-33.4,98,4.102,4.101,4.109,4.097,0,0,84.11,6,GPS_Atti,
0.371601394797371,36.9034607315533,5710.3660186897,209.645676,0,2.30861555944,22500,2017-11-10 07:16:06,17,16.305,5710.3660186897,209.645676,0.80753534,2.92648303328,223.8, 8.1, -1.5,0,1,1024,1024,1684,1024,223.8,-33.6,98,4.102,4.101,4.109,4.097,0,0,84.11,6,GPS_Atti,
0.371601444164465,36.9034607819696,5712.0064386897,211.286096,0,2.28287736964,22600,2017-11-10 07:16:06,17,16.305,5712.0064386897,211.286096,0.80753534,2.92648303328,223.8, 8.2, -1.2,0,1,1024,1024,1684,1024,223.8,-33.8,98,4.102,4.101,4.109,4.097,0,0,84.11,6,GPS_Atti,
0.3716014882554,36.903460831417,5713.6468586897,212.926516,0,2.25875335312,22700,2017-11-10 07:16:06,17,16.305,5713.6468586897,212.926516,0.80753534,2.92648303328,223.8, 8.4, -1.1,0,1,1024,1024,1684,1024,223.8,-33.9,98,4.102,4.101,4.109,4.097,0,0,84.11,6,GPS_Atti,
0.371601504178326,36.9034608690384,5715.6153626897,214.89502,0,2.2449803868,22800,2017-11-10 07:16:07,17,16.305,5715.6153626897,214.89502,0.80753534,2.92648303328,223.8, 8.5, -1.1,0,1,1024,1024,1684,1024,223.8,-33.9,98,4.102,4.101,4.109,4.097,0,0,84.11,6,GPS_Atti,
0.371601537364386,36.9034609157033,5717.2557826897,216.53544,0,2.22441280084,22900,2017-11-10 07:16:07,17,16.333,5717.2557826897,216.53544,0.80753534,2.92648303328,223.8, 8.4, -0.8,0,1,1024,1024,1684,1024,223.8,-33.9,98,4.098,4.098,4.108,4.095,0,0,84.11,6,GPS_Atti,
0.371601562865819,36.9034609461242,5718.8962026897,218.17586,0,2.21000007072,23000,2017-11-10 07:16:07,17,16.333,5718.8962026897,218.17586,0.80753534,2.92648303328,223.8, 8.5, -1.1,0,1,1024,1024,1684,1024,223.8,-33.9,98,4.098,4.098,4.108,4.095,0,0,84.11,6,GPS_Atti,
0.37160160479988,36.903460965535,5720.5366226897,219.81628,0,2.19411752428,23100,2017-11-10 07:16:07,17,16.333,5720.5366226897,219.81628,0.80753534,2.92648303328,223.8, 8.3, -1.4,0,1,1024,1024,1684,1024,223.8,-34,98,4.098,4.098,4.108,4.095,0,0,84.11,6,GPS_Atti,
