latitude,longitude,altitude(feet),ascent(feet),speed(mph),distance(feet),time(millisecond),datetime(utc),satellites,voltage(v),max_altitude(feet),max_ascent(feet),max_speed(mph),max_distance(feet),compass_heading(degrees), pitch(degrees), roll(degrees),isPhoto,isVideo,rc_elevator,rc_aileron,rc_throttle,rc_rudder,gimbal_heading(degrees),gimbal_pitch(degrees),battery_percent,voltageCell1,voltageCell2,voltageCell3,voltageCell4,voltageCell5,voltageCell6,battery_temperature(f),flycStateRaw,flycState,message
0.369658540078203,36.9022765343548,5526.9029839475,0,0,0,0,2017-11-16 06:29:00,14,0,5526.9029839475,0,0,0,67.4, -1.7, -0.5,0,0,1024,1024,1024,1024,71.9,0,99,4.303,4.303,4.301,4.302,0,0,75.11,6,GPS_Atti,
0.369658523792135,36.9022765560299,5526.9029839475,0,0,0.009891568558,100,2017-11-16 06:29:00,14,0,5526.9029839475,0,0,0.009891568558,67.4, -1.7, -0.5,0,0,1024,1024,1024,1024,71.9,0,99,4.303,4.303,4.301,4.302,0,0,75.11,41,Motors_Started,
0.369658493136677,36.902276567008,5526.9029839475,0,0,0.020862533476,200,2017-11-16 06:29:00,14,0,5526.9029839475,0,0,0.020862533476,67.4, -1.7, -0.5,0,0,1024,1024,1024,1024,71.9,0,99,4.303,4.303,4.301,4.302,0,0,75.11,41,Motors_Started,
0.369658459823598,36.902276573846,5526.9029839475,0,0,0.03263369527,300,2017-11-16 06:29:00,14,17.231,5526.9029839475,0,0,0.03263369527,67.4, -1.7, -0.5,0,0,1024,1024,1024,1024,71.9,0,99,4.303,4.303,4.301,4.302,0,0,75.11,41,Motors_Started,Setting new Return-To-Home altitude to 30m (98 ft). Setting new Maximum Flight Altitude to 120m (394 ft)
0.369658417873252,36.9022765523234,5526.9029839475,0,0,0.04506561824,400,2017-11-16 06:29:00,14,17.231,5526.9029839475,0,0,0.04506561824,67.4, -1.7, -0.5,0,0,1024,1024,1024,1024,71.9,0,99,4.303,4.303,4.301,4.302,0,0,75.11,41,Motors_Started,
0.36965837105223,36.9022765330621,5526.9029839475,0,0,0.061670933732,500,2017-11-16 06:29:00,14,17.231,5526.9029839475,0,0,0.061670933732,67.4, -1.7, -0.5,0,0,1024,1024,1024,1024,71.9,0,99,4.303,4.303,4.301,4.302,0,0,75.11,41,Motors_Started,
0.369658321658267,36.9022765199064,5526.9029839475,0,0,0.079864503868,600,2017-11-16 06:29:00,14,17.231,5526.9029839475,0,0,0.079864503868,67.4, -1.7, -0.5,0,0,1024,1024,1024,1024,71.9,0,99,4.303,4.303,4.301,4.302,0,0,75.11,41,Motors_Started,
0.369658267027228,36.90227651238,5526.9029839475,0,0,0.099944557004,700,2017-11-16 06:29:00,14,17.231,5526.9029839475,0,0,0.099944557004,67.4, -1.7, -0.5,0,0,1024,1024,1024,1024,71.9,0,99,4.303,4.303,4.301,4.302,0,0,75.11,41,Motors_Started,
0.36965821214378,36.9022765063278,5526.9029839475,0,0,0.120082681008,800,2017-11-16 06:29:00,14,17.231,5526.9029839475,0,0,0.120082681008,67.4, -1.7, -0.5,0,0,1024,1024,1024,1024,71.9,0,99,4.303,4.303,4.301,4.302,0,0,75.11,41,Motors_Started,
0.369658153443259,36.9022764941352,5526.9029839475,0,0,0.141824807688,900,2017-11-16 06:29:00,14,17.231,5526.9029839475,0,0,0.141824807688,67.4, -1.7, -0.5,0,0,1024,1024,1024,1024,71.9,0,99,4.303,4.303,4.301,4.302,0,0,75.11,41,Motors_Started,
0.369658096586137,36.9022764627336,5526.9029839475,0,0,0.16390420472,1000,2017-11-16 06:29:01,14,17.231,5526.9029839475,0,0,0.16390420472,67.4, -1.8, -0.6,0,0,711,633,800,1356,71.9,0,99,4.303,4.303,4.301,4.302,0,0,75.11,41,Motors_Started,
0.369658039714359,36.9022764311564,5526.9029839475,0,0,0.186399612264,1100,2017-11-16 06:29:01,14,17.231,5526.9029839475,0,0,0.186399612264,67.4, -1.8, -0.6,0,0,1024,964,1024,1058,71.6,0,99,4.303,4.303,4.301,4.302,0,0,75.11,41,Motors_Started,
0.369658023633474,36.9022764144656,5526.9029839475,0,0,0.19343504556,1200,2017-11-16 06:29:01,14,17.231,5526.9029839475,0,0,0.19343504556,67.4, -1.7, -0.5,0,0,1024,1024,1024,1024,70.2,0,99,4.303,4.303,4.301,4.302,0,0,75.11,41,Motors_Started,
0.369657996837428,36.9022763882602,5526.9029839475,0,0,0.205243116804,1300,2017-11-16 06:29:01,14,17.176,5526.9029839475,0,0,0.205243116804,67.4, -1.6, -0.5,0,0,1024,1024,1024,1024,69.1,0,99,4.301,4.298,4.296,4.298,0,0,75.11,41,Motors_Started,
0.369657959485808,36.9022763487284,5526.9029839475,0,0,0.2223917394,1400,2017-11-16 06:29:01,14,17.176,5526.9029839475,0,0,0.2223917394,67.4, -1.8, -0.6,0,0,1024,1024,1024,1024,68.7,0,99,4.301,4.298,4.296,4.298,0,0,75.11,41,Motors_Started,
0.369657922963066,36.9022763132387,5526.9029839475,0,0,0.239170283244,1500,2017-11-16 06:29:01,14,17.176,5526.9029839475,0,0,0.239170283244,67.4, -1.8, -0.6,0,0,1024,1024,1024,1024,68.4,0,99,4.301,4.298,4.296,4.298,0,0,75.11,41,Motors_Started,
0.369657878589596,36.9022762912552,5526.9029839475,0,0,0.257125008228,1600,2017-11-16 06:29:01,14,17.176,5526.9029839475,0,0,0.257125008228,67.4, -1.7, -0.6,0,0,1024,1024,1024,1024,68.3,0,99,4.301,4.298,4.296,4.298,0,0,75.11,10,Assisted_Takeoff,
0.369657830617264,36.9022762756618,5526.9029839475,0,0,0.2755167411,1700,2017-11-16 06:29:01,14,17.176,5526.9029839475,0,0,0.2755167411,67.4, -1.6, -0.4,0,0,1024,1024,1024,1024,68.1,0,99,4.301,4.298,4.296,4.298,0,0,75.11,10,Assisted_Takeoff,
0.369657778363753,36.9022762618755,5526.9029839475,0,0,0.295156505508,1800,2017-11-16 06:29:01,14,17.176,5526.9029839475,0,0,0.295156505508,67.3, -1.6, -0.5,0,0,1024,1024,1024,1024,68,0,99,4.301,4.298,4.296,4.298,0,0,75.11,10,Assisted_Takeoff,
0.369657728846028,36.9022762493483,5526.9029839475,0,0,0.313711624212,1900,2017-11-16 06:29:01,14,17.176,5526.9029839475,0,0,0.313711624212,67.3, -1.7, -0.5,0,0,1024,1024,1024,1024,68,0,99,4.301,4.298,4.296,4.298,0,0,75.11,10,Assisted_Takeoff,
0.369657673237922,36.9022762151797,5526.9029839475,0,0,0.337024289,2000,2017-11-16 06:29:02,14,17.176,5526.9029839475,0,0,0.337024289,67.3, -1.5, -0.4,0,0,1024,1024,1024,1024,67.9,0,99,4.301,4.298,4.296,4.298,0,0,75.11,10,Assisted_Takeoff,
0.369657631066108,36.9022761869423,5526.9029839475,0,0,0.35504922396,2100,2017-11-16 06:29:02,14,17.176,5526.9029839475,0,0,0.35504922396,67.3, -1.6, -0.5,0,0,1024,1024,1024,1024,67.9,0,99,4.301,4.298,4.296,4.298,0,0,75.11,10,Assisted_Takeoff,
0.369657606924426,36.9022761692504,5526.9029839475,0,0,0.36559056288,2200,2017-11-16 06:29:02,14,17.176,5526.9029839475,0,0,0.36559056288,67.3, -1.6, -0.5,0,0,1024,1024,1024,1024,67.9,0,99,4.301,4.298,4.296,4.298,0,0,75.11,10,Assisted_Takeoff,
0.369657582813684,36.9022761450503,5526.9029839475,0,0,0.3770341328,2300,2017-11-16 06:29:02,14,17.121,5526.9029839475,0,0,0.3770341328,67.3, -1.5, -0.4,0,0,1024,1024,1024,1024,67.8,0,99,4.301,4.298,4.296,4.298,0,0,75.11,10,Assisted_Takeoff,
0.369657547456908,36.9022761068948,5526.9029839475,0,0,0.39431103624,2400,2017-11-16 06:29:02,14,17.121,5526.9029839475,0,0,0.39431103624,67.3, -1.7, -0.5,0,0,1024,1024,1044,1024,67.8,0,99,4.301,4.298,4.296,4.298,0,0,75.11,10,Assisted_Takeoff,
0.369657499351044,36.9022760614066,5526.9029839475,0,0,0.417076785,2500,2017-11-16 06:29:02,14,17.121,5526.9029839475,0,0,0.417076785,67.3, -1.6, -0.5,0,0,1024,1024,1366,1024,67.8,0,99,4.301,4.298,4.296,4.298,0,0,75.11,10,Assisted_Takeoff,
0.369657424424707,36.9022760097025,5526.9029839475,0,0,0.44980644484,2600,2017-11-16 06:29:02,14,17.121,5526.9029839475,0,0,0.44980644484,67.3, -1.6, -0.5,0,0,1026,1024,1684,1024,67.7,0,99,4.301,4.298,4.296,4.298,0,0,75.11,10,Assisted_Takeoff,
0.369657347443274,36.9022759532031,5526.9029839475,0,0,0.48404201024,2700,2017-11-16 06:29:02,14,17.121,5526.9029839475,0,0,0.48404201024,67.3, -1.6, -0.5,0,0,1024,1024,1684,1048,67.7,0,99,4.301,4.298,4.296,4.298,0,0,75.11,10,Assisted_Takeoff,
0.369657277245939,36.9022758937434,5526.9029839475,0,0,0.5166338748,2800,2017-11-16 06:29:03,14,17.121,5526.9029839475,0,0,0.5166338748,67.3, -1.4, -0.4,0,0,1024,1024,1684,1024,67.7,0,99,4.301,4.298,4.296,4.298,0,0,75.11,10,Assisted_Takeoff,
0.369657203298297,36.9022758415918,5526.9029839475,0,0,0.54932416456,2900,2017-11-16 06:29:03,14,17.121,5526.9029839475,0,0,0.54932416456,67.3, -1.2, -0.2,0,0,1024,1024,1684,1024,67.7,0,99,4.301,4.298,4.296,4.298,0,0,75.11,10,Assisted_Takeoff,
0.369657134911791,36.9022758081876,5526.9029839475,0,0,0.5770833518,3000,2017-11-16 06:29:03,14,17.121,5526.9029839475,0,0,0.5770833518,67.2, -0.4, 0.2,0,0,1024,1024,1684,1042,67.7,0,99,4.301,4.298,4.296,4.298,0,0,75.11,10,Assisted_Takeoff,
0.369657074121977,36.9022757916745,5526.9029839475,0,0,0.59957351,3100,2017-11-16 06:29:03,14,17.121,5526.9029839475,0,0,0.59957351,67.2, 1.4, 0.7,0,0,1024,1024,1684,1024,67.7,0,99,4.301,4.298,4.296,4.298,0,0,75.11,10,Assisted_Takeoff,
0.369657005243681,36.9022757639028,5526.9029839475,0,0,0.6265748232,3200,2017-11-16 06:29:03,14,17.121,5526.9029839475,0,0,0.6265748232,67.1, 2.1, 0.7,0,0,1024,1024,1684,1024,67.7,0,99,4.301,4.298,4.296,4.298,0,0,75.11,6,GPS_Atti,Obstacle Avoided. Revise Flight Route
0.369656897473257,36.9022757071357,5526.9029839475,0,0,0.67100723932,3300,2017-11-16 06:29:03,14,17.176,5526.9029839475,0,0,0.67100723932,67, 1, 0.2,0,0,1024,1024,1684,1024,67.6,0,99,4.285,4.283,4.277,4.285,0,0,75.11,6,GPS_Atti,
0.369656764076011,36.9022756288965,5527.2310679475,0.328084,0,0.72732285792,3400,2017-11-16 06:29:03,14,17.176,5527.2310679475,0.328084,0,0.72732285792,67, 0, -0.1,0,0,1024,1024,1684,1024,67.6,0,99,4.285,4.283,4.277,4.285,0,0,75.11,6,GPS_Atti,Home Point Recorded. RTH Altitude:  30m.
0.369656641143145,36.9022755660698,5527.5591519475,0.656168,0,0.77769359444,3500,2017-11-16 06:29:03,14,17.176,5527.5591519475,0.656168,0,0.77769359444,66.9, -0.3, -0.3,0,0,1024,1024,1684,1024,67.6,0,99,4.285,4.283,4.277,4.285,0,0,75.11,6,GPS_Atti,
0.369656539038078,36.9022755215152,5527.8872359475,0.984252,0,0.81826774272,3600,2017-11-16 06:29:03,14,17.176,5527.8872359475,0.984252,0,0.81826774272,66.8, 0, -0.6,0,0,1024,1012,1684,1024,67.6,0,99,4.285,4.283,4.277,4.285,0,0,75.11,6,GPS_Atti,
0.369656487027205,36.9022755020482,5528.5434039475,1.64042,0,0.83840881948,3700,2017-11-16 06:29:03,14,17.176,5528.5434039475,1.64042,0,0.83840881948,66.7, 0.3, -0.6,0,0,1024,1012,1684,1024,67.6,0,99,4.285,4.283,4.277,4.285,0,0,75.11,6,GPS_Atti,
0.36965649740365,36.9022754983696,5529.1995719475,2.296588,0,0.83563650968,3800,2017-11-16 06:29:03,14,17.176,5529.1995719475,2.296588,0,0.83840881948,66.8, 0.5, -0.3,0,0,1024,1024,1684,1024,67.5,0,99,4.285,4.283,4.277,4.285,0,0,75.11,6,GPS_Atti,
0.369656532366343,36.9022754906601,5530.1838239475,3.28084,0,0.8255741734,3900,2017-11-16 06:29:03,14,17.176,5530.1838239475,3.28084,0,0.83840881948,66.9, 0.2, 0.2,0,0,1024,1024,1684,1024,67.5,0,99,4.285,4.283,4.277,4.285,0,0,75.11,6,GPS_Atti,
0.369656533182193,36.9022754603083,5531.4961599475,4.593176,0,0.83047574836,4000,2017-11-16 06:29:04,14,17.176,5531.4961599475,4.593176,0,0.83840881948,67.1, 0, 0.7,0,0,1024,1024,1684,1024,67.5,0,99,4.285,4.283,4.277,4.285,0,0,75.11,6,GPS_Atti,
0.369656538751472,36.9022754518258,5532.8084959475,5.905512,0,0.83015422604,4100,2017-11-16 06:29:04,14,17.176,5532.8084959475,5.905512,0,0.83840881948,67.2, 0.4, 1.1,0,0,1024,1024,1684,1024,67.5,0,99,4.285,4.283,4.277,4.285,0,0,75.11,6,GPS_Atti,
0.369656527098326,36.902275457317,5534.1208319475,7.217848,0,0.83294950172,4200,2017-11-16 06:29:04,14,17.176,5534.1208319475,7.217848,0,0.83840881948,67.2, 0.4, 0.5,0,0,1024,1024,1684,1024,67.5,0,99,4.285,4.283,4.277,4.285,0,0,75.11,6,GPS_Atti,
0.369656507389269,36.9022754783588,5535.7612519475,8.858268,0,0.8357283732,4300,2017-11-16 06:29:04,14,16.546,5535.7612519475,8.858268,0,0.83840881948,67.2, 0, -0.4,0,0,1024,1024,1684,1024,67.5,0,99,4.201,4.203,4.188,4.195,0,0,75.11,6,GPS_Atti,
0.369656493931807,36.9022754904749,5537.4016719475,10.498688,0,0.83807089296,4400,2017-11-16 06:29:04,14,16.546,5537.4016719475,10.498688,0,0.83840881948,67.3, 0.5, -0.6,0,0,1024,1024,1684,1024,67.5,0,99,4.201,4.203,4.188,4.195,0,0,75.11,6,GPS_Atti,
0.369656523709534,36.9022754885682,5539.0420919475,12.139108,0,0.82872706064,4500,2017-11-16 06:29:04,14,16.546,5539.0420919475,12.139108,0,0.83840881948,67.3, 1.3, 0,0,0,1024,1024,1684,1024,67.5,0,99,4.201,4.203,4.188,4.195,0,0,75.11,6,GPS_Atti,
0.369656569038902,36.9022754136146,5540.6825119475,13.779528,0.223694,0.82725068264,4600,2017-11-16 06:29:04,14,16.546,5540.6825119475,13.779528,0.223694,0.83840881948,67.4, 0.2, 0.7,0,0,1024,1024,1684,1024,67.5,0,99,4.201,4.203,4.188,4.195,0,0,75.11,6,GPS_Atti,
0.369656640797915,36.9022752985067,5542.6510159475,15.748032,0.223694,0.82672902908,4700,2017-11-16 06:29:04,14,16.546,5542.6510159475,15.748032,0.223694,0.83840881948,67.3, -1.1, 1.7,0,0,1024,1024,1684,1024,67.5,0,99,4.201,4.203,4.188,4.195,0,0,75.11,6,GPS_Atti,
0.36965671860334,36.9022751700065,5544.2914359475,17.388452,0.223694,0.8303149872,4800,2017-11-16 06:29:04,14,16.546,5544.2914359475,17.388452,0.223694,0.83840881948,67.2, -2, 2.7,0,0,1024,1024,1684,1024,67.5,0,99,4.201,4.203,4.188,4.195,0,0,75.11,6,GPS_Atti,
0.369656824190021,36.9022750681591,5545.9318559475,19.028872,0,0.82345475076,4900,2017-11-16 06:29:04,14,16.546,5545.9318559475,19.028872,0.223694,0.83840881948,67.2, -1.5, 3.4,0,0,1024,1024,1684,1024,67.5,0,99,4.201,4.203,4.188,4.195,0,0,75.11,6,GPS_Atti,
0.369656925935202,36.9022749734239,5547.2441919475,20.341208,0,0.81923559052,5000,2017-11-16 06:29:05,14,16.546,5547.2441919475,20.341208,0.223694,0.83840881948,67.2, -1.1, 3.1,0,0,1024,1024,1684,1024,67.5,0,99,4.201,4.203,4.188,4.195,0,0,75.11,6,GPS_Atti,
0.369657019577245,36.9022749140049,5548.5565279475,21.653544,0,0.81070212568,5100,2017-11-16 06:29:05,14,16.546,5548.5565279475,21.653544,0.223694,0.83840881948,67.4, -1.3, 3.3,0,0,1024,1024,1684,1024,67.5,0,99,4.201,4.203,4.188,4.195,0,0,75.11,6,GPS_Atti,
0.369657074573056,36.9022748826082,5550.1969479475,23.293964,0,0.80563650872,5200,2017-11-16 06:29:05,14,16.546,5550.1969479475,23.293964,0.223694,0.83840881948,67.4, -0.6, 3.1,0,0,1024,1024,1684,1024,67.5,0,99,4.201,4.203,4.188,4.195,0,0,75.11,6,GPS_Atti,
0.369657080277495,36.9022748667663,5551.5092839475,24.6063,0,0.8085958264,5300,2017-11-16 06:29:05,14,16.464,5551.5092839475,24.6063,0.223694,0.83840881948,67.4, -0.9, 1.9,0,0,1024,1024,1684,1024,67.5,0,99,4.137,4.146,4.133,4.15,0,0,75.11,6,GPS_Atti,
0.369657026278292,36.9022748079972,5553.1497039475,26.24672,0,0.83770671972,5400,2017-11-16 06:29:05,14,16.464,5553.1497039475,26.24672,0.223694,0.83840881948,67.3, -2.3, 0.7,0,0,1024,1024,1684,1024,67.5,0,99,4.137,4.146,4.133,4.15,0,0,75.11,6,GPS_Atti,
0.36965697564834,36.9022747542707,5554.7901239475,27.88714,0,0.86462601192,5500,2017-11-16 06:29:05,14,16.464,5554.7901239475,27.88714,0.223694,0.86462601192,67.3, -2.9, 0.1,0,0,1024,1024,1684,1024,67.5,0,99,4.137,4.146,4.133,4.15,0,0,75.11,6,GPS_Atti,
0.369656944623225,36.9022746760486,5556.1024599475,29.199476,0.223694,0.89359254828,5600,2017-11-16 06:29:05,14,16.464,5556.1024599475,29.199476,0.223694,0.89359254828,67.3, -3.1, 0.5,0,0,1024,1024,1684,1024,67.5,0,99,4.137,4.146,4.133,4.15,0,0,75.11,6,GPS_Atti,
0.369656952255742,36.9022746029033,5557.7428799475,30.839896,0.223694,0.91223428116,5700,2017-11-16 06:29:05,14,16.464,5557.7428799475,30.839896,0.223694,0.91223428116,67.2, -3.2, 0.9,0,0,1024,1024,1684,1024,67.5,0,99,4.137,4.146,4.133,4.15,0,0,75.11,6,GPS_Atti,
0.369656984467993,36.902274509289,5559.3832999475,32.480316,0.223694,0.93166341564,5800,2017-11-16 06:29:05,14,16.464,5559.3832999475,32.480316,0.223694,0.93166341564,67.2, -3.1, 1.2,0,0,1024,1024,1684,1024,67.5,0,99,4.137,4.146,4.133,4.15,0,0,75.11,6,GPS_Atti,
0.369657047420381,36.9022744256335,5561.0237199475,34.120736,0.223694,0.94259517452,5900,2017-11-16 06:29:06,14,16.464,5561.0237199475,34.120736,0.223694,0.94259517452,67.1, -3.2, 1,0,0,1024,1024,1684,1024,67.5,0,99,4.137,4.146,4.133,4.15,0,0,75.11,6,GPS_Atti,
0.369657138733749,36.9022743251233,5562.3360559475,35.433072,0.223694,0.95450134288,6000,2017-11-16 06:29:06,14,16.464,5562.3360559475,35.433072,0.223694,0.95450134288,67.2, -3.6, 1.6,0,0,1024,1024,1684,1024,67.5,0,99,4.137,4.146,4.133,4.15,0,0,75.11,6,GPS_Atti,
0.369657288636905,36.9022742305551,5563.9764759475,37.073492,0.223694,0.956528902,6100,2017-11-16 06:29:06,14,16.464,5563.9764759475,37.073492,0.223694,0.956528902,67.2, -3.6, 2.7,0,0,1024,1024,1684,1024,67.5,0,99,4.137,4.146,4.133,4.15,0,0,75.11,6,GPS_Atti,
0.369657438255082,36.9022741379118,5565.6168959475,38.713912,0.223694,0.96231302292,6200,2017-11-16 06:29:06,14,16.464,5565.6168959475,38.713912,0.223694,0.96231302292,67.2, -3.7, 3.3,0,0,1024,1024,1684,1024,67.5,0,99,4.137,4.146,4.133,4.15,0,0,75.11,6,GPS_Atti,
0.369657564531144,36.9022740626607,5567.2573159475,40.354332,0.223694,0.96947837748,6300,2017-11-16 06:29:06,14,16.519,5567.2573159475,40.354332,0.223694,0.96947837748,67.3, -3.3, 3.2,0,0,1024,1024,1684,1024,67.5,0,99,4.137,4.146,4.133,4.15,0,0,75.11,6,GPS_Atti,
0.369657683259367,36.9022740097906,5568.8977359475,41.994752,0,0.9726706348,6400,2017-11-16 06:29:06,14,16.519,5568.8977359475,41.994752,0.223694,0.9726706348,67.3, -3.2, 2.8,0,0,1024,1024,1684,1024,67.5,0,99,4.137,4.146,4.133,4.15,0,0,75.11,6,GPS_Atti,
0.369657774592277,36.9022739485966,5570.2100719475,43.307088,0,0.98386486088,6500,2017-11-16 06:29:06,14,16.519,5570.2100719475,43.307088,0.223694,0.98386486088,67.3, -3.5, 2.7,0,0,1024,1024,1684,1024,67.5,0,99,4.137,4.146,4.133,4.15,0,0,75.11,6,GPS_Atti,
0.369657820341783,36.9022738803686,5571.8504919475,44.947508,0,1.00326118696,6600,2017-11-16 06:29:06,14,16.519,5571.8504919475,44.947508,0.223694,1.00326118696,67.2, -3.9, 2.1,0,0,1024,1024,1684,1024,67.5,0,99,4.137,4.146,4.133,4.15,0,0,75.11,6,GPS_Atti,
0.369657872951923,36.9022738291527,5573.4909119475,46.587928,0,1.01654202728,6700,2017-11-16 06:29:06,14,16.519,5573.4909119475,46.587928,0.223694,1.01654202728,67.2, -3.9, 1.7,0,0,1024,1024,1684,1024,67.5,0,99,4.137,4.146,4.133,4.15,0,0,75.11,6,GPS_Atti,
0.369657925361764,36.9022737915453,5575.1313319475,48.228348,0,1.02551840552,6800,2017-11-16 06:29:06,14,16.519,5575.1313319475,48.228348,0.223694,1.02551840552,67.2, -3.7, 1.7,0,0,1024,1024,1684,1024,67.5,0,99,4.137,4.146,4.133,4.15,0,0,75.11,6,GPS_Atti,
0.369657997834036,36.9022737575994,5576.7717519475,49.868768,0,1.03221131912,6900,2017-11-16 06:29:06,14,16.519,5576.7717519475,49.868768,0.223694,1.03221131912,67.2, -3.9, 1.7,0,0,1024,1024,1684,1024,67.5,0,99,4.137,4.146,4.133,4.15,0,0,75.11,6,GPS_Atti,
0.369658058045753,36.9022737198978,5578.4121719475,51.509188,0,1.04178481024,7000,2017-11-16 06:29:07,14,16.519,5578.4121719475,51.509188,0.223694,1.04178481024,67.2, -4.1, 1.9,0,0,1024,1024,1684,1024,67.5,0,99,4.137,4.146,4.133,4.15,0,0,75.11,6,GPS_Atti,
0.369658138140771,36.9022736865386,5580.0525919475,53.149608,0,1.04930121468,7100,2017-11-16 06:29:07,14,16.519,5580.0525919475,53.149608,0.223694,1.04930121468,67.2, -4, 2.2,0,0,1024,1024,1684,1024,67.5,0,99,4.137,4.146,4.133,4.15,0,0,75.11,6,GPS_Atti,
0.36965819859024,36.9022736521912,5581.6930119475,54.790028,0,1.05888782916,7200,2017-11-16 06:29:07,14,16.519,5581.6930119475,54.790028,0.223694,1.05888782916,67.2, -3.9, 2.4,0,0,1024,1024,1684,1024,67.5,0,99,4.137,4.146,4.133,4.15,0,0,75.11,6,GPS_Atti,
0.36965827056258,36.902273619347,5583.3334319475,56.430448,0,1.06805449612,7300,2017-11-16 06:29:07,14,16.437,5583.3334319475,56.430448,0.223694,1.06805449612,67.2, -4.2, 2.5,0,0,1024,1024,1684,1024,67.5,0,99,4.132,4.139,4.125,4.142,0,0,75.11,6,GPS_Atti,
0.369658329206105,36.9022735920475,5585.3019359475,58.398952,0,1.0762303494,7400,2017-11-16 06:29:07,14,16.437,5585.3019359475,58.398952,0.223694,1.0762303494,67.2, -4.3, 2.2,0,0,1024,1024,1684,1024,67.5,0,99,4.132,4.139,4.125,4.142,0,0,75.11,6,GPS_Atti,
0.369658394270585,36.9022735701823,5586.9423559475,60.039372,0,1.08276250184,7500,2017-11-16 06:29:07,14,16.437,5586.9423559475,60.039372,0.223694,1.08276250184,67.2, -4, 2,0,0,1024,1024,1684,1024,67.5,0,99,4.132,4.139,4.125,4.142,0,0,75.11,6,GPS_Atti,
0.369658433315787,36.9022735436044,5588.5827759475,61.679792,0,1.0918471478,7600,2017-11-16 06:29:07,14,16.437,5588.5827759475,61.679792,0.223694,1.0918471478,67.2, -4.1, 1.9,0,0,1024,1024,1684,1024,67.5,0,99,4.132,4.139,4.125,4.142,0,0,75.11,6,GPS_Atti,
0.369658478433456,36.9022735171742,5590.5512799475,63.648296,0,1.10102365728,7700,2017-11-16 06:29:07,14,16.437,5590.5512799475,63.648296,0.223694,1.10102365728,67.2, -4.3, 1.8,0,0,1024,1024,1684,1024,67.5,0,99,4.132,4.139,4.125,4.142,0,0,75.11,6,GPS_Atti,
0.369658509504167,36.9022735022156,5592.1916999475,65.288716,0,1.10630580968,7800,2017-11-16 06:29:07,14,16.437,5592.1916999475,65.288716,0.223694,1.10630580968,67.1, -4.6, 1.7,0,0,1024,1024,1684,1024,67.5,0,99,4.132,4.139,4.125,4.142,0,0,75.11,6,GPS_Atti,
0.369658559394806,36.9022735015144,5594.1602039475,67.25722,0,1.1065289068,7900,2017-11-16 06:29:07,14,16.437,5594.1602039475,67.25722,0.223694,1.1065289068,67.1, -4.6, 1.9,0,0,1024,1024,1684,1024,67.5,0,99,4.132,4.139,4.125,4.142,0,0,75.11,6,GPS_Atti,
0.369658599161408,36.90227351614,5595.8006239475,68.89764,0,1.10138126884,8000,2017-11-16 06:29:08,14,16.437,5595.8006239475,68.89764,0.223694,1.1065289068,67.1, -4.5, 2.2,0,0,1024,1024,1684,1024,67.5,0,99,4.132,4.139,4.125,4.142,0,0,75.11,6,GPS_Atti,
0.369658646638693,36.9022735507968,5597.4410439475,70.53806,0,1.0892224758,8100,2017-11-16 06:29:08,14,16.437,5597.4410439475,70.53806,0.223694,1.1065289068,67.1, -4.1, 1.9,0,0,1024,1024,1684,1024,67.5,0,99,4.132,4.139,4.125,4.142,0,0,75.11,6,GPS_Atti,
0.369658672851756,36.9022735850189,5599.4095479475,72.506564,0,1.0771325804,8200,2017-11-16 06:29:08,14,16.437,5599.4095479475,72.506564,0.223694,1.1065289068,67.1, -4, 1.6,0,0,1024,1024,1684,1024,67.5,0,99,4.132,4.139,4.125,4.142,0,0,75.11,6,GPS_Atti,
0.369658704290496,36.9022736147883,5601.3780519475,74.475068,0,1.0668635512,8300,2017-11-16 06:29:08,14,16.519,5601.3780519475,74.475068,0.223694,1.1065289068,67.1, -4.3, 1.9,0,0,1024,1024,1684,1052,67.5,0,99,4.133,4.141,4.125,4.141,0,0,75.11,6,GPS_Atti,
0.369658702399873,36.9022736381073,5603.0184719475,76.115488,0,1.05833008636,8400,2017-11-16 06:29:08,14,16.519,5603.0184719475,76.115488,0.223694,1.1065289068,67.1, -4.2, 1.6,0,0,1024,1024,1684,1075,67.5,0,99,4.133,4.141,4.125,4.141,0,0,75.11,6,GPS_Atti,
0.369658714347766,36.9022736731313,5604.9869759475,78.083992,0,1.04583008596,8500,2017-11-16 06:29:08,14,16.519,5604.9869759475,78.083992,0.223694,1.1065289068,67.1, -4, 1.6,0,0,1024,1024,1684,1094,67.5,0,99,4.133,4.141,4.125,4.141,0,0,75.11,6,GPS_Atti,
0.369658728474518,36.9022737162213,5606.9554799475,80.052496,0,1.03046919308,8600,2017-11-16 06:29:08,14,16.519,5606.9554799475,80.052496,0.223694,1.1065289068,67.4, -4.1, 1.4,0,0,1024,1024,1684,1094,67.6,0,99,4.133,4.141,4.125,4.141,0,0,75.11,6,GPS_Atti,
0.3696587544368,36.9022737716244,5608.5958999475,81.692916,0,1.01098756516,8700,2017-11-16 06:29:08,14,16.519,5608.5958999475,81.692916,0.223694,1.1065289068,67.9, -4.1, 1.6,0,0,1024,1024,1684,1088,67.9,0,99,4.133,4.141,4.125,4.141,0,0,75.11,6,GPS_Atti,
0.369658762111657,36.902273832251,5610.5644039475,83.66142,0,0.98916341748,8800,2017-11-16 06:29:08,14,16.519,5610.5644039475,83.66142,0.223694,1.1065289068,68.6, -3.9, 1.7,0,0,1024,1024,1684,1084,68.2,0,99,4.133,4.141,4.125,4.141,0,0,75.11,6,GPS_Atti,
0.369658773439113,36.9022739059263,5612.5329079475,85.629924,0,0.96273297044,8900,2017-11-16 06:29:08,14,16.519,5612.5329079475,85.629924,0.223694,1.1065289068,69.3, -3.7, 1.7,0,0,1024,1024,1684,1084,68.4,0,99,4.133,4.141,4.125,4.141,0,0,75.11,6,GPS_Atti,
0.369658757833735,36.9022739820789,5614.5014119475,87.598428,0,0.93456039736,9000,2017-11-16 06:29:09,14,16.519,5614.5014119475,87.598428,0.223694,1.1065289068,69.9, -3.4, 1.4,0,0,1024,1024,1684,1085,68.7,0,99,4.133,4.141,4.125,4.141,0,0,75.11,6,GPS_Atti,
0.369658736597197,36.9022740787723,5616.4699159475,89.566932,0,0.89876315212,9100,2017-11-16 06:29:09,14,16.519,5616.4699159475,89.566932,0.223694,1.1065289068,70.4, -3, 1.3,0,0,1024,1024,1684,1076,68.9,0,99,4.133,4.141,4.125,4.141,0,0,75.11,6,GPS_Atti,
0.369658688207983,36.902274178397,5618.1103359475,91.207352,0,0.86125002756,9200,2017-11-16 06:29:09,14,16.519,5618.1103359475,91.207352,0.223694,1.1065289068,70.9, -3, 1.3,0,0,1024,1024,1684,1024,69.1,0,99,4.133,4.141,4.125,4.141,0,0,75.11,6,GPS_Atti,
0.369658612548847,36.902274289563,5620.0788399475,93.175856,0,0.81941931756,9300,2017-11-16 06:29:09,14,16.464,5620.0788399475,93.175856,0.223694,1.1065289068,71.2, -3.2, 0.8,0,0,1024,1024,1684,1024,69.2,0,99,4.137,4.144,4.131,4.145,0,0,75.11,6,GPS_Atti,
0.36965849715242,36.9022743872274,5622.0473439475,95.14436,0.223694,0.78351708544,9400,2017-11-16 06:29:09,14,16.464,5622.0473439475,95.14436,0.223694,1.1065289068,71.2, -3.6, 0.1,0,0,1024,1024,1684,1024,69.3,0,99,4.137,4.144,4.131,4.145,0,0,75.11,6,GPS_Atti,
0.36965837261228,36.902274500738,5623.6877639475,96.78478,0.223694,0.74445868524,9500,2017-11-16 06:29:09,14,16.464,5623.6877639475,96.78478,0.223694,1.1065289068,71.2, -3.7, -0.3,0,0,1024,1024,1684,1021,69.4,0,99,4.137,4.144,4.131,4.145,0,0,75.11,6,GPS_Atti,
0.369658243606946,36.9022746098259,5625.6562679475,98.753284,0.223694,0.7104330936,9600,2017-11-16 06:29:09,14,16.464,5625.6562679475,98.753284,0.223694,1.1065289068,71.2, -3.2, -0.5,0,0,1024,1024,1684,1004,69.5,0,99,4.137,4.144,4.131,4.145,0,0,75.11,6,GPS_Atti,
0.369658114544617,36.9022747136078,5627.6247719475,100.721788,0.223694,0.6821850612,9700,2017-11-16 06:29:09,14,16.464,5627.6247719475,100.721788,0.223694,1.1065289068,71.2, -2.8, -1,0,0,1024,1024,1684,995,69.5,0,99,4.137,4.144,4.131,4.145,0,0,75.11,6,GPS_Atti,
0.36965798766766,36.9022747775308,5629.2651919475,102.362208,0,0.67190290864,9800,2017-11-16 06:29:09,14,16.464,5629.2651919475,102.362208,0.223694,1.1065289068,71.2, -2.7, -0.7,0,0,1024,1024,1684,987,69.6,0,99,4.137,4.144,4.131,4.145,0,0,75.11,6,GPS_Atti,
0.369657874498944,36.9022748400139,5631.2336959475,104.330712,0,0.66415356456,9900,2017-11-16 06:29:09,14,16.464,5631.2336959475,104.330712,0.223694,1.1065289068,71.2, -2.8, -0.4,0,0,1024,1024,1684,979,69.6,0,99,4.137,4.144,4.131,4.145,0,0,75.11,6,GPS_Atti,
0.369657775929229,36.9022749131902,5633.2021999475,106.299216,0,0.65388453536,10000,2017-11-16 06:29:10,14,16.464,5633.2021999475,106.299216,0.223694,1.1065289068,71.1, -3, -0.3,0,0,1024,1024,1684,967,69.6,0,99,4.137,4.144,4.131,4.145,0,0,75.11,6,GPS_Atti,
0.369657691849409,36.9022749817693,5634.8426199475,107.939636,0,0.64547574244,10100,2017-11-16 06:29:10,14,16.464,5634.8426199475,107.939636,0.223694,1.1065289068,70.8, -3.8, -0.3,0,0,1024,1024,1684,970,69.6,0,99,4.137,4.144,4.131,4.145,0,0,75.11,6,GPS_Atti,
0.369657629825234,36.9022750336876,5636.8111239475,109.90814,0,0.64035763204,10200,2017-11-16 06:29:10,14,16.464,5636.8111239475,109.90814,0.223694,1.1065289068,70.3, -3.7, 0,0,0,1024,1024,1684,957,69.4,0,99,4.137,4.144,4.131,4.145,0,0,75.11,6,GPS_Atti,
0.36965758213788,36.9022751238791,5638.7796279475,111.876644,0,0.62206694904,10300,2017-11-16 06:29:10,14,16.464,5638.7796279475,111.876644,0.223694,1.1065289068,69.9, -2.7, -0.3,0,0,1024,1024,1684,939,69.3,0,99,4.137,4.144,4.131,4.145,0,0,75.11,6,GPS_Atti,
0.369657519276685,36.9022752215896,5640.4200479475,113.517064,0,0.60671589868,10400,2017-11-16 06:29:10,14,16.464,5640.4200479475,113.517064,0.223694,1.1065289068,69.4, -1.8, 0,0,0,1024,1024,1684,909,68.9,0,99,4.137,4.144,4.131,4.145,0,0,75.11,6,GPS_Atti,
0.36965744845077,36.9022753048372,5642.3885519475,115.485568,0,0.59987534728,10500,2017-11-16 06:29:10,14,16.464,5642.3885519475,115.485568,0.223694,1.1065289068,68.5, -2, -0.1,0,0,1024,1024,1684,924,68.4,0,99,4.137,4.144,4.131,4.145,0,0,75.11,6,GPS_Atti,
0.369657348993553,36.9022753457142,5644.0289719475,117.125988,0,0.61393374668,10600,2017-11-16 06:29:10,14,16.464,5644.0289719475,117.125988,0.223694,1.1065289068,67.4, -2.3, -0.3,0,0,1024,1024,1684,948,67.8,0,99,4.137,4.144,4.131,4.145,0,0,75.11,6,GPS_Atti,
0.369657251106156,36.9022753915707,5645.9974759475,119.094492,0,0.62849083376,10700,2017-11-16 06:29:10,14,16.464,5645.9974759475,119.094492,0.223694,1.1065289068,66.3, -2.7, 0.2,0,0,1024,1024,1684,944,67.4,0,99,4.137,4.144,4.131,4.145,0,0,75.11,6,GPS_Atti,
0.369657137336544,36.9022754504747,5647.6378959475,120.734912,0,0.64676511256,10800,2017-11-16 06:29:10,14,16.464,5647.6378959475,120.734912,0.223694,1.1065289068,65.4, -3, -0.4,0,0,1024,1024,1684,945,67,0,99,4.137,4.144,4.131,4.145,0,0,75.11,6,GPS_Atti,
0.369657016330128,36.9022755352233,5649.6063999475,122.703416,0,0.66479004752,10900,2017-11-16 06:29:11,14,16.464,5649.6063999475,122.703416,0.223694,1.1065289068,64.5, -2, -1.5,0,0,1024,1024,1684,946,66.5,0,99,4.137,4.144,4.131,4.145,0,0,75.11,6,GPS_Atti,
0.369656914065473,36.9022755879745,5651.2468199475,124.343836,0,0.68641406396,11000,2017-11-16 06:29:11,14,16.464,5651.2468199475,124.343836,0.223694,1.1065289068,63.8, -1.8, -1.5,0,0,1024,1024,1684,968,66.1,0,99,4.137,4.144,4.131,4.145,0,0,75.11,6,GPS_Atti,
0.369656826230461,36.9022756224514,5653.2153239475,126.31234,0,0.70829726676,11100,2017-11-16 06:29:11,14,16.464,5653.2153239475,126.31234,0.223694,1.1065289068,63, -2.3, -0.8,0,0,1024,1024,1684,963,65.7,0,99,4.137,4.144,4.131,4.145,0,0,75.11,6,GPS_Atti,
0.369656747741089,36.9022756389356,5654.8557439475,127.95276,0,0.73099411788,11200,2017-11-16 06:29:11,14,16.464,5654.8557439475,127.95276,0.223694,1.1065289068,62.4, -2.7, -0.1,0,0,1024,1024,1684,964,65.3,0,99,4.137,4.144,4.131,4.145,0,0,75.11,6,GPS_Atti,
0.369656673913952,36.9022756732798,5656.4961639475,129.59318,0,0.7498523862,11300,2017-11-16 06:29:11,14,16.546,5656.4961639475,129.59318,0.223694,1.1065289068,61.9, -2.9, 0,0,0,1024,1024,1684,966,64.9,0,99,4.12,4.127,4.113,4.129,0,0,75.11,6,GPS_Atti,
0.369656602881225,36.9022756959232,5658.4646679475,131.561684,0,0.77014110076,11400,2017-11-16 06:29:11,14,16.546,5658.4646679475,131.561684,0.223694,1.1065289068,61.4, -2.8, -0.4,0,0,1024,1024,1684,973,64.9,0,99,4.12,4.127,4.113,4.129,0,0,75.11,6,GPS_Atti,
0.369656537263074,36.9022757271904,5660.4331719475,133.530188,0,0.78783467088,11500,2017-11-16 06:29:11,14,16.546,5660.4331719475,133.530188,0.223694,1.1065289068,60.9, -2.8, -0.2,0,0,1024,1024,1684,972,64.5,0,99,4.12,4.127,4.113,4.129,0,0,75.11,6,GPS_Atti,
0.369656450817124,36.9022757357907,5662.0735919475,135.170608,0,0.81604661404,11600,2017-11-16 06:29:11,14,16.546,5662.0735919475,135.170608,0.223694,1.1065289068,60.5, -2.9, -0.3,0,0,1024,1024,1684,976,64.1,0,99,4.12,4.127,4.113,4.129,0,0,75.11,6,GPS_Atti,
0.369656373001928,36.9022757723125,5663.7140119475,136.811028,0,0.83811354388,11700,2017-11-16 06:29:11,14,16.546,5663.7140119475,136.811028,0.223694,1.1065289068,60.1, -2.9, -0.7,0,0,1024,1024,1684,979,63.8,0,99,4.12,4.127,4.113,4.129,0,0,75.11,6,GPS_Atti,
0.369656306356229,36.9022758114626,5665.6825159475,138.779532,0,0.85658467308,11800,2017-11-16 06:29:11,14,16.546,5665.6825159475,138.779532,0.223694,1.1065289068,59.7, -2.7, -0.7,0,0,1024,1024,1684,985,63.4,0,99,4.12,4.127,4.113,4.129,0,0,75.11,6,GPS_Atti,
0.36965624991436,36.9022758712295,5667.3229359475,140.419952,0,0.86988519844,11900,2017-11-16 06:29:12,14,16.546,5667.3229359475,140.419952,0.223694,1.1065289068,59.2, -2.6, -1.1,0,0,1024,1024,1684,985,63.1,0,99,4.12,4.127,4.113,4.129,0,0,75.11,6,GPS_Atti,
0.369656192728292,36.9022759058467,5669.2914399475,142.388456,0,0.88659451656,12000,2017-11-16 06:29:12,14,16.546,5669.2914399475,142.388456,0.223694,1.1065289068,58.9, -2.8, -1.4,0,0,1024,1024,1684,982,62.8,0,99,4.12,4.127,4.113,4.129,0,0,75.11,6,GPS_Atti,
0.369656154264445,36.9022759496722,5670.9318599475,144.028876,0,0.89622050112,12100,2017-11-16 06:29:12,14,16.546,5670.9318599475,144.028876,0.223694,1.1065289068,58.7, -2.9, -1.1,0,0,1024,1024,1684,991,62.5,0,99,4.12,4.127,4.113,4.129,0,0,75.11,6,GPS_Atti,
0.369656103419538,36.9022759624317,5672.5722799475,145.669296,0,0.9131726014,12200,2017-11-16 06:29:12,14,16.546,5672.5722799475,145.669296,0.223694,1.1065289068,58.4, -3.3, -0.7,0,0,1024,1024,1684,1008,62.2,0,99,4.12,4.127,4.113,4.129,0,0,75.11,6,GPS_Atti,
0.369656066077689,36.9022760008796,5674.5407839475,147.6378,0,0.92338257548,12300,2017-11-16 06:29:12,14,16.354,5674.5407839475,147.6378,0.223694,1.1065289068,58.2, -3.5, -0.4,0,0,1024,1024,1684,998,61.9,0,99,4.111,4.121,4.106,4.121,0,0,75.11,6,GPS_Atti,
0.369656037995172,36.9022760342484,5676.1812039475,149.27822,0,0.93093835,12400,2017-11-16 06:29:12,14,16.354,5676.1812039475,149.27822,0.223694,1.1065289068,58.2, -3.2, -0.1,0,0,1024,1024,1684,1001,61.7,0,99,4.111,4.121,4.106,4.121,0,0,75.11,6,GPS_Atti,
0.369656008862309,36.9022760906215,5677.8216239475,150.91864,0,0.93759517436,12500,2017-11-16 06:29:12,14,16.354,5677.8216239475,150.91864,0.223694,1.1065289068,58.2, -2.6, -0.3,0,0,1024,1024,1684,1001,61.7,0,99,4.111,4.121,4.106,4.121,0,0,75.11,6,GPS_Atti,
0.369655964101269,36.9022761054056,5679.7901279475,152.887144,0,0.95278546356,12600,2017-11-16 06:29:12,14,16.354,5679.7901279475,152.887144,0.223694,1.1065289068,58.1, -3.1, -0.6,0,0,1024,1024,1684,1018,61.3,0,99,4.111,4.121,4.106,4.121,0,0,75.11,6,GPS_Atti,
0.369655935538361,36.9022761156802,5681.4305479475,154.527564,0,0.96246394156,12700,2017-11-16 06:29:12,14,16.354,5681.4305479475,154.527564,0.223694,1.1065289068,58.1, -3.6, -0.6,0,0,1024,1024,1684,1021,61.1,0,99,4.111,4.121,4.106,4.121,0,0,75.11,6,GPS_Atti,
0.369655929083209,36.9022761028661,5683.0709679475,156.167984,0,0.96554136948,12800,2017-11-16 06:29:12,14,16.354,5683.0709679475,156.167984,0.223694,1.1065289068,58.1, -3.7, -0.5,0,0,1024,1024,1684,1022,61,0,99,4.111,4.121,4.106,4.121,0,0,75.11,6,GPS_Atti,
0.369655936961621,36.9022761014272,5685.0394719475,158.136488,0,0.96278874472,12900,2017-11-16 06:29:12,14,16.354,5685.0394719475,158.136488,0.223694,1.1065289068,58.1, -3.5, -0.1,0,0,1024,1024,1684,1024,60.8,0,99,4.111,4.121,4.106,4.121,0,0,75.11,6,GPS_Atti,
0.369655929172773,36.9022760924201,5686.6798919475,159.776908,0,0.96613520152,13000,2017-11-16 06:29:13,14,16.354,5686.6798919475,159.776908,0.223694,1.1065289068,58.1, -3.6, 0,0,0,1024,1024,1684,1023,60.8,0,99,4.111,4.121,4.106,4.121,0,0,75.11,6,GPS_Atti,
0.369655928466029,36.9022760886526,5688.3203119475,161.417328,0,0.96662076584,13100,2017-11-16 06:29:13,14,16.354,5688.3203119475,161.417328,0.223694,1.1065289068,58.1, -3.6, -0.1,0,0,1024,1024,1684,1023,60.7,0,99,4.111,4.121,4.106,4.121,0,0,75.11,6,GPS_Atti,
0.369655930403877,36.9022760630875,5690.2888159475,163.385832,0,0.96753940104,13200,2017-11-16 06:29:13,14,16.354,5690.2888159475,163.385832,0.223694,1.1065289068,58.1, -3.6, 0,0,0,1024,1024,1684,1024,60.6,0,99,4.111,4.121,4.106,4.121,0,0,75.11,6,GPS_Atti,
0.369655937342677,36.9022760506834,5691.9292359475,165.026252,0,0.9658628918,13300,2017-11-16 06:29:13,14,16.409,5691.9292359475,165.026252,0.223694,1.1065289068,58.1, -3.5, 0,0,0,1024,1024,1684,1024,60.6,0,99,4.111,4.121,4.106,4.121,0,0,75.11,6,GPS_Atti,
0.369655934313771,36.9022760463602,5693.5696559475,166.666672,0,0.96723756376,13400,2017-11-16 06:29:13,14,16.409,5693.5696559475,166.666672,0.223694,1.1065289068,58.1, -3.2, -0.3,0,0,1024,1024,1684,1024,60.4,0,99,4.111,4.121,4.106,4.121,0,0,75.11,6,GPS_Atti,
0.369655934343083,36.9022760477242,5695.2100759475,168.307092,0,0.96713585772,13500,2017-11-16 06:29:13,14,16.409,5695.2100759475,168.307092,0.223694,1.1065289068,58.1, -3.2, -0.4,0,0,1024,1024,1684,1024,60.3,0,99,4.111,4.121,4.106,4.121,0,0,75.11,6,GPS_Atti,
0.369655921867574,36.9022760335386,5696.8504959475,169.947512,0,0.9725722096,13600,2017-11-16 06:29:13,14,16.409,5696.8504959475,169.947512,0.223694,1.1065289068,58.1, -3.5, -0.2,0,0,1024,1024,1684,1024,60.3,0,99,4.111,4.121,4.106,4.121,0,0,75.11,6,GPS_Atti,
0.369655923092163,36.9022760216955,5698.4909159475,171.587932,0,0.97295278704,13700,2017-11-16 06:29:13,14,16.409,5698.4909159475,171.587932,0.223694,1.1065289068,58.1, -4.1, -0.2,0,0,1024,1024,1684,1024,60.2,0,99,4.111,4.121,4.106,4.121,0,0,75.11,6,GPS_Atti,
0.369655938148757,36.9022760072754,5700.4594199475,173.556436,0,0.96859255068,13800,2017-11-16 06:29:13,14,16.409,5700.4594199475,173.556436,0.223694,1.1065289068,58.1, -4.2, -0.3,0,0,1024,1024,1684,1024,60.1,0,99,4.111,4.121,4.106,4.121,0,0,75.11,6,GPS_Atti,
0.369655971810323,36.902275995003,5702.0998399475,175.196856,0,0.95747050308,13900,2017-11-16 06:29:13,14,16.409,5702.0998399475,175.196856,0.223694,1.1065289068,58.1, -4.2, -0.4,0,0,1024,1024,1684,1024,60,0,99,4.111,4.121,4.106,4.121,0,0,75.11,6,GPS_Atti,
0.369655994434295,36.9022759618429,5703.7402599475,176.837276,0,0.95197509608,14000,2017-11-16 06:29:14,14,16.409,5703.7402599475,176.837276,0.223694,1.1065289068,58.1, -4.2, -0.3,0,0,1024,1024,1684,1024,60,0,99,4.111,4.121,4.106,4.121,0,0,75.11,6,GPS_Atti,
0.369656029247171,36.9022759442742,5705.7087639475,178.80578,0,0.94103349468,14100,2017-11-16 06:29:14,14,16.409,5705.7087639475,178.80578,0.223694,1.1065289068,58.1, -3.7, -0.4,0,0,1024,1024,1684,1024,59.9,0,99,4.111,4.121,4.106,4.121,0,0,75.11,6,GPS_Atti,
0.36965604880804,36.9022759268703,5707.3491839475,180.4462,0,0.93557089608,14200,2017-11-16 06:29:14,14,16.409,5707.3491839475,180.4462,0.223694,1.1065289068,58.1, -4.1, -0.5,0,0,1024,1024,1684,1023,59.9,0,99,4.111,4.121,4.106,4.121,0,0,75.11,6,GPS_Atti,
0.369656081494168,36.9022759003684,5708.9896039475,182.08662,0,0.92635501652,14300,2017-11-16 06:29:14,14,16.382,5708.9896039475,182.08662,0.223694,1.1065289068,58.1, -4.5, -0.2,0,0,1024,1024,1684,1023,59.8,0,99,4.102,4.112,4.097,4.114,0,0,75.11,6,GPS_Atti,
0.369656111213271,36.9022758616636,5710.6300239475,183.72704,0,0.91952758848,14400,2017-11-16 06:29:14,14,16.382,5710.6300239475,183.72704,0.223694,1.1065289068,58.1, -4.3, 0,0,0,1024,1024,1684,1023,59.8,0,99,4.102,4.112,4.097,4.114,0,0,75.11,6,GPS_Atti,
0.369656162323614,36.9022758257114,5712.5985279475,185.695544,0,0.90522968776,14500,2017-11-16 06:29:14,14,16.382,5712.5985279475,185.695544,0.223694,1.1065289068,58.1, -4.1, 0.2,0,0,1024,1024,1684,1023,59.8,0,99,4.102,4.112,4.097,4.114,0,0,75.11,6,GPS_Atti,
0.369656220691932,36.9022757884787,5714.2389479475,187.335964,0,0.88890422792,14600,2017-11-16 06:29:14,14,16.382,5714.2389479475,187.335964,0.223694,1.1065289068,58.1, -4, 0.5,0,0,1024,1024,1684,1024,59.7,0,99,4.102,4.112,4.097,4.114,0,0,75.11,6,GPS_Atti,
0.369656285857376,36.9022757683865,5715.8793679475,188.976384,0,0.86863191756,14700,2017-11-16 06:29:14,14,16.382,5715.8793679475,188.976384,0.223694,1.1065289068,58.1, -3.9, 0.6,0,0,1024,1024,1684,1022,59.7,0,99,4.102,4.112,4.097,4.114,0,0,75.11,6,GPS_Atti,
0.369656338009923,36.9022757721776,5717.5197879475,190.616804,0,0.85018375424,14800,2017-11-16 06:29:15,14,16.382,5717.5197879475,190.616804,0.223694,1.1065289068,58, -4.1, 0.5,0,0,1024,1024,1684,1023,59.6,0,99,4.102,4.112,4.097,4.114,0,0,75.11,6,GPS_Atti,
0.369656388314187,36.902275784177,5719.1602079475,192.257224,0,0.83141078776,14900,2017-11-16 06:29:15,14,16.382,5719.1602079475,192.257224,0.223694,1.1065289068,58, -4.2, 0.2,0,0,1024,1024,1684,1023,59.6,0,99,4.102,4.112,4.097,4.114,0,0,75.11,6,GPS_Atti,
0.369656460304439,36.9022757851138,5720.8006279475,193.897644,0,0.80653873972,15000,2017-11-16 06:29:15,14,16.382,5720.8006279475,193.897644,0.223694,1.1065289068,58.1, -3.6, 0.1,0,0,1024,1024,1684,1024,59.5,0,99,4.102,4.112,4.097,4.114,0,0,75.11,6,GPS_Atti,
0.369656541387922,36.9022758011173,5722.4410479475,195.538064,0,0.77674215084,15100,2017-11-16 06:29:15,14,16.382,5722.4410479475,195.538064,0.223694,1.1065289068,58.1, -2.9, 0.5,0,0,1024,1024,1684,1024,59.5,0,99,4.102,4.112,4.097,4.114,0,0,75.11,6,GPS_Atti,
0.369656607978254,36.9022758288097,5724.0814679475,197.178484,0,0.75045277992,15200,2017-11-16 06:29:15,14,16.382,5724.0814679475,197.178484,0.223694,1.1065289068,58.1, -2.7, 0.7,0,0,1024,1024,1684,1024,59.5,0,99,4.102,4.112,4.097,4.114,0,0,75.11,6,GPS_Atti,
0.369656668740385,36.9022758484897,5725.7218879475,198.818904,0,0.72716865844,15300,2017-11-16 06:29:15,14,16.382,5725.7218879475,198.818904,0.223694,1.1065289068,58.1, -3.2, 0.8,0,0,1024,1024,1684,1024,59.4,0,99,4.102,4.112,4.097,4.114,0,0,75.11,6,GPS_Atti,
0.369656720262725,36.9022758482863,5727.3623079475,200.459324,0,0.70957351352,15400,2017-11-16 06:29:15,14,16.382,5727.3623079475,200.459324,0.223694,1.1065289068,58.1, -3.6, 0.6,0,0,1024,1024,1684,1024,59.4,0,99,4.102,4.112,4.097,4.114,0,0,75.11,6,GPS_Atti,
0.36965680771831,36.9022758626304,5730.6431479475,203.740164,0,0.67790028416,15600,2017-11-16 06:29:15,14,16.382,5730.6431479475,203.740164,0.223694,1.1065289068,58, -3.5, 0.2,0,0,1024,1024,1684,1024,59.4,0,99,4.102,4.112,4.097,4.114,0,0,75.11,6,GPS_Atti,
0.369656867249337,36.902275867219,5732.2835679475,205.380584,0,0.65707351184,15700,2017-11-16 06:29:15,14,16.382,5732.2835679475,205.380584,0.223694,1.1065289068,58, -3.3, 0.2,0,0,1024,1024,1684,1024,59.3,0,99,4.102,4.112,4.097,4.114,0,0,75.11,6,GPS_Atti,
0.369656939882824,36.9022758604677,5733.9239879475,207.021004,0,0.63348755308,15800,2017-11-16 06:29:15,14,16.382,5733.9239879475,207.021004,0.223694,1.1065289068,58, -3.3, 0.3,0,0,1024,1024,1684,1024,59.3,0,99,4.102,4.112,4.097,4.114,0,0,75.11,6,GPS_Atti,
0.369657027043661,36.9022758427073,5735.8924919475,208.989508,0,0.6069718042,15900,2017-11-16 06:29:15,14,16.382,5735.8924919475,208.989508,0.223694,1.1065289068,58.1, -3.5, 0.7,0,0,1024,1024,1684,1024,59.3,0,99,4.102,4.112,4.097,4.114,0,0,75.11,6,GPS_Atti,
0.369657085703471,36.9022758189922,5737.5329119475,210.629928,0,0.59134188244,16000,2017-11-16 06:29:16,14,16.382,5737.5329119475,210.629928,0.223694,1.1065289068,58.1, -3.5, 0.9,0,0,1024,1024,1684,1024,59.3,0,99,4.102,4.112,4.097,4.114,0,0,75.11,6,GPS_Atti,
0.369657139979509,36.9022757999353,5739.1733319475,212.270348,0,0.57683400796,16100,2017-11-16 06:29:16,14,16.382,5739.1733319475,212.270348,0.223694,1.1065289068,58.1, -3.8, 0.7,0,0,1024,1024,1684,1024,59.3,0,99,4.102,4.112,4.097,4.114,0,0,75.11,6,GPS_Atti,
0.369657208996223,36.9022757690428,5742.4541719475,215.551188,0,0.56019030664,16300,2017-11-16 06:29:16,14,16.245,5742.4541719475,215.551188,0.223694,1.1065289068,58.1, -4.2, 0.6,0,0,1024,1024,1684,1024,59.3,0,98,4.088,4.097,4.083,4.099,0,0,75.11,6,GPS_Atti,
0.369657238203994,36.9022757483318,5744.0945919475,217.191608,0,0.55484581828,16400,2017-11-16 06:29:16,14,16.245,5744.0945919475,217.191608,0.223694,1.1065289068,58.1, -4.1, 0.8,0,0,1024,1024,1684,1024,59.2,0,98,4.088,4.097,4.083,4.099,0,0,75.11,6,GPS_Atti,
0.369657272888223,36.9022757384201,5745.7350119475,218.832028,0,0.5459645844,16500,2017-11-16 06:29:16,14,16.245,5745.7350119475,218.832028,0.223694,1.1065289068,58.1, -4, 0.4,0,0,1024,1024,1684,1024,59.2,0,98,4.088,4.097,4.083,4.099,0,0,75.11,6,GPS_Atti,
0.369657294978066,36.902275744999,5747.3754319475,220.472448,0,0.53787075212,16600,2017-11-16 06:29:16,14,16.245,5747.3754319475,220.472448,0.223694,1.1065289068,58.1, -3.7, 0,0,0,1024,1024,1684,1024,59.2,0,98,4.088,4.097,4.083,4.099,0,0,75.11,6,GPS_Atti,
0.369657333891363,36.9022757478768,5749.0158519475,222.112868,0,0.52535762836,16700,2017-11-16 06:29:16,14,16.245,5749.0158519475,222.112868,0.223694,1.1065289068,58, -3.9, 0,0,0,1024,1024,1684,1024,59.2,0,98,4.088,4.097,4.083,4.099,0,0,75.11,6,GPS_Atti,
0.369657367004144,36.9022757396374,5750.6562719475,223.753288,0,0.5169619588,16800,2017-11-16 06:29:16,14,16.245,5750.6562719475,223.753288,0.223694,1.1065289068,58.1, -4.3, 0.2,0,0,1024,1024,1684,1024,59.1,0,98,4.088,4.097,4.083,4.099,0,0,75.11,6,GPS_Atti,
0.369657408540865,36.9022757362039,5752.2966919475,225.393708,0,0.50520670908,16900,2017-11-16 06:29:16,14,16.245,5752.2966919475,225.393708,0.223694,1.1065289068,58.1, -4.4, 0.6,0,0,1024,1024,1684,1024,59.1,0,98,4.088,4.097,4.083,4.099,0,0,75.11,6,GPS_Atti,
0.369657416018679,36.9022757429092,5753.9371119475,227.034128,0,0.50156825752,17000,2017-11-16 06:29:17,14,16.245,5753.9371119475,227.034128,0.223694,1.1065289068,58.1, -4.5, 0.3,0,0,1024,1024,1684,1024,59.1,0,98,4.088,4.097,4.083,4.099,0,0,75.11,6,GPS_Atti,
0.369657434695304,36.9022757674604,5755.5775319475,228.674548,0,0.49084975324,17100,2017-11-16 06:29:17,14,16.245,5755.5775319475,228.674548,0.223694,1.1065289068,58, -4.4, -0.2,0,0,1024,1024,1684,1024,59.1,0,98,4.088,4.097,4.083,4.099,0,0,75.11,6,GPS_Atti,
0.369657463606698,36.9022757992512,5757.2179519475,230.314968,0,0.47558728556,17200,2017-11-16 06:29:17,14,16.245,5757.2179519475,230.314968,0.223694,1.1065289068,58, -3.9, 0,0,0,1024,1024,1684,1024,59.1,0,98,4.088,4.097,4.083,4.099,0,0,75.11,6,GPS_Atti,
0.36965750529975,36.9022758315055,5758.8583719475,231.955388,0,0.45638780988,17300,2017-11-16 06:29:17,14,16.272,5758.8583719475,231.955388,0.223694,1.1065289068,58, -3.4, 0,0,0,1024,1024,1684,1024,59.1,0,98,4.088,4.097,4.083,4.099,0,0,75.11,6,GPS_Atti,
0.369657532125108,36.9022758388542,5762.1392119475,235.236228,0,0.44679791456,17500,2017-11-16 06:29:17,14,16.272,5762.1392119475,235.236228,0.223694,1.1065289068,58, -4, 0,0,0,1024,1024,1684,1024,59,0,98,4.088,4.097,4.083,4.099,0,0,75.11,6,GPS_Atti,
0.369657557436013,36.9022758521277,5763.7796319475,236.876648,0,0.4364501452,17600,2017-11-16 06:29:17,14,16.272,5763.7796319475,236.876648,0.223694,1.1065289068,58, -4.2, 0.3,0,0,1024,1024,1684,1024,59,0,98,4.088,4.097,4.083,4.099,0,0,75.11,6,GPS_Atti,
0.369657595180088,36.9022758674952,5765.4200519475,238.517068,0,0.42195211324,17700,2017-11-16 06:29:17,14,16.272,5765.4200519475,238.517068,0.223694,1.1065289068,58, -4.2, 0.6,0,0,1024,1024,1684,1024,59,0,98,4.088,4.097,4.083,4.099,0,0,75.11,6,GPS_Atti,
0.369657640771635,36.9022758823039,5767.0604719475,240.157488,0,0.40527888436,17800,2017-11-16 06:29:17,14,16.272,5767.0604719475,240.157488,0.223694,1.1065289068,58.1, -4, 0.9,0,0,1024,1024,1684,1024,59,0,98,4.088,4.097,4.083,4.099,0,0,75.11,6,GPS_Atti,
0.369657692847645,36.9022759228212,5768.7008919475,241.797908,0,0.38122048464,17900,2017-11-16 06:29:18,14,16.272,5768.7008919475,241.797908,0.223694,1.1065289068,58.1, -3.7, 0.5,0,0,1024,1024,1684,1024,59,0,98,4.088,4.097,4.083,4.099,0,0,75.11,6,GPS_Atti,
0.369657723815765,36.9022759824179,5770.3413119475,243.438328,0,0.35950132384,18000,2017-11-16 06:29:18,14,16.272,5770.3413119475,243.438328,0.223694,1.1065289068,58, -3.6, -0.3,0,0,1024,1024,1517,1024,59,0,98,4.088,4.097,4.083,4.099,0,0,75.11,6,GPS_Atti,
0.369657763709386,36.9022760343897,5771.9817319475,245.078748,0,0.3369094596,18100,2017-11-16 06:29:18,14,16.272,5771.9817319475,245.078748,0.223694,1.1065289068,58, -3.5, -0.4,0,0,1024,1024,1037,1024,58.9,0,98,4.088,4.097,4.083,4.099,0,0,75.11,6,GPS_Atti,
0.369657794719845,36.9022760489361,5773.6221519475,246.719168,0,0.32452756944,18200,2017-11-16 06:29:18,14,16.272,5773.6221519475,246.719168,0.223694,1.1065289068,58, -4.3, 0.1,0,0,1024,1024,1024,1024,58.9,0,98,4.088,4.097,4.083,4.099,0,0,75.11,6,GPS_Atti,
0.369657842729631,36.9022760508579,5774.9344879475,248.031504,0,0.309596794684,18300,2017-11-16 06:29:18,14,16.245,5774.9344879475,248.031504,0.223694,1.1065289068,57.9, -6, 0.8,0,0,1024,1024,1024,1024,58.9,0,98,4.088,4.097,4.083,4.099,0,0,75.11,6,GPS_Atti,
0.369657892516049,36.9022760606368,5776.2468239475,249.34384,0,0.292730324328,18400,2017-11-16 06:29:18,14,16.245,5776.2468239475,249.34384,0.223694,1.1065289068,57.9, -6, 1,0,0,1024,1024,1024,1024,58.9,0,98,4.088,4.097,4.083,4.099,0,0,75.11,6,GPS_Atti,
0.369657957412799,36.9022760764958,5777.5591599475,250.656176,0,0.27036418188,18500,2017-11-16 06:29:18,14,16.245,5777.5591599475,250.656176,0.223694,1.1065289068,57.9, -4.9, 0.9,0,0,1024,1024,1024,1024,58.9,0,98,4.088,4.097,4.083,4.099,0,0,75.11,6,GPS_Atti,
0.369658006497358,36.9022760710914,5778.2153279475,251.312344,0,0.25781004762,18600,2017-11-16 06:29:18,14,16.245,5778.2153279475,251.312344,0.223694,1.1065289068,57.9, -4.7, 1,0,0,1024,1024,1024,1024,58.9,0,98,4.088,4.097,4.083,4.099,0,0,75.11,6,GPS_Atti,
0.369658058912085,36.9022760475058,5778.8714959475,251.968512,0,0.2497375408,18700,2017-11-16 06:29:18,14,16.245,5778.8714959475,251.968512,0.223694,1.1065289068,57.9, -4.7, 1.2,0,0,1024,1024,1024,1024,58.9,0,98,4.088,4.097,4.083,4.099,0,0,75.11,6,GPS_Atti,
0.369658097271712,36.9022760170383,5779.1995799475,252.296596,0,0.248441609,18800,2017-11-16 06:29:18,14,16.245,5779.1995799475,252.296596,0.223694,1.1065289068,58, -3.3, 1.3,0,0,1024,1024,1024,1024,58.8,0,98,4.088,4.097,4.083,4.099,0,0,75.11,6,GPS_Atti,
0.369658123882115,36.9022759805883,5779.1995799475,252.296596,0,0.252739181316,18900,2017-11-16 06:29:19,14,16.245,5779.1995799475,252.296596,0.223694,1.1065289068,58, -2.2, 1,0,0,1024,1024,1024,1024,58.8,0,98,4.088,4.097,4.083,4.099,0,0,75.11,6,GPS_Atti,
0.369658114995696,36.90227594086,5779.1995799475,252.296596,0,0.266344168628,19000,2017-11-16 06:29:19,14,16.245,5779.1995799475,252.296596,0.223694,1.1065289068,58.1, -2, 1,0,0,1024,1024,1024,1024,58.8,0,98,4.088,4.097,4.083,4.099,0,0,75.11,6,GPS_Atti,
0.369658089253253,36.9022758745002,5779.1995799475,252.296596,0,0.291567594632,19100,2017-11-16 06:29:19,14,16.245,5779.1995799475,252.296596,0.223694,1.1065289068,58.1, -2, 0.9,0,0,1024,1024,1024,1024,58.8,0,98,4.088,4.097,4.083,4.099,0,0,75.11,6,GPS_Atti,
0.369658003571044,36.9022757754429,5779.1995799475,252.296596,0,0.33908793736,19200,2017-11-16 06:29:19,14,16.245,5779.1995799475,252.296596,0.223694,1.1065289068,58.1, -2, 0.9,0,0,1024,1024,1024,1024,58.8,0,98,4.088,4.097,4.083,4.099,0,0,75.11,6,GPS_Atti,
0.369657899949896,36.9022756345065,5779.5276639475,252.62468,0,0.40290027536,19300,2017-11-16 06:29:19,14,16.245,5779.5276639475,252.62468,0.223694,1.1065289068,58.2, -2.3, 1.1,0,0,1024,1024,1024,1024,58.8,0,98,4.088,4.097,4.083,4.099,0,0,75.11,6,GPS_Atti,
0.369657797852971,36.9022754771736,5779.5276639475,252.62468,0,0.4712762618,19400,2017-11-16 06:29:19,14,16.245,5779.5276639475,252.62468,0.223694,1.1065289068,58.2, -2.6, 1.2,0,0,1024,1024,1024,1024,58.8,0,98,4.088,4.097,4.083,4.099,0,0,75.11,6,GPS_Atti,
0.369657674197076,36.9022752965817,5779.5276639475,252.62468,0,0.55112534572,19500,2017-11-16 06:29:19,14,16.245,5779.5276639475,252.62468,0.223694,1.1065289068,58.2, -2.6, 1.1,0,0,1024,1024,858,1024,58.8,0,98,4.088,4.097,4.083,4.099,0,0,75.11,6,GPS_Atti,
0.36965758994464,36.902275078649,5779.5276639475,252.62468,0,0.63422246124,19600,2017-11-16 06:29:19,14,16.245,5779.5276639475,252.62468,0.223694,1.1065289068,58.2, -2.9, 1.2,0,0,1024,1024,805,1024,58.8,0,98,4.088,4.097,4.083,4.099,0,0,75.11,6,GPS_Atti,
0.369657477178151,36.9022748591307,5779.5276639475,252.62468,0,0.72383860584,19700,2017-11-16 06:29:19,14,16.245,5779.5276639475,252.62468,0.223694,1.1065289068,58.1, -3.7, 1,0,0,1024,1024,790,1024,58.8,0,98,4.088,4.097,4.083,4.099,0,0,75.11,6,GPS_Atti,
0.369657344398084,36.9022746062671,5779.1995799475,252.296596,0,0.82773624696,19800,2017-11-16 06:29:19,14,16.245,5779.5276639475,252.62468,0.223694,1.1065289068,58.1, -4.3, 0.8,0,0,1024,1024,788,1024,58.8,0,98,4.088,4.097,4.083,4.099,0,0,75.11,6,GPS_Atti,
0.369657215470916,36.902274376956,5779.1995799475,252.296596,0,0.92363520016,19900,2017-11-16 06:29:20,14,16.245,5779.5276639475,252.62468,0.223694,1.1065289068,58.1, -3.1, 0.8,0,0,1024,1024,812,1024,58.8,0,98,4.088,4.097,4.083,4.099,0,0,75.11,6,GPS_Atti,
0.369657105941773,36.9022741455507,5778.8714959475,251.968512,0,1.01654202728,20000,2017-11-16 06:29:20,14,16.245,5779.5276639475,252.62468,0.223694,1.1065289068,58.1, -2.8, 1,0,0,1024,1024,1024,1024,58.8,0,98,4.088,4.097,4.083,4.099,0,0,75.11,6,GPS_Atti,
0.369656980559727,36.9022739042026,5778.8714959475,251.968512,0,1.1156004294,20100,2017-11-16 06:29:20,14,16.245,5779.5276639475,252.62468,0.223694,1.1156004294,58.2, -2.4, 1,0,0,1024,1024,1024,1024,58.8,0,98,4.088,4.097,4.083,4.099,0,0,75.11,6,GPS_Atti,
0.369656913171458,36.9022736592851,5778.5434119475,251.640428,0,1.20524610156,20200,2017-11-16 06:29:20,14,16.245,5779.5276639475,252.62468,0.223694,1.20524610156,58.2, -1.6, 0.9,0,0,1024,1024,1024,1024,58.8,0,98,4.088,4.097,4.083,4.099,0,0,75.11,6,GPS_Atti,
0.369656813202909,36.9022733760268,5778.5434119475,251.640428,0,1.31329072444,20300,2017-11-16 06:29:20,14,16.875,5779.5276639475,252.62468,0.223694,1.31329072444,58.2, -2.8, 1.1,0,0,1024,1024,1024,1024,58.8,0,98,4.171,4.173,4.165,4.176,0,0,75.11,6,GPS_Atti,
0.369656683034867,36.9022731008828,5778.5434119475,251.640428,0.223694,1.42416671224,20400,2017-11-16 06:29:20,14,16.875,5779.5276639475,252.62468,0.223694,1.42416671224,58.1, -4.4, 1.3,0,0,1024,1024,1024,1024,58.8,0,98,4.171,4.173,4.165,4.176,0,0,75.11,6,GPS_Atti,
0.369656536002658,36.9022728225033,5778.5434119475,251.640428,0.223694,1.5390256398,20500,2017-11-16 06:29:20,14,16.875,5779.5276639475,252.62468,0.223694,1.5390256398,58, -5.3, 1,0,0,1024,1024,1024,1024,58.8,0,98,4.171,4.173,4.165,4.176,0,0,75.11,6,GPS_Atti,
0.369656425701632,36.902272534074,5778.5434119475,251.640428,0.223694,1.6508038586,20600,2017-11-16 06:29:20,14,16.875,5779.5276639475,252.62468,0.223694,1.6508038586,58, -5.7, 0.8,0,0,1024,1024,1024,1024,58.7,0,98,4.171,4.173,4.165,4.176,0,0,75.11,6,GPS_Atti,
0.369656303343607,36.902272271743,5778.5434119475,251.640428,0.223694,1.75628942628,20700,2017-11-16 06:29:20,14,16.875,5779.5276639475,252.62468,0.223694,1.75628942628,58.1, -5.7, 1.1,0,0,1024,1024,887,1024,58.7,0,98,4.171,4.173,4.165,4.176,0,0,75.11,6,GPS_Atti,
0.369656244875954,36.9022720674049,5778.5434119475,251.640428,0,1.8322835232,20800,2017-11-16 06:29:20,14,16.875,5779.5276639475,252.62468,0.223694,1.8322835232,58.1, -5.5, 1.3,0,0,1024,1024,688,1024,58.7,0,98,4.171,4.173,4.165,4.176,0,0,75.11,6,GPS_Atti,
0.369656160121958,36.9022718820081,5778.5434119475,251.640428,0,1.90658142584,20900,2017-11-16 06:29:21,14,16.875,5779.5276639475,252.62468,0.223694,1.90658142584,58, -5.6, 1.2,0,0,1024,1024,729,1024,58.7,0,98,4.171,4.173,4.165,4.176,0,0,75.11,6,GPS_Atti,
0.369656110851756,36.9022717159433,5778.5434119475,251.640428,0,1.96874350132,21000,2017-11-16 06:29:21,14,16.875,5779.5276639475,252.62468,0.223694,1.96874350132,57.9, -7.6, 0.9,0,0,1024,1024,952,1024,58.7,0,98,4.171,4.173,4.165,4.176,0,0,75.11,6,GPS_Atti,
0.369656048049185,36.9022715658788,5778.2153279475,251.312344,0,2.02794953996,21100,2017-11-16 06:29:21,14,16.875,5779.5276639475,252.62468,0.223694,2.02794953996,58, -6.1, 0.7,0,0,1024,1024,1024,1024,58.7,0,98,4.171,4.173,4.165,4.176,0,0,75.11,6,GPS_Atti,
0.369656028950794,36.9022714563981,5777.8872439475,250.98426,0,2.06681108976,21200,2017-11-16 06:29:21,14,16.875,5779.5276639475,252.62468,0.223694,2.06681108976,58.1, -2.7, 0.8,0,0,1024,1024,1024,1024,58.7,0,98,4.171,4.173,4.165,4.176,0,0,75.11,6,GPS_Atti,
0.369655977417055,36.9022713368867,5777.5591599475,250.656176,0,2.11423235112,21300,2017-11-16 06:29:21,14,16.573,5779.5276639475,252.62468,0.223694,2.11423235112,58.1, -2.3, 1,0,0,1024,1024,1024,1024,58.7,0,98,4.161,4.158,4.135,4.144,0,0,75.11,6,GPS_Atti,
0.369655792819901,36.9022709636157,5777.2310759475,250.328092,0,2.26616148984,21500,2017-11-16 06:29:21,14,16.573,5779.5276639475,252.62468,0.223694,2.26616148984,58, -6.4, 1.1,0,0,1024,1024,1024,1024,58.7,0,98,4.161,4.158,4.135,4.144,0,0,75.11,6,GPS_Atti,
0.369655694375576,36.9022707820067,5777.2310759475,250.328092,0,2.34147317204,21600,2017-11-16 06:29:21,14,16.573,5779.5276639475,252.62468,0.223694,2.34147317204,58, -6.4, 0.8,0,0,1024,1024,1024,1024,58.7,0,98,4.161,4.158,4.135,4.144,0,0,75.11,6,GPS_Atti,
0.369655604972372,36.9022706544186,5777.2310759475,250.328092,0,2.39767724208,21700,2017-11-16 06:29:21,14,16.573,5779.5276639475,252.62468,0.223694,2.39767724208,58, -6.3, 0.5,0,0,1024,1024,1024,1024,58.7,0,98,4.161,4.158,4.135,4.144,0,0,75.11,6,GPS_Atti,
0.369655594385857,36.902270570579,5777.2310759475,250.328092,0,2.42679141624,21800,2017-11-16 06:29:21,14,16.573,5779.5276639475,252.62468,0.223694,2.42679141624,58.1, -6, 0.7,0,0,1024,1024,933,1024,58.7,0,98,4.161,4.158,4.135,4.144,0,0,75.11,6,GPS_Atti,
0.36965559179826,36.9022705173439,5777.2310759475,250.328092,0,2.444635905,21900,2017-11-16 06:29:21,14,16.573,5779.5276639475,252.62468,0.223694,2.444635905,58.1, -5.6, 1.1,0,0,1024,1024,933,1024,58.7,0,98,4.161,4.158,4.135,4.144,0,0,75.11,6,GPS_Atti,
0.369655631364564,36.9022704470207,5777.2310759475,250.328092,0,2.46144036748,22000,2017-11-16 06:29:22,14,16.573,5779.5276639475,252.62468,0.223694,2.46144036748,58.1, -5.3, 1.4,0,0,1024,1024,830,1024,58.7,0,98,4.161,4.158,4.135,4.144,0,0,75.11,6,GPS_Atti,
0.369655671222359,36.90227040263,5777.2310759475,250.328092,0,2.4698655646,22100,2017-11-16 06:29:22,14,16.573,5779.5276639475,252.62468,0.223694,2.4698655646,58, -5.8, 1.2,0,0,1024,1024,832,1024,58.7,0,98,4.161,4.158,4.135,4.144,0,0,75.11,6,GPS_Atti,
0.369655703206627,36.902270394792,5777.2310759475,250.328092,0,2.46753944904,22200,2017-11-16 06:29:22,14,16.573,5779.5276639475,252.62468,0.223694,2.4698655646,58, -5.6, 1.3,0,0,1024,1024,828,1024,58.7,0,98,4.161,4.158,4.135,4.144,0,0,75.11,6,GPS_Atti,
0.369655741904971,36.9022704125888,5776.9029919475,250.000008,0,2.45574482924,22300,2017-11-16 06:29:22,14,16.464,5779.5276639475,252.62468,0.223694,2.4698655646,58, -4.7, 1.4,0,0,1024,1024,828,1024,58.7,0,98,4.161,4.158,4.135,4.144,0,0,75.11,6,GPS_Atti,
0.369655780754759,36.9022704576562,5776.9029919475,250.000008,0,2.43490493356,22400,2017-11-16 06:29:22,14,16.464,5779.5276639475,252.62468,0.223694,2.4698655646,58, -4.2, 1.2,0,0,1024,1024,836,1024,58.7,0,98,4.161,4.158,4.135,4.144,0,0,75.11,6,GPS_Atti,
0.369655802276275,36.9022705083101,5776.5749079475,249.671924,0,2.4148294736,22500,2017-11-16 06:29:22,14,16.464,5779.5276639475,252.62468,0.223694,2.4698655646,58, -4.2, 1,0,0,1024,1024,838,1024,58.7,0,98,4.161,4.158,4.135,4.144,0,0,75.11,6,GPS_Atti,
0.369655776217914,36.9022705013575,5776.5749079475,249.671924,0,2.42108603548,22600,2017-11-16 06:29:22,14,16.464,5779.5276639475,252.62468,0.223694,2.4698655646,58.1, -4.3, 1,0,0,1024,1024,965,1024,58.6,0,98,4.161,4.158,4.135,4.144,0,0,75.11,6,GPS_Atti,
0.36965576013703,36.9022705155292,5776.2468239475,249.34384,0,2.41883866008,22700,2017-11-16 06:29:22,14,16.464,5779.5276639475,252.62468,0.223694,2.4698655646,58.1, -4.3, 1,0,0,1024,1024,1024,1024,58.7,0,98,4.161,4.158,4.135,4.144,0,0,75.11,6,GPS_Atti,
0.369655747855305,36.9022705488135,5776.2468239475,249.34384,0,2.4097113632,22800,2017-11-16 06:29:22,14,16.464,5779.5276639475,252.62468,0.223694,2.4698655646,58.1, -3.6, 1,0,0,1024,1024,1024,1024,58.6,0,98,4.161,4.158,4.135,4.144,0,0,75.11,6,GPS_Atti,
0.369655734173119,36.9022705863588,5776.2468239475,249.34384,0,2.39942921064,22900,2017-11-16 06:29:22,14,16.464,5779.5276639475,252.62468,0.223694,2.4698655646,58.1, -4.1, 1.4,0,0,1024,1024,1024,1024,58.7,0,98,4.161,4.158,4.135,4.144,0,0,75.11,6,GPS_Atti,
0.369655710026551,36.9022705857945,5776.2468239475,249.34384,0,2.40338918452,23000,2017-11-16 06:29:23,14,16.464,5779.5276639475,252.62468,0.223694,2.4698655646,58.1, -5, 1.4,0,0,1024,1024,1024,1024,58.6,0,98,4.161,4.158,4.135,4.144,0,0,75.11,6,GPS_Atti,
0.369655681465272,36.9022706210809,5776.2468239475,249.34384,0,2.39628616592,23100,2017-11-16 06:29:23,14,16.464,5779.5276639475,252.62468,0.223694,2.4698655646,58.1, -5.3, 1.1,0,0,1024,1024,1024,1024,58.6,0,98,4.161,4.158,4.135,4.144,0,0,75.11,6,GPS_Atti,
0.369655704426332,36.9022706865681,5776.2468239475,249.34384,0.223694,2.37113196564,23200,2017-11-16 06:29:23,14,16.464,5779.5276639475,252.62468,0.223694,2.4698655646,58.1, -5, 0.8,0,0,1024,1024,1024,1024,58.6,0,98,4.161,4.158,4.135,4.144,0,0,75.11,6,GPS_Atti,
0.369655724221697,36.9022707759385,5776.2468239475,249.34384,0.223694,2.33865493048,23300,2017-11-16 06:29:23,14,16.437,5779.5276639475,252.62468,0.223694,2.4698655646,58.1, -4.5, 0.9,0,0,1024,1024,1024,1024,58.6,0,98,4.111,4.138,4.146,4.143,0,0,75.11,6,GPS_Atti,
0.369655800997946,36.9022708678034,5775.9187399475,249.015756,0.223694,2.29626319684,23400,2017-11-16 06:29:23,14,16.437,5779.5276639475,252.62468,0.223694,2.4698655646,58.1, -4.2, 1.2,0,0,1024,1024,1024,1024,58.6,0,98,4.111,4.138,4.146,4.143,0,0,75.11,6,GPS_Atti,
0.369655844086575,36.9022709716924,5775.9187399475,249.015756,0.223694,2.2552986286,23500,2017-11-16 06:29:23,14,16.437,5779.5276639475,252.62468,0.223694,2.4698655646,58.1, -4, 0.9,0,0,1024,1024,1024,1024,58.6,0,98,4.111,4.138,4.146,4.143,0,0,75.11,6,GPS_Atti,
0.369655913036522,36.9022710873153,5775.9187399475,249.015756,0.223694,2.20636818084,23600,2017-11-16 06:29:23,14,16.437,5779.5276639475,252.62468,0.223694,2.4698655646,58.1, -3.7, 0.6,0,0,1024,1024,1024,1024,58.6,0,98,4.111,4.138,4.146,4.143,0,0,75.11,6,GPS_Atti,
