latitude,longitude,altitude(feet),ascent(feet),speed(mph),distance(feet),time(millisecond),datetime(utc),satellites,voltage(v),max_altitude(feet),max_ascent(feet),max_speed(mph),max_distance(feet),compass_heading(degrees), pitch(degrees), roll(degrees),isPhoto,isVideo,rc_elevator,rc_aileron,rc_throttle,rc_rudder,gimbal_heading(degrees),gimbal_pitch(degrees),battery_percent,voltageCell1,voltageCell2,voltageCell3,voltageCell4,voltageCell5,voltageCell6,battery_temperature(f),flycStateRaw,flycState,message
0.35780695297152,36.9199432770601,5479.5498735083,0,0,0,0,2017-11-10 06:30:46,16,0,5479.5498735083,0,0,0,214.8, 4.4, 2.3,0,0,1024,1024,1024,1024,219.2,0,99,4.286,4.287,4.286,4.288,0,0,76.91,6,GPS_Atti,
0.35780694636818,36.9199432401431,5479.5498735083,0,0,0.0136826776032,200,2017-11-10 06:30:46,16,0,5479.5498735083,0,0,0.0136826776032,214.8, 4.4, 2.3,0,0,1024,1024,1024,1024,219.2,0,99,4.286,4.287,4.286,4.288,0,0,76.91,41,Motors_Started,
0.357806951209951,36.9199432351947,5479.5498735083,0,0,0.0152877957648,300,2017-11-10 06:30:47,16,17.149,5479.5498735083,0,0,0.0152877957648,214.9, 4.3, 2.4,0,0,1024,1024,1024,1024,219.2,0,99,4.286,4.287,4.286,4.288,0,0,76.91,41,Motors_Started,
0.357806946797275,36.9199432168389,5479.5498735083,0,0,0.0220863852212,400,2017-11-10 06:30:47,16,17.149,5479.5498735083,0,0,0.0220863852212,214.8, 4.4, 2.3,0,0,1024,1024,1024,1024,219.2,0,99,4.286,4.287,4.286,4.288,0,0,76.91,41,Motors_Started,
0.35780695447091,36.9199431817141,5479.5498735083,0,0,0.034790683528,500,2017-11-10 06:30:47,16,17.149,5479.5498735083,0,0,0.034790683528,214.8, 4.4, 2.3,0,0,1024,1024,1024,1024,219.2,0,99,4.286,4.287,4.286,4.288,0,0,76.91,41,Motors_Started,
0.357806951527497,36.9199431334315,5479.5498735083,0,0,0.052404529236,600,2017-11-10 06:30:47,16,17.149,5479.5498735083,0,0,0.052404529236,214.8, 4.2, 2.4,0,0,1024,1024,1024,1024,219.2,0,99,4.286,4.287,4.286,4.288,0,0,76.91,41,Motors_Started,
0.357806958207375,36.9199431120052,5479.5498735083,0,0,0.06024934576,700,2017-11-10 06:30:47,16,17.149,5479.5498735083,0,0,0.06024934576,214.8, 4.3, 2.4,0,0,1024,1024,1024,1024,219.2,0,99,4.286,4.287,4.286,4.288,0,0,76.91,41,Motors_Started,
0.357806957861737,36.919943080968,5479.5498735083,0,0,0.07156496292,800,2017-11-10 06:30:47,16,17.149,5479.5498735083,0,0,0.07156496292,214.8, 4.3, 2.4,0,0,1024,1024,1024,1024,219.2,0,99,4.286,4.287,4.286,4.288,0,0,76.91,41,Motors_Started,
0.357806963705409,36.9199430357045,5479.5498735083,0,0,0.088143703608,900,2017-11-10 06:30:47,16,17.149,5479.5498735083,0,0,0.088143703608,214.8, 4, 2.5,0,0,1024,1024,1024,1024,219.2,0,99,4.286,4.287,4.286,4.288,0,0,76.91,41,Motors_Started,
0.357806960891865,36.9199429799896,5479.5498735083,0,0,0.108422575648,1000,2017-11-10 06:30:47,16,17.149,5479.5498735083,0,0,0.108422575648,214.8, 4.1, 2.5,0,0,1024,1024,1024,1024,219.2,0,99,4.286,4.287,4.286,4.288,0,0,76.91,41,Motors_Started,
0.357807006295326,36.9199429625824,5479.5498735083,0,0,0.116372379052,1100,2017-11-10 06:30:48,16,17.149,5479.5498735083,0,0,0.116372379052,214.8, 4.1, 2.3,0,0,1024,1024,1024,1024,219.2,0,99,4.286,4.287,4.286,4.288,0,0,76.91,41,Motors_Started,
0.357807063745202,36.9199428868523,5479.5498735083,0,0,0.147989834132,1300,2017-11-10 06:30:48,16,17.149,5479.5498735083,0,0,0.147989834132,214.8, 4, 2.5,0,0,1024,1024,1024,1025,218.8,0,99,4.286,4.287,4.286,4.288,0,0,76.91,41,Motors_Started,
0.357807096198462,36.9199428186208,5479.5498735083,0,0,0.17523130482,1500,2017-11-10 06:30:48,16,17.149,5479.5498735083,0,0,0.17523130482,214.8, 4, 2.4,0,0,1024,1024,1024,1024,217.2,0,99,4.286,4.287,4.286,4.288,0,0,76.91,41,Motors_Started,
0.357807103677905,36.9199427824425,5479.5498735083,0,0,0.1886483,1600,2017-11-10 06:30:48,16,17.149,5479.5498735083,0,0,0.1886483,214.8, 4, 2.5,0,0,1024,1024,1024,1024,215.9,0,99,4.286,4.287,4.286,4.288,0,0,76.91,10,Assisted_Takeoff,
0.35780711523538,36.9199426999151,5479.5498735083,0,0,0.218730978128,1800,2017-11-10 06:30:48,16,17.149,5479.5498735083,0,0,0.218730978128,214.8, 4.2, 2.4,0,0,1024,1024,1024,1024,215.9,0,99,4.286,4.287,4.286,4.288,0,0,76.91,10,Assisted_Takeoff,
0.357807117332815,36.9199426935128,5479.5498735083,0,0,0.221187014952,1900,2017-11-10 06:30:48,16,17.149,5479.5498735083,0,0,0.221187014952,214.8, 4.1, 2.4,0,0,1024,1024,1024,1024,215.6,0,99,4.286,4.287,4.286,4.288,0,0,76.91,10,Assisted_Takeoff,
0.357807110174583,36.9199426258787,5479.5498735083,0,0,0.244403879212,2100,2017-11-10 06:30:48,16,17.149,5479.5498735083,0,0,0.244403879212,214.8, 4.1, 2.4,0,0,1024,1024,1024,1024,215.4,0,99,4.286,4.287,4.286,4.288,0,0,76.91,10,Assisted_Takeoff,
0.357807104830844,36.9199425771389,5479.5498735083,0,0,0.2613025018,2200,2017-11-10 06:30:49,16,17.149,5479.5498735083,0,0,0.2613025018,214.8, 4.2, 2.4,0,0,1024,1024,1024,1024,215.3,0,99,4.286,4.287,4.286,4.288,0,0,76.91,10,Assisted_Takeoff,
0.357807101372436,36.9199425314096,5479.5498735083,0,0,0.277380586304,2300,2017-11-10 06:30:49,16,17.094,5479.5498735083,0,0,0.277380586304,214.8, 4, 2.5,0,0,1024,1024,1024,1024,215.2,0,99,4.286,4.287,4.286,4.288,0,0,76.91,10,Assisted_Takeoff,
0.357807093530257,36.9199424676897,5479.5498735083,0,0,0.299712608016,2400,2017-11-10 06:30:49,16,17.094,5479.5498735083,0,0,0.299712608016,214.8, 4, 2.5,0,0,1024,1024,1077,1024,215.2,0,99,4.286,4.287,4.286,4.288,0,0,76.91,10,Assisted_Takeoff,
0.357807150612104,36.9199424136278,5479.5498735083,0,0,0.32316438042,2600,2017-11-10 06:30:49,16,17.094,5479.5498735083,0,0,0.32316438042,214.8, 4, 2.5,0,0,1024,1024,1143,1024,215.1,0,99,4.286,4.287,4.286,4.288,0,0,76.91,10,Assisted_Takeoff,
0.357807172009044,36.9199423820682,5479.5498735083,0,0,0.33616798976,2700,2017-11-10 06:30:49,16,17.094,5479.5498735083,0,0,0.33616798976,214.8, 4, 2.5,0,0,1024,1024,1184,1024,215.1,0,99,4.286,4.287,4.286,4.288,0,0,76.91,10,Assisted_Takeoff,
0.35780718324775,36.919942329988,5479.5498735083,0,0,0.35560040508,2800,,16,17.094,5479.5498735083,0,0,0.35560040508,214.8, 4, 2.5,0,0,1024,1024,1210,1024,215.1,0,99,4.286,4.287,4.286,4.288,0,0,76.91,10,Assisted_Takeoff,
0.357807193818387,36.9199422887671,5479.5498735083,0,0,0.37112533996,2900,2017-11-10 06:30:49,16,17.094,5479.5498735083,0,0,0.37112533996,214.8, 4, 2.5,0,0,1024,1024,1210,1024,215,0,99,4.286,4.287,4.286,4.288,0,0,76.91,10,Assisted_Takeoff,
0.357807193375043,36.9199422205046,5479.5498735083,0,0,0.39532809664,3000,2017-11-10 06:30:49,16,17.094,5479.5498735083,0,0,0.39532809664,214.7, 3.8, 2.6,0,0,1024,1024,1259,1024,215,0,99,4.286,4.287,4.286,4.288,0,0,76.91,10,Assisted_Takeoff,
0.357807193098615,36.9199421677927,5479.5498735083,0,0,0.41408137808,3100,2017-11-10 06:30:49,16,17.094,5479.5498735083,0,0,0.41408137808,214.7, 3.7, 2.6,0,0,1024,1024,1267,1024,215,0,99,4.286,4.287,4.286,4.288,0,0,76.91,10,Assisted_Takeoff,
0.357807185861403,36.9199420942553,5479.5498735083,0,0,0.43982284872,3200,2017-11-10 06:30:49,16,17.094,5479.5498735083,0,0,0.43982284872,214.8, 3.5, 2.6,0,0,1024,1024,1266,1024,215,0,99,4.286,4.287,4.286,4.288,0,0,76.91,10,Assisted_Takeoff,
0.357807227310595,36.919942085276,5479.5498735083,0,0,0.44618439748,3300,2017-11-10 06:30:50,16,17.149,5479.5498735083,0,0,0.44618439748,214.8, 1.6, 1.2,0,0,1024,1024,1266,1024,215,0,99,4.257,4.289,4.28,4.278,0,0,76.91,10,Assisted_Takeoff,
0.357807266881784,36.9199420526297,5479.5498735083,0,0,0.4611712746,3400,2017-11-10 06:30:50,16,17.149,5479.5498735083,0,0,0.4611712746,214.7, -0.7, -0.9,0,0,1024,1024,1270,1024,215,0,99,4.257,4.289,4.28,4.278,0,0,76.91,10,Assisted_Takeoff,
0.357807252186705,36.919942050164,5479.5498735083,0,0.223694,0.4607447654,3500,2017-11-10 06:30:50,16,17.149,5479.5498735083,0,0.223694,0.4611712746,214.7, -0.7, -1.2,0,0,1024,1024,1300,1024,215,0,99,4.257,4.289,4.28,4.278,0,0,76.91,6,GPS_Atti,Obstacle Avoided. Revise Flight Route
0.357807138815249,36.9199420402598,5479.5498735083,0,0.447388,0.45630250804,3600,2017-11-10 06:30:50,16,17.149,5479.5498735083,0,0.447388,0.4611712746,214.7, -0.2, -0.1,0,0,1024,1024,1300,1024,215,0,99,4.257,4.289,4.28,4.278,0,0,76.91,6,GPS_Atti,
0.357806926492614,36.9199420987444,5479.8779575083,0.328084,0.447388,0.43000657544,3700,2017-11-10 06:30:50,16,17.149,5479.8779575083,0.328084,0.447388,0.4611712746,214.6, 1.3, 0.9,0,0,1024,1024,1313,1024,215,0,99,4.257,4.289,4.28,4.278,0,0,76.91,6,GPS_Atti,
0.357806693322231,36.9199421333317,5480.2060415083,0.656168,0.671082,0.42790027616,3800,2017-11-10 06:30:50,16,17.149,5480.2060415083,0.656168,0.671082,0.4611712746,214.6, 2.1, 0.7,0,0,1024,1024,1313,1024,215,0,99,4.257,4.289,4.28,4.278,0,0,76.91,6,GPS_Atti,
0.35780642545785,36.9199422623689,5480.2060415083,0.656168,0.671082,0.41724410784,3900,2017-11-10 06:30:50,16,17.149,5480.2060415083,0.656168,0.671082,0.4611712746,214.6, 2.8, 1.4,0,0,1024,1024,1324,1024,214.9,0,99,4.257,4.289,4.28,4.278,0,0,76.91,6,GPS_Atti,
0.357806152818871,36.9199423869052,5480.5341255083,0.984252,0.671082,0.43668964652,4000,2017-11-10 06:30:50,16,17.149,5480.5341255083,0.984252,0.671082,0.4611712746,214.6, 3.3, 2.7,0,0,1024,1024,1332,1024,214.9,0,99,4.257,4.289,4.28,4.278,0,0,76.91,6,GPS_Atti,
0.357805914871448,36.9199425490116,5481.1902935083,1.64042,0,0.46260828252,4100,,16,17.149,5481.1902935083,1.64042,0.671082,0.46260828252,214.5, 3.2, 3.3,0,0,1024,1024,1329,1024,214.9,0,99,4.257,4.289,4.28,4.278,0,0,76.91,6,GPS_Atti,
0.357805698687365,36.9199426712172,5481.5183775083,1.968504,0.50107456,0.50821195852,4200,2017-11-10 06:30:50,16,17.149,5481.5183775083,1.968504,0.671082,0.50821195852,214.5, 2.5, 3.7,0,0,1024,1024,1331,1024,214.9,0,99,4.257,4.289,4.28,4.278,0,0,76.91,6,GPS_Atti,
0.35780552972083,36.9199427937761,5481.8464615083,2.296588,0.223694,0.548392406,4300,2017-11-10 06:30:51,16,17.149,5481.8464615083,2.296588,0.671082,0.548392406,214.5, 2.2, 2.9,0,0,1024,1024,1332,1024,214.9,0,99,4.257,4.289,4.28,4.278,0,0,76.91,6,GPS_Atti,
0.357805347516267,36.9199428623919,5482.5026295083,2.952756,0.223694,0.6049704918,4400,2017-11-10 06:30:51,16,17.149,5482.5026295083,2.952756,0.671082,0.6049704918,214.6, 2.4, 2.5,0,0,1024,1024,1327,1024,214.9,0,99,4.257,4.289,4.28,4.278,0,0,76.91,6,GPS_Atti,
0.357805155680475,36.9199430230219,5483.1587975083,3.608924,0.223694,0.66225723904,4500,2017-11-10 06:30:51,16,17.149,5483.1587975083,3.608924,0.671082,0.66225723904,214.8, 2.9, 2.7,0,0,1024,1024,1330,1024,214.9,0,99,4.257,4.289,4.28,4.278,0,0,76.91,6,GPS_Atti,
0.357804950972648,36.9199431220198,5483.4868815083,3.937008,0.223694,0.73261485284,4600,2017-11-10 06:30:51,16,17.149,5483.4868815083,3.937008,0.671082,0.73261485284,214.8, 3.2, 2,0,0,1024,1024,1332,1024,214.9,0,99,4.257,4.289,4.28,4.278,0,0,76.91,6,GPS_Atti,
0.35780473179345,36.9199432188207,5484.1430495083,4.593176,0.447388,0.81067259812,4700,2017-11-10 06:30:51,16,17.149,5484.1430495083,4.593176,0.671082,0.81067259812,214.8, 3, 2.9,0,0,1024,1024,1331,1024,214.9,0,99,4.257,4.289,4.28,4.278,0,0,76.91,6,GPS_Atti,
0.357804482549104,36.9199432708473,5484.7992175083,5.249344,0.447388,0.90133533068,4800,2017-11-10 06:30:51,16,17.149,5484.7992175083,5.249344,0.671082,0.90133533068,214.7, 3.5, 3,0,0,1024,1024,1331,1024,214.9,0,99,4.257,4.289,4.28,4.278,0,0,76.91,6,GPS_Atti,
0.357804215878372,36.9199433231137,5485.1273015083,5.577428,0.447388,0.998769717,4900,2017-11-10 06:30:51,16,17.149,5485.1273015083,5.577428,0.671082,0.998769717,214.7, 4, 3.8,0,0,1024,1024,1333,1024,214.9,0,99,4.257,4.289,4.28,4.278,0,0,76.91,6,GPS_Atti,
0.357803922772905,36.9199433427017,5485.7834695083,6.233596,0.447388,1.10582680704,5000,2017-11-10 06:30:51,16,17.149,5485.7834695083,6.233596,0.671082,1.10582680704,214.7, 4.8, 4.4,0,0,1024,1024,1332,1024,214.9,0,99,4.257,4.289,4.28,4.278,0,0,76.91,6,GPS_Atti,
0.35780359960738,36.9199434789153,5486.4396375083,6.889764,0.447388,1.2256890156,5100,2017-11-10 06:30:51,15,17.149,5486.4396375083,6.889764,0.671082,1.2256890156,214.8, 5.2, 4.1,0,0,1024,1024,1332,1024,214.9,0,99,4.257,4.289,4.28,4.278,0,0,76.91,6,GPS_Atti,
0.357803295042247,36.9199435531187,5486.7677215083,7.217848,0.447388,1.33838915044,5200,2017-11-10 06:30:52,15,17.149,5486.7677215083,7.217848,0.671082,1.33838915044,214.8, 5.6, 3.4,0,0,1024,1024,1331,1024,214.9,0,99,4.257,4.289,4.28,4.278,0,0,76.91,6,GPS_Atti,
0.357803041017197,36.9199436986444,5487.4238895083,7.874016,0.447388,1.43553810368,5300,2017-11-10 06:30:52,15,16.656,5487.4238895083,7.874016,0.671082,1.43553810368,214.8, 5.7, 4,0,0,1024,1024,1333,1024,214.9,0,99,4.175,4.178,4.168,4.179,0,0,76.91,6,GPS_Atti,Home Point Recorded. RTH Altitude:  30m.
0.357802645628551,36.9199439345956,5488.4081415083,8.858268,0.223694,1.58973758368,5500,2017-11-10 06:30:52,15,16.656,5488.4081415083,8.858268,0.671082,1.58973758368,214.8, 6, 5.1,0,0,1024,1024,1333,1024,214.9,0,99,4.175,4.178,4.168,4.179,0,0,76.91,6,GPS_Atti,
0.357802514807808,36.9199440021397,5489.0643095083,9.514436,0.223694,1.64072839896,5600,2017-11-10 06:30:52,15,16.656,5489.0643095083,9.514436,0.671082,1.64072839896,214.8, 5.5, 4.5,0,0,1024,1024,1337,1024,214.9,0,99,4.175,4.178,4.168,4.179,0,0,76.91,6,GPS_Atti,
0.35780246917952,36.9199440903361,5489.3923935083,9.84252,0,1.6625984784,5700,,15,16.656,5489.3923935083,9.84252,0.671082,1.6625984784,214.8, 5.1, 3.2,0,0,1024,1024,1345,1024,214.9,0,99,4.175,4.178,4.168,4.179,0,0,76.91,6,GPS_Atti,
0.357802419759552,36.9199441400448,5490.0485615083,10.498688,0,1.68364178616,5800,2017-11-10 06:30:52,15,16.656,5490.0485615083,10.498688,0.671082,1.68364178616,214.8, 4.9, 2.7,0,0,1024,1024,1350,1024,214.9,0,99,4.175,4.178,4.168,4.179,0,0,76.91,6,GPS_Atti,
0.357802396447155,36.9199444159685,5491.0328135083,11.48294,0,1.71358601284,6000,2017-11-10 06:30:52,16,16.656,5491.0328135083,11.48294,0.671082,1.71358601284,214.8, 3.3, 3.2,0,0,1024,1024,1351,1024,214.9,0,99,4.175,4.178,4.168,4.179,0,0,76.91,6,GPS_Atti,
0.357802333748448,36.919944611203,5491.6889815083,12.139108,0,1.75420281204,6100,2017-11-10 06:30:52,16,16.656,5491.6889815083,12.139108,0.671082,1.75420281204,214.9, 3.5, 4,0,0,1024,1024,1351,1024,214.9,0,99,4.175,4.178,4.168,4.179,0,0,76.91,6,GPS_Atti,
0.357802229994276,36.919944703547,5492.3451495083,12.795276,0,1.80005255104,6200,2017-11-10 06:30:52,16,16.656,5492.3451495083,12.795276,0.671082,1.80005255104,214.9, 4.9, 3.7,0,0,1024,1024,1351,1024,214.9,0,99,4.175,4.178,4.168,4.179,0,0,76.91,6,GPS_Atti,
0.35780218612,36.9199447766508,5493.0013175083,13.451444,0,1.82320871976,6300,2017-11-10 06:30:53,16,16.683,5493.0013175083,13.451444,0.671082,1.82320871976,214.9, 5.6, 2.8,0,0,1024,1024,1348,1024,214.9,0,99,4.175,4.178,4.168,4.179,0,0,76.91,6,GPS_Atti,
0.357802118317368,36.9199448098046,5493.6574855083,14.107612,0,1.85043969176,6400,2017-11-10 06:30:53,16,16.683,5493.6574855083,14.107612,0.671082,1.85043969176,214.9, 5.3, 2.6,0,0,1024,1024,1348,1024,214.9,0,99,4.175,4.178,4.168,4.179,0,0,76.91,6,GPS_Atti,
0.357802032170034,36.9199449364319,5493.9855695083,14.435696,0.223694,1.89467853832,6500,2017-11-10 06:30:53,16,16.683,5493.9855695083,14.435696,0.671082,1.89467853832,214.9, 5.8, 3.5,0,0,1024,1024,1350,1024,214.9,0,99,4.175,4.178,4.168,4.179,0,0,76.91,6,GPS_Atti,
0.357801905016344,36.9199450140548,5494.6417375083,15.091864,0.223694,1.94772315944,6600,2017-11-10 06:30:53,16,16.683,5494.6417375083,15.091864,0.671082,1.94772315944,214.9, 6, 4.3,0,0,1024,1024,1349,1024,214.9,0,99,4.175,4.178,4.168,4.179,0,0,76.91,6,GPS_Atti,
0.357801651208627,36.9199452179249,5495.9540735083,16.4042,0.223694,2.05988195568,6800,2017-11-10 06:30:53,16,16.683,5495.9540735083,16.4042,0.671082,2.05988195568,214.9, 6.8, 4.1,0,0,1024,1024,1353,1024,214.8,0,99,4.175,4.178,4.168,4.179,0,0,76.91,6,GPS_Atti,
0.357801507741706,36.9199453805109,5496.6102415083,17.060368,0.223694,2.12976056684,6900,2017-11-10 06:30:53,16,16.683,5496.6102415083,17.060368,0.671082,2.12976056684,215, 7, 5.4,0,0,1024,1024,1353,1024,214.8,0,99,4.175,4.178,4.168,4.179,0,0,76.91,6,GPS_Atti,
0.357801374573383,36.9199455004104,5496.9383255083,17.388452,0.223694,2.19096791788,7000,2017-11-10 06:30:53,16,16.683,5496.9383255083,17.388452,0.671082,2.19096791788,214.9, 5.8, 6,0,0,1024,1024,1355,1024,214.8,0,99,4.175,4.178,4.168,4.179,0,0,76.91,6,GPS_Atti,
0.357801300970131,36.9199457154952,5497.5944935083,18.04462,0,2.2458498094,7100,,16,16.683,5497.5944935083,18.04462,0.671082,2.2458498094,214.9, 5.5, 5.7,0,0,1024,1024,1357,1024,214.8,0,99,4.175,4.178,4.168,4.179,0,0,76.91,6,GPS_Atti,
0.357801209608876,36.9199458319484,5498.2506615083,18.700788,0.223694,2.29343183192,7200,2017-11-10 06:30:53,16,16.683,5498.2506615083,18.700788,0.671082,2.29343183192,214.9, 5.9, 5.2,0,0,1024,1024,1356,1024,214.8,0,99,4.175,4.178,4.168,4.179,0,0,76.91,6,GPS_Atti,
0.357801143276042,36.9199459536326,5498.9068295083,19.356956,0.223694,2.33378944476,7300,2017-11-10 06:30:54,16,16.601,5498.9068295083,19.356956,0.671082,2.33378944476,214.9, 6.1, 5,0,0,1024,1024,1368,1024,214.8,0,99,4.168,4.176,4.165,4.179,0,0,76.91,6,GPS_Atti,
0.357800965890655,36.9199461439979,5500.2191655083,20.669292,0,2.4218996838,7500,2017-11-10 06:30:54,16,16.601,5500.2191655083,20.669292,0.671082,2.4218996838,214.9, 6.8, 6,0,0,1024,1024,1398,1024,214.8,0,99,4.168,4.176,4.165,4.179,0,0,76.91,6,GPS_Atti,
0.357800878913477,36.9199461992803,5500.8753335083,21.32546,0,2.459235643,7600,2017-11-10 06:30:54,16,16.601,5500.8753335083,21.32546,0.671082,2.459235643,214.9, 6.8, 5.6,0,0,1024,1024,1400,1024,214.8,0,99,4.168,4.176,4.165,4.179,0,0,76.91,6,GPS_Atti,
0.357800863330082,36.9199462956615,5501.5315015083,21.981628,0,2.47977698224,7700,2017-11-10 06:30:54,16,16.601,5501.5315015083,21.981628,0.671082,2.47977698224,214.9, 6.9, 4.3,0,0,1024,1024,1405,1024,214.8,0,99,4.168,4.176,4.165,4.179,0,0,76.91,6,GPS_Atti,
0.357800840784376,36.9199463291001,5502.1876695083,22.637796,0,2.49257553908,7800,2017-11-10 06:30:54,16,16.601,5502.1876695083,22.637796,0.671082,2.49257553908,214.9, 7.1, 3.6,0,0,1024,1024,1430,1024,214.8,0,99,4.168,4.176,4.165,4.179,0,0,76.91,6,GPS_Atti,
0.357800856601453,36.9199464614851,5502.8438375083,23.293964,0,2.50940952912,7900,2017-11-10 06:30:54,16,16.601,5502.8438375083,23.293964,0.671082,2.50940952912,215, 7.2, 4.3,0,0,1024,1024,1468,1024,214.8,0,99,4.168,4.176,4.165,4.179,0,0,76.91,6,GPS_Atti,
0.35780086443549,36.9199465445382,5503.5000055083,23.950132,0,2.52105979196,8000,2017-11-10 06:30:54,16,16.601,5503.5000055083,23.950132,0.671082,2.52105979196,214.9, 7, 4.3,0,0,1024,1024,1482,1024,214.8,0,99,4.168,4.176,4.165,4.179,0,0,76.91,6,GPS_Atti,
0.357800943989763,36.9199467203517,5504.4842575083,24.934384,0,2.52679470028,8100,2017-11-10 06:30:54,16,16.601,5504.4842575083,24.934384,0.671082,2.52679470028,214.9, 6.2, 3.9,0,0,1024,1024,1482,1024,214.8,0,99,4.168,4.176,4.165,4.179,0,0,76.91,6,GPS_Atti,
0.3578010117655,36.91994683896,5505.4685095083,25.918636,0,2.5273458814,8200,2017-11-10 06:30:55,16,16.601,5505.4685095083,25.918636,0.671082,2.5273458814,214.9, 5.5, 4.1,0,0,1024,1024,1484,1024,214.8,0,99,4.168,4.176,4.165,4.179,0,0,76.91,6,GPS_Atti,
0.357801090803047,36.919947006366,5506.1246775083,26.574804,0.223694,2.5349082176,8300,2017-11-10 06:30:55,16,16.601,5506.1246775083,26.574804,0.671082,2.5349082176,214.9, 6, 4.1,0,0,1024,1024,1487,1024,214.8,0,99,4.167,4.174,4.163,4.178,0,0,76.91,6,GPS_Atti,
0.357801147701084,36.9199470978952,5507.4370135083,27.88714,0.223694,2.53562015988,8400,2017-11-10 06:30:55,16,16.601,5507.4370135083,27.88714,0.671082,2.53562015988,214.9, 6.3, 3.8,0,0,1024,1024,1491,1024,214.8,0,99,4.167,4.174,4.163,4.178,0,0,76.91,6,GPS_Atti,
0.35780123037286,36.9199473094651,5508.4212655083,28.871392,0,2.5541503442,8500,2017-11-10 06:30:55,16,16.601,5508.4212655083,28.871392,0.671082,2.5541503442,214.9, 6.2, 3.4,0,0,1024,1024,1491,1024,214.8,0,99,4.167,4.174,4.163,4.178,0,0,76.91,6,GPS_Atti,
0.357801297568617,36.9199474515285,5509.4055175083,29.855644,0,2.5645834154,8600,,16,16.601,5509.4055175083,29.855644,0.671082,2.5645834154,214.9, 6.2, 3.2,0,0,1024,1024,1511,1024,214.8,0,99,4.167,4.174,4.163,4.178,0,0,76.91,6,GPS_Atti,
0.357801415527477,36.9199476835591,5510.3897695083,30.839896,0,2.58193249732,8700,2017-11-10 06:30:55,16,16.601,5510.3897695083,30.839896,0.671082,2.58193249732,214.9, 6.1, 3.4,0,0,1024,1024,1517,1024,214.8,0,99,4.167,4.174,4.163,4.178,0,0,76.91,6,GPS_Atti,
0.357801515614139,36.9199478482382,5511.3740215083,31.824148,0,2.59170611968,8800,,16,16.601,5511.3740215083,31.824148,0.671082,2.59170611968,214.9, 5.7, 3.4,0,0,1024,1024,1533,1024,214.8,0,99,4.167,4.174,4.163,4.178,0,0,76.91,6,GPS_Atti,
0.357801655645552,36.9199480744285,5512.6863575083,33.136484,0,2.60747383672,8900,2017-11-10 06:30:55,16,16.601,5512.6863575083,33.136484,0.671082,2.60747383672,215, 5.7, 2.8,0,0,1024,1024,1542,1024,214.8,0,99,4.167,4.174,4.163,4.178,0,0,76.91,6,GPS_Atti,
0.357801752609411,36.9199482351131,5513.6706095083,34.120736,0,2.62146661932,9000,2017-11-10 06:30:55,16,16.601,5513.6706095083,34.120736,0.671082,2.62146661932,214.9, 5.6, 3.1,0,0,1024,1024,1542,1024,214.8,0,99,4.167,4.174,4.163,4.178,0,0,76.91,6,GPS_Atti,
0.357801859736122,36.9199484800596,5514.9829455083,35.433072,0,2.65642396952,9100,2017-11-10 06:30:55,16,16.601,5514.9829455083,35.433072,0.671082,2.65642396952,214.8, 5.6, 3.2,0,0,1024,1024,1545,1024,214.8,0,99,4.167,4.174,4.163,4.178,0,0,76.91,6,GPS_Atti,
0.357801939595321,36.9199486557692,5515.9671975083,36.417324,0,2.68265756616,9200,2017-11-10 06:30:56,16,16.601,5515.9671975083,36.417324,0.671082,2.68265756616,214.9, 5.4, 3.2,0,0,1024,1024,1547,1052,214.8,0,99,4.167,4.174,4.163,4.178,0,0,76.91,6,GPS_Atti,
0.357802085022991,36.9199491507016,5518.5918695083,39.041996,0,2.7832842098,9400,2017-11-10 06:30:56,16,16.601,5518.5918695083,39.041996,0.671082,2.7832842098,214.9, 5.6, 3.8,0,0,1024,1024,1573,1024,214.8,0,99,4.167,4.174,4.163,4.178,0,0,76.91,6,GPS_Atti,
0.357802120811025,36.9199494575318,5519.9042055083,40.354332,0,2.86229996036,9500,2017-11-10 06:30:56,16,16.601,5519.9042055083,40.354332,0.671082,2.86229996036,214.8, 5.7, 4,0,0,1024,1024,1586,1024,214.8,0,99,4.167,4.174,4.163,4.178,0,0,76.91,6,GPS_Atti,
0.357802139967099,36.9199496623666,5521.2165415083,41.666668,0,2.91732620884,9600,2017-11-10 06:30:56,16,16.601,5521.2165415083,41.666668,0.671082,2.91732620884,214.8, 5.4, 3.3,0,0,1024,1024,1603,1024,214.8,0,99,4.167,4.174,4.163,4.178,0,0,76.91,6,GPS_Atti,
0.357802156862714,36.9199499511184,5522.5288775083,42.979004,0,2.99852043716,9700,2017-11-10 06:30:56,16,16.601,5522.5288775083,42.979004,0.671082,2.99852043716,214.7, 5.6, 2.8,0,0,1024,1024,1607,1024,214.8,0,99,4.167,4.174,4.163,4.178,0,0,76.91,6,GPS_Atti,
0.357802126656503,36.919950165169,5523.8412135083,44.29134,0,3.0685860562,9800,2017-11-10 06:30:56,16,16.601,5523.8412135083,44.29134,0.671082,3.0685860562,214.8, 6, 4,0,0,1024,1024,1612,1024,214.8,0,99,4.167,4.174,4.163,4.178,0,0,76.91,6,GPS_Atti,
0.357802118751654,36.9199504308383,5525.4816335083,45.93176,0,3.15007227928,9900,2017-11-10 06:30:56,16,16.601,5525.4816335083,45.93176,0.671082,3.15007227928,214.9, 6.7, 5.4,0,0,1024,1024,1616,1024,214.8,0,99,4.167,4.174,4.163,4.178,0,0,76.91,6,GPS_Atti,
0.357802107847516,36.91995055494,5526.7939695083,47.244096,0.223694,3.18989183436,10000,2017-11-10 06:30:56,16,16.601,5526.7939695083,47.244096,0.671082,3.18989183436,215, 7.2, 4.7,0,0,1024,1024,1650,1024,214.8,0,99,4.167,4.174,4.163,4.178,0,0,76.91,6,GPS_Atti,
0.357802255297141,36.9199507270716,5529.7467255083,50.196852,0,3.21333999784,10200,,16,16.601,5529.7467255083,50.196852,0.671082,3.21333999784,214.9, 7.7, 1.9,0,0,1024,1024,1656,1026,214.8,0,99,4.167,4.174,4.163,4.178,0,0,76.91,6,GPS_Atti,
0.357802379365796,36.9199508529548,5531.3871455083,51.837272,0.223694,3.22865495896,10300,2017-11-10 06:30:57,16,16.409,5531.3871455083,51.837272,0.671082,3.22865495896,214.9, 7.5, 1.4,0,0,1024,1024,1671,1049,214.8,0,99,4.129,4.138,4.125,4.149,0,0,76.91,6,GPS_Atti,
0.357802453351451,36.9199509354008,5532.6994815083,53.149608,0.223694,3.24068579924,10400,2017-11-10 06:30:57,16,16.409,5532.6994815083,53.149608,0.671082,3.24068579924,214.9, 7.8, 2,0,0,1024,1024,1675,1066,214.8,0,99,4.129,4.138,4.125,4.149,0,0,76.91,6,GPS_Atti,
0.357802578273411,36.9199511492309,5534.6679855083,55.118112,0.223694,3.2857940684,10500,2017-11-10 06:30:57,16,16.409,5534.6679855083,55.118112,0.671082,3.2857940684,215.1, 7.8, 2.9,0,0,1024,1024,1684,1041,214.8,0,99,4.129,4.138,4.125,4.149,0,0,76.91,6,GPS_Atti,
0.357802672022066,36.9199512716131,5536.3084055083,56.758532,0.223694,3.3086287148,10600,2017-11-10 06:30:57,16,16.409,5536.3084055083,56.758532,0.671082,3.3086287148,215.4, 8.1, 2.9,0,0,1024,1024,1684,1050,214.8,0,99,4.129,4.138,4.125,4.149,0,0,76.91,6,GPS_Atti,
0.35780278238996,36.9199514718099,5537.9488255083,58.398952,0.223694,3.3547245168,10700,2017-11-10 06:30:57,16,16.409,5537.9488255083,58.398952,0.671082,3.3547245168,215.5, 8.8, 2.4,0,0,1024,1024,1684,1066,214.8,0,99,4.129,4.138,4.125,4.149,0,0,76.91,6,GPS_Atti,
0.35780287573349,36.919951600027,5539.9173295083,60.367456,0.223694,3.3813649376,10800,2017-11-10 06:30:57,16,16.409,5539.9173295083,60.367456,0.671082,3.3813649376,215.6, 8.9, 1.9,0,0,1024,1024,1680,1072,214.9,0,99,4.129,4.138,4.125,4.149,0,0,76.91,6,GPS_Atti,
0.357803023904693,36.9199518576089,5541.5577495083,62.007876,0.223694,3.4431431548,10900,2017-11-10 06:30:57,16,16.409,5541.5577495083,62.007876,0.671082,3.4431431548,216, 8.9, 1.5,0,0,1024,1024,1684,1064,215,0,99,4.129,4.138,4.125,4.149,0,0,76.91,6,GPS_Atti,
0.357803146894147,36.9199520469754,5543.1981695083,63.648296,0.223694,3.4879922376,11000,2017-11-10 06:30:57,16,16.409,5543.1981695083,63.648296,0.671082,3.4879922376,216.5, 8.6, 1.2,0,0,1024,1024,1684,1052,215.1,0,99,4.129,4.138,4.125,4.149,0,0,76.91,6,GPS_Atti,
0.357803323328319,36.9199523593621,5545.1666735083,65.6168,0.223694,3.5684384344,11100,2017-11-10 06:30:57,16,16.409,5545.1666735083,65.6168,0.671082,3.5684384344,216.7, 8.5, 1.2,0,0,1024,1024,1684,1043,215.2,0,99,4.129,4.138,4.125,4.149,0,0,76.91,6,GPS_Atti,
0.35780344507639,36.9199526003837,5546.8070935083,67.25722,0.223694,3.63435051,11200,2017-11-10 06:30:58,16,16.409,5546.8070935083,67.25722,0.671082,3.63435051,216.9, 8.6, 1.9,0,0,1024,1024,1684,1056,215.2,0,99,4.129,4.138,4.125,4.149,0,0,76.91,6,GPS_Atti,
0.357803597187715,36.9199529537366,5548.7755975083,69.225724,0.223694,3.7367455264,11300,2017-11-10 06:30:58,16,16.519,5548.7755975083,69.225724,0.671082,3.7367455264,217, 9, 1.8,0,0,1024,1024,1684,1036,215.3,0,99,4.14,4.14,4.121,4.139,0,0,76.91,6,GPS_Atti,
0.357803710154911,36.9199532243072,5550.4160175083,70.866144,0,3.8171589148,11400,2017-11-10 06:30:58,16,16.519,5550.4160175083,70.866144,0.671082,3.8171589148,217.2, 9.1, 1.9,0,0,1024,1024,1684,1032,215.3,0,99,4.14,4.14,4.121,4.139,0,0,76.91,6,GPS_Atti,
0.35780387491375,36.9199535889079,5552.0564375083,72.506564,0,3.9262468448,11500,2017-11-10 06:30:58,16,16.519,5552.0564375083,72.506564,0.671082,3.9262468448,217.3, 8.5, 2.3,0,0,1024,1024,1684,1044,215.3,0,99,4.14,4.14,4.121,4.139,0,0,76.91,6,GPS_Atti,
0.357803996117819,36.919953873433,5553.6968575083,74.146984,0,4.0137140392,11600,2017-11-10 06:30:58,16,16.519,5553.6968575083,74.146984,0.671082,4.0137140392,217.2, 8.3, 2.8,0,0,1024,1024,1684,1045,215.3,0,99,4.14,4.14,4.121,4.139,0,0,76.91,6,GPS_Atti,
0.35780416752132,36.9199542443996,5555.6653615083,76.115488,0,4.1283793972,11700,2017-11-10 06:30:58,16,16.519,5555.6653615083,76.115488,0.671082,4.1283793972,217.3, 8.4, 2.8,0,0,1024,1024,1683,1051,215.4,0,99,4.14,4.14,4.121,4.139,0,0,76.91,6,GPS_Atti,
0.357804302014714,36.9199545247428,5557.3057815083,77.755908,0,4.2160762504,11800,,16,16.519,5557.3057815083,77.755908,0.671082,4.2160762504,217.3, 8.3, 2.6,0,0,1024,1024,1684,1046,215.5,0,99,4.14,4.14,4.121,4.139,0,0,76.91,6,GPS_Atti,
0.357804488715818,36.9199549207341,5558.9462015083,79.396328,0,4.34219174,11900,2017-11-10 06:30:58,16,16.519,5558.9462015083,79.396328,0.671082,4.34219174,217.4, 7.9, 2.8,0,0,1024,1024,1683,1051,215.5,0,99,4.14,4.14,4.121,4.139,0,0,76.91,6,GPS_Atti,
0.357804636967527,36.9199552320096,5560.5866215083,81.036748,0,4.4427822944,12000,2017-11-10 06:30:58,16,16.519,5560.5866215083,81.036748,0.671082,4.4427822944,217.5, 7.6, 2.9,0,0,1024,1024,1683,1048,215.6,0,99,4.14,4.14,4.121,4.139,0,0,76.91,6,GPS_Atti,
0.357804831034491,36.9199556417647,5562.2270415083,82.677168,0,4.5771326924,12100,2017-11-10 06:30:58,16,16.519,5562.2270415083,82.677168,0.671082,4.5771326924,217.6, 7.3, 3,0,0,1024,1024,1684,1052,215.7,0,99,4.14,4.14,4.121,4.139,0,0,76.91,6,GPS_Atti,
0.357804984964381,36.9199559474793,5564.1955455083,84.645672,0,4.678149756,12200,2017-11-10 06:30:58,16,16.519,5564.1955455083,84.645672,0.671082,4.678149756,217.7, 7.4, 2.9,0,0,1024,1024,1682,1054,215.7,0,99,4.14,4.14,4.121,4.139,0,0,76.91,6,GPS_Atti,
0.357805177163316,36.9199563457467,5565.8359655083,86.286092,0,4.811843986,12300,2017-11-10 06:30:59,16,16.409,5565.8359655083,86.286092,0.671082,4.811843986,217.8, 7.8, 3.4,0,0,1024,1024,1683,1054,215.8,0,99,4.117,4.122,4.106,4.129,0,0,76.91,6,GPS_Atti,
0.357805353657944,36.9199566643688,5567.4763855083,87.926512,0.223694,4.9189962204,12400,2017-11-10 06:30:59,16,16.409,5567.4763855083,87.926512,0.671082,4.9189962204,217.9, 7, 4.4,0,0,1024,1024,1683,1054,215.8,0,99,4.117,4.122,4.106,4.129,0,0,76.91,6,GPS_Atti,
0.357805643540924,36.9199570884594,5569.1168055083,89.566932,0.223694,5.0615815268,12500,2017-11-10 06:30:59,16,16.409,5569.1168055083,89.566932,0.671082,5.0615815268,217.9, 4.8, 4.3,0,0,1024,1024,1679,1053,215.9,0,99,4.117,4.122,4.106,4.129,0,0,76.91,6,GPS_Atti,
0.357805903779302,36.9199573555334,5570.7572255083,91.207352,0.223694,5.1506563328,12600,2017-11-10 06:30:59,16,16.409,5570.7572255083,91.207352,0.671082,5.1506563328,218.1, 3.9, 3,0,0,1024,1024,1681,1056,216,0,99,4.117,4.122,4.106,4.129,0,0,76.91,6,GPS_Atti,
0.357806458146013,36.9199578178087,5574.0380655083,94.488192,0.223694,5.3081366528,12800,2017-11-10 06:30:59,16,16.409,5574.0380655083,94.488192,0.671082,5.3081366528,218.6, 4.8, 1.2,0,0,1024,1024,1680,1052,216.1,0,99,4.117,4.122,4.106,4.129,0,0,76.91,6,GPS_Atti,
0.357806752714841,36.9199581233435,5575.6784855083,96.128612,0.223694,5.4170605408,12900,2017-11-10 06:30:59,16,16.409,5575.6784855083,96.128612,0.671082,5.4170605408,218.8, 5, 1.5,0,0,1024,1024,1678,1050,216.3,0,99,4.117,4.122,4.106,4.129,0,0,76.91,6,GPS_Atti,
0.357806977516242,36.9199583079757,5577.3189055083,97.769032,0,5.48392406,13000,2017-11-10 06:30:59,16,16.409,5577.3189055083,97.769032,0.671082,5.48392406,219, 4.8, 1.9,0,0,1024,1024,1680,1048,216.4,0,99,4.117,4.122,4.106,4.129,0,0,76.91,6,GPS_Atti,
0.357807240904031,36.9199585783215,5578.6312415083,99.081368,0.223694,5.5835303624,13100,2017-11-10 06:30:59,16,16.409,5578.6312415083,99.081368,0.671082,5.5835303624,219.2, 4.9, 1.8,0,0,1024,1024,1679,1043,216.5,0,99,4.117,4.122,4.106,4.129,0,0,76.91,6,GPS_Atti,
0.357807447948472,36.9199587219234,5580.2716615083,100.721788,0.223694,5.6378282644,13200,2017-11-10 06:31:00,16,16.409,5580.2716615083,100.721788,0.671082,5.6378282644,219.3, 4.6, 1.2,0,0,1024,1024,1671,1032,216.7,0,99,4.117,4.122,4.106,4.129,0,0,76.91,6,GPS_Atti,
0.357807706409404,36.919958931244,5581.9120815083,102.362208,0.223694,5.7179135688,13300,2017-11-10 06:31:00,16,16.409,5581.9120815083,102.362208,0.671082,5.7179135688,219.5, 4.6, 1.1,0,0,1024,1024,1618,1024,216.9,0,99,4.117,4.122,4.106,4.129,0,0,76.91,6,GPS_Atti,
0.35780810505738,36.9199592481851,5585.1929215083,105.643048,0.223694,5.8420933628,13500,2017-11-10 06:31:00,16,16.409,5585.1929215083,105.643048,0.671082,5.8420933628,219.6, 5.2, 0.9,0,0,1024,1024,1618,1024,217.2,0,99,4.117,4.122,4.106,4.129,0,0,76.91,6,GPS_Atti,
0.357808259318251,36.919959335419,5586.8333415083,107.283468,0.447388,5.878116986,13600,2017-11-10 06:31:00,16,16.409,5586.8333415083,107.283468,0.671082,5.878116986,219.7, 5.3, 1.1,0,0,1024,1024,1621,1024,217.3,0,99,4.117,4.122,4.106,4.129,0,0,76.91,6,GPS_Atti,
0.357808498980425,36.9199594750296,5588.4737615083,108.923888,0.447388,5.9365487464,13700,2017-11-10 06:31:00,16,16.409,5588.4737615083,108.923888,0.671082,5.9365487464,219.6, 5.6, 0.2,0,0,1024,1024,1641,958,217.4,0,99,4.117,4.122,4.106,4.129,0,0,76.91,6,GPS_Atti,
0.357808690643398,36.9199594781023,5590.1141815083,110.564308,0.447388,5.944718038,13800,2017-11-10 06:31:00,16,16.409,5590.1141815083,110.564308,0.671082,5.944718038,219.7, 4.5, -0.6,0,0,1024,1024,1636,950,217.4,0,99,4.117,4.122,4.106,4.129,0,0,76.91,6,GPS_Atti,
0.35780891485001,36.9199594927933,5591.7546015083,112.204728,0.671082,5.959317776,13900,2017-11-10 06:31:00,16,16.409,5591.7546015083,112.204728,0.671082,5.959317776,219.6, 5.9, -0.8,0,0,1024,1024,1633,921,217.3,0,99,4.117,4.122,4.106,4.129,0,0,76.91,6,GPS_Atti,
0.357809086954557,36.9199594144777,5593.0669375083,113.517064,0.671082,5.9388781428,14000,2017-11-10 06:31:00,16,16.409,5593.0669375083,113.517064,0.671082,5.959317776,219, 7.4, -1.3,0,0,1024,1024,1635,867,217.3,0,99,4.117,4.122,4.106,4.129,0,0,76.91,6,GPS_Atti,
0.357809393216834,36.9199594227278,5594.7073575083,115.157484,0.50107456,5.957513314,14100,2017-11-10 06:31:00,16,16.409,5594.7073575083,115.157484,0.671082,5.959317776,218.4, 4.7, -1.6,0,0,1024,1024,1642,858,217,0,99,4.117,4.122,4.106,4.129,0,0,76.91,6,GPS_Atti,
0.357809625492386,36.919959331158,5596.3477775083,116.797904,0.671082,5.937828274,14200,2017-11-10 06:31:01,16,16.409,5596.3477775083,116.797904,0.671082,5.959317776,217.2, 4, -2.4,0,0,1024,1024,1638,882,216.3,0,99,4.117,4.122,4.106,4.129,0,0,76.91,6,GPS_Atti,
0.357809889185508,36.9199593155248,5597.9881975083,118.438324,0.671082,5.9487534712,14300,2017-11-10 06:31:01,16,16.464,5597.9881975083,118.438324,0.671082,5.959317776,215.3, 4.3, -3.6,0,0,1024,1024,1647,864,215.4,0,99,4.116,4.118,4.106,4.125,0,0,76.91,6,GPS_Atti,
0.357810029545167,36.9199592317876,5599.3005335083,119.75066,0.671082,5.9282154128,14400,2017-11-10 06:31:01,16,16.464,5599.3005335083,119.75066,0.671082,5.959317776,213.4, 5.5, -3.5,0,0,1024,1024,1647,863,214.5,0,99,4.116,4.118,4.106,4.125,0,0,76.91,6,GPS_Atti,
0.357810156429452,36.9199592501315,5600.9409535083,121.39108,0.447388,5.9437009776,14500,2017-11-10 06:31:01,16,16.464,5600.9409535083,121.39108,0.671082,5.959317776,211.6, 6.1, -3.4,0,0,1024,1024,1643,873,213.6,0,99,4.116,4.118,4.106,4.125,0,0,76.91,6,GPS_Atti,
0.357810195309367,36.9199592261047,5602.2532895083,122.703416,0.447388,5.9379266992,14600,2017-11-10 06:31:01,16,16.464,5602.2532895083,122.703416,0.671082,5.959317776,209.7, 7.6, -1.4,0,0,1024,1024,1643,873,212.5,0,99,4.116,4.118,4.106,4.125,0,0,76.91,6,GPS_Atti,
0.357810319526261,36.9199593188501,5603.5656255083,124.015752,0.223694,5.9802167268,14700,2017-11-10 06:31:01,16,16.464,5603.5656255083,124.015752,0.671082,5.9802167268,207.8, 6.8, -1.1,0,0,1024,1024,1642,889,211.3,0,99,4.116,4.118,4.106,4.125,0,0,76.91,6,GPS_Atti,
0.357810445011712,36.9199593373269,5605.2060455083,125.656172,0.223694,5.996391268,14800,2017-11-10 06:31:01,16,16.464,5605.2060455083,125.656172,0.671082,5.996391268,206.2, 4.8, -1.1,0,0,1024,1024,1642,886,211.3,0,99,4.116,4.118,4.106,4.125,0,0,76.91,6,GPS_Atti,
0.357810642177198,36.9199594152078,5606.5183815083,126.968508,0.447388,6.0397639728,14900,2017-11-10 06:31:01,16,16.464,5606.5183815083,126.968508,0.671082,6.0397639728,204.7, 3.3, -1.3,0,0,1024,1024,1641,891,208.7,0,99,4.116,4.118,4.106,4.125,0,0,76.91,6,GPS_Atti,
0.357810756572946,36.9199593702633,5608.1588015083,128.608928,0,6.0332351012,15000,,16,16.464,5608.1588015083,128.608928,0.671082,6.0397639728,203.3, 4, -2.3,0,0,1024,1024,1636,906,207.3,0,99,4.116,4.118,4.106,4.125,0,0,76.91,6,GPS_Atti,
0.357810905584528,36.9199593463479,5609.7992215083,130.249348,0.447388,6.0375001932,15100,2017-11-10 06:31:01,16,16.464,5609.7992215083,130.249348,0.671082,6.0397639728,201.8, 4.8, -3.3,0,0,1024,1024,1640,897,206.1,0,99,4.116,4.118,4.106,4.125,0,0,76.91,6,GPS_Atti,
0.357810985882287,36.9199592556238,5611.1115575083,131.561684,0.447388,6.012467384,15200,2017-11-10 06:31:01,16,16.464,5611.1115575083,131.561684,0.671082,6.0397639728,200.6, 4.8, -3.5,0,0,1024,1024,1641,892,204.7,0,99,4.116,4.118,4.106,4.125,0,0,76.91,6,GPS_Atti,
0.357811119381312,36.919959218255,5612.7519775083,133.202104,0.447388,6.0113847068,15300,2017-11-10 06:31:02,16,16.354,5612.7519775083,133.202104,0.671082,6.0397639728,199.3, 4.8, -2.8,0,0,1024,1024,1624,933,203.4,0,99,4.128,4.12,4.105,4.122,0,0,76.91,6,GPS_Atti,
0.357811192754113,36.9199591008725,5614.3923975083,134.842524,0.447388,5.9768374616,15400,2017-11-10 06:31:02,16,16.354,5614.3923975083,134.842524,0.671082,6.0397639728,197.9, 5.2, -3.4,0,0,1024,1024,1638,900,202.3,0,99,4.128,4.12,4.105,4.122,0,0,76.91,6,GPS_Atti,
0.357811312946308,36.9199590359524,5616.0328175083,136.482944,0.447388,5.9655185636,15500,2017-11-10 06:31:02,16,16.354,5616.0328175083,136.482944,0.671082,6.0397639728,196.9, 5, -4.4,0,0,1024,1024,1634,910,202.3,0,99,4.128,4.12,4.105,4.122,0,0,76.91,6,GPS_Atti,
0.357811390125597,36.919958927105,5617.3451535083,137.79528,0.447388,5.934875518,15600,2017-11-10 06:31:02,16,16.354,5617.3451535083,137.79528,0.671082,6.0397639728,195.9, 4.1, -3.9,0,0,1024,1024,1637,908,201,0,99,4.128,4.12,4.105,4.122,0,0,76.91,6,GPS_Atti,
0.357811520988985,36.9199588655338,5618.9855735083,139.4357,0.447388,5.926509376,15700,2017-11-10 06:31:02,16,16.354,5618.9855735083,139.4357,0.671082,6.0397639728,194.6, 4.5, -4.6,0,0,1024,1024,1638,898,199.8,0,99,4.128,4.12,4.105,4.122,0,0,76.91,6,GPS_Atti,
0.357811581720989,36.9199587210883,5620.6259935083,141.07612,0.447388,5.8822836528,15800,2017-11-10 06:31:02,16,16.354,5620.6259935083,141.07612,0.671082,6.0397639728,193.5, 4.6, -5.2,0,0,1024,1024,1635,905,198.5,0,99,4.128,4.12,4.105,4.122,0,0,76.91,6,GPS_Atti,
0.357811672343084,36.9199586498708,5621.9383295083,142.388456,0.447388,5.8669949384,15900,2017-11-10 06:31:02,16,16.354,5621.9383295083,142.388456,0.671082,6.0397639728,192.3, 3.3, -5.5,0,0,1024,1024,1641,892,197.2,0,99,4.128,4.12,4.105,4.122,0,0,76.91,6,GPS_Atti,
0.357811698377832,36.9199585176089,5623.5787495083,144.028876,0.447388,5.8237206588,16000,2017-11-10 06:31:02,16,16.354,5623.5787495083,144.028876,0.671082,6.0397639728,191, 3.4, -6.8,0,0,1024,1024,1639,902,195.9,0,99,4.128,4.12,4.105,4.122,0,0,76.91,6,GPS_Atti,
0.357811715367388,36.9199584725253,5625.2191695083,145.669296,0.50107456,5.809875514,16100,2017-11-10 06:31:02,16,16.354,5625.2191695083,145.669296,0.671082,6.0397639728,189.6, 4.3, -6.8,0,0,1024,1024,1629,923,194.6,0,99,4.128,4.12,4.105,4.122,0,0,76.91,6,GPS_Atti,
0.357811676312416,36.9199584158704,5626.5315055083,146.981632,0,5.7858925736,16200,,16,16.354,5626.5315055083,146.981632,0.671082,6.0397639728,188.4, 4.8, -6,0,0,1024,1024,1640,907,193.4,0,99,4.128,4.12,4.105,4.122,0,0,76.91,6,GPS_Atti,
0.357811685931635,36.9199584418371,5628.1719255083,148.622052,0.31540854,5.7959647524,16300,2017-11-10 06:31:03,16,16.245,5628.1719255083,148.622052,0.671082,6.0397639728,187.3, 4.7, -5.2,0,0,1024,1024,1624,960,191.3,0,98,4.121,4.121,4.105,4.118,0,0,76.91,6,GPS_Atti,
0.357811678943981,36.9199585026589,5630.7965975083,151.246724,0,5.8164043856,16500,,16,16.245,5630.7965975083,151.246724,0.671082,6.0397639728,185.7, 3.7, -4.3,0,0,1024,1024,1607,1003,191.3,0,98,4.121,4.121,4.105,4.118,0,0,76.91,6,GPS_Atti,
0.357811645565765,36.919958504723,5632.4370175083,152.887144,0.31540854,5.8135172464,16600,2017-11-10 06:31:03,16,16.245,5632.4370175083,152.887144,0.671082,6.0397639728,185.2, 3.6, -4.1,0,0,1024,1024,1613,1024,190,0,98,4.121,4.121,4.105,4.118,0,0,76.91,6,GPS_Atti,
0.357811607943009,36.919958500357,5633.7493535083,154.19948,0.31540854,5.8079726268,16700,2017-11-10 06:31:03,16,16.245,5633.7493535083,154.19948,0.671082,6.0397639728,185.1, 3.9, -4.5,0,0,1024,1024,1614,1024,189.6,0,98,4.121,4.121,4.105,4.118,0,0,76.91,6,GPS_Atti,
0.357811521944067,36.9199584322786,5635.3897735083,155.8399,0.31540854,5.77509861,16800,2017-11-10 06:31:03,16,16.245,5635.3897735083,155.8399,0.671082,6.0397639728,185.1, 4, -4.7,0,0,1024,1024,1613,1024,189.6,0,98,4.121,4.121,4.105,4.118,0,0,76.91,6,GPS_Atti,
0.357811448339213,36.9199584223433,5636.7021095083,157.152236,0.31540854,5.7639109456,16900,2017-11-10 06:31:03,16,16.245,5636.7021095083,157.152236,0.671082,6.0397639728,185.1, 4.3, -4.7,0,0,1024,1024,1615,1024,189.4,0,98,4.121,4.121,4.105,4.118,0,0,76.91,6,GPS_Atti,
0.357811338881721,36.9199583636885,5638.0144455083,158.464572,0.31540854,5.732119606,17000,2017-11-10 06:31:03,16,16.245,5638.0144455083,158.464572,0.671082,6.0397639728,185.1, 4.6, -4.8,0,0,1024,1024,1615,1024,189.1,0,98,4.121,4.121,4.105,4.118,0,0,76.91,6,GPS_Atti,
0.357811274506887,36.9199583835805,5639.6548655083,160.104992,0.31540854,5.7325789236,17100,2017-11-10 06:31:03,16,16.245,5639.6548655083,160.104992,0.671082,6.0397639728,185, 4.6, -4.6,0,0,1024,1024,1615,1024,188.9,0,98,4.121,4.121,4.105,4.118,0,0,76.91,6,GPS_Atti,
0.357811177889676,36.9199583487855,5640.9672015083,161.417328,0.31540854,5.7107613376,17200,2017-11-10 06:31:04,16,16.245,5640.9672015083,161.417328,0.671082,6.0397639728,185.1, 4.6, -4.2,0,0,1024,1024,1616,1024,188.7,0,98,4.121,4.121,4.105,4.118,0,0,76.91,6,GPS_Atti,
0.357811097384291,36.9199583689623,5642.2795375083,162.729664,0.31540854,5.7100067444,17300,2017-11-10 06:31:04,16,16.354,5642.2795375083,162.729664,0.671082,6.0397639728,185.1, 4.8, -4.4,0,0,1024,1024,1614,1024,188.5,0,98,4.121,4.121,4.105,4.118,0,0,76.91,6,GPS_Atti,
0.357810988274472,36.9199583148212,5643.5918735083,164.042,0.31540854,5.6805119928,17400,2017-11-10 06:31:04,16,16.354,5643.5918735083,164.042,0.671082,6.0397639728,185, 5, -5,0,0,1024,1024,1615,1024,188.4,0,98,4.121,4.121,4.105,4.118,0,0,76.91,6,GPS_Atti,
0.357810944067917,36.9199582858696,5645.2322935083,165.68242,0.31540854,5.6661419136,17500,2017-11-10 06:31:04,16,16.354,5645.2322935083,165.68242,0.671082,6.0397639728,185, 5.2, -5.5,0,0,1024,1024,1616,1024,188.3,0,98,4.121,4.121,4.105,4.118,0,0,76.91,6,GPS_Atti,
0.357810869939517,36.9199582202301,5646.5446295083,166.994756,0,5.6360894192,17600,,16,16.354,5646.5446295083,166.994756,0.671082,6.0397639728,185, 5.1, -5.4,0,0,1024,1024,1615,1024,188.1,0,98,4.121,4.121,4.105,4.118,0,0,76.91,6,GPS_Atti,
0.35781086223372,36.9199582598194,5647.8569655083,168.307092,0.31540854,5.6493440128,17700,2017-11-10 06:31:04,16,16.354,5647.8569655083,168.307092,0.671082,6.0397639728,185, 4.6, -4.8,0,0,1024,1024,1616,1024,187.9,0,98,4.121,4.121,4.105,4.118,0,0,76.91,6,GPS_Atti,
0.35781081361164,36.9199583155535,5650.8097215083,171.259848,0.31540854,5.6645999188,17900,2017-11-10 06:31:04,16,16.354,5650.8097215083,171.259848,0.671082,6.0397639728,185.1, 4.5, -4,0,0,1024,1024,1616,1024,187.8,0,98,4.121,4.121,4.105,4.118,0,0,76.91,6,GPS_Atti,
0.357810768334383,36.9199583032265,5652.1220575083,172.572184,0.31540854,5.65616816,18000,2017-11-10 06:31:04,16,16.354,5652.1220575083,172.572184,0.671082,6.0397639728,185.1, 4.8, -4.2,0,0,1024,1024,1616,1024,187.7,0,98,4.121,4.121,4.105,4.118,0,0,76.91,6,GPS_Atti,
0.357810754517035,36.9199583586609,5653.4343935083,173.88452,0.31540854,5.6745080556,18100,2017-11-10 06:31:04,16,16.354,5653.4343935083,173.88452,0.671082,6.0397639728,185.1, 4.8, -4.6,0,0,1024,1024,1616,1024,187.7,0,98,4.121,4.121,4.105,4.118,0,0,76.91,6,GPS_Atti,
0.357810710325136,36.9199583472074,5655.0748135083,175.52494,0.31540854,5.6665356144,18200,2017-11-10 06:31:05,16,16.354,5655.0748135083,175.52494,0.671082,6.0397639728,185.1, 4.6, -4.6,0,0,1024,1024,1616,1024,187.6,0,98,4.121,4.121,4.105,4.118,0,0,76.91,6,GPS_Atti,
0.357810732132444,36.9199584255316,5656.3871495083,176.837276,0.31540854,5.696194408,18300,2017-11-10 06:31:05,16,16.3,5656.3871495083,176.837276,0.671082,6.0397639728,185.1, 4.6, -4.7,0,0,1024,1024,1613,1024,187.6,0,98,4.101,4.121,4.119,4.123,0,0,76.91,6,GPS_Atti,
0.357810700793854,36.9199584255873,5657.6994855083,178.149612,0.31540854,5.6934713108,18400,2017-11-10 06:31:05,16,16.3,5657.6994855083,178.149612,0.671082,6.0397639728,185, 5, -5.1,0,0,1024,1024,1615,1024,187.5,0,98,4.101,4.121,4.119,4.123,0,0,76.91,6,GPS_Atti,
0.357810694518645,36.9199584921882,5659.3399055083,179.790032,0.31540854,5.7165028076,18500,2017-11-10 06:31:05,16,16.3,5659.3399055083,179.790032,0.671082,6.0397639728,185, 4.7, -5,0,0,1024,1024,1615,1024,187.4,0,98,4.101,4.121,4.119,4.123,0,0,76.91,6,GPS_Atti,
0.357810651938091,36.9199585016953,5660.6522415083,181.102368,0.31540854,5.7161747236,18600,2017-11-10 06:31:05,16,16.3,5660.6522415083,181.102368,0.671082,6.0397639728,185, 4.5, -4.7,0,0,1024,1024,1616,1024,187.4,0,98,4.101,4.121,4.119,4.123,0,0,76.91,6,GPS_Atti,
0.357810662186703,36.9199586065579,5661.9645775083,182.414704,0.223694,5.754265276,18700,2017-11-10 06:31:05,16,16.3,5661.9645775083,182.414704,0.671082,6.0397639728,185.1, 4.6, -4.3,0,0,1024,1024,1619,1024,187.2,0,98,4.101,4.121,4.119,4.123,0,0,76.91,6,GPS_Atti,
0.357810643589059,36.9199587835267,5664.9173335083,185.36746,0.223694,5.815452942,18900,2017-11-10 06:31:05,16,16.3,5664.9173335083,185.36746,0.671082,6.0397639728,185, 4.6, -4.5,0,0,1024,1024,1618,1024,187.2,0,98,4.101,4.121,4.119,4.123,0,0,76.91,6,GPS_Atti,
0.357810612809839,36.919958859731,5666.2296695083,186.679796,0.223694,5.8399280084,19000,2017-11-10 06:31:05,16,16.3,5666.2296695083,186.679796,0.671082,6.0397639728,185.1, 4.9, -3.8,0,0,1024,1024,1619,1024,187.1,0,98,4.101,4.121,4.119,4.123,0,0,76.91,6,GPS_Atti,
0.357810686891827,36.9199590159705,5669.1824255083,189.632552,0.31540854,5.9016078004,19200,2017-11-10 06:31:05,16,16.3,5669.1824255083,189.632552,0.671082,6.0397639728,185.1, 4.4, -3.8,0,0,1024,1024,1619,1024,187,0,98,4.101,4.121,4.119,4.123,0,0,76.91,6,GPS_Atti,
0.357810778732812,36.9199591214391,5670.4947615083,190.944888,0.31540854,5.9468177756,19300,2017-11-10 06:31:06,16,16.272,5670.4947615083,190.944888,0.671082,6.0397639728,185.1, 4.5, -4.1,0,0,1024,1024,1619,1024,187,0,98,4.097,4.104,4.092,4.107,0,0,76.91,6,GPS_Atti,
0.357810795420292,36.9199591410956,5672.1351815083,192.585308,0.31540854,5.9552495344,19400,2017-11-10 06:31:06,16,16.272,5672.1351815083,192.585308,0.671082,6.0397639728,185.1, 4.6, -4.3,0,0,1024,1024,1620,1024,186.9,0,98,4.097,4.104,4.092,4.107,0,0,76.91,6,GPS_Atti,
0.357810893286519,36.9199592219507,5674.7598535083,195.20998,0.31540854,5.9923886432,19600,2017-11-10 06:31:06,16,16.272,5674.7598535083,195.20998,0.671082,6.0397639728,185.1, 4.7, -4.6,0,0,1024,1024,1625,1024,186.9,0,98,4.097,4.104,4.092,4.107,0,0,76.91,6,GPS_Atti,
0.357810985697459,36.9199593112124,5676.4002735083,196.8504,0.31540854,6.0321196156,19700,2017-11-10 06:31:06,16,16.272,5676.4002735083,196.8504,0.671082,6.0397639728,185.1, 4.5, -4,0,0,1024,1024,1620,1024,186.9,0,98,4.097,4.104,4.092,4.107,0,0,76.91,6,GPS_Atti,
0.357811013061832,36.919959323518,5677.7126095083,198.162736,0.223694,6.0389109544,19800,2017-11-10 06:31:06,16,16.272,5677.7126095083,198.162736,0.671082,6.0397639728,185.1, 4.1, -4.2,0,0,1024,1024,1625,1024,186.8,0,98,4.097,4.104,4.092,4.107,0,0,76.91,6,GPS_Atti,
0.357811129330291,36.9199594109146,5680.6653655083,201.115492,0.31540854,6.0803479636,20000,2017-11-10 06:31:06,16,16.272,5680.6653655083,201.115492,0.671082,6.0803479636,185, 4.8, -4.6,0,0,1024,1024,1625,1024,186.8,0,98,4.097,4.104,4.092,4.107,0,0,76.91,6,GPS_Atti,
0.357811217218227,36.9199594941722,5682.3057855083,202.755912,0.223694,6.1178151564,20100,2017-11-10 06:31:06,16,16.272,5682.3057855083,202.755912,0.671082,6.1178151564,185, 5.1, -4.7,0,0,1024,1024,1625,1024,186.7,0,98,4.097,4.104,4.092,4.107,0,0,76.91,6,GPS_Atti,
0.357811250172234,36.9199595167494,5683.6181215083,204.068248,0.223694,6.1288387788,20200,2017-11-10 06:31:07,16,16.272,5683.6181215083,204.068248,0.671082,6.1288387788,185, 4.6, -4.7,0,0,1024,1024,1626,1024,186.7,0,98,4.097,4.104,4.092,4.107,0,0,76.91,6,GPS_Atti,
0.357811384620642,36.9199596687942,5685.2585415083,205.708668,0,6.1951117468,20300,2017-11-10 06:31:07,16,16.327,5685.2585415083,205.708668,0.671082,6.1951117468,185.1, 4, -4.5,0,0,1024,1024,1626,1024,186.7,0,98,4.099,4.104,4.088,4.106,0,0,76.91,6,GPS_Atti,
0.35781153692738,36.9199599158883,5687.8832135083,208.33334,0.223694,6.2967193616,20500,2017-11-10 06:31:07,16,16.327,5687.8832135083,208.33334,0.671082,6.2967193616,185, 4.9, -3.3,0,0,1024,1024,1628,1024,186.6,0,98,4.099,4.104,4.088,4.106,0,0,76.91,6,GPS_Atti,
0.35781158658678,36.9199600171772,5689.1955495083,209.645676,0,6.3371721188,20600,2017-11-10 06:31:07,16,16.327,5689.1955495083,209.645676,0.671082,6.3371721188,185.1, 4.6, -2.8,0,0,1024,1024,1628,1024,186.6,0,98,4.099,4.104,4.088,4.106,0,0,76.91,6,GPS_Atti,
0.357811737587507,36.9199601944072,5690.5078855083,210.958012,0,6.4142718588,20700,2017-11-10 06:31:07,16,16.327,5690.5078855083,210.958012,0.671082,6.4142718588,185.1, 4.4, -2.3,0,0,1024,1024,1630,1024,186.6,0,98,4.099,4.104,4.088,4.106,0,0,76.91,6,GPS_Atti,
0.357811818254923,36.9199602898312,5691.8202215083,212.270348,0,6.4558072932,20800,2017-11-10 06:31:07,16,16.327,5691.8202215083,212.270348,0.671082,6.4558072932,185.1, 3.9, -2.1,0,0,1024,1024,1629,1024,186.5,0,98,4.099,4.104,4.088,4.106,0,0,76.91,6,GPS_Atti,
0.357811993166907,36.9199604578432,5693.4606415083,213.910768,0,6.5324477156,20900,2017-11-10 06:31:07,16,16.327,5693.4606415083,213.910768,0.671082,6.5324477156,185.1, 3.7, -2.1,0,0,1024,1024,1629,1024,186.5,0,98,4.099,4.104,4.088,4.106,0,0,76.91,6,GPS_Atti,
0.357812087827542,36.9199605327071,5694.7729775083,215.223104,0.223694,6.5684385304,21000,2017-11-10 06:31:07,16,16.327,5694.7729775083,215.223104,0.671082,6.5684385304,185.1, 3.7, -2.6,0,0,1024,1024,1626,1024,186.5,0,98,4.099,4.104,4.088,4.106,0,0,76.91,6,GPS_Atti,
0.35781226329971,36.9199606928158,5696.0853135083,216.53544,0,6.6428151732,21100,2017-11-10 06:31:07,16,16.327,5696.0853135083,216.53544,0.671082,6.6428151732,185, 3.6, -2.9,0,0,1024,1024,1625,1024,186.5,0,98,4.099,4.104,4.088,4.106,0,0,76.91,6,GPS_Atti,
0.357812355363792,36.9199607775251,5697.7257335083,218.17586,0,6.6822180616,21200,2017-11-10 06:31:08,16,16.327,5697.7257335083,218.17586,0.671082,6.6822180616,185.1, 3.2, -2.7,0,0,1024,1024,1627,1024,186.5,0,98,4.099,4.104,4.088,4.106,0,0,76.91,6,GPS_Atti,
0.357812543686826,36.9199609364646,5699.0380695083,219.488196,0,6.7580710824,21300,2017-11-10 06:31:08,16,16.327,5699.0380695083,219.488196,0.671082,6.7580710824,185.1, 2.7, -2.6,0,0,1024,1024,1627,1024,186.4,0,98,4.099,4.104,4.088,4.106,0,0,76.91,6,GPS_Atti,
0.357812627217861,36.9199610199,5700.3504055083,220.800532,0,6.7963256768,21400,2017-11-10 06:31:08,16,16.327,5700.3504055083,220.800532,0.671082,6.7963256768,185.1, 2.5, -2.4,0,0,1024,1024,1627,1024,186.4,0,98,4.099,4.104,4.088,4.106,0,0,76.91,6,GPS_Atti,
0.357812807020062,36.9199611707114,5701.9908255083,222.440952,0.223694,6.8688650492,21500,2017-11-10 06:31:08,16,16.327,5701.9908255083,222.440952,0.671082,6.8688650492,185.2, 2.7, -2.6,0,0,1024,1024,1627,1024,186.4,0,98,4.099,4.104,4.088,4.106,0,0,76.91,6,GPS_Atti,
0.357812857926036,36.919961247147,5703.6312455083,224.081372,0.223694,6.9011485148,21600,2017-11-10 06:31:08,16,16.327,5703.6312455083,224.081372,0.671082,6.9011485148,185.2, 3.2, -2.3,0,0,1024,1024,1628,1024,186.3,0,98,4.099,4.104,4.088,4.106,0,0,76.91,6,GPS_Atti,
0.357812996372273,36.9199615148805,5706.5840015083,227.034128,0.223694,7.0097443188,21800,2017-11-10 06:31:08,16,16.327,5706.5840015083,227.034128,0.671082,7.0097443188,185.1, 4.4, -1.8,0,0,1024,1024,1629,1024,186.3,0,98,4.099,4.104,4.088,4.106,0,0,76.91,6,GPS_Atti,
0.357813080352759,36.9199616678481,5707.8963375083,228.346464,0.31540854,7.0723755544,21900,2017-11-10 06:31:08,16,16.327,5707.8963375083,228.346464,0.671082,7.0723755544,185.1, 4.4, -1.8,0,0,1024,1024,1629,1024,186.3,0,98,4.099,4.104,4.088,4.106,0,0,76.91,6,GPS_Atti,
0.357813177203651,36.9199618935556,5710.8490935083,231.29922,0.31540854,7.1616800192,22100,2017-11-10 06:31:08,16,16.327,5710.8490935083,231.29922,0.671082,7.1616800192,185.1, 4.7, -1.9,0,0,1024,1024,1630,1024,186.3,0,98,4.099,4.104,4.088,4.106,0,0,76.91,6,GPS_Atti,
0.357813196582949,36.9199619768025,5712.4895135083,232.93964,0.31540854,7.1927167656,22200,2017-11-10 06:31:08,16,16.327,5712.4895135083,232.93964,0.671082,7.1927167656,185.1, 4.6, -1.7,0,0,1024,1024,1629,1024,186.3,0,98,4.099,4.104,4.088,4.106,0,0,76.91,6,GPS_Atti,
0.357813301560591,36.9199620810977,5713.8018495083,234.251976,0.31540854,7.240977922,22300,2017-11-10 06:31:09,17,16.217,5713.8018495083,234.251976,0.671082,7.240977922,185.1, 4.4, -1.2,0,0,1024,1024,1630,1024,186.2,0,98,4.085,4.09,4.074,4.091,0,0,76.91,6,GPS_Atti,
0.357813325830106,36.9199621134582,5715.4422695083,235.892396,0.31540854,7.2549871088,22400,2017-11-10 06:31:09,17,16.217,5715.4422695083,235.892396,0.671082,7.2549871088,185.1, 4.5, -1.3,0,0,1024,1024,1630,1024,186.2,0,98,4.085,4.09,4.074,4.091,0,0,76.91,6,GPS_Atti,
0.35781343633713,36.9199622065676,5716.7546055083,237.204732,0.31540854,7.3001314672,22500,2017-11-10 06:31:09,17,16.217,5716.7546055083,237.204732,0.671082,7.3001314672,185.1, 4.6, -1.7,0,0,1024,1024,1630,1024,186.2,0,98,4.085,4.09,4.074,4.091,0,0,76.91,6,GPS_Atti,
0.357813446827567,36.9199622214556,5718.0669415083,238.517068,0.31540854,7.3065291052,22600,2017-11-10 06:31:09,17,16.217,5718.0669415083,238.517068,0.671082,7.3065291052,185.1, 4.5, -1.9,0,0,1024,1024,1630,1024,186.2,0,98,4.085,4.09,4.074,4.091,0,0,76.91,6,GPS_Atti,
0.357813577791918,36.9199623200401,5719.7073615083,240.157488,0.31540854,7.356135406,22700,2017-11-10 06:31:09,17,16.217,5719.7073615083,240.157488,0.671082,7.356135406,185.1, 4.4, -2,0,0,1024,1024,1631,1024,186.2,0,98,4.085,4.09,4.074,4.091,0,0,76.91,6,GPS_Atti,
0.357813609607643,36.9199623479575,5721.0196975083,241.469824,0.31540854,7.3695540416,22800,2017-11-10 06:31:09,17,16.217,5721.0196975083,241.469824,0.671082,7.3695540416,185.1, 4.3, -2,0,0,1024,1024,1631,1024,186.2,0,98,4.085,4.09,4.074,4.091,0,0,76.91,6,GPS_Atti,
0.357813729292577,36.9199624432938,5722.6601175083,243.110244,0.31540854,7.4168637544,22900,2017-11-10 06:31:09,17,16.217,5722.6601175083,243.110244,0.671082,7.4168637544,185.1, 4.5, -1.9,0,0,1024,1024,1631,1024,186.1,0,98,4.085,4.09,4.074,4.091,0,0,76.91,6,GPS_Atti,
0.357813856518835,36.919962538643,5725.6128735083,246.063,0.31540854,7.4651905276,23100,2017-11-10 06:31:09,17,16.217,5725.6128735083,246.063,0.671082,7.4651905276,185.1, 4.6, -1.4,0,0,1024,1024,1630,1024,186.1,0,98,4.085,4.09,4.074,4.091,0,0,76.91,6,GPS_Atti,
0.357813872857828,36.9199625310009,5726.9252095083,247.375336,0.31540854,7.464567168,23200,2017-11-10 06:31:10,17,16.217,5726.9252095083,247.375336,0.671082,7.4651905276,185.1, 4.5, -1.7,0,0,1024,1024,1631,1024,186.1,0,98,4.085,4.09,4.074,4.091,0,0,76.91,6,GPS_Atti,
0.357813975890294,36.9199625819773,5728.5656295083,249.015756,0.31540854,7.4948493212,23300,2017-11-10 06:31:10,17,16.3,5728.5656295083,249.015756,0.671082,7.4948493212,185.1, 4.2, -2.1,0,0,1024,1024,1631,1024,186.1,0,98,4.091,4.097,4.084,4.099,0,0,76.91,6,GPS_Atti,
0.357813984181517,36.9199625618647,5729.8779655083,250.328092,0,7.4889766176,23400,,17,16.3,5729.8779655083,250.328092,0.671082,7.4948493212,185.2, 4.1, -2.1,0,0,1024,1024,1630,1024,186.1,0,98,4.091,4.097,4.084,4.099,0,0,76.91,6,GPS_Atti,
0.357814104756396,36.9199625878571,5731.5183855083,251.968512,0.31540854,7.5130579832,23500,2017-11-10 06:31:10,17,16.3,5731.5183855083,251.968512,0.671082,7.5130579832,185.2, 4, -1.9,0,0,1024,1024,1630,1024,186.1,0,98,4.091,4.097,4.084,4.099,0,0,76.91,6,GPS_Atti,
0.3578141191266,36.9199625432038,5732.8307215083,253.280848,0.31540854,7.4996065392,23600,2017-11-10 06:31:10,17,16.3,5732.8307215083,253.280848,0.671082,7.5130579832,185.2, 4, -2.1,0,0,1024,1024,1630,1024,186.1,0,98,4.091,4.097,4.084,4.099,0,0,76.91,6,GPS_Atti,
0.357814200269521,36.9199625944799,5734.1430575083,254.593184,0.50107456,7.5274936792,23700,2017-11-10 06:31:10,17,16.3,5734.1430575083,254.593184,0.671082,7.5274936792,185.2, 4.4, -2.1,0,0,1024,1024,1630,1024,186.1,0,98,4.091,4.097,4.084,4.099,0,0,76.91,6,GPS_Atti,
0.357814178370206,36.9199625697979,5735.7834775083,256.233604,0.50107456,7.5162732064,23800,2017-11-10 06:31:10,17,16.3,5735.7834775083,256.233604,0.671082,7.5274936792,185.1, 4.8, -2.2,0,0,1024,1024,1628,1024,186.1,0,98,4.091,4.097,4.084,4.099,0,0,76.91,6,GPS_Atti,
0.357814252628881,36.9199625687616,5737.4238975083,257.874024,0.50107456,7.5254595584,23900,2017-11-10 06:31:10,17,16.3,5737.4238975083,257.874024,0.671082,7.5274936792,185.1, 4.7, -2.4,0,0,1024,1024,1629,1024,186.1,0,98,4.091,4.097,4.084,4.099,0,0,76.91,6,GPS_Atti,
0.357814234219322,36.9199625074238,5738.7362335083,259.18636,0.50107456,7.5021655944,24000,2017-11-10 06:31:10,17,16.3,5738.7362335083,259.18636,0.671082,7.5274936792,185.1, 4.7, -2.2,0,0,1024,1024,1630,1024,186,0,98,4.091,4.097,4.084,4.099,0,0,76.91,6,GPS_Atti,
0.357814327682236,36.9199625235794,5740.0485695083,260.498696,0.50107456,7.5197837052,24100,2017-11-10 06:31:10,17,16.3,5740.0485695083,260.498696,0.671082,7.5274936792,185.1, 4.7, -1.9,0,0,1024,1024,1630,1024,186,0,98,4.091,4.097,4.084,4.099,0,0,76.91,6,GPS_Atti,
0.357814327597557,36.9199624715538,5741.6889895083,262.139116,0.50107456,7.5020671692,24200,2017-11-10 06:31:11,17,16.3,5741.6889895083,262.139116,0.671082,7.5274936792,185.1, 4.6, -1.9,0,0,1024,1024,1630,1024,186,0,98,4.091,4.097,4.084,4.099,0,0,76.91,6,GPS_Atti,
0.357814436932916,36.9199624887394,5743.0013255083,263.451452,0.50107456,7.522309952,24300,2017-11-10 06:31:11,17,16.3,5743.0013255083,263.451452,0.671082,7.5274936792,185.1, 4.4, -2.1,0,0,1024,1024,1629,1024,186,0,98,4.092,4.097,4.084,4.103,0,0,76.91,6,GPS_Atti,
0.357814442677252,36.919962428879,5744.6417455083,265.091872,0.63305402,7.5027233372,24400,2017-11-10 06:31:11,17,16.3,5744.6417455083,265.091872,0.671082,7.5274936792,185.1, 4.3, -2.2,0,0,1024,1024,1629,1024,186,0,98,4.092,4.097,4.084,4.103,0,0,76.91,6,GPS_Atti,
0.357814533896171,36.9199623954308,5745.9540815083,266.404208,0.63305402,7.5035763556,24500,2017-11-10 06:31:11,17,16.3,5745.9540815083,266.404208,0.671082,7.5274936792,185.2, 4.6, -2.3,0,0,1024,1024,1629,1024,186,0,98,4.092,4.097,4.084,4.103,0,0,76.91,6,GPS_Atti,
0.357814608695489,36.9199622443325,5748.9068375083,269.356964,0.63305402,7.4625330472,24700,2017-11-10 06:31:11,17,16.3,5748.9068375083,269.356964,0.671082,7.5274936792,185.1, 5, -3.3,0,0,1024,1024,1629,1024,186,0,98,4.092,4.097,4.084,4.103,0,0,76.91,6,GPS_Atti,
0.357814595785185,36.9199621554799,5750.5472575083,270.997384,0.63305402,7.4307088992,24800,2017-11-10 06:31:11,17,16.3,5750.5472575083,270.997384,0.671082,7.5274936792,185.1, 4.8, -2.8,0,0,1024,1024,1628,1024,186,0,98,4.092,4.097,4.084,4.103,0,0,76.91,6,GPS_Atti,
0.357814691833255,36.9199621465488,5751.8595935083,272.30972,0,7.4409123116,24900,,17,16.3,5751.8595935083,272.30972,0.671082,7.5274936792,185.1, 4.5, -2.5,0,0,1024,1024,1628,1024,186,0,98,4.092,4.097,4.084,4.103,0,0,76.91,6,GPS_Atti,
0.357814679663078,36.9199620705949,5753.5000135083,273.95014,0.63305402,7.4135829144,25000,2017-11-10 06:31:11,17,16.3,5753.5000135083,273.95014,0.671082,7.5274936792,185.1, 5.1, -2.5,0,0,1024,1024,1625,1024,186,0,98,4.092,4.097,4.084,4.103,0,0,76.91,6,GPS_Atti,
0.357814774722683,36.9199620470178,5754.8123495083,275.262476,0.63305402,7.4188978752,25100,2017-11-10 06:31:11,17,16.3,5754.8123495083,275.262476,0.671082,7.5274936792,185.1, 5.5, -3,0,0,1024,1024,1607,1024,186,0,98,4.092,4.097,4.084,4.103,0,0,76.91,6,GPS_Atti,
0.357814783451142,36.9199619596961,5756.1246855083,276.574812,0.50107456,7.390748268,25200,2017-11-10 06:31:12,17,16.3,5756.1246855083,276.574812,0.671082,7.5274936792,185.1, 4.7, -3.5,0,0,1024,1024,1024,1024,186,0,98,4.092,4.097,4.084,4.103,0,0,76.91,6,GPS_Atti,
0.35781497631265,36.9199618692269,5760.3897775083,280.839904,0.63305402,7.3878939372,25500,2017-11-10 06:31:12,17,16.3,5760.3897775083,280.839904,0.671082,7.5274936792,184.8, 7.9, -5.1,0,0,1024,1024,1024,1024,186,0,98,4.092,4.097,4.084,4.103,0,0,76.91,6,GPS_Atti,
0.35781495599374,36.9199618049941,5761.3740295083,281.824156,0.63305402,7.3634516792,25600,2017-11-10 06:31:12,17,16.3,5761.3740295083,281.824156,0.671082,7.5274936792,184.9, 7.3, -4.7,0,0,1024,1024,1024,1024,186,0,98,4.092,4.097,4.084,4.103,0,0,76.91,6,GPS_Atti,
