latitude,longitude,altitude(feet),ascent(feet),speed(mph),distance(feet),time(millisecond),datetime(utc),satellites,gpslevel,voltage(v),max_altitude(feet),max_ascent(feet),max_speed(mph),max_distance(feet), xSpeed(mph), ySpeed(mph), zSpeed(mph), compass_heading(degrees), pitch(degrees), roll(degrees),isPhoto,isVideo,rc_elevator,rc_aileron,rc_throttle,rc_rudder,gimbal_heading(degrees),gimbal_pitch(degrees),battery_percent,voltageCell1,voltageCell2,voltageCell3,voltageCell4,voltageCell5,voltageCell6,current(A),battery_temperature(f),flycStateRaw,flycState,message
0.373279819973254,36.914809951787,5390.8738788728,0,0,0,0,2018-03-30 06:21:52,16,0,17.135,5390.8738788728,0,0,0,0,0,0,28.4, -3, -1.9,0,0,1024,1024,1024,1024,32.8,0,99,4.315,4.292,4.277,4.271,0,0,1.496,80.51,41,Motors_Started,Setting new Return-To-Home altitude to 45m (148 ft). Setting new Maximum Flight Altitude to 150m (492 ft)
0.373279841844478,36.9148099705421,5390.8738788728,0,0,0.0105117785516,100,2018-03-30 06:21:52,16,0,17.135,5390.8738788728,0,0,0.0105117785516,0,0,0,28.4, -3, -1.9,0,0,364,364,364,1684,32.8,0,99,4.315,4.292,4.277,4.271,0,0,1.496,80.51,41,Motors_Started,
0.373279856680825,36.9148099825545,5390.8738788728,0,0,0.017474902134,200,2018-03-30 06:21:52,16,0,17.135,5390.8738788728,0,0,0.017474902134,0,0,0,28.4, -3, -1.9,0,0,364,364,364,1684,32.9,0,99,4.315,4.292,4.277,4.271,0,0,1.496,80.51,41,Motors_Started,
0.373279866631432,36.9148100276404,5390.8738788728,0,0,0.0324910443468,300,2018-03-30 06:21:53,16,0,17.135,5390.8738788728,0,0,0.0324910443468,0,0,0,28.4, -3, -1.9,0,0,364,364,364,1684,32.8,0,99,4.315,4.292,4.277,4.271,0,0,1.496,80.51,41,Motors_Started,
0.373279874582717,36.9148100648744,5390.8738788728,0,0,0.045817914852,400,2018-03-30 06:21:53,16,0,17.135,5390.8738788728,0,0,0.045817914852,0,0,0,28.4, -3, -1.9,0,0,364,364,364,1684,32.8,0,99,4.315,4.292,4.277,4.271,0,0,1.496,80.51,41,Motors_Started,
0.373279912165168,36.9148100960466,5390.8738788728,0,0,0.062461944256,500,2018-03-30 06:21:53,16,0,17.135,5390.8738788728,0,0,0.062461944256,0,0,0,28.4, -3, -1.9,0,0,364,364,364,1684,32.8,0,99,4.315,4.292,4.277,4.271,0,0,1.496,80.51,41,Motors_Started,
0.373279945432651,36.9148101181249,5390.8738788728,0,0,0.076014110044,600,2018-03-30 06:21:53,16,0,17.135,5390.8738788728,0,0,0.076014110044,0,0,0,28.4, -3, -1.9,0,0,364,364,364,1684,32.8,0,99,4.315,4.292,4.277,4.271,0,0,1.496,80.51,41,Motors_Started,
0.373279970011163,36.9148101642772,5390.8738788728,0,0,0.094903874428,700,2018-03-30 06:21:53,16,0,17.135,5390.8738788728,0,0,0.094903874428,0,0,0,28.4, -3, -1.9,0,0,364,364,364,1684,32.8,0,99,4.315,4.292,4.277,4.271,0,0,1.496,80.51,41,Motors_Started,
0.37327998894386,36.9148102046525,5390.8738788728,0,0,0.110958336884,800,2018-03-30 06:21:53,16,0,17.135,5390.8738788728,0,0,0.110958336884,0,0,0,28.4, -3, -1.9,0,0,364,364,364,1684,32.8,0,99,4.315,4.292,4.277,4.271,0,0,1.496,80.51,41,Motors_Started,
0.373279999082553,36.9148102342872,5390.8738788728,0,0,0.122038389732,900,2018-03-30 06:21:53,16,0,17.135,5390.8738788728,0,0,0.122038389732,0,0,0,28.4, -3, -1.9,0,0,364,364,364,1684,32.8,0,99,4.315,4.292,4.277,4.271,0,0,1.496,80.51,41,Motors_Started,
0.373280009160992,36.9148102559523,5390.8738788728,0,0,0.130687668224,1000,2018-03-30 06:21:53,16,0,17.135,5390.8738788728,0,0,0.130687668224,0,0,0,28.4, -3.1, -1.9,0,0,364,364,364,1684,32.8,0,99,4.315,4.292,4.275,4.263,0,0,1.48,80.51,41,Motors_Started,
0.373280009604336,36.9148102649241,5390.8738788728,0,0,0.133562012148,1100,2018-03-30 06:21:53,16,0,17.135,5390.8738788728,0,0,0.133562012148,0,0,0,28.4, -3, -1.9,0,0,364,364,364,1684,32.8,0,99,4.315,4.292,4.275,4.263,0,0,1.48,80.51,41,Motors_Started,
0.373280010561861,36.9148102720844,5390.8738788728,0,0,0.135981631648,1200,2018-03-30 06:21:53,16,0,17.135,5390.8738788728,0,0,0.135981631648,0,0,0,28.4, -3.1, -1.9,0,0,364,364,364,1684,32.8,0,99,4.315,4.292,4.275,4.263,0,0,1.48,80.51,41,Motors_Started,
0.373280003250555,36.9148103004258,5390.8738788728,0,0,0.143703744756,1300,2018-03-30 06:21:54,16,0,17.135,5390.8738788728,0,0,0.143703744756,0,0,0,28.4, -3.1, -1.9,0,0,364,364,364,1684,32.8,0,99,4.315,4.292,4.275,4.263,0,0,1.48,80.51,41,Motors_Started,
0.373280001116886,36.9148103305167,5390.8738788728,0,0,0.153168640072,1400,2018-03-30 06:21:54,16,0,17.135,5390.8738788728,0,0,0.153168640072,0,0,0,28.4, -3.1, -1.9,0,0,364,364,364,1684,32.8,0,99,4.315,4.292,4.275,4.263,0,0,1.48,80.51,41,Motors_Started,
0.373280025706798,36.9148103474539,5390.8738788728,0,0,0.162704729616,1500,2018-03-30 06:21:54,16,0,17.135,5390.8738788728,0,0,0.162704729616,0,0,0,28.6, -3.2, -1.9,0,0,740,685,678,1476,32.8,0,99,4.315,4.292,4.275,4.263,0,0,1.48,80.51,10,Assisted_Takeoff,
0.373280048868564,36.9148103602949,5390.8738788728,0,0,0.17084318132,1600,2018-03-30 06:21:54,16,0,17.135,5390.8738788728,0,0,0.17084318132,0,0,0,28.4, -3, -1.9,0,0,965,1002,1024,1024,32.7,0,99,4.315,4.292,4.275,4.263,0,0,1.48,80.51,10,Assisted_Takeoff,
0.373280066500134,36.9148103627552,5390.8738788728,0,0,0.17484744654,1700,2018-03-30 06:21:54,16,0,17.135,5390.8738788728,0,0,0.17484744654,0,0,0,28.5, -3, -1.9,0,0,1024,1024,1024,1024,31.1,0,99,4.315,4.292,4.275,4.263,0,0,1.48,80.51,10,Assisted_Takeoff,
0.373280079931947,36.9148103642841,5390.8738788728,0,0,0.177889769472,1800,2018-03-30 06:21:54,16,0,17.135,5390.8738788728,0,0,0.177889769472,0,0,0,28.4, -3, -1.9,0,0,1024,1024,1024,1024,30.1,0,99,4.315,4.292,4.275,4.263,0,0,1.48,80.51,10,Assisted_Takeoff,
0.373280086837771,36.914810389313,5390.8738788728,0,0,0.186978680524,1900,2018-03-30 06:21:54,16,0,17.135,5390.8738788728,0,0,0.186978680524,0,0,0,28.4, -3, -1.9,0,0,1024,1024,1024,1024,29.6,0,99,4.315,4.292,4.275,4.263,0,0,1.48,80.51,10,Assisted_Takeoff,
0.373280093454139,36.9148104166181,5390.8738788728,0,0,0.196765426244,2000,2018-03-30 06:21:54,16,0,17.161,5390.8738788728,0,0,0.196765426244,0,0,0,28.4, -3, -1.9,0,0,1024,1024,1024,1024,29.3,0,99,4.315,4.292,4.275,4.263,0,0,4.074,80.51,10,Assisted_Takeoff,
0.373280092512491,36.9148104345189,5390.8738788728,0,0,0.20225230306,2100,2018-03-30 06:21:54,16,0,17.161,5390.8738788728,0,0,0.20225230306,0,0,0,28.4, -3, -1.9,0,0,1024,1024,1024,1024,29.2,0,99,4.315,4.292,4.275,4.263,0,0,4.074,80.51,10,Assisted_Takeoff,
0.373280093787156,36.9148104477282,5390.8738788728,0,0,0.206687014488,2200,2018-03-30 06:21:54,16,0,17.161,5390.8738788728,0,0,0.206687014488,0,0,0,28.4, -3, -1.9,0,0,1024,1024,1024,1024,29.1,0,99,4.315,4.292,4.275,4.263,0,0,4.074,80.51,10,Assisted_Takeoff,
0.373280123570175,36.9148104863562,5390.8738788728,0,0.223694,0.22429298618,2300,2018-03-30 06:21:55,16,0,17.161,5390.8738788728,0,0.223694,0.22429298618,0,-0.223694,0,28.4, -3, -1.9,0,0,1024,1024,1024,1024,29,0,99,4.315,4.292,4.275,4.263,0,0,4.074,80.51,10,Assisted_Takeoff,
0.373280151767497,36.9148105206331,5390.8738788728,0,0.223694,0.240263787216,2400,2018-03-30 06:21:55,16,0,17.161,5390.8738788728,0,0.223694,0.240263787216,0,-0.223694,0,28.4, -3, -1.9,0,0,1024,1024,1024,1024,28.9,0,99,4.315,4.292,4.275,4.263,0,0,4.074,80.51,10,Assisted_Takeoff,
0.37328017257494,36.9148105415573,5390.8738788728,0,0.223694,0.250697514584,2500,2018-03-30 06:21:55,16,0,17.161,5390.8738788728,0,0.223694,0.250697514584,0,-0.223694,0,28.4, -3, -1.9,0,0,1024,1024,1024,1024,28.9,0,99,4.315,4.292,4.275,4.263,0,0,4.074,80.51,10,Assisted_Takeoff,
0.3732801886945,36.9148105573939,5390.8738788728,0,0.223694,0.258683079144,2600,2018-03-30 06:21:55,16,0,17.161,5390.8738788728,0,0.223694,0.258683079144,0,-0.223694,0,28.4, -3, -1.9,0,0,1024,1024,1024,1024,28.8,0,99,4.315,4.292,4.275,4.263,0,0,4.074,80.51,10,Assisted_Takeoff,
0.373280195524195,36.9148105603167,5390.8738788728,0,0.223694,0.260894365304,2700,2018-03-30 06:21:55,16,0,17.161,5390.8738788728,0,0.223694,0.260894365304,0.223694,0,0,28.4, -3, -1.9,0,0,1024,1024,1024,1024,28.8,0,99,4.315,4.292,4.275,4.263,0,0,4.074,80.51,10,Assisted_Takeoff,
0.373280202511441,36.9148105633851,5390.8738788728,0,0,0.26319062522,2800,2018-03-30 06:21:55,16,0,17.161,5390.8738788728,0,0.223694,0.26319062522,0,0,0,28.4, -3, -2,0,0,1024,1024,1024,1024,28.8,0,99,4.315,4.292,4.275,4.263,0,0,4.074,80.51,10,Assisted_Takeoff,
0.373280201111793,36.9148105556446,5390.8738788728,0,0,0.260527895476,2900,2018-03-30 06:21:55,16,0,17.161,5390.8738788728,0,0.223694,0.26319062522,0,0,0,28.4, -3, -1.9,0,0,1024,1024,1024,1024,28.8,0,99,4.315,4.292,4.275,4.263,0,0,4.074,80.51,10,Assisted_Takeoff,
0.373280201954513,36.9148105504221,5390.8738788728,0,0,0.259083669708,3000,2018-03-30 06:21:55,16,0,17.081,5390.8738788728,0,0.223694,0.26319062522,0,0,0,28.4, -3, -1.9,0,0,1024,1024,1025,1024,28.7,0,99,4.291,4.263,4.24,4.231,0,0,4.074,80.51,10,Assisted_Takeoff,
0.373280195589739,36.914810538005,5390.8738788728,0,0,0.254016084244,3100,2018-03-30 06:21:55,16,0,17.081,5390.8738788728,0,0.223694,0.26319062522,0,0,0,28.4, -3, -1.9,0,0,1024,1024,1025,1024,28.7,0,99,4.291,4.263,4.24,4.231,0,0,4.074,80.51,10,Assisted_Takeoff,
0.373280192804693,36.9148105285814,5390.8738788728,0,0,0.250575139252,3200,2018-03-30 06:21:55,16,0,17.081,5390.8738788728,0,0.223694,0.26319062522,0,0,0,28.4, -3, -1.9,0,0,1024,1024,1041,1024,28.7,0,99,4.291,4.263,4.24,4.231,0,0,4.074,80.51,10,Assisted_Takeoff,
0.373280184899005,36.9148105156162,5390.8738788728,0,0.223694,0.245036753248,3300,2018-03-30 06:21:56,16,0,17.081,5390.8738788728,0,0.223694,0.26319062522,-0.223694,0,0,28.4, -3, -1.9,0,0,1024,1024,1051,1024,28.7,0,99,4.291,4.263,4.24,4.231,0,0,4.074,80.51,10,Assisted_Takeoff,
0.373280179839429,36.9148105050342,5390.8738788728,0,0.3131716,0.240793314792,3400,2018-03-30 06:21:56,16,0,17.081,5390.8738788728,0,0.3131716,0.26319062522,-0.223694,0.223694,0,28.4, -2.9, -1.9,0,0,1024,1024,1088,1024,28.7,0,99,4.291,4.263,4.24,4.231,0,0,4.074,80.51,10,Assisted_Takeoff,
0.373280170795865,36.914810495223,5390.8738788728,0,0.223694,0.235994758208,3500,2018-03-30 06:21:56,16,0,17.081,5390.8738788728,0,0.3131716,0.26319062522,-0.223694,0,0,28.4, -2.9, -1.8,0,0,1024,1024,1143,1024,28.7,0,99,4.291,4.263,4.24,4.231,0,0,4.074,80.51,10,Assisted_Takeoff,
0.373280162626369,36.914810486945,5390.8738788728,0,0.223694,0.231842527104,3600,2018-03-30 06:21:56,16,0,17.081,5390.8738788728,0,0.3131716,0.26319062522,-0.223694,0,0,28.4, -2.9, -1.8,0,0,1024,1024,1220,1024,28.7,0,99,4.291,4.263,4.24,4.231,0,0,4.074,80.51,10,Assisted_Takeoff,
0.373280185437205,36.9148104826004,5390.8738788728,0,0,0.235126976028,3700,2018-03-30 06:21:56,16,0,17.081,5390.8738788728,0,0.3131716,0.26319062522,0,0,0,28.4, -2.9, -1.7,0,0,1024,1024,1293,1024,28.7,0,99,4.291,4.263,4.24,4.231,0,0,4.074,80.51,10,Assisted_Takeoff,
0.373280203257268,36.9148104784593,5390.8738788728,0,0,0.237650598156,3800,2018-03-30 06:21:56,16,0,17.081,5390.8738788728,0,0.3131716,0.26319062522,0,0,0,28.4, -2.9, -1.7,0,0,1024,1024,1370,1024,28.6,0,99,4.291,4.263,4.24,4.231,0,0,4.074,80.51,10,Assisted_Takeoff,
0.373280218588254,36.9148105141537,5390.8738788728,0,0,0.251491477864,3900,2018-03-30 06:21:56,16,0,17.081,5390.8738788728,0,0.3131716,0.26319062522,0,0,0,28.4, -3.1, -1.8,0,0,1024,1024,1479,1024,28.6,0,99,4.291,4.263,4.24,4.231,0,0,4.074,80.51,10,Assisted_Takeoff,
0.373280227460831,36.9148105468055,5390.8738788728,0,0,0.263116478236,4000,2018-03-30 06:21:56,16,0,17.108,5390.8738788728,0,0.3131716,0.26319062522,0,0,0,28.5, -3.2, -1.7,0,0,1024,1024,1615,1024,28.6,0,99,4.308,4.284,4.269,4.263,0,0,1.95,80.51,10,Assisted_Takeoff,
0.373280258043824,36.9148105814529,5390.8738788728,0,0,0.279858276672,4100,2018-03-30 06:21:56,16,0,17.108,5390.8738788728,0,0.3131716,0.279858276672,0,0,0,28.7, -2, 0,0,0,1024,1024,1684,1024,28.6,0,99,4.308,4.284,4.269,4.263,0,0,1.95,80.51,10,Assisted_Takeoff,
0.373280328867296,36.9148106192394,5390.8738788728,0,0,0.306223106912,4200,2018-03-30 06:21:56,16,0,17.108,5390.8738788728,0,0.3131716,0.306223106912,0,0,-0.447388,28.7, -0.2, 1.4,0,0,1024,1024,1684,1048,28.6,0,99,4.308,4.284,4.269,4.263,0,0,1.95,80.51,6,P-GPS,Obstacle Avoided. Revise Flight Route
0.37328042627878,36.9148106829434,5390.8738788728,0,0.223694,0.34654528668,4300,2018-03-30 06:21:57,16,0,17.108,5390.8738788728,0,0.3131716,0.34654528668,0,0.223694,-0.894776,28.7, 0.4, 0.9,0,0,1024,1024,1684,1052,28.6,0,99,4.308,4.284,4.269,4.263,0,0,1.95,80.51,6,P-GPS,
0.373280498896797,36.914810766212,5390.8738788728,0,0.223694,0.3868438444,4400,2018-03-30 06:21:57,16,0,17.108,5390.8738788728,0,0.3131716,0.3868438444,0,0.223694,-1.565858,28.8, 0.4, 0.1,0,0,1024,1024,1684,1024,28.6,0,99,4.308,4.284,4.269,4.263,0,0,1.95,80.51,6,P-GPS,
0.373280560798432,36.9148108657989,5391.2019628728,0.328084,0.223694,0.42925198224,4500,2018-03-30 06:21:57,16,0,17.108,5391.2019628728,0.328084,0.3131716,0.42925198224,0,0.223694,-2.460634,28.9, 0.4, -0.5,0,0,1024,1024,1684,1054,28.6,0,99,4.308,4.284,4.269,4.263,0,0,1.95,80.51,6,P-GPS,
0.373280616346285,36.9148109558081,5391.8581308728,0.984252,0.223694,0.4675525084,4600,2018-03-30 06:21:57,16,0,17.108,5391.8581308728,0.984252,0.3131716,0.4675525084,0,0.223694,-3.35541,28.9, 0.6, -0.6,0,0,1024,1024,1684,1052,28.6,0,99,4.308,4.284,4.269,4.263,0,0,1.95,80.51,6,P-GPS,
0.37328070211643,36.9148110108637,5392.1862148728,1.312336,0,0.50288059352,4700,2018-03-30 06:21:57,16,0,17.108,5392.1862148728,1.312336,0.3131716,0.50288059352,0,0,-4.250186,28.9, 0.8, -0.5,0,0,1024,1024,1684,1045,28.6,0,99,4.308,4.284,4.269,4.263,0,0,1.95,80.51,6,P-GPS,
0.373280769739603,36.9148110528127,5392.8423828728,1.968504,0,0.53050854716,4800,2018-03-30 06:21:57,16,0,17.108,5392.8423828728,1.968504,0.3131716,0.53050854716,0,0,-5.144962,29.1, 0.6, -0.3,0,0,1024,1024,1684,1052,28.6,0,99,4.308,4.284,4.269,4.263,0,0,1.95,80.51,6,P-GPS,
0.373280829869898,36.9148111417855,5393.8266348728,2.952756,0,0.56943571376,4900,2018-03-30 06:21:57,16,0,17.108,5393.8266348728,2.952756,0.3131716,0.56943571376,0,0,-6.263432,29.3, 0.5, -0.6,0,0,1024,1024,1684,1052,28.6,0,99,4.308,4.284,4.269,4.263,0,0,1.95,80.51,6,P-GPS,
0.373280880333749,36.9148112133308,5394.8108868728,3.937008,0,0.60125986176,5000,2018-03-30 06:21:57,16,0,16.63,5394.8108868728,3.937008,0.3131716,0.60125986176,0,0,-7.381902,29.4, 0.6, -0.6,0,0,1024,1024,1684,1064,28.6,0,99,4.187,4.161,4.137,4.132,0,0,9.346,80.51,6,P-GPS,
0.373280999856246,36.9148112571662,5396.1232228728,5.249344,0,0.64197508616,5100,2018-03-30 06:21:57,16,0,16.63,5396.1232228728,5.249344,0.3131716,0.64197508616,0,0,-8.724066,29.4, 0.4, -0.8,0,0,1024,1024,1684,1056,28.7,0,99,4.187,4.161,4.137,4.132,0,0,9.346,80.51,6,P-GPS,Home Point Recorded. RTH Altitude:  45m.
0.373281110439806,36.9148112744824,5397.4355588728,6.56168,0,0.67420605832,5200,2018-03-30 06:21:57,16,0,16.63,5397.4355588728,6.56168,0.3131716,0.67420605832,0,0,-9.618842,29.5, 0.1, -0.6,0,0,1024,1024,1684,1066,28.7,0,99,4.187,4.161,4.137,4.132,0,0,9.346,80.51,6,P-GPS,
0.373281233287993,36.9148112466356,5398.7478948728,7.874016,0,0.69933401188,5300,2018-03-30 06:21:58,16,0,16.63,5398.7478948728,7.874016,0.3131716,0.69933401188,0,0,-10.289924,29.7, 0.5, 0.2,0,0,1024,1024,1684,1069,28.8,0,99,4.187,4.161,4.137,4.132,0,0,9.346,80.51,6,P-GPS,
0.373281333582637,36.91481121623,5400.3883148728,9.514436,0,0.71957351384,5400,2018-03-30 06:21:58,16,0,16.63,5400.3883148728,9.514436,0.3131716,0.71957351384,0,0,-10.961006,29.9, 0.6, 0.2,0,0,1024,1024,1684,1076,28.9,0,99,4.187,4.161,4.137,4.132,0,0,9.346,80.51,6,P-GPS,
0.373281447196732,36.9148111828973,5402.0287348728,11.154856,0,0.7444554044,5500,2018-03-30 06:21:58,16,0,16.63,5402.0287348728,11.154856,0.3131716,0.7444554044,0,0,-11.408394,30.1, 0.4, 0.2,0,0,1024,1024,1684,1075,29,0,99,4.187,4.161,4.137,4.132,0,0,9.346,80.51,6,P-GPS,
0.373281547807295,36.9148111518044,5403.6691548728,12.795276,0,0.7675197096,5600,2018-03-30 06:21:58,16,0,16.63,5403.6691548728,12.795276,0.3131716,0.7675197096,0,0,-11.408394,30.6, 0.3, 0.3,0,0,1024,1024,1684,1076,29.2,0,99,4.187,4.161,4.137,4.132,0,0,9.346,80.51,6,P-GPS,
0.37328165955275,36.9148111656475,5405.6376588728,14.76378,0,0.80411419896,5700,2018-03-30 06:21:58,16,0,16.63,5405.6376588728,14.76378,0.3131716,0.80411419896,0,0,-11.632088,31, 0.7, 0.5,0,0,1024,1024,1684,1078,29.4,0,99,4.187,4.161,4.137,4.132,0,0,9.346,80.51,6,P-GPS,
0.373281751597698,36.914811178617,5407.2780788728,16.4042,0,0.83487863564,5800,2018-03-30 06:21:58,16,0,16.63,5407.2780788728,16.4042,0.3131716,0.83487863564,0,0,-11.408394,31.3, 1.1, 0.8,0,0,1024,1024,1684,1078,29.7,0,99,4.187,4.161,4.137,4.132,0,0,9.346,80.51,6,P-GPS,
0.373281828950823,36.9148111637354,5408.9184988728,18.04462,0,0.85601708776,5900,2018-03-30 06:21:58,16,0,16.63,5408.9184988728,18.04462,0.3131716,0.85601708776,0,0,-11.1847,31.8, 0.8, 0.6,0,0,1024,1024,1684,1082,29.7,0,99,4.187,4.161,4.137,4.132,0,0,9.346,80.51,6,P-GPS,
0.37328186239947,36.9148111315418,5410.2308348728,19.356956,0,0.86055448948,6000,2018-03-30 06:21:58,16,0,16.019,5410.2308348728,19.356956,0.3131716,0.86055448948,0,0,-10.961006,32.2, 0, 0.5,0,0,1024,1024,1684,1082,30,0,99,4.187,4.161,4.137,4.132,0,0,9.346,80.51,6,P-GPS,
0.373281872565439,36.9148110760195,5411.8712548728,20.997376,0,0.8538550142,6100,2018-03-30 06:21:58,16,0,16.019,5411.8712548728,20.997376,0.3131716,0.86055448948,0,0,-10.737312,32.6, -0.9, 0.3,0,0,1024,1024,1684,1081,30.3,0,99,4.187,4.161,4.137,4.132,0,0,9.346,80.51,6,P-GPS,
0.373281883995487,36.9148110329398,5413.5116748728,22.637796,0,0.85010829492,6200,2018-03-30 06:21:58,16,0,16.019,5413.5116748728,22.637796,0.3131716,0.86055448948,0,0,-10.513618,33.1, -0.8, 0.3,0,0,1024,1024,1684,1077,30.6,0,99,4.187,4.161,4.137,4.132,0,0,9.346,80.51,6,P-GPS,
0.373281928594497,36.914811025332,5415.1520948728,24.278216,0,0.86329399088,6300,2018-03-30 06:21:58,16,0,16.019,5415.1520948728,24.278216,0.3131716,0.86329399088,0,0,-10.513618,33.6, -0.4, 0,0,0,1024,1024,1684,1079,30.9,0,99,4.187,4.161,4.137,4.132,0,0,9.346,80.51,6,P-GPS,
0.373281972180208,36.9148110196813,5416.4644308728,25.590552,0,0.8765748312,6400,2018-03-30 06:21:59,16,0,16.019,5416.4644308728,25.590552,0.3131716,0.8765748312,0,0,-10.513618,34, -0.4, 0,0,0,1024,1024,1684,1072,31.3,0,99,4.187,4.161,4.137,4.132,0,0,9.346,80.51,6,P-GPS,
0.373282012314838,36.9148109895198,5418.1048508728,27.230972,0,0.88495409656,6500,2018-03-30 06:21:59,16,0,16.019,5418.1048508728,27.230972,0.3131716,0.88495409656,0,0,-10.513618,34.4, -0.6, 0.3,0,0,1024,1024,1684,1024,31.6,0,99,4.187,4.161,4.137,4.132,0,0,9.346,80.51,6,P-GPS,
0.373282052485295,36.9148109624631,5419.7452708728,28.871392,0,0.89410764016,6600,2018-03-30 06:21:59,16,0,16.019,5419.7452708728,28.871392,0.3131716,0.89410764016,0,0,-10.513618,34.6, -0.6, 0.3,0,0,1024,1024,1684,1024,31.8,0,99,4.187,4.161,4.137,4.132,0,0,9.346,80.51,6,P-GPS,
0.373282077933396,36.9148109152658,5421.0576068728,30.183728,0,0.89567588168,6700,2018-03-30 06:21:59,16,0,16.019,5421.0576068728,30.183728,0.3131716,0.89567588168,0,0,-10.513618,34.6, -0.6, 0.2,0,0,1024,1024,1684,1021,32,0,99,4.187,4.161,4.137,4.132,0,0,9.346,80.51,6,P-GPS,
0.373282110610161,36.9148108765223,5422.6980268728,31.824148,0,0.90126643304,6800,2018-03-30 06:21:59,16,0,16.019,5422.6980268728,31.824148,0.3131716,0.90126643304,0,0,-10.513618,34.6, -0.3, 0.1,0,0,1024,1024,1684,980,32.1,0,99,4.187,4.161,4.137,4.132,0,0,9.346,80.51,6,P-GPS,
0.37328216016819,36.9148108138888,5424.3384468728,33.464568,0,0.90991144644,6900,2018-03-30 06:21:59,16,0,16.231,5424.3384468728,33.464568,0.3131716,0.90991144644,0,0,-10.513618,34.5, -0.5, 0.2,0,0,1024,1024,1684,963,32.2,0,99,4.11,4.093,4.077,4.08,0,0,21.146,80.51,6,P-GPS,
0.373282286673862,36.9148107363973,5427.2912028728,36.417324,0,0.94440291736,7100,2018-03-30 06:21:59,16,0,16.231,5427.2912028728,36.417324,0.3131716,0.94440291736,0,0,-10.513618,33.7, -0.2, 0.3,0,0,1024,1024,1684,968,32.1,0,99,4.11,4.093,4.077,4.08,0,0,21.146,80.51,6,P-GPS,
0.373282356150611,36.9148107191732,5428.9316228728,38.057744,0,0.96675199944,7200,2018-03-30 06:21:59,16,0,16.231,5428.9316228728,38.057744,0.3131716,0.96675199944,0,0,-10.513618,33.1, 0, 0.4,0,0,1024,1024,1684,967,32,0,99,4.11,4.093,4.077,4.08,0,0,21.146,80.51,6,P-GPS,
0.373282452693727,36.9148106793911,5430.5720428728,39.698164,0,0.99655186916,7300,2018-03-30 06:22:00,16,0,16.231,5430.5720428728,39.698164,0.3131716,0.99655186916,0,0,-10.513618,32.7, 0.1, 0.6,0,0,1024,1024,1684,958,31.7,0,99,4.11,4.093,4.077,4.08,0,0,21.146,80.51,6,P-GPS,
0.373282536132755,36.9148106372108,5431.8843788728,41.0105,0,1.02205383848,7400,2018-03-30 06:22:00,16,0,16.231,5431.8843788728,41.0105,0.3131716,1.02205383848,0,0,-10.513618,32.1, -0.2, 0.6,0,0,1024,1024,1684,967,31.5,0,99,4.11,4.093,4.077,4.08,0,0,21.146,80.51,6,P-GPS,
0.373282637702064,36.9148106109528,5433.5247988728,42.65092,0,1.05580055872,7500,2018-03-30 06:22:00,16,0,16.231,5433.5247988728,42.65092,0.3131716,1.05580055872,0,0,-10.513618,31.5, -0.4, 0.9,0,0,1024,1024,1684,970,31.5,0,99,4.11,4.093,4.077,4.08,0,0,21.146,80.51,6,P-GPS,
0.373282731695037,36.9148105973773,5435.1652188728,44.29134,0,1.08813651776,7600,2018-03-30 06:22:00,16,0,16.231,5435.1652188728,44.29134,0.3131716,1.08813651776,0,0,-10.737312,31, -0.1, 0.8,0,0,1024,1024,1684,972,31.4,0,99,4.11,4.093,4.077,4.08,0,0,21.146,80.51,6,P-GPS,
0.373282844075586,36.9148106117108,5436.8056388728,45.93176,0,1.12930777892,7700,2018-03-30 06:22:00,16,0,16.231,5436.8056388728,45.93176,0.3131716,1.12930777892,0,0,-10.737312,30.6, 0.3, 0.8,0,0,1024,1024,1684,977,31.2,0,99,4.11,4.093,4.077,4.08,0,0,21.146,80.51,6,P-GPS,
0.373282936786974,36.9148106245689,5438.4460588728,47.57218,0,1.16335633644,7800,2018-03-30 06:22:00,16,0,16.231,5438.4460588728,47.57218,0.3131716,1.16335633644,0,0,-10.961006,30.2, 0.3, 0.8,0,0,1024,1024,1684,980,31.1,0,99,4.11,4.093,4.077,4.08,0,0,21.146,80.51,6,P-GPS,
0.373282999826483,36.9148106478485,5440.0864788728,49.2126,0,1.18763783328,7900,2018-03-30 06:22:00,16,0,16.231,5440.0864788728,49.2126,0.3131716,1.18763783328,0,0,-11.1847,29.8, 0, 0.4,0,0,1024,1024,1684,980,31,0,99,4.11,4.093,4.077,4.08,0,0,21.146,80.51,6,P-GPS,
0.373283050230896,36.9148106634175,5441.7268988728,50.85302,0,1.20681762392,8000,2018-03-30 06:22:00,16,0,16.284,5441.7268988728,50.85302,0.3131716,1.20681762392,0,0,-11.1847,29.5, -0.1, 0.4,0,0,1024,1024,1684,980,30.7,0,99,4.117,4.095,4.076,4.079,0,0,17.942,80.51,6,P-GPS,
0.373283204511309,36.9148106796438,5445.3358228728,54.461944,0,1.26307746824,8200,2018-03-30 06:22:00,16,0,16.284,5445.3358228728,54.461944,0.3131716,1.26307746824,0,0,-11.632088,28.8, 0, 0.6,0,0,1024,1024,1684,982,30.6,0,99,4.117,4.095,4.076,4.079,0,0,17.942,80.51,6,P-GPS,
0.373283304676085,36.9148106738089,5446.9762428728,56.102364,0,1.29839571084,8300,2018-03-30 06:22:01,16,0,16.284,5446.9762428728,56.102364,0.3131716,1.29839571084,0,0,-11.632088,28.4, 0.2, 0.8,0,0,1024,1024,1684,988,30.4,0,99,4.117,4.095,4.076,4.079,0,0,17.942,80.51,6,P-GPS,
0.373283384274428,36.9148106499598,5448.9447468728,58.070868,0,1.32514439936,8400,2018-03-30 06:22:01,16,0,16.284,5448.9447468728,58.070868,0.3131716,1.32514439936,0,0,-11.632088,28.1, 0.1, 1,0,0,1024,1024,1684,987,30.3,0,99,4.117,4.095,4.076,4.079,0,0,17.942,80.51,6,P-GPS,
0.373283441930301,36.9148106166485,5450.5851668728,59.711288,0,1.34354663092,8500,2018-03-30 06:22:01,16,0,16.284,5450.5851668728,59.711288,0.3131716,1.34354663092,0,0,-11.855782,27.8, -0.3, 1.5,0,0,1024,1024,1684,980,30.2,0,99,4.117,4.095,4.076,4.079,0,0,17.942,80.51,6,P-GPS,
0.373283473161415,36.9148105781019,5452.5536708728,61.679792,0,1.35230975456,8600,2018-03-30 06:22:01,16,0,16.284,5452.5536708728,61.679792,0.3131716,1.35230975456,0,0,-11.855782,27.6, -0.6, 1.7,0,0,1024,1024,1684,1007,30,0,99,4.117,4.095,4.076,4.079,0,0,17.942,80.51,6,P-GPS,
0.37328349162797,36.914810560124,5454.5221748728,63.648296,0,1.35786421668,8700,2018-03-30 06:22:01,16,0,16.284,5454.5221748728,63.648296,0.3131716,1.35786421668,0,0,-11.632088,27.3, -1, 1.7,0,0,1024,1024,1684,1023,29.9,0,99,4.117,4.095,4.076,4.079,0,0,17.942,80.51,6,P-GPS,
0.373283502524703,36.9148105487176,5456.1625948728,65.288716,0,1.36111224828,8800,2018-03-30 06:22:01,16,0,16.284,5456.1625948728,65.288716,0.3131716,1.36111224828,0,0,-11.632088,27.2, -1.3, 1.9,0,0,1024,1024,1684,1023,29.8,0,99,4.117,4.095,4.076,4.079,0,0,17.942,80.51,6,P-GPS,
0.373283527995195,36.9148105421933,5458.1310988728,67.25722,0,1.36991146116,8900,2018-03-30 06:22:01,16,0,16.284,5458.1310988728,67.25722,0.3131716,1.36991146116,0,0,-11.855782,27.3, -1.1, 1.7,0,0,1024,1024,1684,1024,29.7,0,99,4.117,4.095,4.076,4.079,0,0,17.942,80.51,6,P-GPS,
0.373283550932643,36.9148105439791,5459.7715188728,68.89764,0,1.37827760316,9000,2018-03-30 06:22:01,16,0,16.284,5459.7715188728,68.89764,0.3131716,1.37827760316,0,0,-11.855782,27.3, -0.8, 1.6,0,0,1024,1024,1684,1024,29.6,0,99,4.113,4.093,4.073,4.077,0,0,17.626,80.51,6,P-GPS,
0.373283561266749,36.9148105639611,5461.7400228728,70.866144,0,1.38315949308,9100,2018-03-30 06:22:01,16,0,16.284,5461.7400228728,70.866144,0.3131716,1.38315949308,0,0,-11.855782,27.3, -0.5, 1.6,0,0,1024,1024,1684,1023,29.6,0,99,4.113,4.093,4.073,4.077,0,0,17.626,80.51,6,P-GPS,
0.37328355186167,36.9148105810268,5463.3804428728,72.506564,0,1.38079400744,9200,2018-03-30 06:22:01,16,0,16.284,5463.3804428728,72.506564,0.3131716,1.38315949308,0,0,-11.855782,27.3, -0.8, 1.5,0,0,1024,1024,1684,1024,29.5,0,99,4.113,4.093,4.073,4.077,0,0,17.626,80.51,6,P-GPS,
0.373283522000893,36.914810595735,5465.3489468728,74.475068,0,1.3709646108,9300,2018-03-30 06:22:02,16,0,16.284,5465.3489468728,74.475068,0.3131716,1.38315949308,0,0,-11.632088,27.3, -1.1, 1.5,0,0,1024,1024,1684,1024,29.4,0,99,4.113,4.093,4.073,4.077,0,0,17.626,80.51,6,P-GPS,
0.373283491129666,36.9148106093105,5467.3174508728,76.443572,0,1.36073167084,9400,2018-03-30 06:22:02,16,0,16.284,5467.3174508728,76.443572,0.3131716,1.38315949308,0,0,-11.632088,27.3, -1.4, 1.4,0,0,1024,1024,1684,1024,29.4,0,99,4.113,4.093,4.073,4.077,0,0,17.626,80.51,6,P-GPS,
0.373283405765817,36.9148106215541,5468.9578708728,78.083992,0,1.33089899272,9500,2018-03-30 06:22:02,16,0,16.284,5468.9578708728,78.083992,0.3131716,1.38315949308,0,0,-11.632088,27.3, -1.4, 1.5,0,0,1024,1024,1684,1024,29.3,0,99,4.113,4.093,4.073,4.077,0,0,17.626,80.51,6,P-GPS,
0.373283328597927,36.9148106418402,5470.5982908728,79.724412,0,1.3046424302,9600,2018-03-30 06:22:02,16,0,16.284,5470.5982908728,79.724412,0.3131716,1.38315949308,0,0,-11.632088,27.3, -1.4, 1.4,0,0,1024,1024,1684,1024,29.2,0,99,4.113,4.093,4.073,4.077,0,0,17.626,80.51,6,P-GPS,
0.373283277129326,36.9148106656401,5472.5667948728,81.692916,0,1.28794951628,9700,2018-03-30 06:22:02,16,0,16.284,5472.5667948728,81.692916,0.3131716,1.38315949308,0,0,-11.632088,27.3, -1.6, 1.2,0,0,1024,1024,1684,1024,29.2,0,99,4.113,4.093,4.073,4.077,0,0,17.626,80.51,6,P-GPS,
0.373283247247379,36.9148106946367,5474.2072148728,83.333336,0,1.27947182572,9800,2018-03-30 06:22:02,16,0,16.284,5474.2072148728,83.333336,0.3131716,1.38315949308,0,0,-11.408394,27.3, -1.3, 1.2,0,0,1024,1024,1684,1024,29.1,0,99,4.113,4.093,4.073,4.077,0,0,17.626,80.51,6,P-GPS,
0.373283211796153,36.9148107133897,5475.8476348728,84.973756,0,1.26831696972,9900,2018-03-30 06:22:02,16,0,16.284,5475.8476348728,84.973756,0.3131716,1.38315949308,0,0,-11.408394,27.3, -1.1, 1,0,0,1024,1024,1684,1024,29.1,0,99,4.113,4.093,4.073,4.077,0,0,17.626,80.51,6,P-GPS,
0.373283180452677,36.914810736119,5477.8161388728,86.94226,0,1.25901906916,10000,2018-03-30 06:22:02,16,0,16.338,5477.8161388728,86.94226,0.3131716,1.38315949308,0,0,-11.408394,27.3, -1.1, 0.9,0,0,1024,1024,1684,1024,29,0,99,4.113,4.093,4.073,4.077,0,0,17.626,80.51,6,P-GPS,
0.373283171399343,36.9148107700726,5479.4565588728,88.58268,0,1.25868442348,10100,2018-03-30 06:22:02,16,0,16.338,5479.4565588728,88.58268,0.3131716,1.38315949308,0,0,-11.1847,27.3, -1.1, 1.1,0,0,1024,1024,1684,1024,29,0,99,4.113,4.093,4.073,4.077,0,0,17.626,80.51,6,P-GPS,
0.373283168930622,36.9148108097413,5481.0969788728,90.2231,0,1.26132221884,10200,2018-03-30 06:22:02,16,0,16.338,5481.0969788728,90.2231,0.3131716,1.38315949308,0,0,-11.1847,27.3, -0.9, 0.8,0,0,1024,1024,1684,1024,28.9,0,99,4.113,4.093,4.073,4.077,0,0,17.626,80.51,6,P-GPS,
0.3732831836314,36.9148108176467,5482.7373988728,91.86352,0,1.26723429252,10300,2018-03-30 06:22:03,16,0,16.338,5482.7373988728,91.86352,0.3131716,1.38315949308,0,0,-11.1847,27.3, -0.8, 0.8,0,0,1024,1024,1684,1024,28.9,0,99,4.113,4.093,4.073,4.077,0,0,17.626,80.51,6,P-GPS,
0.37328319552067,36.9148108075443,5484.7059028728,93.832024,0,1.27052497504,10400,2018-03-30 06:22:03,16,0,16.338,5484.7059028728,93.832024,0.3131716,1.38315949308,0,0,-11.1847,27.3, -0.8, 1,0,0,1024,1024,1684,1024,28.8,0,99,4.113,4.093,4.073,4.077,0,0,17.626,80.51,6,P-GPS,
0.373283176592451,36.9148107611758,5486.3463228728,95.472444,0,1.259760539,10500,2018-03-30 06:22:03,16,0,16.338,5486.3463228728,95.472444,0.3131716,1.38315949308,0,0,-11.1847,27.3, -1.1, 1.3,0,0,1024,1024,1684,1024,28.8,0,99,4.113,4.093,4.073,4.077,0,0,17.626,80.51,6,P-GPS,
0.373283154829111,36.9148107125868,5487.9867428728,97.112864,0,1.24797904256,10600,2018-03-30 06:22:03,16,0,16.338,5487.9867428728,97.112864,0.3131716,1.38315949308,0,0,-10.961006,27.3, -1.4, 1.8,0,0,1024,1024,1684,1024,28.8,0,99,4.113,4.093,4.073,4.077,0,0,17.626,80.51,6,P-GPS,
0.373283140190214,36.9148106335857,5489.6271628728,98.753284,0,1.23665358288,10700,2018-03-30 06:22:03,16,0,16.338,5489.6271628728,98.753284,0.3131716,1.38315949308,0,0,-11.1847,27.3, -1, 1.9,0,0,1024,1024,1684,1024,28.7,0,99,4.113,4.093,4.073,4.077,0,0,17.626,80.51,6,P-GPS,
0.373283116250459,36.9148105688239,5491.2675828728,100.393704,0,1.22353350372,10800,2018-03-30 06:22:03,16,0,16.338,5491.2675828728,100.393704,0.3131716,1.38315949308,0,0,-11.1847,27.3, -1.2, 1.5,0,0,1024,1024,1684,1024,28.7,0,99,4.113,4.093,4.073,4.077,0,0,17.626,80.51,6,P-GPS,
0.373283048488461,36.914810486566,5493.2360868728,102.362208,0,1.19396985448,10900,2018-03-30 06:22:03,16,0,16.284,5493.2360868728,102.362208,0.3131716,1.38315949308,0,0,-11.1847,27.3, -1.8, 1.7,0,0,1024,1024,1684,1024,28.7,0,99,4.118,4.099,4.079,4.082,0,0,16.384,80.51,6,P-GPS,
0.373282910591824,36.914810399349,5496.5169268728,105.643048,0,1.13937339604,11100,2018-03-30 06:22:03,16,0,16.284,5496.5169268728,105.643048,0.3131716,1.38315949308,0,0,-11.1847,27.3, -1.9, 1.3,0,0,1024,1024,1684,1024,28.6,0,99,4.118,4.099,4.079,4.082,0,0,16.384,80.51,6,P-GPS,
0.373282840850452,36.9148103856772,5498.1573468728,107.283468,0,1.11347444508,11200,2018-03-30 06:22:03,16,0,16.284,5498.1573468728,107.283468,0.3131716,1.38315949308,0,0,-11.1847,27.3, -2.1, 1,0,0,1024,1024,1684,1024,28.6,0,99,4.118,4.099,4.079,4.082,0,0,16.384,80.51,6,P-GPS,
0.373282773254556,36.9148103599952,5499.7977668728,108.923888,0,1.0877460978,11300,2018-03-30 06:22:04,16,0,16.284,5499.7977668728,108.923888,0.3131716,1.38315949308,0,0,-10.961006,27.3, -2.1, 1.1,0,0,1024,1024,1684,1024,28.6,0,99,4.118,4.099,4.079,4.082,0,0,16.384,80.51,6,P-GPS,
0.373282716219934,36.9148103327543,5501.7662708728,110.892392,0,1.0657972782,11400,2018-03-30 06:22:04,16,0,16.284,5501.7662708728,110.892392,0.3131716,1.38315949308,0,0,-10.961006,27.3, -2.1, 1.1,0,0,1024,1024,1684,1024,28.6,0,99,4.118,4.099,4.079,4.082,0,0,16.384,80.51,6,P-GPS,
0.373282629078639,36.9148103173502,5503.4066908728,112.532812,0,1.03354334016,11500,2018-03-30 06:22:04,16,0,16.284,5503.4066908728,112.532812,0.3131716,1.38315949308,0,0,-11.1847,27.2, -2.1, 0.8,0,0,1024,1024,1684,1024,28.5,0,99,4.118,4.099,4.079,4.082,0,0,16.384,80.51,6,P-GPS,
0.373282565814404,36.9148102906061,5505.0471108728,114.173232,0,1.0094160428,11600,2018-03-30 06:22:04,16,0,16.284,5505.0471108728,114.173232,0.3131716,1.38315949308,0,0,-11.1847,27.2, -1.9, 1.1,0,0,1024,1024,1684,1024,28.5,0,99,4.118,4.099,4.079,4.082,0,0,16.384,80.51,6,P-GPS,
0.37328251063295,36.9148102335785,5506.6875308728,115.813652,0,0.98705383736,11700,2018-03-30 06:22:04,16,0,16.284,5506.6875308728,115.813652,0.3131716,1.38315949308,0,0,-11.1847,27.3, -1.8, 1.4,0,0,1024,1024,1684,1024,28.5,0,99,4.118,4.099,4.079,4.082,0,0,16.384,80.51,6,P-GPS,
0.37328245132502,36.9148101715703,5508.3279508728,117.454072,0,0.96338913844,11800,2018-03-30 06:22:04,16,0,16.284,5508.3279508728,117.454072,0.3131716,1.38315949308,0,0,-10.961006,27.3, -2.2, 1.4,0,0,1024,1024,1684,1024,28.5,0,99,4.118,4.099,4.079,4.082,0,0,16.384,80.51,6,P-GPS,
0.373282408352826,36.9148100958047,5510.2964548728,119.422576,0,0.94583008276,11900,2018-03-30 06:22:04,16,0,16.284,5510.2964548728,119.422576,0.3131716,1.38315949308,0,0,-10.961006,27.3, -3, 1.5,0,0,1024,1024,1684,1024,28.5,0,99,4.118,4.099,4.079,4.082,0,0,16.384,80.51,6,P-GPS,
0.373282374549585,36.9148100342997,5511.9368748728,121.062996,0,0.93252299572,12000,2018-03-30 06:22:04,16,0,16.311,5511.9368748728,121.062996,0.3131716,1.38315949308,0,0,-10.961006,27.3, -2.9, 1.6,0,0,1024,1024,1684,1024,28.4,0,99,4.114,4.09,4.069,4.073,0,0,16.83,80.51,6,P-GPS,
0.373282340740645,36.9148100218955,5513.5772948728,122.703416,0,0.92005580372,12100,2018-03-30 06:22:04,16,0,16.311,5513.5772948728,122.703416,0.3131716,1.38315949308,0,0,-10.961006,27.3, -3, 1.3,0,0,1024,1024,1684,1024,28.4,0,99,4.114,4.09,4.069,4.073,0,0,16.83,80.51,6,P-GPS,
0.373282314475472,36.9148100138615,5515.2177148728,124.343836,0,0.9104002916,12200,2018-03-30 06:22:04,16,0,16.311,5515.2177148728,124.343836,0.3131716,1.38315949308,0,0,-11.1847,27.3, -3, 1,0,0,1024,1024,1684,1024,28.4,0,99,4.114,4.09,4.069,4.073,0,0,16.83,80.51,6,P-GPS,
0.373282268745507,36.9148100070438,5516.8581348728,125.984256,0,0.89366144592,12300,2018-03-30 06:22:05,16,0,16.311,5516.8581348728,125.984256,0.3131716,1.38315949308,0,0,-10.961006,27.3, -2.9, 0.9,0,0,1024,1024,1684,1024,28.4,0,99,4.114,4.09,4.069,4.073,0,0,16.83,80.51,6,P-GPS,
0.373282248096838,36.9148099871217,5518.4985548728,127.624676,0,0.88599412284,12400,2018-03-30 06:22:05,16,0,16.311,5518.4985548728,127.624676,0.3131716,1.38315949308,0,0,-10.961006,27.3, -2.7, 1.3,0,0,1024,1024,1684,1024,28.4,0,99,4.114,4.09,4.069,4.073,0,0,16.83,80.51,6,P-GPS,
0.373282261477762,36.9148099444104,5520.1389748728,129.265096,0,0.89078414924,12500,2018-03-30 06:22:05,16,0,16.311,5520.1389748728,129.265096,0.3131716,1.38315949308,0,0,-10.961006,27.3, -2.6, 1.7,0,0,1024,1024,1684,1024,28.4,0,99,4.114,4.09,4.069,4.073,0,0,16.83,80.51,6,P-GPS,
0.373282294684178,36.9148099036776,5521.7793948728,130.905516,0,0.9030676142,12600,2018-03-30 06:22:05,16,0,16.311,5521.7793948728,130.905516,0.3131716,1.38315949308,0,0,-10.961006,27.3, -2.5, 1.8,0,0,1024,1024,1684,1024,28.3,0,99,4.114,4.09,4.069,4.073,0,0,16.83,80.51,6,P-GPS,
0.373282337671028,36.9148098483694,5523.7478988728,132.87402,0,0.91935370396,12700,2018-03-30 06:22:05,16,0,16.311,5523.7478988728,132.87402,0.3131716,1.38315949308,0,0,-10.961006,27.3, -2.2, 2,0,0,1024,1024,1684,1024,28.3,0,99,4.114,4.09,4.069,4.073,0,0,16.83,80.51,6,P-GPS,
0.373282387203409,36.9148098016796,5525.3883188728,134.51444,0,0.93825134236,12800,2018-03-30 06:22:05,16,0,16.311,5525.3883188728,134.51444,0.3131716,1.38315949308,0,0,-10.961006,27.3, -1.7, 2.3,0,0,1024,1024,1684,1024,28.3,0,99,4.114,4.09,4.069,4.073,0,0,16.83,80.51,6,P-GPS,
0.373282410196224,36.9148097531463,5527.0287388728,136.15486,0,0.94781499096,12900,2018-03-30 06:22:05,16,0,16.311,5527.0287388728,136.15486,0.3131716,1.38315949308,0,0,-10.961006,27.3, -1.7, 2.1,0,0,1024,1024,1684,1024,28.3,0,99,4.114,4.09,4.069,4.073,0,0,16.83,80.51,6,P-GPS,
0.373282429178182,36.9148097155354,5528.6691588728,137.79528,0,0.95585961064,13000,2018-03-30 06:22:05,16,0,16.178,5528.6691588728,137.79528,0.3131716,1.38315949308,0,0,-10.961006,27.3, -2, 1.5,0,0,1024,1024,1684,1024,28.3,0,99,4.114,4.09,4.069,4.073,0,0,16.538,80.51,6,P-GPS,
0.373282435003126,36.9148096955683,5530.6376628728,139.763784,0,0.958661448,13100,2018-03-30 06:22:05,16,0,16.178,5530.6376628728,139.763784,0.3131716,1.38315949308,0,0,-11.1847,27.3, -2, 1.5,0,0,1024,1024,1684,1024,28.3,0,99,4.114,4.09,4.069,4.073,0,0,16.538,80.51,6,P-GPS,
0.373282475206965,36.9148096663661,5532.2780828728,141.404204,0,0.97434058236,13200,2018-03-30 06:22:05,16,0,16.178,5532.2780828728,141.404204,0.3131716,1.38315949308,0,0,-10.961006,27.2, -2, 2.3,0,0,1024,1024,1684,1024,28.3,0,99,4.114,4.09,4.069,4.073,0,0,16.538,80.51,6,P-GPS,
0.373282545628212,36.9148096213679,5533.9185028728,143.044624,0.223694,1.00173231552,13300,2018-03-30 06:22:06,16,0,16.178,5533.9185028728,143.044624,0.3131716,1.38315949308,0.223694,0,-10.961006,27.2, -1.4, 3.1,0,0,1024,1024,1684,1024,28.2,0,99,4.114,4.09,4.069,4.073,0,0,16.538,80.51,6,P-GPS,
0.373282637376375,36.914809588911,5535.5589228728,144.685044,0.223694,1.036417356,13400,2018-03-30 06:22:06,16,0,16.178,5535.5589228728,144.685044,0.3131716,1.38315949308,0.223694,0,-11.1847,27.2, -0.7, 3.4,0,0,1024,1024,1684,1024,28.2,0,99,4.114,4.09,4.069,4.073,0,0,16.538,80.51,6,P-GPS,
0.373282745639403,36.9148096008206,5537.1993428728,146.325464,0.223694,1.07507877456,13500,2018-03-30 06:22:06,16,0,16.178,5537.1993428728,146.325464,0.3131716,1.38315949308,0.223694,0,-10.961006,27.2, -0.8, 3.2,0,0,1024,1024,1684,1024,28.2,0,99,4.114,4.09,4.069,4.073,0,0,16.538,80.51,6,P-GPS,
0.373282859072741,36.914809636635,5539.1678468728,148.293968,0.223694,1.11476053436,13600,2018-03-30 06:22:06,16,0,16.178,5539.1678468728,148.293968,0.3131716,1.38315949308,0.223694,0,-10.961006,27.2, -0.7, 2.8,0,0,1024,1024,1684,1024,28.2,0,99,4.114,4.09,4.069,4.073,0,0,16.538,80.51,6,P-GPS,
0.373282985445694,36.9148097019492,5540.8082668728,149.934388,0.223694,1.1585138166,13700,2018-03-30 06:22:06,16,0,16.178,5540.8082668728,149.934388,0.3131716,1.38315949308,0.223694,0,-10.961006,27.2, -0.2, 2.6,0,0,1024,1024,1684,1024,28.2,0,99,4.114,4.09,4.069,4.073,0,0,16.538,80.51,6,P-GPS,
0.373283114135924,36.9148097733167,5542.4486868728,151.574808,0.223694,1.20363520912,13800,2018-03-30 06:22:06,16,0,16.178,5542.4486868728,151.574808,0.3131716,1.38315949308,0.223694,0,-10.961006,27.2, 0.3, 2.3,0,0,1024,1024,1684,1024,28.2,0,99,4.114,4.09,4.069,4.073,0,0,16.538,80.51,6,P-GPS,
0.373283269855881,36.9148098639426,5544.0891068728,153.215228,0.223694,1.25909452848,13900,2018-03-30 06:22:06,16,0,16.178,5544.0891068728,153.215228,0.3131716,1.38315949308,0.223694,0,-10.961006,27.2, 0.7, 2.1,0,0,1024,1024,1684,1024,28.2,0,99,4.114,4.09,4.069,4.073,0,0,16.538,80.51,6,P-GPS,
0.373283412893517,36.9148099441792,5545.7295268728,154.855648,0.223694,1.31087930704,14000,2018-03-30 06:22:06,16,0,16.231,5545.7295268728,154.855648,0.3131716,1.38315949308,0.223694,0,-10.961006,27.2, 0.9, 2.2,0,0,1024,1024,1684,1024,28.2,0,99,4.107,4.086,4.065,4.069,0,0,16.538,80.51,6,P-GPS,
0.373283532628118,36.9148100126175,5547.3699468728,156.496068,0.223694,1.354740857,14100,2018-03-30 06:22:06,16,0,16.231,5547.3699468728,156.496068,0.3131716,1.38315949308,0.223694,0,-10.961006,27.2, 1.1, 2.4,0,0,1024,1024,1684,1024,28.2,0,99,4.107,4.086,4.065,4.069,0,0,16.538,80.51,6,P-GPS,
0.373283637441288,36.9148100688464,5549.3384508728,158.464572,0.223694,1.393454769,14200,2018-03-30 06:22:06,16,0,16.231,5549.3384508728,158.464572,0.3131716,1.393454769,0.223694,0,-10.961006,27.3, 1.1, 2.5,0,0,1024,1024,1684,1024,28.1,0,99,4.107,4.086,4.065,4.069,0,0,16.538,80.51,6,P-GPS,
0.373283752581235,36.9148101144185,5550.9788708728,160.104992,0,1.43603679136,14300,2018-03-30 06:22:07,16,0,16.231,5550.9788708728,160.104992,0.3131716,1.43603679136,0,0,-10.961006,27.3, 1.3, 2.2,0,0,1024,1024,1684,1024,28.1,0,99,4.107,4.086,4.065,4.069,0,0,16.538,80.51,6,P-GPS,
0.373283853283397,36.914810150038,5552.6192908728,161.745412,0,1.4733268188,14400,2018-03-30 06:22:07,16,0,16.231,5552.6192908728,161.745412,0.3131716,1.4733268188,0,0,-10.961006,27.3, 1.7, 1.8,0,0,1024,1024,1684,1024,28.1,0,99,4.107,4.086,4.065,4.069,0,0,16.538,80.51,6,P-GPS,
0.373283935452239,36.9148101567058,5554.2597108728,163.385832,0,1.50338915572,14500,2018-03-30 06:22:07,16,0,16.231,5554.2597108728,163.385832,0.3131716,1.50338915572,0,0,-11.1847,27.3, 1.6, 2.3,0,0,1024,1024,1684,1024,28.1,0,99,4.107,4.086,4.065,4.069,0,0,16.538,80.51,6,P-GPS,
0.37328398819184,36.9148101364625,5556.2282148728,165.354336,0,1.52226382824,14600,2018-03-30 06:22:07,16,0,16.231,5556.2282148728,165.354336,0.3131716,1.52226382824,0,0,-11.1847,27.3, 0.8, 2.7,0,0,1024,1024,1684,1024,28.1,0,99,4.107,4.086,4.065,4.069,0,0,16.538,80.51,6,P-GPS,
0.373284029611313,36.9148100835482,5557.8686348728,166.994756,0,1.53663718828,14700,2018-03-30 06:22:07,16,0,16.231,5557.8686348728,166.994756,0.3131716,1.53663718828,0,0,-11.1847,27.4, 0.2, 3.3,0,0,1024,1024,1684,1024,28.1,0,99,4.107,4.086,4.065,4.069,0,0,16.538,80.51,6,P-GPS,
0.3732840553391,36.9148100381196,5559.5090548728,168.635176,0,1.54559060064,14800,2018-03-30 06:22:07,16,0,16.231,5559.5090548728,168.635176,0.3131716,1.54559060064,0,0,-10.961006,27.4, 0.2, 3.5,0,0,1024,1024,1684,1024,28.1,0,99,4.107,4.086,4.065,4.069,0,0,16.538,80.51,6,P-GPS,
0.373284089174095,36.9148100262143,5561.1494748728,170.275596,0,1.55785109972,14900,2018-03-30 06:22:07,16,0,16.231,5561.1494748728,170.275596,0.3131716,1.55785109972,0,0,-10.961006,27.3, 0.1, 3.1,0,0,1024,1024,1684,1024,28.1,0,99,4.107,4.086,4.065,4.069,0,0,16.538,80.51,6,P-GPS,
0.373284093378738,36.9148100332911,5562.7898948728,171.916016,0,1.5594324646,15000,2018-03-30 06:22:07,16,0,16.231,5562.7898948728,171.916016,0.3131716,1.5594324646,0,0,-10.961006,27.3, -0.2, 2.6,0,0,1024,1024,1684,1024,28,0,99,4.107,4.086,4.065,4.069,0,0,16.538,80.51,6,P-GPS,
0.373284073663166,36.9148100335995,5564.4303148728,173.556436,0,1.55224414416,15100,2018-03-30 06:22:07,16,0,16.231,5564.4303148728,173.556436,0.3131716,1.5594324646,0,0,-10.961006,27.2, -0.8, 2.2,0,0,1024,1024,1684,1024,28,0,99,4.107,4.086,4.065,4.069,0,0,16.538,80.51,6,P-GPS,
0.373284050273011,36.9148100420103,5566.3988188728,175.52494,0,1.54377301528,15200,2018-03-30 06:22:07,16,0,16.231,5566.3988188728,175.52494,0.3131716,1.5594324646,0,0,-10.961006,27.3, -0.6, 2,0,0,1024,1024,1684,1024,28,0,99,4.107,4.086,4.065,4.069,0,0,16.538,80.51,6,P-GPS,
0.373284048945015,36.9148100876615,5568.0392388728,177.16536,0,1.5437336452,15300,2018-03-30 06:22:08,16,0,16.231,5568.0392388728,177.16536,0.3131716,1.5594324646,0,0,-10.961006,27.3, -0.1, 1.7,0,0,1024,1024,1684,1024,28,0,99,4.107,4.086,4.065,4.069,0,0,16.538,80.51,6,P-GPS,
0.373284044246954,36.9148101170094,5569.6796588728,178.80578,0,1.54240162416,15400,2018-03-30 06:22:08,16,0,16.231,5569.6796588728,178.80578,0.3131716,1.5594324646,0,0,-11.1847,27.3, 0.2, 1.9,0,0,1024,1024,1684,1024,28,0,99,4.107,4.086,4.065,4.069,0,0,16.538,80.51,6,P-GPS,
0.373284048336791,36.9148101139495,5571.3200788728,180.4462,0,1.5438484746,15500,2018-03-30 06:22:08,16,0,16.231,5571.3200788728,180.4462,0.3131716,1.5594324646,0,0,-11.1847,27.4, 0.4, 2.1,0,0,1024,1024,1684,1024,28,0,99,4.107,4.086,4.065,4.069,0,0,16.538,80.51,6,P-GPS,
0.373284031377361,36.9148100950552,5573.2885828728,182.414704,0,1.5374180282,15600,2018-03-30 06:22:08,16,0,16.231,5573.2885828728,182.414704,0.3131716,1.5594324646,0,0,-11.1847,27.3, 0, 2.1,0,0,1024,1024,1684,1024,28,0,99,4.107,4.086,4.065,4.069,0,0,16.538,80.51,6,P-GPS,
0.373284013507631,36.9148100600995,5574.9290028728,184.055124,0,1.53051842168,15700,2018-03-30 06:22:08,16,0,16.231,5574.9290028728,184.055124,0.3131716,1.5594324646,0,0,-11.408394,27.3, -0.3, 2.8,0,0,1024,1024,1684,1024,28,0,99,4.107,4.086,4.065,4.069,0,0,16.538,80.51,6,P-GPS,
0.373283978575878,36.9148100424642,5576.5694228728,185.695544,0,1.51762472048,15800,2018-03-30 06:22:08,16,0,16.231,5576.5694228728,185.695544,0.3131716,1.5594324646,0,0,-11.1847,27.3, 0.1, 2.8,0,0,1024,1024,1684,1024,28,0,99,4.107,4.086,4.065,4.069,0,0,16.538,80.51,6,P-GPS,
0.373283930393477,36.9148100536458,5578.2098428728,187.335964,0.223694,1.50014440496,15900,2018-03-30 06:22:08,16,0,16.231,5578.2098428728,187.335964,0.3131716,1.5594324646,-0.223694,0,-11.1847,27.4, -0.5, 1.7,0,0,1024,1024,1684,1024,28,0,99,4.107,4.086,4.065,4.069,0,0,16.538,80.51,6,P-GPS,
0.37328385422301,36.9148100659922,5579.8502628728,188.976384,0,1.47248364292,16000,2018-03-30 06:22:08,16,0,16.284,5579.8502628728,188.976384,0.3131716,1.5594324646,0,0,-10.961006,27.4, -1.4, 1.1,0,0,1024,1024,1684,1024,28,0,99,4.103,4.083,4.063,4.066,0,0,16.556,80.51,6,P-GPS,
0.373283790341594,36.9148100733752,5581.8187668728,190.944888,0,1.44926513824,16100,2018-03-30 06:22:08,16,0,16.284,5581.8187668728,190.944888,0.3131716,1.5594324646,0,0,-10.961006,27.3, -1.9, 1.3,0,0,1024,1024,1684,1024,28,0,99,4.103,4.083,4.063,4.066,0,0,16.556,80.51,6,P-GPS,
0.373283746992415,36.9148100712875,5583.4591868728,192.585308,0,1.43343508524,16200,2018-03-30 06:22:08,16,0,16.284,5583.4591868728,192.585308,0.3131716,1.5594324646,0,0,-10.961006,27.3, -1.5, 1.9,0,0,1024,1024,1684,1024,28,0,99,4.103,4.083,4.063,4.066,0,0,16.556,80.51,6,P-GPS,
0.373283716899584,36.9148100696387,5585.0996068728,194.225728,0,1.4224409904,16300,2018-03-30 06:22:09,17,0,16.284,5585.0996068728,194.225728,0.3131716,1.5594324646,0,0,-10.961006,27.3, -1.3, 2.2,0,0,1024,1024,1684,1024,27.9,0,99,4.103,4.083,4.063,4.066,0,0,16.556,80.51,6,P-GPS,
0.373283696240329,36.9148100765934,5586.7400268728,195.866148,0,1.41498692192,16400,2018-03-30 06:22:09,17,0,16.284,5586.7400268728,195.866148,0.3131716,1.5594324646,0,0,-10.961006,27.3, -0.2, 2.6,0,0,1024,1024,1684,1024,27.9,0,99,4.103,4.083,4.063,4.066,0,0,16.556,80.51,6,P-GPS,
0.373283658976645,36.9148100987424,5588.3804468728,197.506568,0,1.40168311572,16500,2018-03-30 06:22:09,17,0,16.284,5588.3804468728,197.506568,0.3131716,1.5594324646,0,0,-11.1847,27.4, 0, 2.1,0,0,1024,1024,1684,1024,27.9,0,99,4.103,4.083,4.063,4.066,0,0,16.556,80.51,6,P-GPS,
0.373283592891945,36.9148101208936,5590.0208668728,199.146988,0,1.37792983412,16600,2018-03-30 06:22:09,17,0,16.284,5590.0208668728,199.146988,0.3131716,1.5594324646,0,0,-11.1847,27.4, -0.4, 1.7,0,0,1024,1024,1684,1024,27.9,0,99,4.103,4.083,4.063,4.066,0,0,16.556,80.51,6,P-GPS,
0.373283498103477,36.9148101353534,5591.6612868728,200.787408,0,1.3436352136,16700,2018-03-30 06:22:09,17,0,16.284,5591.6612868728,200.787408,0.3131716,1.5594324646,0,0,-10.961006,27.3, -1.1, 1.4,0,0,1024,1024,1684,1024,27.9,0,99,4.103,4.083,4.063,4.066,0,0,16.556,80.51,6,P-GPS,
0.373283402700271,36.9148101480445,5593.3017068728,202.427828,0,1.30911421512,16800,2018-03-30 06:22:09,17,0,16.284,5593.3017068728,202.427828,0.3131716,1.5594324646,0,0,-10.961006,27.4, -1.2, 0.9,0,0,1024,1024,1684,1024,27.9,0,99,4.103,4.083,4.063,4.066,0,0,16.556,80.51,6,P-GPS,
0.373283289305202,36.9148101419527,5594.9421268728,204.068248,0,1.2676837676,16900,2018-03-30 06:22:09,17,0,16.284,5594.9421268728,204.068248,0.3131716,1.5594324646,0,0,-10.961006,27.3, -0.6, 1,0,0,1024,1024,1684,1024,27.9,0,99,4.103,4.083,4.063,4.066,0,0,16.556,80.51,6,P-GPS,
0.373283178382111,36.9148101210306,5596.5825468728,205.708668,0,1.22686683716,17000,2018-03-30 06:22:09,17,0,16.098,5596.5825468728,205.708668,0.3131716,1.5594324646,0,0,-10.961006,27.3, -1.2, 1.3,0,0,1024,1024,1684,1024,27.9,0,99,4.092,4.07,4.053,4.06,0,0,16.874,80.51,6,P-GPS,
0.37328305537108,36.9148100852826,5598.5510508728,207.677172,0,1.18143704568,17100,2018-03-30 06:22:09,17,0,16.098,5598.5510508728,207.677172,0.3131716,1.5594324646,0,0,-10.961006,27.3, -2.1, 1.1,0,0,1024,1024,1684,1024,27.9,0,99,4.092,4.07,4.053,4.06,0,0,16.874,80.51,6,P-GPS,
0.373282952367112,36.9148100542196,5600.1914708728,209.317592,0,1.14346132268,17200,2018-03-30 06:22:09,17,0,16.098,5600.1914708728,209.317592,0.3131716,1.5594324646,0,0,-10.961006,27.3, -2.5, 1,0,0,1024,1024,1684,1024,27.9,0,99,4.092,4.07,4.053,4.06,0,0,16.874,80.51,6,P-GPS,
0.37328287807424,36.9148100291329,5601.8318908728,210.958012,0,1.11610239792,17300,2018-03-30 06:22:10,17,0,16.098,5601.8318908728,210.958012,0.3131716,1.5594324646,0,0,-11.1847,27.3, -1.9, 1.4,0,0,1024,1024,1684,1024,27.9,0,99,4.092,4.07,4.053,4.06,0,0,16.874,80.51,6,P-GPS,
0.37328282976482,36.9148100088939,5603.4723108728,212.598432,0,1.09831696428,17400,2018-03-30 06:22:10,17,0,16.098,5603.4723108728,212.598432,0.3131716,1.5594324646,0,0,-11.1847,27.2, -1.6, 1.5,0,0,1024,1024,1684,1024,27.9,0,99,4.092,4.07,4.053,4.06,0,0,16.874,80.51,6,P-GPS,
0.37328278204734,36.914810002256,5605.1127308728,214.238852,0,1.08086617632,17500,2018-03-30 06:22:10,16,0,16.098,5605.1127308728,214.238852,0.3131716,1.5594324646,0,0,-11.1847,27.2, -1.5, 1.6,0,0,1024,1024,1684,1024,27.9,0,99,4.092,4.07,4.053,4.06,0,0,16.874,80.51,6,P-GPS,
0.373282753321588,36.9148099943634,5607.0812348728,216.207356,0,1.07034452244,17600,2018-03-30 06:22:10,16,0,16.098,5607.0812348728,216.207356,0.3131716,1.5594324646,0,0,-11.1847,27.3, -0.8, 1.8,0,0,1024,1024,1684,1024,27.9,0,99,4.092,4.07,4.053,4.06,0,0,16.874,80.51,6,P-GPS,
0.373282721901575,36.9148099613391,5608.7216548728,217.847776,0,1.05877299976,17700,2018-03-30 06:22:10,16,0,16.098,5608.7216548728,217.847776,0.3131716,1.5594324646,0,0,-11.1847,27.3, -0.6, 1.8,0,0,1024,1024,1684,1024,27.9,0,99,4.092,4.07,4.053,4.06,0,0,16.874,80.51,6,P-GPS,
0.373282687027633,36.9148099164008,5610.3620748728,219.488196,0,1.04612208072,17800,2018-03-30 06:22:10,16,0,16.098,5610.3620748728,219.488196,0.3131716,1.5594324646,0,0,-10.961006,27.3, -0.9, 2.1,0,0,1024,1024,1684,1024,27.9,0,99,4.092,4.07,4.053,4.06,0,0,16.874,80.51,6,P-GPS,
0.3732825817471,36.9148098555982,5613.6429148728,222.769036,0,1.00824150208,18000,2018-03-30 06:22:10,17,0,16.152,5613.6429148728,222.769036,0.3131716,1.5594324646,0,0,-10.961006,27.3, -1, 2.1,0,0,1024,1024,1684,1024,27.9,0,99,4.092,4.07,4.053,4.06,0,0,16.032,82.31,6,P-GPS,
0.373282560070067,36.9148098163664,5615.2833348728,224.409456,0,1.00094163308,18100,2018-03-30 06:22:10,17,0,16.152,5615.2833348728,224.409456,0.3131716,1.5594324646,0,0,-10.961006,27.3, -1.1, 2.8,0,0,1024,1024,1684,1024,27.9,0,99,4.092,4.07,4.053,4.06,0,0,16.032,82.31,6,P-GPS,
0.373282539779655,36.914809793984,5616.9237548728,226.049876,0,0.99398953312,18200,2018-03-30 06:22:10,17,0,16.152,5616.9237548728,226.049876,0.3131716,1.5594324646,0,0,-10.961006,27.3, -0.6, 2.7,0,0,1024,1024,1684,1024,27.9,0,99,4.092,4.07,4.053,4.06,0,0,16.032,82.31,6,P-GPS,
0.373282492363437,36.9148098198887,5618.5641748728,227.690296,0,0.97620738032,18300,2018-03-30 06:22:11,17,0,16.152,5618.5641748728,227.690296,0.3131716,1.5594324646,0,0,-10.961006,27.3, -0.5, 2.1,0,0,1024,1024,1684,1024,27.9,0,99,4.092,4.07,4.053,4.06,0,0,16.032,82.31,6,P-GPS,
0.373282416653819,36.9148098569729,5620.2045948728,229.330716,0,0.94802824556,18400,2018-03-30 06:22:11,17,0,16.152,5620.2045948728,229.330716,0.3131716,1.5594324646,0,0,-10.961006,27.3, -0.9, 1.2,0,0,1024,1024,1684,1024,27.9,0,99,4.092,4.07,4.053,4.06,0,0,16.032,82.31,6,P-GPS,
0.373282318335698,36.9148098702036,5621.8450148728,230.971136,0,0.91201118404,18500,2018-03-30 06:22:11,17,0,16.152,5621.8450148728,230.971136,0.3131716,1.5594324646,0,0,-10.961006,27.3, -1.3, 1,0,0,1024,1024,1684,1024,27.8,0,99,4.092,4.07,4.053,4.06,0,0,16.032,82.31,6,P-GPS,
0.373282228501771,36.9148098800533,5623.4854348728,232.611556,0,0.87914044808,18600,2018-03-30 06:22:11,17,0,16.152,5623.4854348728,232.611556,0.3131716,1.5594324646,0,0,-10.961006,27.2, -1.6, 0.7,0,0,1024,1024,1684,1024,27.8,0,99,4.092,4.07,4.053,4.06,0,0,16.032,82.31,6,P-GPS,
0.373282129380013,36.9148098801411,5625.1258548728,234.251976,0,0.84299215296,18700,2018-03-30 06:22:11,17,0,16.152,5625.1258548728,234.251976,0.3131716,1.5594324646,0,0,-10.961006,27.2, -1.8, 0.4,0,0,1024,1024,1684,1024,27.9,0,99,4.092,4.07,4.053,4.06,0,0,16.032,82.31,6,P-GPS,
0.373282052944923,36.9148098794794,5627.0943588728,236.22048,0,0.815124698,18800,2018-03-30 06:22:11,17,0,16.152,5627.0943588728,236.22048,0.3131716,1.5594324646,0,0,-10.961006,27.2, -1.6, 0.4,0,0,1024,1024,1684,1024,27.8,0,99,4.092,4.07,4.053,4.06,0,0,16.032,82.31,6,P-GPS,
0.373281974269094,36.9148098920635,5628.7347788728,237.8609,0,0.78629595692,18900,2018-03-30 06:22:11,17,0,16.152,5628.7347788728,237.8609,0.3131716,1.5594324646,0,0,-10.961006,27.2, -1.1, 0.6,0,0,1024,1024,1684,1024,27.8,0,99,4.092,4.07,4.053,4.06,0,0,16.032,82.31,6,P-GPS,
0.373281904934834,36.9148098964552,5630.3751988728,239.50132,0,0.76096459128,19000,2018-03-30 06:22:11,17,0,16.258,5630.3751988728,239.50132,0.3131716,1.5594324646,0,0,-11.1847,27.2, -1.1, 0.8,0,0,1024,1024,1684,1024,27.8,0,99,4.098,4.079,4.059,4.06,0,0,16.032,82.31,6,P-GPS,
0.373281840148818,36.914809885188,5632.0156188728,241.14174,0,0.73746065352,19100,2018-03-30 06:22:11,17,0,16.258,5632.0156188728,241.14174,0.3131716,1.5594324646,0,0,-11.1847,27.2, -1.2, 0.7,0,0,1024,1024,1684,1024,27.8,0,99,4.098,4.079,4.059,4.06,0,0,16.032,82.31,6,P-GPS,
0.373281778471095,36.9148098653558,5633.6560388728,242.78216,0,0.71525264756,19200,2018-03-30 06:22:11,17,0,16.258,5633.6560388728,242.78216,0.3131716,1.5594324646,0,0,-11.1847,27.3, -1.3, 0.6,0,0,1024,1024,1684,1024,27.8,0,99,4.098,4.079,4.059,4.06,0,0,16.032,82.31,6,P-GPS,
0.373281722005206,36.9148098349738,5635.2964588728,244.42258,0,0.69526248944,19300,2018-03-30 06:22:12,17,0,16.258,5635.2964588728,244.42258,0.3131716,1.5594324646,0,0,-11.1847,27.3, -1, 0.9,0,0,1024,1024,1684,1024,27.8,0,99,4.098,4.079,4.059,4.06,0,0,16.032,82.31,6,P-GPS,
0.37328166191318,36.9148097869051,5637.2649628728,246.391084,0,0.67471786936,19400,2018-03-30 06:22:12,17,0,16.258,5637.2649628728,246.391084,0.3131716,1.5594324646,0,0,-11.1847,27.3, -1.3, 1.3,0,0,1024,1024,1684,1024,27.8,0,99,4.098,4.079,4.059,4.06,0,0,16.032,82.31,6,P-GPS,
0.373281565554892,36.9148097396607,5638.9053828728,248.031504,0,0.64155841948,19500,2018-03-30 06:22:12,17,0,16.258,5638.9053828728,248.031504,0.3131716,1.5594324646,0,0,-11.1847,27.3, -2.3, 1.4,0,0,1024,1024,1684,1024,27.8,0,99,4.098,4.079,4.059,4.06,0,0,16.032,82.31,6,P-GPS,
0.373281479387813,36.9148096922879,5640.5458028728,249.671924,0,0.6127952952,19600,2018-03-30 06:22:12,17,0,16.258,5640.5458028728,249.671924,0.3131716,1.5594324646,0,0,-11.1847,27.2, -2.9, 1.6,0,0,1024,1024,1684,1024,27.8,0,99,4.098,4.079,4.059,4.06,0,0,16.032,82.31,6,P-GPS,
0.373281427992899,36.9148096530047,5642.1862228728,251.312344,0,0.59672574088,19700,2018-03-30 06:22:12,17,0,16.258,5642.1862228728,251.312344,0.3131716,1.5594324646,0,0,-11.1847,27.1, -2.9, 1.9,0,0,1024,1024,1684,1024,27.8,0,99,4.098,4.079,4.059,4.06,0,0,16.032,82.31,6,P-GPS,
0.373281412580491,36.9148096379668,5643.8266428728,252.952764,0,0.59223427092,19800,2018-03-30 06:22:12,17,0,16.258,5643.8266428728,252.952764,0.3131716,1.5594324646,0,0,-10.961006,27.2, -2, 1.8,0,0,1024,1024,1684,1024,27.8,0,99,4.098,4.079,4.059,4.06,0,0,16.032,82.31,6,P-GPS,
0.373281420949879,36.9148096505487,5645.4670628728,254.593184,0,0.59436353608,19900,2018-03-30 06:22:12,17,0,16.258,5645.4670628728,254.593184,0.3131716,1.5594324646,0,0,-10.961006,27.3, -1.3, 1.4,0,0,1024,1024,1684,1024,27.8,0,99,4.098,4.079,4.059,4.06,0,0,16.032,82.31,6,P-GPS,
0.373281435816351,36.9148096705629,5647.4355668728,256.561688,0,0.59840225012,20000,2018-03-30 06:22:12,17,0,16.205,5647.4355668728,256.561688,0.3131716,1.5594324646,0,0,-10.961006,27.2, -0.8, 1,0,0,1024,1024,1684,1024,27.8,0,98,4.101,4.079,4.061,4.062,0,0,15.532,82.31,6,P-GPS,
0.373281459929129,36.9148097362733,5649.0759868728,258.202108,0,0.60348099044,20100,2018-03-30 06:22:12,17,0,16.205,5649.0759868728,258.202108,0.3131716,1.5594324646,0,0,-11.1847,27.2, -0.5, 0.8,0,0,1024,1024,1684,1024,27.8,0,98,4.101,4.079,4.061,4.062,0,0,15.532,82.31,6,P-GPS,
0.373281480431239,36.9148097886073,5650.7164068728,259.842528,0,0.60873689612,20200,2018-03-30 06:22:12,17,0,16.205,5650.7164068728,259.842528,0.3131716,1.5594324646,0,0,-10.961006,27.3, -0.4, 0.4,0,0,1024,1024,1684,1024,27.8,0,98,4.101,4.079,4.061,4.062,0,0,15.532,82.31,6,P-GPS,
0.373281462184117,36.9148098082575,5652.3568268728,261.482948,0,0.6014435888,20300,2018-03-30 06:22:13,17,0,16.205,5652.3568268728,261.482948,0.3131716,1.5594324646,0,0,-10.961006,27.3, -0.5, 0.6,0,0,1024,1024,1684,1024,27.8,0,98,4.101,4.079,4.061,4.062,0,0,15.532,82.31,6,P-GPS,
0.373281449941068,36.9148098020543,5653.9972468728,263.123368,0,0.59719818184,20400,2018-03-30 06:22:13,17,0,16.205,5653.9972468728,263.123368,0.3131716,1.5594324646,0,0,-10.961006,27.3, -0.4, 1.2,0,0,1024,1024,1684,1024,27.8,0,98,4.101,4.079,4.061,4.062,0,0,15.532,82.31,6,P-GPS,
0.37328146068717,36.9148097774708,5655.6376668728,264.763788,0,0.60198164656,20500,2018-03-30 06:22:13,17,0,16.205,5655.6376668728,264.763788,0.3131716,1.5594324646,0,0,-10.961006,27.3, -0.4, 1.5,0,0,1024,1024,1684,1024,27.8,0,98,4.101,4.079,4.061,4.062,0,0,15.532,82.31,6,P-GPS,
0.373281465447111,36.9148097522983,5657.2780868728,266.404208,0,0.60474739468,20600,2018-03-30 06:22:13,17,0,16.205,5657.2780868728,266.404208,0.3131716,1.5594324646,0,0,-11.1847,27.3, -1, 1.3,0,0,1024,1024,1684,1024,27.8,0,98,4.101,4.079,4.061,4.062,0,0,15.532,82.31,6,P-GPS,
0.373281463918817,36.9148097724645,5658.9185068728,268.044628,0,0.60334975684,20700,2018-03-30 06:22:13,17,0,16.205,5658.9185068728,268.044628,0.3131716,1.5594324646,0,0,-11.1847,27.3, -0.9, 1.3,0,0,1024,1024,1684,1024,27.8,0,98,4.101,4.079,4.061,4.062,0,0,15.532,82.31,6,P-GPS,
0.373281464549839,36.9148097913738,5660.8870108728,270.013132,0,0.6028707542,20800,2018-03-30 06:22:13,17,0,16.205,5660.8870108728,270.013132,0.3131716,1.5594324646,0,0,-11.1847,27.2, -0.7, 1.4,0,0,1024,1024,1684,1024,27.8,0,98,4.101,4.079,4.061,4.062,0,0,15.532,82.31,6,P-GPS,
0.373281496113154,36.9148098213426,5662.5274308728,271.653552,0,0.61338912724,20900,2018-03-30 06:22:13,17,0,16.205,5662.5274308728,271.653552,0.3131716,1.5594324646,0,0,-11.1847,27.2, -0.6, 1.6,0,0,1024,1024,1160,1024,27.7,0,98,4.101,4.079,4.061,4.062,0,0,15.532,82.31,6,P-GPS,
0.373281516226066,36.9148098463073,5664.1678508728,273.293972,0,0.62007219832,21000,2018-03-30 06:22:13,17,0,16.205,5664.1678508728,273.293972,0.3131716,1.5594324646,0,0,-11.408394,27.3, -0.8, 1.4,0,0,1024,1024,1025,1024,27.7,0,98,4.098,4.075,4.058,4.059,0,0,15.558,82.31,6,P-GPS,
0.373281524962261,36.914809874424,5665.8082708728,274.934392,0,0.622703432,21100,2018-03-30 06:22:13,17,0,16.205,5665.8082708728,274.934392,0.3131716,1.5594324646,0,0,-10.513618,27.2, -1.7, 1.4,0,0,1024,1024,1024,1024,27.7,0,98,4.098,4.075,4.058,4.059,0,0,15.558,82.31,6,P-GPS,
0.373281526505619,36.91480989765,5667.4486908728,276.574812,0,0.62293965248,21200,2018-03-30 06:22:13,17,0,16.205,5667.4486908728,276.574812,0.3131716,1.5594324646,0,0,-9.171454,27.2, -2, 1,0,0,1024,1024,1024,1024,27.7,0,98,4.098,4.075,4.058,4.059,0,0,15.558,82.31,6,P-GPS,
0.373281538106654,36.9148099510118,5668.7610268728,277.887148,0,0.62686025628,21300,2018-03-30 06:22:14,17,0,16.205,5668.7610268728,277.887148,0.3131716,1.5594324646,0,0,-7.605596,27.2, -1.4, 0.9,0,0,1024,1024,1024,1024,27.7,0,98,4.098,4.075,4.058,4.059,0,0,15.558,82.31,6,P-GPS,
0.373281552879491,36.9148099879911,5669.4171948728,278.543316,0,0.63238847168,21400,2018-03-30 06:22:14,17,0,16.205,5669.4171948728,278.543316,0.3131716,1.5594324646,0,0,-5.816044,27.3, -1.1, 1.3,0,0,1024,1024,1024,1024,27.7,0,98,4.098,4.075,4.058,4.059,0,0,15.558,82.31,6,P-GPS,
0.373281565848419,36.9148100069817,5670.4014468728,279.527568,0,0.63729988916,21500,2018-03-30 06:22:14,17,0,16.205,5670.4014468728,279.527568,0.3131716,1.5594324646,0,0,-4.250186,27.2, -1.1, 1.2,0,0,1024,1024,1024,1024,27.7,0,98,4.098,4.075,4.058,4.059,0,0,15.558,82.31,6,P-GPS,
0.373281576423127,36.9148100189663,5670.7295308728,279.855652,0,0.64130907564,21600,2018-03-30 06:22:14,17,0,16.205,5670.7295308728,279.855652,0.3131716,1.5594324646,0,0,-2.684328,27.3, -1, 1,0,0,1024,1024,1024,1024,27.7,0,98,4.098,4.075,4.058,4.059,0,0,15.558,82.31,6,P-GPS,
0.373281584510387,36.914810053982,5671.0576148728,280.183736,0,0.64486878704,21700,2018-03-30 06:22:14,17,0,16.205,5671.0576148728,280.183736,0.3131716,1.5594324646,0,0,-1.565858,27.3, -0.8, 0.9,0,0,1024,1024,1024,1024,27.7,0,98,4.098,4.075,4.058,4.059,0,0,15.558,82.31,6,P-GPS,
0.37328159228295,36.9148100790537,5671.0576148728,280.183736,0,0.64829070316,21800,2018-03-30 06:22:14,17,0,16.205,5671.0576148728,280.183736,0.3131716,1.5594324646,0,0,-0.894776,27.3, -0.8, 0.9,0,0,1024,1024,1024,1024,27.7,0,98,4.098,4.075,4.058,4.059,0,0,15.558,82.31,6,P-GPS,
