latitude,longitude,altitude(feet),ascent(feet),speed(mph),distance(feet),time(millisecond),datetime(utc),satellites,gpslevel,voltage(v),max_altitude(feet),max_ascent(feet),max_speed(mph),max_distance(feet), xSpeed(mph), ySpeed(mph), zSpeed(mph), compass_heading(degrees), pitch(degrees), roll(degrees),isPhoto,isVideo,rc_elevator,rc_aileron,rc_throttle,rc_rudder,gimbal_heading(degrees),gimbal_pitch(degrees),battery_percent,voltageCell1,voltageCell2,voltageCell3,voltageCell4,voltageCell5,voltageCell6,current(A),battery_temperature(f),flycStateRaw,flycState,message
0.0769798738016295,36.8736590285058,5953.9015865222,0,0,0,0,2018-04-13 05:43:43,15,0,0,5953.9015865222,0,0,0,0,0,0,213.6, -1.3, 0.9,0,0,364,364,364,1684,218.2,0,99,4.289,4.291,4.285,4.29,0,0,0,69.71,41,Motors_Started,
0.0769798588044745,36.8736590248419,5953.9015865222,0,0,0.0056326117288,100,2018-04-13 05:43:43,15,0,0,5953.9015865222,0,0,0.0056326117288,0,0,0,213.6, -1.3, 0.9,0,0,364,364,364,1684,218.2,0,99,4.289,4.291,4.285,4.29,0,0,0,69.71,41,Motors_Started,
0.0769798551412897,36.8736590201045,5953.9015865222,0,0,0.0074664044384,200,2018-04-13 05:43:43,15,0,0,5953.9015865222,0,0,0.0074664044384,0,0,0,213.7, -1.3, 0.8,0,0,364,364,364,1684,218.2,0,99,4.289,4.291,4.285,4.29,0,0,0,69.71,41,Motors_Started,
0.0769798481943477,36.8736590167595,5953.9015865222,0,0,0.0102788389116,300,2018-04-13 05:43:43,15,0,17.142,5953.9015865222,0,0,0.0102788389116,0,0,0,213.6, -1.3, 0.9,0,0,364,364,364,1684,218.2,0,99,4.289,4.291,4.285,4.29,0,0,1.486,69.71,41,Motors_Started,Setting new Return-To-Home altitude to 30m (98 ft). Setting new Maximum Flight Altitude to 150m (492 ft)
0.0769798528663535,36.8736590125743,5953.9015865222,0,0,0.0095983926956,400,2018-04-13 05:43:43,15,0,17.142,5953.9015865222,0,0,0.0102788389116,0,0,0,213.6, -1.3, 0.9,0,0,364,364,364,1684,218.2,0,99,4.289,4.291,4.285,4.29,0,0,1.486,69.71,41,Motors_Started,
0.0769798503202813,36.8736590090901,5953.9015865222,0,0,0.0111165029804,500,2018-04-13 05:43:43,15,0,17.142,5953.9015865222,0,0,0.0111165029804,0,0,0,213.6, -1.3, 0.9,0,0,364,364,364,1684,218.2,0,99,4.289,4.291,4.285,4.29,0,0,1.486,69.71,41,Motors_Started,
0.0769798597522289,36.8736590054597,5953.9015865222,0,0,0.009847605302,600,2018-04-13 05:43:43,15,0,17.142,5953.9015865222,0,0,0.0111165029804,0,0,0,213.6, -1.3, 0.9,0,0,364,364,364,1684,218.2,0,99,4.289,4.291,4.285,4.29,0,0,1.486,69.71,41,Motors_Started,
0.0769798585895199,36.8736590026231,5953.9015865222,0,0,0.0109535436576,700,2018-04-13 05:43:43,15,0,17.142,5953.9015865222,0,0,0.0111165029804,0,0,0,213.6, -1.3, 0.9,0,0,364,364,364,1684,218.2,0,99,4.289,4.291,4.285,4.29,0,0,1.486,69.71,41,Motors_Started,
0.0769798662220369,36.8736589999867,5953.9015865222,0,0,0.010766404544,800,2018-04-13 05:43:44,15,0,17.142,5953.9015865222,0,0,0.0111165029804,0,0,0,213.6, -1.3, 0.9,0,0,364,364,364,1684,218.2,0,99,4.289,4.291,4.285,4.29,0,0,1.486,69.71,41,Motors_Started,
0.0769798683137732,36.8736589971986,5953.9015865222,0,0,0.0115965554892,900,2018-04-13 05:43:44,15,0,17.142,5953.9015865222,0,0,0.0115965554892,0,0,0,213.6, -1.3, 0.9,0,0,364,364,364,1684,218.2,0,99,4.289,4.291,4.285,4.29,0,0,1.486,69.71,41,Motors_Started,
0.0769798792194627,36.8736589943395,5953.9015865222,0,0,0.0126212930548,1000,2018-04-13 05:43:44,15,0,17.142,5953.9015865222,0,0,0.0126212930548,0,0,0,213.6, -1.3, 0.9,0,0,364,364,364,1684,218.2,0,99,4.289,4.291,4.285,4.29,0,0,1.486,69.71,41,Motors_Started,
0.076979882235341,36.8736589906154,5953.9015865222,0,0,0.01416256607,1100,2018-04-13 05:43:44,15,0,17.142,5953.9015865222,0,0,0.01416256607,0,0,0,213.6, -1.3, 0.9,0,0,364,364,364,1684,218.1,0,99,4.289,4.291,4.285,4.29,0,0,1.486,69.71,41,Motors_Started,
0.0769798925466483,36.8736589897828,5953.9015865222,0,0,0.01569635877,1200,2018-04-13 05:43:44,15,0,17.142,5953.9015865222,0,0,0.01569635877,0,0,0,213.6, -1.3, 0.9,0,0,364,364,364,1684,218.2,0,99,4.289,4.291,4.285,4.29,0,0,1.486,69.71,41,Motors_Started,
0.076979894126239,36.8736589863314,5953.9015865222,0,0,0.0170809060584,1300,2018-04-13 05:43:44,15,0,17.142,5953.9015865222,0,0,0.0170809060584,0,0,0,213.6, -1.2, 0.9,0,0,364,364,364,1667,218.1,0,99,4.289,4.291,4.285,4.289,0,0,1.49,69.71,41,Motors_Started,
0.0769799021894795,36.8736589856781,5953.9015865222,0,0,0.0187465885264,1400,2018-04-13 05:43:44,15,0,17.142,5953.9015865222,0,0,0.0187465885264,0,0,0,213.6, -1.3, 0.9,0,0,364,364,403,1627,218.1,0,99,4.289,4.291,4.285,4.289,0,0,1.49,69.71,41,Motors_Started,
0.0769799027846758,36.8736589823739,5953.9015865222,0,0,0.0198773300324,1500,2018-04-13 05:43:44,15,0,17.142,5953.9015865222,0,0,0.0198773300324,0,0,0,213.5, -1.2, 0.9,0,0,397,386,432,1594,218.1,0,99,4.289,4.291,4.285,4.289,0,0,1.49,69.71,41,Motors_Started,
0.0769799078825197,36.8736589838629,5953.9015865222,0,0,0.0204917001308,1600,2018-04-13 05:43:44,15,0,17.142,5953.9015865222,0,0,0.0204917001308,0,0,0,213.6, -1.2, 0.9,0,0,523,484,498,1537,218.1,0,99,4.289,4.291,4.285,4.289,0,0,1.49,69.71,10,Assisted_Takeoff,
0.0769799061498553,36.8736589820358,5953.9015865222,0,0,0.0206579402936,1700,2018-04-13 05:43:44,15,0,17.142,5953.9015865222,0,0,0.0206579402936,0,0,0,213.6, -1.2, 0.9,0,0,668,613,649,1365,218,0,99,4.289,4.291,4.285,4.289,0,0,1.49,69.71,10,Assisted_Takeoff,
0.0769799094213993,36.8736589589785,5953.9015865222,0,0,0.0285021990748,1800,2018-04-13 05:43:44,15,0,17.142,5953.9015865222,0,0,0.0285021990748,0,0,0,213.6, -1.3, 0.9,0,0,754,682,775,1219,217.6,0,99,4.289,4.291,4.285,4.289,0,0,1.49,69.71,10,Assisted_Takeoff,
0.0769799079452148,36.8736589287836,5953.9015865222,0,0,0.038457022228,1900,2018-04-13 05:43:45,15,0,17.142,5953.9015865222,0,0,0.038457022228,0,0,0,213.5, -1.3, 0.9,0,0,915,859,870,1120,216.8,0,99,4.289,4.291,4.285,4.289,0,0,1.49,69.71,10,Assisted_Takeoff,
0.0769799115579178,36.8736588991662,5953.9015865222,0,0,0.049159122308,2000,2018-04-13 05:43:45,15,0,17.142,5953.9015865222,0,0,0.049159122308,0,0,0,213.6, -1.3, 0.9,0,0,1021,968,978,1024,216.1,0,99,4.289,4.291,4.285,4.289,0,0,1.49,69.71,10,Assisted_Takeoff,
0.0769799098773636,36.8736588791002,5953.9015865222,0,0,0.056077101532,2100,2018-04-13 05:43:45,15,0,17.142,5953.9015865222,0,0,0.056077101532,0,0,0,213.6, -1.3, 0.9,0,0,1024,1024,1024,1024,215.4,0,99,4.289,4.291,4.285,4.289,0,0,1.49,69.71,10,Assisted_Takeoff,
0.0769799124893878,36.8736588635756,5953.9015865222,0,0,0.061808072844,2200,2018-04-13 05:43:45,15,0,17.142,5953.9015865222,0,0,0.061808072844,0,0,0,213.5, -1.3, 0.9,0,0,1024,1024,1024,1024,215.4,0,99,4.289,4.291,4.285,4.289,0,0,1.49,69.71,10,Assisted_Takeoff,
0.0769799102918026,36.8736588500584,5953.9015865222,0,0,0.066453742284,2300,2018-04-13 05:43:45,15,0,16.956,5953.9015865222,0,0,0.066453742284,0,0,0,213.5, -1.3, 0.9,0,0,1024,1024,1024,1024,215,0,99,4.249,4.246,4.266,4.273,0,0,4.044,69.71,10,Assisted_Takeoff,
0.0769799129315103,36.8736588434061,5953.9015865222,0,0,0.069025920844,2400,2018-04-13 05:43:45,15,0,16.956,5953.9015865222,0,0,0.069025920844,0,0,0,213.5, -1.3, 0.9,0,0,1024,1024,1024,1024,214.7,0,99,4.249,4.246,4.266,4.273,0,0,4.044,69.71,10,Assisted_Takeoff,
0.0769799105474683,36.8736588356699,5953.9015865222,0,0,0.071622049536,2500,2018-04-13 05:43:45,15,0,16.956,5953.9015865222,0,0,0.071622049536,0,0,0,213.5, -1.3, 0.9,0,0,1024,1024,1024,1024,214.6,0,99,4.249,4.246,4.266,4.273,0,0,4.044,69.71,10,Assisted_Takeoff,
0.076979912200339,36.8736588356536,5953.9015865222,0,0,0.071743112532,2600,2018-04-13 05:43:45,15,0,16.956,5953.9015865222,0,0,0.071743112532,0,0,0,213.5, -1.3, 0.9,0,0,1024,1024,1024,1024,214.5,0,99,4.249,4.246,4.266,4.273,0,0,4.044,69.71,10,Assisted_Takeoff,
0.076979909299266,36.8736588330826,5953.9015865222,0,0,0.072466537752,2700,2018-04-13 05:43:45,15,0,16.956,5953.9015865222,0,0,0.072466537752,0,0,0,213.5, -1.3, 0.9,0,0,1024,1024,1026,1024,214.4,0,99,4.249,4.246,4.266,4.273,0,0,4.044,69.71,10,Assisted_Takeoff,
0.0769799112379285,36.873658837784,5953.9015865222,0,0,0.070912403844,2800,2018-04-13 05:43:46,15,0,16.956,5953.9015865222,0,0,0.072466537752,0,0,0,213.5, -1.3, 0.9,0,0,1024,1024,1156,1024,214.3,0,99,4.249,4.246,4.266,4.273,0,0,4.044,69.71,10,Assisted_Takeoff,
0.0769799085404111,36.8736588377578,5953.9015865222,0,0,0.070738847408,2900,2018-04-13 05:43:46,15,0,16.956,5953.9015865222,0,0,0.072466537752,0,0,0,213.5, -1.3, 0.9,0,0,1024,1024,1249,1024,214.2,0,99,4.249,4.246,4.266,4.273,0,0,4.044,69.71,10,Assisted_Takeoff,
0.0769799108869989,36.8736588442614,5953.9015865222,0,0,0.068569556,3000,2018-04-13 05:43:46,15,0,16.956,5953.9015865222,0,0,0.072466537752,0,0,0,213.5, -1.3, 0.9,0,0,1024,1024,1295,1024,214.2,0,99,4.249,4.246,4.266,4.273,0,0,4.044,69.71,10,Assisted_Takeoff,
0.0769799080991027,36.8736588459514,5953.9015865222,0,0,0.067770015292,3100,2018-04-13 05:43:46,15,0,16.956,5953.9015865222,0,0,0.072466537752,0,0,0,213.5, -1.3, 0.8,0,0,1024,1024,1317,1024,214.2,0,99,4.249,4.246,4.266,4.273,0,0,4.044,69.71,10,Assisted_Takeoff,
0.0769799100744053,36.8736588278542,5953.9015865222,0,0,0.074394031252,3200,2018-04-13 05:43:46,15,0,16.956,5953.9015865222,0,0,0.074394031252,0,0,0,213.4, -1.1, 0.7,0,0,1024,1024,1317,1024,214.1,0,99,4.249,4.246,4.266,4.273,0,0,4.044,69.71,10,Assisted_Takeoff,
0.0769799069779191,36.8736588026153,5953.9015865222,0,0,0.083300199516,3300,2018-04-13 05:43:46,15,0,17.089,5953.9015865222,0,0,0.083300199516,0,0,0,213.4, -1, 0.7,0,0,1024,1024,1326,1024,214.1,0,99,4.249,4.246,4.266,4.273,0,0,4.044,69.71,10,Assisted_Takeoff,
0.0769799026267167,36.8736587758774,5953.9015865222,0,0,0.092769359924,3400,2018-04-13 05:43:46,15,0,17.089,5953.9015865222,0,0,0.092769359924,0,0,0,213.2, -0.3, 0.5,0,0,1024,1024,1357,1024,214,0,99,4.249,4.246,4.266,4.273,0,0,4.044,69.71,10,Assisted_Takeoff,
0.0769798750091207,36.8736587382717,5953.9015865222,0,0,0.105892719924,3500,2018-04-13 05:43:46,15,0,17.089,5953.9015865222,0,0,0.105892719924,0,0,-0.223694,212.8, 0.9, 0,0,0,1024,1024,1382,1024,214,0,99,4.249,4.246,4.266,4.273,0,0,4.044,69.71,10,Assisted_Takeoff,
0.0769798519283697,36.8736587061282,5953.9015865222,0,0,0.117889439468,3600,2018-04-13 05:43:46,15,0,17.089,5953.9015865222,0,0,0.117889439468,0,0,-0.671082,212.7, 1.3, -0.6,0,0,1024,1024,1402,1024,214,0,99,4.249,4.246,4.266,4.273,0,0,4.044,69.71,6,P-GPS,
0.0769798232278585,36.873658702972,5953.9015865222,0,0,0.120195541904,3700,2018-04-13 05:43:46,15,0,17.089,5953.9015865222,0,0,0.120195541904,0,0,-1.342164,212.6, 0.9, -1,0,0,1024,1024,1406,1024,213.9,0,99,4.249,4.246,4.266,4.273,0,0,4.044,69.71,6,P-GPS,
0.0769797917158387,36.873658723025,5954.2296705222,0.328084,0,0.115408140176,3800,2018-04-13 05:43:46,15,0,17.089,5954.2296705222,0.328084,0,0.120195541904,0,0,-2.013246,212.8, 0.7, -0.3,0,0,1024,1024,1410,1024,213.8,0,99,4.249,4.246,4.266,4.273,0,0,4.044,69.71,6,P-GPS,
0.0769797350525014,36.8736587671282,5954.5577545222,0.656168,0,0.107966866972,3900,2018-04-13 05:43:47,15,0,17.089,5954.5577545222,0.656168,0,0.120195541904,0,0,-2.684328,212.9, 0.8, 0.8,0,0,1024,1024,1415,1024,213.7,0,99,4.249,4.246,4.266,4.273,0,0,4.044,69.71,6,P-GPS,
0.0769797078591151,36.8736588099081,5954.8858385222,0.984252,0,0.100132221052,4000,2018-04-13 05:43:47,15,0,17.089,5954.8858385222,0.984252,0,0.120195541904,0,0,-3.35541,212.8, 1.1, 1.2,0,0,1024,1024,1422,1024,213.7,0,99,4.249,4.246,4.266,4.273,0,0,4.044,69.71,6,P-GPS,Obstacle Avoided. Revise Flight Route
0.0769796874709963,36.8736588467209,5955.5420065222,1.64042,0,0.094976380992,4100,2018-04-13 05:43:47,15,0,17.089,5955.5420065222,1.64042,0,0.120195541904,0,0,-4.026492,212.6, 1.4, 0.9,0,0,1024,1024,1439,1024,213.7,0,99,4.249,4.246,4.266,4.273,0,0,4.044,69.71,6,P-GPS,
0.0769796909843642,36.8736588886849,5956.1981745222,2.296588,0,0.083972443632,4200,2018-04-13 05:43:47,15,0,17.089,5956.1981745222,2.296588,0,0.120195541904,0,0,-4.697574,212.6, 0.9, 1.1,0,0,1024,1024,1445,1024,213.6,0,99,4.249,4.246,4.266,4.273,0,0,4.044,69.71,6,P-GPS,
0.0769797020488269,36.8736589447324,5956.8543425222,2.952756,0,0.069720474672,4300,2018-04-13 05:43:47,15,0,16.638,5956.8543425222,2.952756,0,0.120195541904,0,0,-5.144962,212.9, 0.4, 2.4,0,0,1024,1024,1453,1024,213.6,0,99,4.276,4.281,4.275,4.268,0,0,2.354,69.71,6,P-GPS,
0.0769797551751839,36.8736589689719,5957.8385945222,3.937008,0,0.048425526484,4400,2018-04-13 05:43:47,15,0,16.638,5957.8385945222,3.937008,0,0.120195541904,0,0,-5.59235,213, -0.3, 1.7,0,0,1024,1024,1474,1024,213.6,0,99,4.276,4.281,4.275,4.268,0,0,2.354,69.71,6,P-GPS,Home Point Recorded. RTH Altitude:  30m.
0.0769798272720992,36.8736589488006,5958.4947625222,4.593176,0,0.03367290134,4500,2018-04-13 05:43:47,15,0,16.638,5958.4947625222,4.593176,0,0.120195541904,0,0,-5.816044,213, -0.5, 0.7,0,0,1024,1024,1477,1024,213.6,0,99,4.276,4.281,4.275,4.268,0,0,2.354,69.71,6,P-GPS,
0.0769799382245025,36.873658888189,5959.4790145222,5.577428,0,0.056332350884,4600,2018-04-13 05:43:47,15,0,16.638,5959.4790145222,5.577428,0,0.120195541904,0,0,-6.039738,212.9, -1, -0.2,0,0,1024,1024,1479,1024,213.6,0,99,4.276,4.281,4.275,4.268,0,0,2.354,69.71,6,P-GPS,
0.0769800507231133,36.8736588032869,5960.4632665222,6.56168,0,0.104492785496,4700,2018-04-13 05:43:47,15,0,16.638,5960.4632665222,6.56168,0,0.120195541904,0,0,-6.263432,212.9, -1.1, -1.5,0,0,1024,1024,1480,1024,213.6,0,99,4.276,4.281,4.275,4.268,0,0,2.354,69.71,6,P-GPS,
0.0769801329310374,36.8736587144112,5961.4475185222,7.545932,0,0.14856299688,4800,2018-04-13 05:43:48,15,0,16.638,5961.4475185222,7.545932,0,0.14856299688,0,0,-6.487126,212.9, -0.2, -1.4,0,0,1024,1024,1479,1024,213.6,0,99,4.276,4.281,4.275,4.268,0,0,2.354,69.71,6,P-GPS,
0.0769802001735611,36.8736586530443,5962.4317705222,8.530184,0,0.181506567488,4900,2018-04-13 05:43:48,15,0,16.638,5962.4317705222,8.530184,0,0.181506567488,0,0,-6.487126,212.9, 0.1, -1.1,0,0,1024,1024,1479,1024,213.5,0,99,4.276,4.281,4.275,4.268,0,0,2.354,69.71,6,P-GPS,
0.0769802711256803,36.8736585938256,5963.0879385222,9.186352,0,0.214862867768,5000,2018-04-13 05:43:48,15,0,16.638,5963.0879385222,9.186352,0,0.214862867768,0,0,-6.487126,212.9, -0.2, -1,0,0,1024,1024,1484,1024,213.5,0,99,4.276,4.281,4.275,4.268,0,0,2.354,69.71,6,P-GPS,
0.0769803539149589,36.8736585509853,5964.0721905222,10.170604,0,0.247058406856,5100,2018-04-13 05:43:48,15,0,16.638,5964.0721905222,10.170604,0,0.247058406856,0,0,-6.487126,212.9, -0.8, -0.9,0,0,1024,1024,1486,1024,213.5,0,99,4.276,4.281,4.275,4.268,0,0,2.354,69.71,6,P-GPS,
0.0769804565859102,36.8736585333379,5965.0564425222,11.154856,0,0.279015100792,5200,2018-04-13 05:43:48,15,0,16.638,5965.0564425222,11.154856,0,0.279015100792,0,0,-6.487126,212.9, -1, -1,0,0,1024,1024,1485,1024,213.5,0,99,4.276,4.281,4.275,4.268,0,0,2.354,69.71,6,P-GPS,
0.0769805692888908,36.8736585327994,5966.0406945222,12.139108,0.223694,0.311604996848,5300,2018-04-13 05:43:48,15,0,16.186,5966.0406945222,12.139108,0.223694,0.311604996848,0.223694,0,-6.487126,212.9, -1.2, -1.1,0,0,1024,1024,1485,1024,213.5,0,99,4.068,4.086,4.07,4.073,0,0,17.146,69.71,6,P-GPS,
0.0769807129697615,36.873658543027,5967.0249465222,13.12336,0.223694,0.35371392208,5400,2018-04-13 05:43:48,15,0,16.186,5967.0249465222,13.12336,0.223694,0.35371392208,0.223694,0,-6.487126,212.9, -1.5, -1.1,0,0,1024,1024,1486,1024,213.5,0,99,4.068,4.086,4.07,4.073,0,0,17.146,69.71,6,P-GPS,
0.0769808558339676,36.8736585483196,5968.0091985222,14.107612,0.223694,0.39883203376,5500,2018-04-13 05:43:48,15,0,16.186,5968.0091985222,14.107612,0.223694,0.39883203376,0.223694,0,-6.487126,212.8, -2, -1.2,0,0,1024,1024,1486,1024,213.5,0,99,4.068,4.086,4.07,4.073,0,0,17.146,69.71,6,P-GPS,
0.0769810151332447,36.873658573788,5968.9934505222,15.091864,0.223694,0.448244765,5600,2018-04-13 05:43:48,15,0,16.186,5968.9934505222,15.091864,0.223694,0.448244765,0.223694,0,-6.487126,212.8, -2.3, -1.8,0,0,1024,1024,1490,1024,213.5,0,99,4.068,4.086,4.07,4.073,0,0,17.146,69.71,6,P-GPS,
0.0769811542731994,36.8736585990377,5969.9777025222,16.076116,0.223694,0.49275592128,5700,2018-04-13 05:43:48,15,0,16.186,5969.9777025222,16.076116,0.223694,0.49275592128,0.223694,0,-6.487126,212.8, -2.5, -1.8,0,0,1024,1024,1496,1024,213.5,0,99,4.068,4.086,4.07,4.073,0,0,17.146,69.71,6,P-GPS,
0.0769812723199189,36.8736586540395,5970.9619545222,17.060368,0.223694,0.52822180168,5800,2018-04-13 05:43:49,15,0,16.186,5970.9619545222,17.060368,0.223694,0.52822180168,0.223694,0,-6.487126,212.9, -2.6, -1.6,0,0,1024,1024,1497,1024,213.5,0,99,4.068,4.086,4.07,4.073,0,0,17.146,69.71,6,P-GPS,
0.0769813579557176,36.8736586860027,5971.9462065222,18.04462,0.223694,0.5557250834,5900,2018-04-13 05:43:49,15,0,16.186,5971.9462065222,18.04462,0.223694,0.5557250834,0.223694,0,-6.71082,212.9, -2.6, -1.8,0,0,1024,1024,1497,1024,213.5,0,99,4.068,4.086,4.07,4.073,0,0,17.146,69.71,6,P-GPS,
0.0769814229713442,36.8736587122093,5972.9304585222,19.028872,0.223694,0.57687337804,6000,2018-04-13 05:43:49,15,0,16.186,5972.9304585222,19.028872,0.223694,0.57687337804,0.223694,0,-6.71082,212.9, -2.5, -2.1,0,0,1024,1024,1501,1024,213.5,0,99,4.068,4.086,4.07,4.073,0,0,17.146,69.71,6,P-GPS,
0.0769814652742481,36.8736587209833,5973.9147105222,20.013124,0.223694,0.5913878142,6100,2018-04-13 05:43:49,15,0,16.186,5973.9147105222,20.013124,0.223694,0.5913878142,0.223694,0,-6.71082,212.9, -2.4, -2.2,0,0,1024,1024,1531,1024,213.5,0,99,4.068,4.086,4.07,4.073,0,0,17.146,69.71,6,P-GPS,
0.0769815015836639,36.8736587660292,5974.8989625222,20.997376,0,0.60156826072,6200,2018-04-13 05:43:49,15,0,16.186,5974.8989625222,20.997376,0.223694,0.60156826072,0,0,-6.71082,212.9, -2.6, -2,0,0,1024,1024,1546,1024,213.5,0,99,4.068,4.086,4.07,4.073,0,0,17.146,69.71,6,P-GPS,
0.0769815193166048,36.8736588098281,5975.8832145222,21.981628,0,0.605643064,6300,2018-04-13 05:43:49,15,0,16.186,5975.8832145222,21.981628,0.223694,0.605643064,0,0,-6.934514,212.9, -2.8, -1.8,0,0,1024,1024,1564,1024,213.4,0,99,4.068,4.086,4.07,4.073,0,0,15.108,69.71,6,P-GPS,
0.0769815178013377,36.873658874292,5977.1955505222,23.293964,0,0.602444245,6400,2018-04-13 05:43:49,15,0,16.186,5977.1955505222,23.293964,0.223694,0.605643064,0,0,-7.158208,212.9, -2.7, -1.8,0,0,1024,1024,1565,1024,213.4,0,99,4.068,4.086,4.07,4.073,0,0,15.108,69.71,6,P-GPS,
0.0769814885691395,36.8736589199684,5978.1798025222,24.278216,0,0.59047574068,6500,2018-04-13 05:43:49,15,0,16.186,5978.1798025222,24.278216,0.223694,0.605643064,0,0,-7.605596,212.9, -2.3, -2,0,0,1024,1024,1567,1024,213.4,0,99,4.068,4.086,4.07,4.073,0,0,15.108,69.71,6,P-GPS,
0.0769814424336926,36.8736589887609,5979.4921385222,25.590552,0,0.57249673748,6600,2018-04-13 05:43:49,15,0,16.186,5979.4921385222,25.590552,0.223694,0.605643064,0,0,-7.82929,212.9, -2.4, -1.7,0,0,1024,1024,1579,1024,213.4,0,99,4.068,4.086,4.07,4.073,0,0,15.108,69.71,6,P-GPS,
0.0769813761218246,36.8736590430547,5980.4763905222,26.574804,0,0.548146343,6700,2018-04-13 05:43:49,15,0,16.186,5980.4763905222,26.574804,0.223694,0.605643064,0,0,-8.052984,212.9, -2.6, -1.6,0,0,1024,1024,1592,1024,213.4,0,99,4.068,4.086,4.07,4.073,0,0,15.108,69.71,6,P-GPS,
0.0769812921421535,36.8736590848615,5981.7887265222,27.88714,0,0.51789043652,6800,2018-04-13 05:43:50,15,0,16.186,5981.7887265222,27.88714,0.223694,0.605643064,0,0,-8.276678,212.9, -2.5, -1.7,0,0,1024,1024,1614,1024,213.4,0,99,4.068,4.086,4.07,4.073,0,0,15.108,69.71,6,P-GPS,
0.0769811882889518,36.8736591027514,5983.1010625222,29.199476,0,0.48035434608,6900,2018-04-13 05:43:50,15,0,16.186,5983.1010625222,29.199476,0.223694,0.605643064,0,0,-8.500372,212.9, -1.9, -1.8,0,0,1024,1024,1634,1024,213.4,0,99,4.068,4.086,4.07,4.073,0,0,15.108,69.71,6,P-GPS,
0.07698109069956,36.8736591175302,5984.4133985222,30.511812,0,0.44517061792,7000,2018-04-13 05:43:50,15,0,16.186,5984.4133985222,30.511812,0.223694,0.605643064,0,0,-8.94776,212.9, -1.5, -1.5,0,0,1024,1024,1646,1024,213.4,0,99,4.068,4.086,4.07,4.073,0,0,15.108,69.71,6,P-GPS,
0.0769809974735838,36.8736591296029,5985.7257345222,31.824148,0,0.41162730976,7100,2018-04-13 05:43:50,15,0,16.186,5985.7257345222,31.824148,0.223694,0.605643064,0,0,-9.171454,212.9, -1.6, -1.4,0,0,1024,1024,1659,1024,213.4,0,99,4.068,4.086,4.07,4.073,0,0,15.108,69.71,6,P-GPS,
0.0769809128466062,36.8736591635765,5987.0380705222,33.136484,0,0.3822834768,7200,2018-04-13 05:43:50,15,0,16.186,5987.0380705222,33.136484,0.223694,0.605643064,0,0,-9.618842,212.9, -1.9, -1.4,0,0,1024,1024,1684,1024,213.4,0,99,4.068,4.086,4.07,4.073,0,0,15.108,69.71,6,P-GPS,
0.0769808191573377,36.8736591978757,5988.3504065222,34.44882,0,0.35040355452,7300,2018-04-13 05:43:50,15,0,16.24,5988.3504065222,34.44882,0.223694,0.605643064,0,0,-9.842536,213, -2.1, -1.6,0,0,1024,1024,1684,1024,213.4,0,99,4.075,4.089,4.075,4.077,0,0,15.108,69.71,6,P-GPS,
0.0769807455769099,36.873659245662,5989.9908265222,36.08924,0,0.327786099728,7400,2018-04-13 05:43:50,15,0,16.24,5989.9908265222,36.08924,0.223694,0.605643064,0,0,-10.06623,212.9, -2, -1.9,0,0,1024,1024,1684,1024,213.4,0,99,4.075,4.089,4.075,4.077,0,0,15.108,69.71,6,P-GPS,
0.0769806581701784,36.8736592999459,5991.6312465222,37.72966,0,0.30282809368,7500,2018-04-13 05:43:50,15,0,16.24,5991.6312465222,37.72966,0.223694,0.605643064,0,0,-10.513618,213, -2, -1.4,0,0,1024,1024,1684,1024,213.4,0,99,4.075,4.089,4.075,4.077,0,0,15.108,69.71,6,P-GPS,
0.0769805653667834,36.8736593756646,5992.9435825222,39.041996,0,0.282324156016,7600,2018-04-13 05:43:50,15,0,16.24,5992.9435825222,39.041996,0.223694,0.605643064,0,0,-10.737312,213, -2.2, -1.2,0,0,1024,1024,1684,1024,213.4,0,99,4.075,4.089,4.075,4.077,0,0,15.108,69.71,6,P-GPS,
0.0769804508546016,36.8736594377741,5994.5840025222,40.682416,0,0.258113853404,7700,2018-04-13 05:43:50,15,0,16.24,5994.5840025222,40.682416,0.223694,0.605643064,0,0,-10.961006,212.9, -2.1, -1.2,0,0,1024,1024,1684,1024,213.4,0,99,4.075,4.089,4.075,4.077,0,0,15.108,69.71,6,P-GPS,
0.0769803413506992,36.8736595078725,5996.2244225222,42.322836,0,0.244311359524,7800,2018-04-13 05:43:51,15,0,16.24,5996.2244225222,42.322836,0.223694,0.605643064,0,0,-10.961006,213, -2.1, -1.1,0,0,1024,1024,1684,1024,213.4,0,99,4.075,4.089,4.075,4.077,0,0,15.108,69.71,6,P-GPS,
0.0769802251245801,36.8736595640388,5997.8648425222,43.963256,0,0.23368110984,7900,2018-04-13 05:43:51,15,0,16.24,5997.8648425222,43.963256,0.223694,0.605643064,0,0,-10.961006,212.9, -2.1, -1,0,0,1024,1024,1684,1024,213.4,0,99,4.075,4.089,4.075,4.077,0,0,15.108,69.71,6,P-GPS,
0.076980123950983,36.8736596213313,5999.5052625222,45.603676,0,0.23475886578,8000,2018-04-13 05:43:51,15,0,16.24,5999.5052625222,45.603676,0.223694,0.605643064,0,0,-11.1847,212.9, -1.9, -1.1,0,0,1024,1024,1684,1024,213.4,0,99,4.075,4.089,4.075,4.077,0,0,15.108,69.71,6,P-GPS,
0.0769800183561604,36.8736596659378,6001.1456825222,47.244096,0,0.238471792408,8100,2018-04-13 05:43:51,15,0,16.24,6001.1456825222,47.244096,0.223694,0.605643064,0,0,-11.1847,212.9, -1.5, -1.2,0,0,1024,1024,1684,1024,213.4,0,99,4.075,4.089,4.075,4.077,0,0,15.108,69.71,6,P-GPS,
0.0769799349342314,36.8736597224974,6002.7861025222,48.884516,0,0.254182750916,8200,2018-04-13 05:43:51,15,0,16.24,6002.7861025222,48.884516,0.223694,0.605643064,0,0,-10.961006,212.9, -1.5, -1.4,0,0,1024,1024,1684,1024,213.4,0,99,4.075,4.089,4.075,4.077,0,0,15.108,69.71,6,P-GPS,
0.07697985325718,36.8736597794105,6004.4265225222,50.524936,0,0.274069234492,8300,2018-04-13 05:43:51,15,0,15.921,6004.4265225222,50.524936,0.223694,0.605643064,0,0,-10.961006,212.9, -1.7, -1.3,0,0,1024,1024,1684,1024,213.4,0,99,4.022,4.043,4.029,4.029,0,0,17.678,69.71,6,P-GPS,
0.0769797889434128,36.8736598515586,6006.0669425222,52.165356,0,0.301881899424,8400,2018-04-13 05:43:51,15,0,15.921,6006.0669425222,52.165356,0.223694,0.605643064,0,0,-11.1847,212.9, -1.6, -1.3,0,0,1024,1024,1684,1024,213.4,0,99,4.022,4.043,4.029,4.029,0,0,17.678,69.71,6,P-GPS,
0.0769797214680216,36.8736599193418,6008.0354465222,54.13386,0,0.32973754336,8500,2018-04-13 05:43:51,15,0,15.921,6008.0354465222,54.13386,0.223694,0.605643064,0,0,-11.1847,212.9, -1.7, -1.5,0,0,1024,1024,1684,1024,213.4,0,99,4.022,4.043,4.029,4.029,0,0,17.678,69.71,6,P-GPS,
0.0769796656408903,36.873660015261,6009.6758665222,55.77428,0,0.36793964432,8600,2018-04-13 05:43:51,15,0,15.921,6009.6758665222,55.77428,0.223694,0.605643064,0,0,-11.1847,212.9, -1.8, -1.7,0,0,1024,1024,1684,1024,213.4,0,99,4.022,4.043,4.029,4.029,0,0,17.678,69.71,6,P-GPS,
0.0769796063842559,36.8736601179188,6011.3162865222,57.4147,0,0.40927166664,8700,2018-04-13 05:43:51,15,0,15.921,6011.3162865222,57.4147,0.223694,0.605643064,0,0,-11.1847,212.9, -1.9, -1.8,0,0,1024,1024,1684,1024,213.3,0,99,4.022,4.043,4.029,4.029,0,0,17.678,69.71,6,P-GPS,
0.0769795653181552,36.8736602226249,6012.9567065222,59.05512,0,0.44997704852,8800,2018-04-13 05:43:52,15,0,15.921,6012.9567065222,59.05512,0.223694,0.605643064,0,0,-11.1847,213, -2.1, -1.9,0,0,1024,1024,1684,1024,213.3,0,99,4.022,4.043,4.029,4.029,0,0,17.678,69.71,6,P-GPS,
0.0769795220894808,36.8736603154913,6014.5971265222,60.69554,0,0.48677494996,8900,2018-04-13 05:43:52,15,0,15.921,6014.5971265222,60.69554,0.223694,0.605643064,0,0,-11.1847,212.9, -2.2, -1.7,0,0,1024,1024,1684,1024,213.3,0,99,4.022,4.043,4.029,4.029,0,0,17.678,69.71,6,P-GPS,
0.0769794831444284,36.873660421264,6016.2375465222,62.33596,0,0.5277559224,9000,2018-04-13 05:43:52,15,0,15.921,6016.2375465222,62.33596,0.223694,0.605643064,0,0,-11.1847,213, -2.1, -1.4,0,0,1024,1024,1684,1024,213.3,0,99,4.022,4.043,4.029,4.029,0,0,17.678,69.71,6,P-GPS,
0.0769794342162001,36.8736605218878,6017.8779665222,63.97638,0,0.56797245912,9100,2018-04-13 05:43:52,15,0,15.921,6017.8779665222,63.97638,0.223694,0.605643064,0,0,-11.1847,212.9, -1.9, -1.2,0,0,1024,1024,1684,1024,213.3,-0.2,99,4.022,4.043,4.029,4.029,0,0,17.678,69.71,6,P-GPS,
0.0769793973783542,36.8736606487865,6019.5183865222,65.6168,0,0.61618440292,9200,2018-04-13 05:43:52,15,0,15.921,6019.5183865222,65.6168,0.223694,0.61618440292,0,0,-10.961006,212.9, -2, -1.4,0,0,1024,1024,1684,1024,213.3,-0.9,99,4.022,4.043,4.029,4.029,0,0,17.678,69.71,6,P-GPS,
0.0769793578226353,36.8736607696879,6021.1588065222,67.25722,0,0.66257548052,9300,2018-04-13 05:43:52,15,0,16.08,6021.1588065222,67.25722,0.223694,0.66257548052,0,0,-11.1847,212.9, -1.8, -1.9,0,0,1024,1024,1684,1024,213.3,-2.3,99,4.028,4.047,4.032,4.036,0,0,17.084,69.71,6,P-GPS,
0.076979374260149,36.8736609282934,6023.1273105222,69.225724,0,0.71669621716,9400,2018-04-13 05:43:52,15,0,16.08,6023.1273105222,69.225724,0.223694,0.71669621716,0,0,-11.1847,212.9, -1.8, -2,0,0,1024,1024,1684,1024,213.3,-4.2,99,4.028,4.047,4.032,4.036,0,0,17.084,69.71,6,P-GPS,
0.0769793993593563,36.8736610932941,6024.7677305222,70.866144,0,0.77296918484,9500,2018-04-13 05:43:52,15,0,16.08,6024.7677305222,70.866144,0.223694,0.77296918484,0,0,-11.1847,212.9, -2.3, -1.3,0,0,1024,1024,1684,1024,213.3,-6.7,99,4.028,4.047,4.032,4.036,0,0,17.084,69.71,6,P-GPS,
0.0769794495146172,36.8736612670063,6026.4081505222,72.506564,0,0.83125658828,9600,2018-04-13 05:43:52,15,0,16.08,6026.4081505222,72.506564,0.223694,0.83125658828,0,0,-11.1847,212.9, -2.7, -0.9,0,0,1024,1024,1684,1024,213.3,-9.7,99,4.028,4.047,4.032,4.036,0,0,17.084,69.71,6,P-GPS,
0.0769794731921929,36.8736614045249,6028.0485705222,74.146984,0,0.87912404388,9700,2018-04-13 05:43:52,15,0,16.08,6028.0485705222,74.146984,0.223694,0.87912404388,0,0,-10.961006,212.9, -2.6, -0.9,0,0,1024,1024,1684,1024,213.3,-12.8,99,4.028,4.047,4.032,4.036,0,0,17.084,69.71,6,P-GPS,
0.0769794887487184,36.8736615420435,6029.6889905222,75.787404,0,0.92775921604,9800,2018-04-13 05:43:53,15,0,16.08,6029.6889905222,75.787404,0.223694,0.92775921604,0,0,-11.1847,213, -2.8, -1,0,0,1024,1024,1684,1024,213.3,-15.9,99,4.028,4.047,4.032,4.036,0,0,17.084,69.71,6,P-GPS,
0.0769794727077308,36.8736616541035,6031.6574945222,77.755908,0,0.96905842996,9900,2018-04-13 05:43:53,15,0,16.08,6031.6574945222,77.755908,0.223694,0.96905842996,0,0,-11.1847,213, -2.7, -1.2,0,0,1024,1024,1684,1024,213.3,-19,99,4.028,4.047,4.032,4.036,0,0,17.084,69.71,6,P-GPS,
0.0769794642308656,36.8736617494492,6033.2979145222,79.396328,0,1.00391735496,10000,2018-04-13 05:43:53,15,0,16.08,6033.2979145222,79.396328,0.223694,1.00391735496,0,0,-11.1847,213, -2.6, -1.5,0,0,1024,1024,1684,1024,213.3,-20.2,99,4.028,4.047,4.032,4.036,0,0,17.084,69.71,6,P-GPS,
0.0769794407763867,36.8736618299662,6034.9383345222,81.036748,0,1.03424872076,10100,2018-04-13 05:43:53,15,0,16.08,6034.9383345222,81.036748,0.223694,1.03424872076,0,0,-11.1847,213, -2.5, -0.9,0,0,1024,1024,1684,1024,213.3,-20.2,99,4.028,4.047,4.032,4.036,0,0,17.084,69.71,6,P-GPS,
0.0769794251840355,36.8736619082208,6036.5787545222,82.677168,0,1.06333336736,10200,2018-04-13 05:43:53,15,0,16.08,6036.5787545222,82.677168,0.223694,1.06333336736,0,0,-11.1847,212.9, -2.3, -1,0,0,1024,1024,1684,1024,213.3,-20.2,99,4.028,4.047,4.032,4.036,0,0,17.084,69.71,6,P-GPS,
0.0769794039181853,36.8736619739981,6038.2191745222,84.317588,0,1.08824806632,10300,2018-04-13 05:43:53,15,0,16.054,6038.2191745222,84.317588,0.223694,1.08824806632,0,0,-11.1847,212.9, -2.4, -1.1,0,0,1024,1024,1684,1024,213.3,-20.2,99,4.028,4.047,4.032,4.036,0,0,16.778,69.71,6,P-GPS,
0.0769793970632503,36.8736620460648,6039.8595945222,85.958008,0,1.11460961572,10400,2018-04-13 05:43:53,15,0,16.054,6039.8595945222,85.958008,0.223694,1.11460961572,0,0,-11.1847,213, -2.5, -0.8,0,0,1024,1024,1684,1024,213.3,-20.2,99,4.028,4.047,4.032,4.036,0,0,16.778,69.71,6,P-GPS,
0.0769793777963152,36.8736621028967,6041.8280985222,87.926512,0,1.13619426208,10500,2018-04-13 05:43:53,15,0,16.054,6041.8280985222,87.926512,0.223694,1.13619426208,0,0,-11.1847,213, -2.3, -0.6,0,0,1024,1024,1684,1024,213.3,-20.2,99,4.028,4.047,4.032,4.036,0,0,16.778,69.71,6,P-GPS,
0.0769793784900323,36.8736621683624,6043.4685185222,89.566932,0,1.15974085076,10600,2018-04-13 05:43:53,15,0,16.054,6043.4685185222,89.566932,0.223694,1.15974085076,0,0,-11.1847,213, -2.2, -0.6,0,0,1024,1024,1684,1024,213.3,-20.2,99,4.028,4.047,4.032,4.036,0,0,16.778,69.71,6,P-GPS,
0.076979372543769,36.8736622155851,6045.1089385222,91.207352,0,1.17709649436,10700,2018-04-13 05:43:53,15,0,16.054,6045.1089385222,91.207352,0.223694,1.17709649436,0,0,-11.1847,212.9, -2.3, -0.8,0,0,1024,1024,1684,1024,213.3,-20.2,99,4.028,4.047,4.032,4.036,0,0,16.778,69.71,6,P-GPS,
0.0769793666716,36.8736622811811,6047.0774425222,93.175856,0,1.20107287308,10800,2018-04-13 05:43:54,15,0,16.054,6047.0774425222,93.175856,0.223694,1.20107287308,0,0,-11.1847,212.9, -2.3, -0.9,0,0,1024,1024,1684,1024,213.3,-20.2,99,4.028,4.047,4.032,4.036,0,0,16.778,69.71,6,P-GPS,
0.0769793472198364,36.8736623295606,6048.7178625222,94.816276,0,1.21961289992,10900,2018-04-13 05:43:54,15,0,16.054,6048.7178625222,94.816276,0.223694,1.21961289992,0,0,-11.1847,212.9, -2.5, -1,0,0,1024,1024,1684,1024,213.3,-20.2,99,4.028,4.047,4.032,4.036,0,0,16.778,69.71,6,P-GPS,
0.0769793681054449,36.8736623869898,6050.3582825222,96.456696,0,1.23915358296,11000,2018-04-13 05:43:54,15,0,16.054,6050.3582825222,96.456696,0.223694,1.23915358296,0,0,-11.1847,212.9, -2.6, -1.2,0,0,1024,1024,1684,1024,213.3,-20.2,99,4.028,4.047,4.032,4.036,0,0,16.778,69.71,6,P-GPS,
0.0769793829503404,36.8736624153459,6051.9987025222,98.097116,0,1.24859584048,11100,2018-04-13 05:43:54,15,0,16.054,6051.9987025222,98.097116,0.223694,1.24859584048,0,0,-10.961006,213, -2.5, -1.3,0,0,1024,1024,1684,1024,213.3,-20.2,99,4.028,4.047,4.032,4.036,0,0,16.778,69.71,6,P-GPS,
0.0769794267465275,36.8736624602377,6053.6391225222,99.737536,0,1.26264439736,11200,2018-04-13 05:43:54,15,0,16.054,6053.6391225222,99.737536,0.223694,1.26264439736,0,0,-10.961006,212.9, -2.6, -1.1,0,0,1024,1024,1684,1024,213.3,-20.2,99,4.028,4.047,4.032,4.036,0,0,16.778,69.71,6,P-GPS,
0.0769794557816839,36.8736624862432,6055.2795425222,101.377956,0,1.27073822964,11300,2018-04-13 05:43:54,15,0,16.054,6055.2795425222,101.377956,0.223694,1.27073822964,0,0,-10.961006,213, -2.5, -1.2,0,0,1024,1024,1684,1024,213.3,-20.2,99,4.026,4.044,4.03,4.033,0,0,16.778,69.71,6,P-GPS,
0.0769794943790636,36.8736625299607,6056.9199625222,103.018376,0,1.28498035608,11400,2018-04-13 05:43:54,15,0,16.054,6056.9199625222,103.018376,0.223694,1.28498035608,0,0,-10.961006,213, -2.5, -1.1,0,0,1024,1024,1684,1024,213.3,-20.2,99,4.026,4.044,4.03,4.033,0,0,16.778,69.71,6,P-GPS,
0.0769795064735171,36.8736625464833,6058.8884665222,104.98688,0,1.29050857148,11500,2018-04-13 05:43:54,15,0,16.054,6058.8884665222,104.98688,0.223694,1.29050857148,0,0,-10.961006,213, -2.5, -1.2,0,0,1024,1024,1684,1024,213.3,-20.2,99,4.026,4.044,4.03,4.033,0,0,16.778,69.71,6,P-GPS,
0.0769795525609249,36.8736625585159,6060.5288865222,106.6273,0,1.2932415112,11600,2018-04-13 05:43:54,15,0,16.054,6060.5288865222,106.6273,0.223694,1.2932415112,0,0,-10.961006,213, -2.4, -1.5,0,0,1024,1024,1684,1024,213.3,-20.2,99,4.026,4.044,4.03,4.033,0,0,16.778,69.71,6,P-GPS,
0.0769795870057723,36.8736625441902,6062.1693065222,108.26772,0,1.28695542176,11700,2018-04-13 05:43:54,15,0,16.054,6062.1693065222,108.26772,0.223694,1.2932415112,0,0,-10.961006,213, -2.5, -1.7,0,0,1024,1024,1684,1024,213.3,-20.2,99,4.026,4.044,4.03,4.033,0,0,16.778,69.71,6,P-GPS,
0.0769796563408466,36.8736625410857,6063.8097265222,109.90814,0,1.28401578912,11800,2018-04-13 05:43:55,15,0,16.054,6063.8097265222,109.90814,0.223694,1.2932415112,0,0,-10.961006,212.9, -2.4, -1.9,0,0,1024,1024,1684,1024,213.3,-20.2,99,4.026,4.044,4.03,4.033,0,0,16.778,69.71,6,P-GPS,
0.0769797072411206,36.8736625346547,6065.4501465222,111.54856,0,1.2806594898,11900,2018-04-13 05:43:55,15,0,16.054,6065.4501465222,111.54856,0.223694,1.2932415112,0,0,-10.961006,212.9, -2.4, -1.9,0,0,1024,1024,1684,1024,213.3,-20.2,99,4.026,4.044,4.03,4.033,0,0,16.778,69.71,6,P-GPS,
0.076979814599548,36.8736625784083,6067.4186505222,113.517064,0,1.295357653,12000,2018-04-13 05:43:55,15,0,16.054,6067.4186505222,113.517064,0.223694,1.295357653,0,0,-11.1847,212.9, -2.8, -1.7,0,0,1024,1024,1684,1024,213.3,-20.2,99,4.026,4.044,4.03,4.033,0,0,16.778,69.71,6,P-GPS,
0.0769799113869312,36.8736626231807,6069.0590705222,115.157484,0,1.31158468764,12100,2018-04-13 05:43:55,15,0,16.054,6069.0590705222,115.157484,0.223694,1.31158468764,0,0,-11.1847,213, -3.3, -1.6,0,0,1024,1024,1684,1024,213.3,-20.2,99,4.026,4.044,4.03,4.033,0,0,16.778,69.71,6,P-GPS,
0.0769800312013267,36.8736626731223,6070.6994905222,116.797904,0,1.33097445204,12200,2018-04-13 05:43:55,15,0,16.054,6070.6994905222,116.797904,0.223694,1.33097445204,0,0,-11.408394,213, -3.8, -1.7,0,0,1024,1024,1684,1024,213.3,-20.2,99,4.026,4.044,4.03,4.033,0,0,16.778,69.71,6,P-GPS,
0.0769801037590916,36.8736626896067,6072.6679945222,118.766408,0,1.33838258876,12300,2018-04-13 05:43:55,15,0,16.001,6072.6679945222,118.766408,0.223694,1.33838258876,0,0,-11.1847,213, -3.8, -1.8,0,0,1024,1024,1684,1024,213.3,-20.2,99,4.017,4.035,4.02,4.022,0,0,17.192,69.71,6,P-GPS,
0.0769801980036595,36.8736627010667,6074.3084145222,120.406828,0,1.34514111916,12400,2018-04-13 05:43:55,15,0,16.001,6074.3084145222,120.406828,0.223694,1.34514111916,0,0,-11.1847,213, -3.7, -2.1,0,0,1024,1024,1684,1024,213.3,-20.2,99,4.017,4.035,4.02,4.022,0,0,17.192,69.71,6,P-GPS,
0.0769802543657347,36.8736626951642,6075.9488345222,122.047248,0,1.3449639538,12500,2018-04-13 05:43:55,15,0,16.001,6075.9488345222,122.047248,0.223694,1.34514111916,0,0,-11.1847,213, -3.5, -2.1,0,0,1024,1024,1684,1024,213.3,-20.2,99,4.017,4.035,4.02,4.022,0,0,17.192,69.71,6,P-GPS,
0.0769803172391432,36.8736627034633,6077.5892545222,123.687668,0,1.35053153928,12600,2018-04-13 05:43:55,15,0,16.001,6077.5892545222,123.687668,0.223694,1.35053153928,0,0,-10.961006,213, -3.3, -1.8,0,0,1024,1024,1684,1024,213.2,-20.2,99,4.017,4.035,4.02,4.022,0,0,17.192,69.71,6,P-GPS,
0.0769803480826867,36.8736627074745,6079.2296745222,125.328088,0,1.35337602756,12700,2018-04-13 05:43:55,15,0,16.001,6079.2296745222,125.328088,0.223694,1.35337602756,0,0,-10.961006,212.9, -3.4, -1.7,0,0,1024,1024,1684,1024,213.2,-20.2,99,4.017,4.035,4.02,4.022,0,0,17.192,69.71,6,P-GPS,
0.0769804011430917,36.8736626993793,6080.8700945222,126.968508,0,1.35306434776,12800,2018-04-13 05:43:56,15,0,16.001,6080.8700945222,126.968508,0.223694,1.35337602756,0,0,-10.961006,212.9, -3.6, -1.5,0,0,1024,1024,1684,1024,213.2,-20.2,99,4.017,4.035,4.02,4.022,0,0,17.192,69.71,6,P-GPS,
0.0769804334913175,36.8736626771156,6082.5105145222,128.608928,0,1.34676185412,12900,2018-04-13 05:43:56,15,0,16.001,6082.5105145222,128.608928,0.223694,1.35337602756,0,0,-10.961006,213, -3.8, -1.6,0,0,1024,1024,1684,1024,213.2,-20.2,99,4.017,4.035,4.02,4.022,0,0,17.192,69.71,6,P-GPS,
0.0769804879391567,36.8736626510798,6084.4790185222,130.577432,0,1.340551224,13000,2018-04-13 05:43:56,15,0,16.001,6084.4790185222,130.577432,0.223694,1.35337602756,0,0,-10.961006,213, -4, -1.7,0,0,1024,1024,1684,1024,213.2,-20.2,99,4.017,4.035,4.02,4.022,0,0,17.192,69.71,6,P-GPS,
0.0769805140838251,36.8736626210311,6086.1194385222,132.217852,0,1.33138455704,13100,2018-04-13 05:43:56,15,0,16.001,6086.1194385222,132.217852,0.223694,1.35337602756,0,0,-10.961006,213, -3.8, -2,0,0,1024,1024,1684,1024,213.2,-20.2,99,4.017,4.035,4.02,4.022,0,0,17.192,69.71,6,P-GPS,
0.076980552337603,36.8736625993644,6087.7598585222,133.858272,0,1.32613849388,13200,2018-04-13 05:43:56,15,0,16.001,6087.7598585222,133.858272,0.223694,1.35337602756,0,0,-10.961006,213, -3.7, -1.7,0,0,1024,1024,1684,1024,213.2,-20.2,99,4.017,4.035,4.02,4.022,0,0,17.192,69.71,6,P-GPS,
0.0769805601801893,36.8736625769903,6089.4002785222,135.498692,0,1.31865817868,13300,2018-04-13 05:43:56,15,0,15.974,6089.4002785222,135.498692,0.223694,1.35337602756,0,0,-10.961006,213, -3.6, -1.6,0,0,1024,1024,1684,1024,213.2,-20.2,99,4.005,4.024,4.01,4.011,0,0,17.44,69.71,6,P-GPS,
0.0769805960263128,36.8736625622514,6091.0406985222,137.139112,0,1.31593508148,13400,2018-04-13 05:43:56,15,0,15.974,6091.0406985222,137.139112,0.223694,1.35337602756,0,0,-10.961006,213, -3.6, -1.5,0,0,1024,1024,1684,1024,213.2,-20.2,99,4.005,4.024,4.01,4.011,0,0,17.44,69.71,6,P-GPS,
0.0769806096360335,36.8736625344218,6092.6811185222,138.779532,0,1.30700135416,13500,2018-04-13 05:43:56,15,0,15.974,6092.6811185222,138.779532,0.223694,1.35337602756,0,0,-10.961006,213, -3.6, -1.6,0,0,1024,1024,1684,1024,213.2,-20.2,99,4.005,4.024,4.01,4.011,0,0,17.44,69.71,6,P-GPS,
0.0769806338102846,36.8736624897959,6094.3215385222,140.419952,0,1.29293311224,13600,2018-04-13 05:43:56,15,0,15.974,6094.3215385222,140.419952,0.223694,1.35337602756,0,0,-10.961006,213, -3.5, -1.8,0,0,1024,1024,1684,1024,213.2,-20.2,99,4.005,4.024,4.01,4.011,0,0,17.44,69.71,6,P-GPS,
0.0769806248155742,36.8736624246654,6095.9619585222,142.060372,0,1.26901906948,13700,2018-04-13 05:43:56,15,0,15.974,6095.9619585222,142.060372,0.223694,1.35337602756,0,0,-10.961006,213, -3.3, -1.9,0,0,1024,1024,1684,1024,213.2,-20.2,99,4.005,4.024,4.01,4.011,0,0,17.44,69.71,6,P-GPS,
0.0769806529322883,36.8736623783036,6097.6023785222,143.700792,0,1.25479334724,13800,2018-04-13 05:43:56,15,0,15.974,6097.6023785222,143.700792,0.223694,1.35337602756,0,0,-10.961006,213, -3.3, -2.2,0,0,1024,1024,1684,1024,213.2,-20.2,99,4.005,4.024,4.01,4.011,0,0,17.44,69.71,6,P-GPS,
0.0769806639943083,36.8736623355088,6099.5708825222,145.669296,0,1.24052169324,13900,2018-04-13 05:43:57,15,0,15.974,6099.5708825222,145.669296,0.223694,1.35337602756,0,0,-11.1847,213, -3.2, -2.2,0,0,1024,1024,1684,1024,213.2,-20.2,99,4.005,4.024,4.01,4.011,0,0,17.44,69.71,6,P-GPS,
0.0769806676371376,36.8736622776714,6101.2113025222,147.309716,0,1.2203248422,14000,2018-04-13 05:43:57,15,0,15.974,6101.2113025222,147.309716,0.223694,1.35337602756,0,0,-11.1847,213, -3.1, -2.2,0,0,1024,1024,1684,1024,213.2,-20.2,99,4.005,4.024,4.01,4.011,0,0,17.44,69.71,6,P-GPS,
0.0769806270172305,36.8736622038777,6102.8517225222,148.950136,0,1.19067917196,14100,2018-04-13 05:43:57,15,0,15.974,6102.8517225222,148.950136,0.223694,1.35337602756,0,0,-10.961006,213, -3.1, -2.3,0,0,1024,1024,1684,1024,213.2,-20.2,99,4.005,4.024,4.01,4.011,0,0,17.44,69.71,6,P-GPS,
0.0769806222646167,36.8736621640868,6104.4921425222,150.590556,0,1.17615489328,14200,2018-04-13 05:43:57,15,0,15.974,6104.4921425222,150.590556,0.223694,1.35337602756,0,0,-10.961006,213, -2.9, -2.4,0,0,1024,1024,1684,1024,213.2,-20.2,99,4.005,4.024,4.01,4.011,0,0,17.44,69.71,6,P-GPS,
0.0769806075573247,36.8736621457402,6106.1325625222,152.230976,0,1.16840226836,14300,2018-04-13 05:43:57,15,0,15.921,6106.1325625222,152.230976,0.223694,1.35337602756,0,0,-10.961006,213, -2.8, -2.3,0,0,1024,1024,1684,1024,213.2,-20.2,99,4.005,4.024,4.01,4.011,0,0,17.44,69.71,6,P-GPS,
0.0769805934484859,36.8736621442499,6107.7729825222,153.871396,0,1.16670607408,14400,2018-04-13 05:43:57,15,0,15.921,6107.7729825222,153.871396,0.223694,1.35337602756,0,0,-10.961006,213, -2.8, -2.1,0,0,1024,1024,1684,1024,213.2,-20.2,99,4.005,4.024,4.01,4.011,0,0,17.44,69.71,6,P-GPS,
0.0769805414310994,36.8736621332564,6109.4134025222,155.511816,0,1.15865817356,14500,2018-04-13 05:43:57,15,0,15.921,6109.4134025222,155.511816,0.223694,1.35337602756,0,0,-11.1847,213, -2.9, -1.8,0,0,1024,1024,1684,1024,213.2,-20.2,99,4.005,4.024,4.01,4.011,0,0,17.44,69.71,6,P-GPS,
0.0769805164401836,36.8736621201355,6111.3819065222,157.48032,0,1.15208993188,14600,2018-04-13 05:43:57,15,0,15.921,6111.3819065222,157.48032,0.223694,1.35337602756,0,0,-10.961006,213, -2.8, -1.7,0,0,1024,1024,1684,1024,213.2,-20.2,99,4.005,4.024,4.01,4.011,0,0,17.44,69.71,6,P-GPS,
0.0769804741087819,36.8736620934069,6113.0223265222,159.12074,0,1.13947510208,14700,2018-04-13 05:43:57,15,0,15.921,6113.0223265222,159.12074,0.223694,1.35337602756,0,0,-10.961006,213, -2.8, -1.6,0,0,1024,1024,1684,1024,213.2,-20.2,99,4.005,4.024,4.01,4.011,0,0,17.44,69.71,6,P-GPS,
0.0769804696207902,36.8736620765414,6114.6627465222,160.76116,0,1.133120115,14800,2018-04-13 05:43:58,15,0,15.921,6114.6627465222,160.76116,0.223694,1.35337602756,0,0,-11.1847,213, -2.9, -1.4,0,0,1024,1024,1684,1024,213.2,-20.2,99,4.005,4.024,4.01,4.011,0,0,17.44,69.71,6,P-GPS,
0.0769804487384386,36.8736620512592,6116.3031665222,162.40158,0,1.122621427,14900,2018-04-13 05:43:58,15,0,15.921,6116.3031665222,162.40158,0.223694,1.35337602756,0,0,-10.961006,213, -2.9, -1.6,0,0,1024,1024,1684,1024,213.2,-20.2,99,4.005,4.024,4.01,4.011,0,0,17.44,69.71,6,P-GPS,
0.0769804657817335,36.8736620319764,6117.9435865222,164.042,0,1.1168963612,15000,2018-04-13 05:43:58,15,0,15.921,6117.9435865222,164.042,0.223694,1.35337602756,0,0,-10.961006,213, -2.5, -1.8,0,0,1024,1024,1684,1024,213.2,-20.2,99,4.005,4.024,4.01,4.011,0,0,17.44,69.71,6,P-GPS,
0.0769804577062797,36.8736620071079,6119.5840065222,165.68242,0,1.10742457612,15100,2018-04-13 05:43:58,15,0,15.921,6119.5840065222,165.68242,0.223694,1.35337602756,0,0,-11.1847,213, -2.3, -1.9,0,0,1024,1024,1684,1024,213.2,-20.2,99,4.005,4.024,4.01,4.011,0,0,17.44,69.71,6,P-GPS,
0.0769804677203961,36.8736620036649,6121.2244265222,167.32284,0,1.10690292256,15200,2018-04-13 05:43:58,15,0,15.921,6121.2244265222,167.32284,0.223694,1.35337602756,0,0,-11.1847,213, -2.6, -2.1,0,0,1024,1024,1684,1024,213.2,-20.2,99,4.005,4.024,4.01,4.011,0,0,17.44,69.71,6,P-GPS,
0.0769804438197235,36.8736619973035,6123.1929305222,169.291344,0,1.10294951036,15300,2018-04-13 05:43:58,15,0,15.948,6123.1929305222,169.291344,0.223694,1.35337602756,0,0,-11.1847,213, -2.7, -2.1,0,0,1024,1024,1684,1024,213.2,-20.2,99,4,4.018,4.001,4.006,0,0,17.404,69.71,6,P-GPS,
0.0769804252074228,36.8736619910136,6124.8333505222,170.931764,0,1.09943244988,15400,2018-04-13 05:43:58,15,0,15.948,6124.8333505222,170.931764,0.223694,1.35337602756,0,0,-11.1847,213, -2.6, -2.1,0,0,1024,1024,1684,1024,213.2,-20.2,99,4,4.018,4.001,4.006,0,0,17.404,69.71,6,P-GPS,
0.0769803794921145,36.8736619681896,6126.4737705222,172.572184,0,1.08829399808,15500,2018-04-13 05:43:58,15,0,15.948,6126.4737705222,172.572184,0.223694,1.35337602756,0,0,-11.1847,213, -2.5, -2,0,0,1024,1024,1684,1024,213.2,-20.2,99,4,4.018,4.001,4.006,0,0,17.404,69.71,6,P-GPS,
0.0769803623030739,36.8736619622307,6128.1141905222,174.212604,0,1.0851050216,15600,2018-04-13 05:43:58,15,0,15.948,6128.1141905222,174.212604,0.223694,1.35337602756,0,0,-11.1847,213, -2.6, -2,0,0,1024,1024,1684,1024,213.2,-20.2,99,4,4.018,4.001,4.006,0,0,17.404,69.71,6,P-GPS,
0.0769803376704158,36.873661958825,6129.7546105222,175.853024,0,1.08243769868,15700,2018-04-13 05:43:59,15,0,15.948,6129.7546105222,175.853024,0.223694,1.35337602756,0,0,-11.1847,213, -2.7, -2,0,0,1024,1024,1684,1024,213.2,-20.2,99,4,4.018,4.001,4.006,0,0,17.404,69.71,6,P-GPS,
0.0769803288580911,36.8736620309116,6133.0354505222,179.133864,0,1.10793638716,15900,2018-04-13 05:43:59,15,0,15.948,6133.0354505222,179.133864,0.223694,1.35337602756,0,0,-10.961006,213, -2.6, -1.9,0,0,1024,1024,1684,1024,213.2,-20.2,99,4,4.018,4.001,4.006,0,0,17.404,69.71,6,P-GPS,
0.0769803218867224,36.8736620820248,6134.6758705222,180.774284,0,1.12600397304,16000,2018-04-13 05:43:59,15,0,15.948,6134.6758705222,180.774284,0.223694,1.35337602756,0,0,-11.1847,213, -2.8, -1.8,0,0,1024,1024,1684,1024,213.2,-20.2,99,4,4.018,4.001,4.006,0,0,17.404,69.71,6,P-GPS,
0.0769802850342205,36.873662111824,6136.3162905222,182.414704,0,1.1349081728,16100,2018-04-13 05:43:59,15,0,15.948,6136.3162905222,182.414704,0.223694,1.35337602756,0,0,-10.961006,213, -3, -1.7,0,0,1024,1024,1684,1024,213.2,-20.2,99,4,4.018,4.001,4.006,0,0,17.404,69.71,6,P-GPS,
0.0769802712893389,36.8736621393636,6138.2847945222,184.383208,0,1.14422247756,16200,2018-04-13 05:43:59,15,0,15.948,6138.2847945222,184.383208,0.223694,1.35337602756,0,0,-11.1847,213, -2.7, -1.7,0,0,1024,1024,1684,1024,213.2,-20.2,99,4,4.018,4.001,4.006,0,0,17.404,69.71,6,P-GPS,
0.0769802370618888,36.873662142286,6139.9252145222,186.023628,0,1.14376315996,16300,2018-04-13 05:43:59,15,0,15.921,6139.9252145222,186.023628,0.223694,1.35337602756,0,0,-11.1847,213, -2.7, -1.8,0,0,1024,1024,1684,1024,213.2,-20.2,99,3.992,4.011,3.995,3.999,0,0,17.602,69.71,6,P-GPS,
0.0769802098619887,36.8736621686165,6141.5656345222,187.664048,0,1.15220804212,16400,2018-04-13 05:43:59,15,0,15.921,6141.5656345222,187.664048,0.223694,1.35337602756,0,0,-10.961006,213, -2.5, -1.7,0,0,1024,1024,1684,1024,213.2,-20.2,99,3.992,4.011,3.995,3.999,0,0,17.602,69.71,6,P-GPS,
0.0769801562641972,36.8736621906051,6143.2060545222,189.304468,0,1.1582841578,16500,2018-04-13 05:43:59,15,0,15.921,6143.2060545222,189.304468,0.223694,1.35337602756,0,0,-10.961006,213, -2.5, -1.4,0,0,1024,1024,1684,1024,213.2,-20.2,99,3.992,4.011,3.995,3.999,0,0,17.602,69.71,6,P-GPS,
0.0769801621640498,36.8736622097253,6144.8464745222,190.944888,0,1.16542326564,16600,2018-04-13 05:43:59,15,0,15.921,6144.8464745222,190.944888,0.223694,1.35337602756,0,0,-11.1847,213, -2.4, -1.5,0,0,1024,1024,1684,1024,213.2,-20.2,99,3.992,4.011,3.995,3.999,0,0,17.602,69.71,6,P-GPS,
0.0769801738367364,36.8736622082993,6146.4868945222,192.585308,0,1.16529859372,16700,2018-04-13 05:43:59,15,0,15.921,6146.4868945222,192.585308,0.223694,1.35337602756,0,0,-10.961006,213, -2.5, -1.7,0,0,1024,1024,1684,1024,213.2,-20.2,99,3.992,4.011,3.995,3.999,0,0,17.602,69.71,6,P-GPS,
0.0769802019672922,36.8736622309871,6148.1273145222,194.225728,0,1.17454072,16800,2018-04-13 05:44:00,15,0,15.921,6148.1273145222,194.225728,0.223694,1.35337602756,0,0,-11.1847,213, -2.6, -1.9,0,0,1024,1024,1684,1024,213.2,-20.2,99,3.992,4.011,3.995,3.999,0,0,17.602,69.71,6,P-GPS,
0.0769801866631755,36.8736622466036,6150.0958185222,196.194232,0,1.17965554956,16900,2018-04-13 05:44:00,15,0,15.921,6150.0958185222,196.194232,0.223694,1.35337602756,0,0,-10.961006,213, -2.6, -2.1,0,0,1024,1024,1684,1024,213.2,-20.2,99,3.992,4.011,3.995,3.999,0,0,17.602,69.71,6,P-GPS,
0.0769801887654967,36.8736622735761,6151.7362385222,197.834652,0,1.18952431628,17000,2018-04-13 05:44:00,15,0,15.921,6151.7362385222,197.834652,0.223694,1.35337602756,0,0,-10.961006,213, -2.4, -2,0,0,1024,1024,1684,1024,213.2,-20.2,99,3.992,4.011,3.995,3.999,0,0,17.602,69.71,6,P-GPS,
0.0769801725673643,36.8736622907151,6153.0485745222,199.146988,0,1.1951936078,17100,2018-04-13 05:44:00,15,0,15.921,6153.0485745222,199.146988,0.223694,1.35337602756,0,0,-10.961006,213, -2.5, -1.6,0,0,1024,1024,1684,1024,213.2,-20.2,99,3.992,4.011,3.995,3.999,0,0,17.602,69.71,6,P-GPS,
0.0769801831783054,36.8736623560407,6155.0170785222,201.115492,0,1.21928481592,17200,2018-04-13 05:44:00,15,0,15.921,6155.0170785222,201.115492,0.223694,1.35337602756,0,0,-10.961006,213, -2.5, -1.5,0,0,1024,1024,1684,1024,213.2,-20.2,99,3.992,4.011,3.995,3.999,0,0,17.602,69.71,6,P-GPS,
0.0769801798481374,36.8736624168749,6156.6574985222,202.755912,0,1.24127628644,17300,2018-04-13 05:44:00,15,0,15.868,6156.6574985222,202.755912,0.223694,1.35337602756,0,0,-10.961006,212.9, -2.7, -1.7,0,0,1024,1024,1684,1024,213.2,-20.2,98,3.983,4.001,3.984,3.987,0,0,17.932,69.71,6,P-GPS,
0.0769802037422962,36.8736624798024,6157.9698345222,204.068248,0,1.2649442662,17400,2018-04-13 05:44:00,15,0,15.868,6157.9698345222,204.068248,0.223694,1.35337602756,0,0,-10.961006,213, -2.6, -1.7,0,0,1024,1024,1684,1024,213.2,-20.2,98,3.983,4.001,3.984,3.987,0,0,17.932,69.71,6,P-GPS,
0.0769802090518378,36.8736625054439,6159.6102545222,205.708668,0,1.274442298,17500,2018-04-13 05:44:00,15,0,15.868,6159.6102545222,205.708668,0.223694,1.35337602756,0,0,-10.961006,213, -2.7, -1.5,0,0,1024,1024,1684,1024,213.2,-20.2,98,3.983,4.001,3.984,3.987,0,0,17.932,69.71,6,P-GPS,
0.0769802343073758,36.8736625413462,6161.5787585222,207.677172,0,1.28838914884,17600,2018-04-13 05:44:00,15,0,15.868,6161.5787585222,207.677172,0.223694,1.35337602756,0,0,-10.961006,213, -2.7, -1.8,0,0,1024,1024,1684,1024,213.2,-20.2,98,3.983,4.001,3.984,3.987,0,0,17.932,69.71,6,P-GPS,
0.076980245707298,36.8736625654073,6163.2191785222,209.317592,0,1.29754925412,17700,2018-04-13 05:44:00,15,0,15.868,6163.2191785222,209.317592,0.223694,1.35337602756,0,0,-11.1847,213, -2.6, -1.9,0,0,1024,1024,1684,1024,213.2,-20.2,98,3.983,4.001,3.984,3.987,0,0,17.932,69.71,6,P-GPS,
0.0769803002577292,36.8736625973063,6164.8595985222,210.958012,0,1.3113353438,17800,2018-04-13 05:44:00,15,0,15.868,6164.8595985222,210.958012,0.223694,1.35337602756,0,0,-11.1847,213, -2.8, -2,0,0,1024,1024,1684,1024,213.2,-20.2,98,3.983,4.001,3.984,3.987,0,0,17.932,69.71,6,P-GPS,
0.0769803396196633,36.8736626104009,6166.5000185222,212.598432,0,1.31785437288,17900,2018-04-13 05:44:01,15,0,15.868,6166.5000185222,212.598432,0.223694,1.35337602756,0,0,-10.961006,213, -3, -2,0,0,1024,1024,1684,1024,213.2,-20.2,98,3.983,4.001,3.984,3.987,0,0,17.932,69.71,6,P-GPS,
0.0769804859638542,36.8736626551369,6168.1404385222,214.238852,0,1.34188980672,18000,2018-04-13 05:44:01,15,0,15.868,6168.1404385222,214.238852,0.223694,1.35337602756,0,0,-10.961006,213, -3.3, -1.8,0,0,1024,1024,1684,1024,213.2,-20.2,98,3.983,4.001,3.984,3.987,0,0,17.932,69.71,6,P-GPS,
0.076980609366526,36.8736626846513,6169.4527745222,215.551188,0,1.36066933488,18100,2018-04-13 05:44:01,15,0,15.868,6169.4527745222,215.551188,0.223694,1.36066933488,0,0,-10.737312,213, -3.6, -1.7,0,0,1024,1024,1684,1024,213.2,-20.2,98,3.983,4.001,3.984,3.987,0,0,17.932,69.71,6,P-GPS,
0.0769807283064471,36.8736627286308,6171.0931945222,217.191608,0,1.38551841704,18200,2018-04-13 05:44:01,15,0,15.868,6171.0931945222,217.191608,0.223694,1.38551841704,0,0,-10.961006,213, -3.9, -1.7,0,0,1024,1024,1684,1024,213.2,-20.2,98,3.983,4.001,3.984,3.987,0,0,17.932,69.71,6,P-GPS,
0.0769807568221299,36.8736627418212,6173.0616985222,219.160112,0,1.39257878472,18300,2018-04-13 05:44:01,15,0,15.841,6173.0616985222,219.160112,0.223694,1.39257878472,0,0,-10.961006,213, -3.4, -2,0,0,1024,1024,1684,1024,213.2,-20.2,98,3.983,4.001,3.984,3.987,0,0,17.932,69.71,6,P-GPS,
0.0769807898103342,36.8736627526651,6174.3740345222,220.472448,0,1.39925529412,18400,2018-04-13 05:44:01,15,0,15.841,6174.3740345222,220.472448,0.223694,1.39925529412,0,0,-10.961006,213, -2.5, -2,0,0,1024,1024,1684,1024,213.2,-20.2,98,3.983,4.001,3.984,3.987,0,0,17.932,69.71,6,P-GPS,
0.0769807897647378,36.8736627491135,6176.3425385222,222.440952,0,1.39799217072,18500,2018-04-13 05:44:01,15,0,15.841,6176.3425385222,222.440952,0.223694,1.39925529412,0,0,-10.961006,213, -2.7, -1.9,0,0,1024,1024,1684,1024,213.2,-20.2,98,3.983,4.001,3.984,3.987,0,0,17.932,69.71,6,P-GPS,
0.0769808001998069,36.8736627842236,6177.9829585222,224.081372,0,1.41134190868,18600,2018-04-13 05:44:01,15,0,15.841,6177.9829585222,224.081372,0.223694,1.41134190868,0,0,-10.961006,213, -2.7, -1.6,0,0,1024,1024,1684,1024,213.2,-20.2,98,3.983,4.001,3.984,3.987,0,0,17.932,69.71,6,P-GPS,
0.0769807761387326,36.873662811502,6179.6233785222,225.721792,0,1.41894361496,18700,2018-04-13 05:44:01,15,0,15.841,6179.6233785222,225.721792,0.223694,1.41894361496,0,0,-10.961006,213, -2.5, -1.4,0,0,1024,1024,1684,1024,213.2,-20.2,98,3.983,4.001,3.984,3.987,0,0,17.932,69.71,6,P-GPS,
0.0769807807920113,36.8736628463128,6181.2637985222,227.362212,0,1.4316929592,18800,2018-04-13 05:44:02,15,0,15.841,6181.2637985222,227.362212,0.223694,1.4316929592,0,0,-10.961006,213, -2.5, -1.2,0,0,1024,1024,1684,1024,213.2,-20.2,98,3.983,4.001,3.984,3.987,0,0,17.932,69.71,6,P-GPS,
0.076980768822948,36.8736628488343,6182.9042185222,229.002632,0,1.43158469148,18900,2018-04-13 05:44:02,15,0,15.841,6182.9042185222,229.002632,0.223694,1.4316929592,0,0,-11.1847,212.9, -2.7, -1.4,0,0,1024,1024,1684,1024,213.2,-20.2,98,3.983,4.001,3.984,3.987,0,0,17.932,69.71,6,P-GPS,
0.076980782444882,36.8736628762341,6184.5446385222,230.643052,0,1.4424541144,19000,2018-04-13 05:44:02,15,0,15.841,6184.5446385222,230.643052,0.223694,1.4424541144,0,0,-11.1847,213, -2.6, -1.5,0,0,1024,1024,1684,1024,213.2,-20.2,98,3.983,4.001,3.984,3.987,0,0,17.932,69.71,6,P-GPS,
0.0769807775937473,36.8736628940409,6186.1850585222,232.283472,0,1.44837274976,19100,2018-04-13 05:44:02,15,0,15.841,6186.1850585222,232.283472,0.223694,1.44837274976,0,0,-11.1847,212.9, -2.6, -1.6,0,0,1024,1024,1684,1024,213.2,-20.2,98,3.983,4.001,3.984,3.987,0,0,17.932,69.71,6,P-GPS,
0.0769807974974041,36.8736629503488,6187.8254785222,233.923892,0,1.47003285544,19200,2018-04-13 05:44:02,15,0,15.841,6187.8254785222,233.923892,0.223694,1.47003285544,0,0,-11.1847,213, -2.7, -1.6,0,0,1024,1024,1684,1024,213.2,-20.2,98,3.983,4.001,3.984,3.987,0,0,17.932,69.71,6,P-GPS,
0.0769807939913642,36.8736629929361,6189.4658985222,235.564312,0,1.48487209476,19300,2018-04-13 05:44:02,15,0,15.841,6189.4658985222,235.564312,0.223694,1.48487209476,0,0,-11.1847,213, -2.8, -1.3,0,0,1024,1024,1684,1024,213.2,-20.2,98,3.976,3.995,3.978,3.981,0,0,18.16,69.71,6,P-GPS,
0.076980812204696,36.873663067559,6191.1063185222,237.204732,0,1.5128937492,19400,2018-04-13 05:44:02,15,0,15.841,6191.1063185222,237.204732,0.223694,1.5128937492,0,0,-11.1847,213, -2.9, -1.1,0,0,1024,1024,1684,1024,213.2,-20.2,98,3.976,3.995,3.978,3.981,0,0,18.16,69.71,6,P-GPS,
0.0769808142369942,36.8736631083322,6193.0748225222,239.173236,0,1.52755582316,19500,2018-04-13 05:44:02,15,0,15.841,6193.0748225222,239.173236,0.223694,1.52755582316,0,0,-11.1847,213, -3.4, -1.4,0,0,1024,1024,1684,1024,213.2,-20.2,98,3.976,3.995,3.978,3.981,0,0,18.16,69.71,6,P-GPS,
0.0769808539400872,36.8736631671308,6194.7152425222,240.813656,0,1.55174217564,19600,2018-04-13 05:44:02,15,0,15.841,6194.7152425222,240.813656,0.223694,1.55174217564,0,0,-10.961006,213, -3.5, -1.6,0,0,1024,1024,1684,1024,213.2,-20.2,98,3.976,3.995,3.978,3.981,0,0,18.16,69.71,6,P-GPS,
0.0769808577734444,36.8736631942834,6196.0275785222,242.125992,0,1.56170280588,19700,2018-04-13 05:44:02,15,0,15.841,6196.0275785222,242.125992,0.223694,1.56170280588,0,0,-10.961006,213, -3.3, -1.7,0,0,1024,1024,1684,1024,213.2,-20.2,98,3.976,3.995,3.978,3.981,0,0,18.16,69.71,6,P-GPS,
0.0769808842104185,36.8736632475646,6197.6679985222,243.766412,0.223694,1.58284781968,19800,2018-04-13 05:44:03,15,0,15.841,6197.6679985222,243.766412,0.223694,1.58284781968,-0.223694,0,-10.737312,213, -2.8, -1.4,0,0,1024,1024,1684,1024,213.2,-20.2,98,3.976,3.995,3.978,3.981,0,0,18.16,69.71,6,P-GPS,
0.0769808739886755,36.8736632713944,6199.3084185222,245.406832,0.223694,1.59044296428,19900,2018-04-13 05:44:03,15,0,15.841,6199.3084185222,245.406832,0.223694,1.59044296428,-0.223694,0,-10.961006,212.9, -2.3, -1.3,0,0,1024,1024,1684,1024,213.2,-20.2,98,3.976,3.995,3.978,3.981,0,0,18.16,69.71,6,P-GPS,
0.0769808914765356,36.8736633285655,6200.9488385222,247.047252,0.223694,1.61221133768,20000,2018-04-13 05:44:03,15,0,15.841,6200.9488385222,247.047252,0.223694,1.61221133768,-0.223694,0,-10.961006,212.9, -2, -1.4,0,0,1024,1024,1684,1024,213.2,-20.2,98,3.976,3.995,3.978,3.981,0,0,18.16,69.71,6,P-GPS,
0.076980879638562,36.873663366758,6202.5892585222,248.687672,0,1.62479335908,20100,2018-04-13 05:44:03,15,0,15.841,6202.5892585222,248.687672,0.223694,1.62479335908,0,0,-10.961006,213, -2.1, -1.3,0,0,1024,1024,1684,1024,213.2,-20.2,98,3.976,3.995,3.978,3.981,0,0,18.16,69.71,6,P-GPS,
0.0769809027241983,36.8736634199608,6204.2296785222,250.328092,0,1.64561028888,20200,2018-04-13 05:44:03,15,0,15.841,6204.2296785222,250.328092,0.223694,1.64561028888,0,0,-10.961006,212.9, -2.3, -1.3,0,0,1024,1024,1684,1024,213.2,-20.2,98,3.976,3.995,3.978,3.981,0,0,18.16,69.71,6,P-GPS,
0.076980897570173,36.873663442356,6205.8700985222,251.968512,0,1.65313981668,20300,2018-04-13 05:44:03,15,0,15.868,6205.8700985222,251.968512,0.223694,1.65313981668,0,0,-11.1847,212.9, -2.5, -1,0,0,1024,1024,1684,1024,213.2,-20.2,98,3.975,3.994,3.977,3.981,0,0,17.93,71.51,6,P-GPS,
0.0769809464283783,36.8736634884435,6207.5105185222,253.608932,0,1.67360241576,20400,2018-04-13 05:44:03,15,0,15.868,6207.5105185222,253.608932,0.223694,1.67360241576,0,0,-11.1847,213, -2.7, -1,0,0,1024,1024,1684,1024,213.2,-20.2,98,3.975,3.994,3.977,3.981,0,0,17.93,71.51,6,P-GPS,
0.0769809679645501,36.8736635061124,6209.1509385222,255.249352,0,1.68171921392,20500,2018-04-13 05:44:03,15,0,15.868,6209.1509385222,255.249352,0.223694,1.68171921392,0,0,-11.1847,213, -2.6, -1.3,0,0,1024,1024,1684,1024,213.2,-20.2,98,3.975,3.994,3.977,3.981,0,0,17.93,71.51,6,P-GPS,
0.0769810110548067,36.8736635456074,6210.7913585222,256.889772,0,1.6994915242,20600,2018-04-13 05:44:03,15,0,15.868,6210.7913585222,256.889772,0.223694,1.6994915242,0,0,-11.1847,213, -2.3, -1.2,0,0,1024,1024,1684,1024,213.2,-20.2,98,3.975,3.994,3.977,3.981,0,0,17.93,71.51,6,P-GPS,
0.0769810164229724,36.873663562001,6212.4317785222,258.530192,0,1.70576777112,20700,2018-04-13 05:44:03,15,0,15.868,6212.4317785222,258.530192,0.223694,1.70576777112,0,0,-11.1847,213, -2.3, -1.3,0,0,1024,1024,1684,1024,213.2,-20.2,98,3.975,3.994,3.977,3.981,0,0,17.93,71.51,6,P-GPS,
0.0769810734527096,36.8736635863816,6214.0721985222,260.170612,0,1.71957354584,20800,2018-04-13 05:44:04,15,0,15.868,6214.0721985222,260.170612,0.223694,1.71957354584,0,0,-10.961006,213, -2.4, -1.3,0,0,1024,1024,1684,1024,213.2,-20.2,98,3.975,3.994,3.977,3.981,0,0,17.93,71.51,6,P-GPS,
0.0769811042026176,36.8736635773519,6215.7126185222,261.811032,0,1.71928155108,20900,2018-04-13 05:44:04,15,0,15.868,6215.7126185222,261.811032,0.223694,1.71957354584,0,0,-10.961006,213, -2.3, -1.5,0,0,1024,1024,1684,1024,213.2,-20.2,98,3.975,3.994,3.977,3.981,0,0,17.93,71.51,6,P-GPS,
0.0769811756107011,36.8736635789508,6217.3530385222,263.451452,0,1.72683076392,21000,2018-04-13 05:44:04,15,0,15.868,6217.3530385222,263.451452,0.223694,1.72683076392,0,0,-10.961006,212.9, -2.1, -1.7,0,0,1024,1024,1684,1024,213.2,-20.2,98,3.975,3.994,3.977,3.981,0,0,17.93,71.51,6,P-GPS,
0.0769812177295908,36.8736635671196,6218.9934585222,265.091872,0,1.72697840172,21100,2018-04-13 05:44:04,15,0,15.868,6218.9934585222,265.091872,0.223694,1.72697840172,0,0,-11.1847,212.9, -2.2, -1.5,0,0,1024,1024,1684,1024,213.2,-20.2,98,3.975,3.994,3.977,3.981,0,0,17.93,71.51,6,P-GPS,
0.0769812807031486,36.8736635972623,6220.9619625222,267.060376,0,1.74415031828,21200,2018-04-13 05:44:04,15,0,15.868,6220.9619625222,267.060376,0.223694,1.74415031828,0,0,-11.1847,213, -2.2, -1.5,0,0,1024,1024,1684,1024,213.2,-20.2,98,3.975,3.994,3.977,3.981,0,0,17.93,71.51,6,P-GPS,
0.0769813031227514,36.8736636177827,6222.2742985222,268.372712,0,1.7537238094,21300,2018-04-13 05:44:04,15,0,15.815,6222.2742985222,268.372712,0.223694,1.7537238094,0,0,-10.961006,213, -2.5, -1.6,0,0,1024,1024,1684,1024,213.2,-20.2,98,3.972,3.992,3.976,3.979,0,0,17.73,71.51,6,P-GPS,
