latitude,longitude,altitude(feet),ascent(feet),speed(mph),distance(feet),time(millisecond),datetime(utc),satellites,voltage(v),max_altitude(feet),max_ascent(feet),max_speed(mph),max_distance(feet),compass_heading(degrees), pitch(degrees), roll(degrees),isPhoto,isVideo,rc_elevator,rc_aileron,rc_throttle,rc_rudder,gimbal_heading(degrees),gimbal_pitch(degrees),battery_percent,voltageCell1,voltageCell2,voltageCell3,voltageCell4,voltageCell5,voltageCell6,battery_temperature(f),flycStateRaw,flycState,message
0.371603291558083,36.9034628771114,5500.7523823889,0,0,0,0,2017-11-10 07:34:03,17,0,5500.7523823889,0,0,0,220.1, 1.3, -0.5,0,0,1024,1024,1024,1024,224.6,0,99,4.294,4.297,4.293,4.294,0,0,82.31,41,Motors_Started,
0.371603277737733,36.9034628633186,5500.7523823889,0,0,0.0071237535088,100,2017-11-10 07:34:03,17,0,5500.7523823889,0,0,0.0071237535088,220.1, 1.3, -0.5,0,0,1024,1024,1024,1024,224.6,0,99,4.294,4.297,4.293,4.294,0,0,82.31,41,Motors_Started,
0.371603249563082,36.9034628538793,5500.7523823889,0,0,0.0175100727388,200,2017-11-10 07:34:03,17,0,5500.7523823889,0,0,0.0175100727388,220.1, 1.3, -0.6,0,0,1024,1024,1024,1024,224.6,0,99,4.294,4.297,4.293,4.294,0,0,82.31,41,Motors_Started,
0.371603213803928,36.9034628484593,5500.7523823889,0,0,0.030233268684,300,2017-11-10 07:34:03,17,0,5500.7523823889,0,0,0.030233268684,220.1, 1.3, -0.5,0,0,1024,1024,1024,1024,224.6,0,99,4.294,4.297,4.293,4.294,0,0,82.31,41,Motors_Started,
0.371603178985352,36.9034628478946,5500.7523823889,0,0,0.04243274414,400,2017-11-10 07:34:03,17,0,5500.7523823889,0,0,0.04243274414,220.1, 1.3, -0.5,0,0,1024,1024,1024,1024,224.6,0,99,4.294,4.297,4.293,4.294,0,0,82.31,41,Motors_Started,
0.371603158225643,36.903462846889,5500.7523823889,0,0,0.04988025094,500,2017-11-10 07:34:03,17,0,5500.7523823889,0,0,0.04988025094,220.1, 1.3, -0.5,0,0,497,485,448,1571,224.6,0,99,4.294,4.297,4.293,4.294,0,0,82.31,41,Motors_Started,
0.37160314387152,36.9034628326372,5500.7523823889,0,0,0.056273295764,600,2017-11-10 07:34:03,17,17.149,5500.7523823889,0,0,0.056273295764,220.1, 1.3, -0.5,0,0,968,929,785,1246,224.4,0,99,4.294,4.297,4.293,4.294,0,0,82.31,41,Motors_Started,Setting new Return-To-Home altitude to 30m (98 ft). Setting new Maximum Flight Altitude to 120m (394 ft)
0.371603134898488,36.9034628051051,5500.7523823889,0,0,0.062905513824,700,2017-11-10 07:34:03,17,17.149,5500.7523823889,0,0,0.062905513824,220.1, 1.3, -0.5,0,0,1024,1024,1024,1024,223.2,0,99,4.294,4.297,4.293,4.294,0,0,82.31,41,Motors_Started,
0.371603114736163,36.9034627789997,5500.7523823889,0,0,0.073778545668,800,2017-11-10 07:34:04,17,17.149,5500.7523823889,0,0,0.073778545668,220.1, 1.3, -0.5,0,0,1024,1024,1024,1024,222.1,0,99,4.294,4.297,4.293,4.294,0,0,82.31,41,Motors_Started,
0.371603082837744,36.9034627638058,5500.7523823889,0,0,0.086648296736,900,2017-11-10 07:34:04,17,17.149,5500.7523823889,0,0,0.086648296736,220.1, 1.3, -0.5,0,0,1024,1024,1024,1024,221.5,0,99,4.294,4.297,4.293,4.294,0,0,82.31,41,Motors_Started,
0.371603055128701,36.9034627528069,5500.7523823889,0,0,0.097456367948,1000,2017-11-10 07:34:04,17,17.149,5500.7523823889,0,0,0.097456367948,220.1, 1.3, -0.5,0,0,1024,1024,1024,1024,221.5,0,99,4.294,4.297,4.293,4.294,0,0,82.31,41,Motors_Started,
0.371603038742229,36.903462746156,5500.7523823889,0,0,0.103879268416,1100,2017-11-10 07:34:04,17,17.149,5500.7523823889,0,0,0.103879268416,220.1, 1.2, -0.5,0,0,1024,1024,1024,1024,221.2,0,99,4.294,4.297,4.293,4.294,0,0,82.31,41,Motors_Started,
0.371603029460251,36.9034627453249,5500.7523823889,0,0,0.107033467992,1200,2017-11-10 07:34:04,17,17.149,5500.7523823889,0,0,0.107033467992,220.1, 1.3, -0.5,0,0,1024,1024,1024,1024,220.9,0,99,4.294,4.297,4.293,4.294,0,0,82.31,41,Motors_Started,
0.371603023130183,36.9034627473607,5500.7523823889,0,0,0.108776578284,1400,2017-11-10 07:34:04,17,17.149,5500.7523823889,0,0,0.108776578284,220.1, 1.3, -0.5,0,0,1024,1024,1024,1024,220.8,0,99,4.294,4.297,4.293,4.294,0,0,82.31,41,Motors_Started,
0.371603023078582,36.9034627478976,5500.7523823889,0,0,0.108708336812,1500,2017-11-10 07:34:04,17,17.149,5500.7523823889,0,0,0.108776578284,220.1, 1.3, -0.5,0,0,1024,1024,1024,1024,220.7,0,99,4.294,4.297,4.293,4.294,0,0,82.31,41,Motors_Started,
0.371603030379354,36.9034627528928,5500.7523823889,0,0,0.105519032248,1600,2017-11-10 07:34:04,17,17.123,5500.7523823889,0,0,0.108776578284,220.1, 1.3, -0.5,0,0,1024,1024,1024,1024,220.7,0,99,4.294,4.297,4.293,4.293,0,0,82.31,10,Assisted_Takeoff,
0.371603034322021,36.9034627554454,5500.7523823889,0,0,0.103820213296,1700,2017-11-10 07:34:04,17,17.123,5500.7523823889,0,0,0.108776578284,220.1, 1.3, -0.5,0,0,1024,1024,1024,1024,220.6,0,99,4.294,4.297,4.293,4.293,0,0,82.31,10,Assisted_Takeoff,
0.371603044242553,36.9034627435455,5500.7523823889,0,0,0.102550528216,1800,2017-11-10 07:34:05,17,17.123,5500.7523823889,0,0,0.108776578284,220.1, 1.3, -0.5,0,0,1024,1024,1024,1024,220.6,0,99,4.294,4.297,4.293,4.293,0,0,82.31,10,Assisted_Takeoff,
0.371603049599217,36.903462716865,5500.7523823889,0,0,0.105882877404,1900,2017-11-10 07:34:05,17,17.123,5500.7523823889,0,0,0.108776578284,220.1, 1.3, -0.5,0,0,1024,1024,1024,1024,220.6,0,99,4.294,4.297,4.293,4.293,0,0,82.31,10,Assisted_Takeoff,
0.371603042017996,36.9034626898719,5500.7523823889,0,0,0.113823166372,2000,2017-11-10 07:34:05,17,17.123,5500.7523823889,0,0,0.113823166372,220.1, 1.3, -0.5,0,0,1024,1024,1024,1024,220.5,0,99,4.294,4.297,4.293,4.293,0,0,82.31,10,Assisted_Takeoff,
0.371603018273807,36.9034626737932,5500.7523823889,0,0,0.124274282192,2100,2017-11-10 07:34:05,17,17.123,5500.7523823889,0,0,0.124274282192,220.1, 1.3, -0.5,0,0,1024,1024,1024,1024,220.5,0,99,4.294,4.297,4.293,4.293,0,0,82.31,10,Assisted_Takeoff,
0.371602994935151,36.9034626434386,5500.7523823889,0,0,0.13776903328,2200,2017-11-10 07:34:05,17,17.123,5500.7523823889,0,0,0.13776903328,220.1, 1.3, -0.5,0,0,1024,1024,1024,1024,220.5,0,99,4.294,4.297,4.293,4.293,0,0,82.31,10,Assisted_Takeoff,
0.371602981884801,36.9034626058777,5500.7523823889,0,0,0.150193246276,2300,2017-11-10 07:34:05,17,17.123,5500.7523823889,0,0,0.150193246276,220.1, 1.3, -0.5,0,0,1024,1024,1024,1024,220.5,0,99,4.294,4.297,4.293,4.293,0,0,82.31,10,Assisted_Takeoff,
0.371602972454024,36.9034625701882,5500.7523823889,0,0,0.161536094408,2400,2017-11-10 07:34:05,17,17.123,5500.7523823889,0,0,0.161536094408,220.1, 1.3, -0.5,0,0,1024,1024,1024,1024,220.5,0,99,4.294,4.297,4.293,4.293,0,0,82.31,10,Assisted_Takeoff,
0.37160296753307,36.903462549043,5500.7523823889,0,0,0.1682332731,2500,2017-11-10 07:34:05,17,17.123,5500.7523823889,0,0,0.1682332731,220.1, 1.3, -0.5,0,0,1024,1024,1024,1024,220.5,0,99,4.294,4.297,4.293,4.293,0,0,82.31,10,Assisted_Takeoff,
0.371602948585666,36.9034625343371,5500.7523823889,0,0,0.176912079152,2600,2017-11-10 07:34:05,17,16.935,5500.7523823889,0,0,0.176912079152,220.1, 1.3, -0.5,0,0,1024,1024,1024,1024,220.5,0,99,4.258,4.275,4.284,4.29,0,0,82.31,10,Assisted_Takeoff,
0.371602918052952,36.9034625258209,5500.7523823889,0,0,0.187074152968,2700,2017-11-10 07:34:05,17,16.935,5500.7523823889,0,0,0.187074152968,220.1, 1.3, -0.5,0,1,1024,1024,1024,1024,220.5,0,99,4.258,4.275,4.284,4.29,0,0,82.31,10,Assisted_Takeoff,
0.371602888158994,36.903462507196,5500.7523823889,0,0,0.199690623188,2800,2017-11-10 07:34:06,17,16.935,5500.7523823889,0,0,0.199690623188,220.1, 1.3, -0.5,0,1,1024,1024,1024,1024,220.5,0,99,4.258,4.275,4.284,4.29,0,0,82.31,10,Assisted_Takeoff,
0.371602870551393,36.9034624772592,5500.7523823889,0,0,0.211839573708,2900,2017-11-10 07:34:06,17,16.935,5500.7523823889,0,0,0.211839573708,220.1, 1.3, -0.5,0,1,1024,1024,1024,1024,220.4,0,99,4.258,4.275,4.284,4.29,0,0,82.31,10,Assisted_Takeoff,
0.371602857856654,36.9034624514691,5500.7523823889,0,0,0.221707356176,3000,2017-11-10 07:34:06,17,16.935,5500.7523823889,0,0,0.221707356176,220.1, 1.3, -0.5,0,1,1024,1024,1024,1024,220.4,0,99,4.258,4.275,4.284,4.29,0,0,82.31,10,Assisted_Takeoff,
0.371602850322607,36.9034624363585,5500.7523823889,0,0,0.227539705444,3100,2017-11-10 07:34:06,17,16.935,5500.7523823889,0,0,0.227539705444,220.1, 1.3, -0.5,0,1,1024,1024,1024,1024,220.4,0,99,4.258,4.275,4.284,4.29,0,0,82.31,10,Assisted_Takeoff,
0.371602848767341,36.9034624104577,5500.7523823889,0,0,0.234703419584,3200,2017-11-10 07:34:06,17,16.935,5500.7523823889,0,0,0.234703419584,220.1, 1.3, -0.5,0,1,1024,1024,1024,1024,220.4,0,99,4.258,4.275,4.284,4.29,0,0,82.31,10,Assisted_Takeoff,
0.371602848757011,36.9034623758961,5500.7523823889,0,0,0.244007225656,3300,2017-11-10 07:34:06,17,16.935,5500.7523823889,0,0,0.244007225656,220.1, 1.3, -0.5,0,1,1024,1024,1024,1024,220.4,0,99,4.258,4.275,4.284,4.29,0,0,82.31,10,Assisted_Takeoff,
0.371602836688511,36.9034623456689,5500.7523823889,0,0,0.255218840188,3400,2017-11-10 07:34:06,18,16.935,5500.7523823889,0,0,0.255218840188,220.1, 1.3, -0.5,0,1,1024,1024,1024,1024,220.4,0,99,4.258,4.275,4.284,4.29,0,0,82.31,10,Assisted_Takeoff,
0.371602810886223,36.9034623273635,5500.7523823889,0,0,0.2664288143,3500,2017-11-10 07:34:06,18,16.935,5500.7523823889,0,0,0.2664288143,220.1, 1.3, -0.5,0,1,1024,1024,1024,1024,220.4,0,99,4.258,4.275,4.284,4.29,0,0,82.31,10,Assisted_Takeoff,
0.371602787231038,36.9034623170857,5500.7523823889,0,0,0.27496227914,3600,2017-11-10 07:34:06,18,17.123,5500.7523823889,0,0,0.27496227914,220.1, 1.3, -0.5,0,1,1024,1024,1024,1024,220.4,0,99,4.287,4.291,4.286,4.288,0,0,82.31,10,Assisted_Takeoff,
0.371602774475436,36.9034623110602,5500.7523823889,0,0,0.279717200552,3700,2017-11-10 07:34:06,18,17.123,5500.7523823889,0,0,0.279717200552,220.1, 1.3, -0.5,0,1,1024,1024,1024,1024,220.4,0,99,4.287,4.291,4.286,4.288,0,0,82.31,10,Assisted_Takeoff,
0.371602766053836,36.9034622960973,5500.7523823889,0,0,0.28582349996,3800,2017-11-10 07:34:07,18,17.123,5500.7523823889,0,0,0.28582349996,220.1, 1.3, -0.5,0,1,1024,1024,1024,1024,220.4,0,99,4.287,4.291,4.286,4.288,0,0,82.31,10,Assisted_Takeoff,
0.371602761707417,36.9034622677633,5500.7523823889,0,0,0.294610245648,3900,2017-11-10 07:34:07,18,17.123,5500.7523823889,0,0,0.294610245648,220, 1.3, -0.5,0,1,1024,1024,1024,1024,220.4,0,99,4.287,4.291,4.286,4.288,0,0,82.31,10,Assisted_Takeoff,
0.371602762140176,36.9034622265692,5500.7523823889,0,0,0.306010836564,4000,2017-11-10 07:34:07,18,17.123,5500.7523823889,0,0,0.306010836564,220.1, 1.3, -0.5,0,1,1024,1024,1024,1024,220.4,0,99,4.287,4.291,4.286,4.288,0,0,82.31,10,Assisted_Takeoff,
0.3716027632522,36.903462182309,5500.7523823889,0,0,0.318452438012,4100,2017-11-10 07:34:07,18,17.123,5500.7523823889,0,0,0.318452438012,220.1, 1.3, -0.5,0,1,1024,1024,1024,1024,220.4,0,99,4.287,4.291,4.286,4.288,0,0,82.31,10,Assisted_Takeoff,
0.371602768544134,36.9034621429018,5500.7523823889,0,0,0.3288878058,4200,2017-11-10 07:34:07,17,17.123,5500.7523823889,0,0,0.3288878058,220.1, 1.3, -0.5,0,1,1024,1024,1026,1024,220.4,0,99,4.287,4.291,4.286,4.288,0,0,82.31,10,Assisted_Takeoff,
0.371602772849231,36.903462119306,5500.7523823889,0,0,0.33504594248,4300,2017-11-10 07:34:07,17,17.123,5500.7523823889,0,0,0.33504594248,220.1, 1.3, -0.5,0,1,1024,1024,1024,1024,220.4,0,99,4.287,4.291,4.286,4.288,0,0,82.31,10,Assisted_Takeoff,
0.371602762687028,36.9034620866694,5500.7523823889,0,0,0.34698491924,4400,2017-11-10 07:34:07,17,17.123,5500.7523823889,0,0,0.34698491924,220.1, 1.3, -0.5,0,1,1024,1024,1039,1024,220.4,0,99,4.287,4.291,4.286,4.288,0,0,82.31,10,Assisted_Takeoff,
0.371602738807933,36.9034620470184,5500.7523823889,0,0,0.36385499852,4500,2017-11-10 07:34:07,17,17.123,5500.7523823889,0,0,0.36385499852,220.1, 1.3, -0.5,0,1,1024,1024,1132,1024,220.4,0,99,4.287,4.291,4.286,4.288,0,0,82.31,10,Assisted_Takeoff,
0.371602714530886,36.9034620150962,5500.7523823889,0,0,0.3784612982,4600,2017-11-10 07:34:07,17,17.123,5500.7523823889,0,0,0.3784612982,220.1, 1.3, -0.5,0,1,1024,1024,1141,1024,220.4,0,99,4.287,4.291,4.286,4.288,0,0,82.31,10,Assisted_Takeoff,
0.371602701899758,36.9034619953305,5500.7523823889,0,0,0.38701444808,4700,2017-11-10 07:34:07,17,17.123,5500.7523823889,0,0,0.38701444808,220.1, 1.3, -0.5,0,1,1024,1024,1174,1024,220.4,0,99,4.287,4.291,4.286,4.288,0,0,82.31,10,Assisted_Takeoff,
0.371602690998751,36.9034619679335,5500.7523823889,0,0,0.39754266364,4800,2017-11-10 07:34:08,17,17.123,5500.7523823889,0,0,0.39754266364,220.1, 1.3, -0.5,0,1,1024,1024,1277,1024,220.4,0,99,4.287,4.291,4.286,4.288,0,0,82.31,10,Assisted_Takeoff,
0.371602686028231,36.9034619317858,5500.7523823889,0,0,0.40958662728,4900,2017-11-10 07:34:08,17,17.123,5500.7523823889,0,0,0.40958662728,220.1, 1.2, -0.5,0,1,1024,1024,1328,1024,220.4,0,99,4.287,4.291,4.286,4.288,0,0,82.31,10,Assisted_Takeoff,
0.37160266543849,36.9034619044013,5500.7523823889,0,0,0.42205381928,5000,2017-11-10 07:34:08,17,17.123,5500.7523823889,0,0,0.42205381928,220, 1.2, -0.5,0,1,1024,1024,1381,1024,220.4,0,99,4.287,4.291,4.286,4.288,0,0,82.31,10,Assisted_Takeoff,
0.371602634762167,36.9034618877091,5500.7523823889,0,0,0.43327429208,5100,2017-11-10 07:34:08,17,17.123,5500.7523823889,0,0,0.43327429208,220.1, 1.1, -0.5,0,1,1024,1024,1446,1024,220.4,0,99,4.287,4.291,4.286,4.288,0,0,82.31,10,Assisted_Takeoff,
0.371602599701972,36.9034618668745,5500.7523823889,0,0,0.44672901692,5200,2017-11-10 07:34:08,17,17.123,5500.7523823889,0,0,0.44672901692,220.1, 0.1, -0.8,0,1,1024,1024,1482,1024,220.4,0,99,4.287,4.291,4.286,4.288,0,0,82.31,10,Assisted_Takeoff,
0.371602560403445,36.9034618385883,5500.7523823889,0,0,0.46338256076,5300,2017-11-10 07:34:08,17,17.123,5500.7523823889,0,0,0.46338256076,220.2, -1.3, -1.2,0,1,1024,1024,1519,1024,220.4,0,99,4.287,4.291,4.286,4.288,0,0,82.31,10,Assisted_Takeoff,
0.371602468786066,36.9034618065269,5500.7523823889,0,0.223694,0.49262140684,5400,2017-11-10 07:34:08,17,17.123,5500.7523823889,0,0.223694,0.49262140684,220.2, -1.1, -0.9,0,1,1024,1024,1554,1024,220.4,0,99,4.287,4.291,4.286,4.288,0,0,82.31,6,GPS_Atti,
0.371602309682813,36.9034617576745,5500.7523823889,0,0.223694,0.54326773392,5500,2017-11-10 07:34:08,17,17.123,5500.7523823889,0,0.223694,0.54326773392,220.3, 0, 0.3,0,1,1024,1024,1593,1024,220.4,0,99,4.287,4.291,4.286,4.288,0,0,82.31,6,GPS_Atti,
0.371602075041844,36.9034616619035,5501.0804663889,0.328084,0.50107456,0.62734910144,5600,2017-11-10 07:34:08,17,16.802,5501.0804663889,0.328084,0.50107456,0.62734910144,220.3, 1.1, 1.6,0,1,1024,1024,1632,1024,220.4,0,99,4.288,4.291,4.286,4.288,0,0,82.31,6,GPS_Atti,
0.371601822881871,36.9034614994876,5501.4085503889,0.656168,0.50107456,0.7346785012,5700,2017-11-10 07:34:08,17,16.802,5501.4085503889,0.656168,0.50107456,0.7346785012,220.4, 1.6, 2.2,0,1,1024,1024,1678,1024,220.4,0,99,4.288,4.291,4.286,4.288,0,0,82.31,6,GPS_Atti,Home Point Recorded. RTH Altitude:  30m.
0.37160159479997,36.9034612605779,5502.0647183889,1.312336,0.50107456,0.85502955492,5800,2017-11-10 07:34:09,17,16.802,5502.0647183889,1.312336,0.50107456,0.85502955492,220.4, 1.9, 0.7,0,1,1024,1024,1684,1024,220.4,0,99,4.288,4.291,4.286,4.288,0,0,82.31,6,GPS_Atti,
0.371601399009909,36.9034609704203,5502.7208863889,1.968504,0.50107456,0.98015423084,5900,2017-11-10 07:34:09,17,16.802,5502.7208863889,1.968504,0.50107456,0.98015423084,220.3, 3, -0.8,0,1,1024,1024,1684,1024,220.4,0,99,4.288,4.291,4.286,4.288,0,0,82.31,6,GPS_Atti,
0.37160120354228,36.9034606626406,5503.7051383889,2.952756,0.50107456,1.11045607228,6000,2017-11-10 07:34:09,18,16.802,5503.7051383889,2.952756,0.50107456,1.11045607228,220.1, 4.4, -1.5,0,1,1024,1024,1684,1024,220.4,0,99,4.288,4.291,4.286,4.288,0,0,82.31,6,GPS_Atti,
0.371601037458905,36.9034603965266,5504.6893903889,3.937008,0.31540854,1.22287077404,6100,2017-11-10 07:34:09,18,16.802,5504.6893903889,3.937008,0.50107456,1.22287077404,220.1, 4.6, -1.6,0,1,1024,1024,1684,1024,220.4,0,99,4.288,4.291,4.286,4.288,0,0,82.31,6,GPS_Atti,
0.371600922306541,36.9034601819755,5505.6736423889,4.92126,0.31540854,1.3092356062,6200,2017-11-10 07:34:09,18,16.802,5505.6736423889,4.92126,0.50107456,1.3092356062,220.1, 4, -0.7,0,1,1024,1024,1684,1024,220.4,0,99,4.288,4.291,4.286,4.288,0,0,82.31,6,GPS_Atti,
0.371600855293628,36.9034600195056,5507.3140623889,6.56168,0.223694,1.37005581812,6300,2017-11-10 07:34:09,18,16.802,5507.3140623889,6.56168,0.50107456,1.37005581812,220, 3.3, 0.2,0,1,1024,1024,1684,1024,220.4,0,99,4.288,4.291,4.286,4.288,0,0,82.31,6,GPS_Atti,
0.371600805468738,36.903459876267,5508.6263983889,7.874016,0.223694,1.42175857568,6400,2017-11-10 07:34:09,18,16.802,5508.6263983889,7.874016,0.50107456,1.42175857568,220, 2.2, 0.1,0,1,1024,1024,1684,1024,220.4,0,99,4.288,4.291,4.286,4.288,0,0,82.31,6,GPS_Atti,
0.371600741145607,36.9034597380443,5510.2668183889,9.514436,0.223694,1.47562996848,6500,2017-11-10 07:34:09,18,16.802,5510.2668183889,9.514436,0.50107456,1.47562996848,220.1, 2.1, -1.2,0,1,1024,1024,1684,1024,220.4,0,99,4.288,4.291,4.286,4.288,0,0,82.31,6,GPS_Atti,
0.371600673525691,36.9034595912877,5511.9072383889,11.154856,0.223694,1.53281500968,6600,2017-11-10 07:34:09,18,16.16,5511.9072383889,11.154856,0.50107456,1.53281500968,220.1, 2.7, -2.1,0,1,1024,1024,1684,1024,220.4,0,99,4.142,4.155,4.115,4.123,0,0,82.31,6,GPS_Atti,
0.371600599502734,36.9034594527684,5513.8757423889,13.12336,0.223694,1.58920280676,6700,2017-11-10 07:34:09,18,16.16,5513.8757423889,13.12336,0.50107456,1.58920280676,220.1, 3.5, -1.9,0,1,1024,1024,1684,1024,220.4,0,99,4.142,4.155,4.115,4.123,0,0,82.31,6,GPS_Atti,
0.371600489895018,36.9034593420006,5515.5161623889,14.76378,0,1.6457021524,6800,2017-11-10 07:34:10,18,16.16,5515.5161623889,14.76378,0.50107456,1.6457021524,220.2, 3.3, -1.6,0,1,1024,1024,1684,1024,220.4,0,99,4.142,4.155,4.115,4.123,0,0,82.31,6,GPS_Atti,
0.371600356035293,36.9034592572909,5517.1565823889,16.4042,0.223694,1.70036422764,6900,2017-11-10 07:34:10,18,16.16,5517.1565823889,16.4042,0.50107456,1.70036422764,220.2, 2.9, -0.5,0,1,1024,1024,1684,1024,220.4,0,99,4.142,4.155,4.115,4.123,0,0,82.31,6,GPS_Atti,
0.371600219786234,36.9034591819807,5518.7970023889,18.04462,0.223694,1.75314638156,7000,2017-11-10 07:34:10,18,16.16,5518.7970023889,18.04462,0.50107456,1.75314638156,220.2, 3.3, -0.3,0,1,1024,1024,1684,1024,220.4,0,99,4.142,4.155,4.115,4.123,0,0,82.31,6,GPS_Atti,
0.371600122874682,36.9034591070543,5520.1093383889,19.356956,0.223694,1.79679795776,7100,2017-11-10 07:34:10,18,16.16,5520.1093383889,19.356956,0.50107456,1.79679795776,220.1, 3.7, -1.1,0,1,1024,1024,1684,1024,220.4,0,99,4.142,4.155,4.115,4.123,0,0,82.31,6,GPS_Atti,
0.371600061184745,36.9034590462134,5521.7497583889,20.997376,0,1.82827433672,7200,2017-11-10 07:34:10,18,16.16,5521.7497583889,20.997376,0.50107456,1.82827433672,220.1, 3.4, -1.8,0,1,1024,1024,1684,1024,220.4,0,99,4.142,4.155,4.115,4.123,0,0,82.31,6,GPS_Atti,
0.37160003115868,36.9034590108473,5523.3901783889,22.637796,0,1.84520019028,7300,2017-11-10 07:34:10,18,16.16,5523.3901783889,22.637796,0.50107456,1.84520019028,220.1, 2.7, -1.7,0,1,1024,1024,1684,1024,220.4,0,99,4.142,4.155,4.115,4.123,0,0,82.31,6,GPS_Atti,
0.371599985201548,36.9034590106819,5524.7025143889,23.950132,0,1.85609914076,7400,2017-11-10 07:34:10,18,16.16,5524.7025143889,23.950132,0.50107456,1.85609914076,220.1, 2.4, -0.6,0,1,1024,1024,1684,1024,220.4,0,99,4.142,4.155,4.115,4.123,0,0,82.31,6,GPS_Atti,
0.371599931237764,36.9034590247819,5526.3429343889,25.590552,0,1.865075519,7500,2017-11-10 07:34:10,18,16.16,5526.3429343889,25.590552,0.50107456,1.865075519,220.1, 2.1, -0.3,0,1,1024,1024,1684,1024,220.4,0,99,4.142,4.155,4.115,4.123,0,0,82.31,6,GPS_Atti,
0.371599881642281,36.9034590517335,5527.9833543889,27.230972,0,1.869668695,7600,2017-11-10 07:34:10,18,16.614,5527.9833543889,27.230972,0.50107456,1.869668695,220.1, 2.3, -0.9,0,1,1024,1024,1684,1024,220.4,0,99,4.141,4.158,4.125,4.138,0,0,82.31,6,GPS_Atti,
0.37159984054239,36.9034590910432,5529.6237743889,28.871392,0,1.86905517792,7700,2017-11-10 07:34:10,18,16.614,5529.6237743889,28.871392,0.50107456,1.869668695,220.2, 2.1, -1.4,0,1,1024,1024,1684,1024,220.4,0,99,4.141,4.158,4.125,4.138,0,0,82.31,6,GPS_Atti,
0.371599790783248,36.903459146129,5530.9361103889,30.183728,0,1.86662735632,7800,2017-11-10 07:34:11,18,16.614,5530.9361103889,30.183728,0.50107456,1.869668695,220.1, 1.9, -1.5,0,1,1024,1024,1684,1024,220.4,0,99,4.141,4.158,4.125,4.138,0,0,82.31,6,GPS_Atti,
0.371599732946209,36.9034591952317,5532.5765303889,31.824148,0,1.86820544036,7900,2017-11-10 07:34:11,18,16.614,5532.5765303889,31.824148,0.50107456,1.869668695,220.1, 1.8, -0.8,0,1,1024,1024,1684,1024,220.4,0,99,4.141,4.158,4.125,4.138,0,0,82.31,6,GPS_Atti,
0.371599652602447,36.9034592553525,5534.2169503889,33.464568,0,1.87315950876,8000,2017-11-10 07:34:11,18,16.614,5534.2169503889,33.464568,0.50107456,1.87315950876,220.2, 1.6, -0.7,0,1,1024,1024,1684,1024,220.4,0,99,4.141,4.158,4.125,4.138,0,0,82.31,6,GPS_Atti,
0.371599565898796,36.9034593003017,5535.8573703889,35.104988,0,1.8843176456,8100,2017-11-10 07:34:11,18,16.614,5535.8573703889,35.104988,0.50107456,1.8843176456,220.2, 1.3, -1.1,0,1,1024,1024,1684,1024,220.4,0,99,4.141,4.158,4.125,4.138,0,0,82.31,6,GPS_Atti,
0.371599447414839,36.9034593468617,5537.4977903889,36.745408,0,1.90420609768,8200,2017-11-10 07:34:11,18,16.614,5537.4977903889,36.745408,0.50107456,1.90420609768,220.3, 1.7, -1,0,1,1024,1024,1684,1024,220.4,0,99,4.141,4.158,4.125,4.138,0,0,82.31,6,GPS_Atti,
0.371599331708193,36.9034593803933,5539.1382103889,38.385828,0,1.92739179396,8300,2017-11-10 07:34:11,18,16.614,5539.1382103889,38.385828,0.50107456,1.92739179396,220.3, 2.3, -1.5,0,1,1024,1024,1684,1024,220.4,0,99,4.141,4.158,4.125,4.138,0,0,82.31,6,GPS_Atti,
0.371599220045381,36.9034594417925,5540.4505463889,39.698164,0,1.94359258188,8400,2017-11-10 07:34:11,18,16.614,5540.4505463889,39.698164,0.50107456,1.94359258188,220.4, 2.2, -1.9,0,1,1024,1024,1684,1024,220.4,0,99,4.141,4.158,4.125,4.138,0,0,82.31,6,GPS_Atti,
0.371599124081177,36.9034595248984,5542.0909663889,41.338584,0.223694,1.95133864512,8500,2017-11-10 07:34:11,18,16.614,5542.0909663889,41.338584,0.50107456,1.95133864512,220.3, 1.4, -1.5,0,1,1024,1024,1684,1024,220.4,0,99,4.141,4.158,4.125,4.138,0,0,82.31,6,GPS_Atti,
0.371599014507251,36.9034596504841,5543.7313863889,42.979004,0.223694,1.95471462948,8600,2017-11-10 07:34:11,18,16.481,5543.7313863889,42.979004,0.50107456,1.95471462948,220.3, 0.9, -0.8,0,1,1024,1024,1684,1024,220.4,0,99,4.141,4.158,4.125,4.138,0,0,82.31,6,GPS_Atti,
0.371598891918801,36.9034597718473,5545.3718063889,44.619424,0,1.96474415736,8700,2017-11-10 07:34:11,18,16.481,5545.3718063889,44.619424,0.50107456,1.96474415736,220.2, 1.3, -0.2,0,1,1024,1024,1684,1024,220.4,0,99,4.141,4.158,4.125,4.138,0,0,82.31,6,GPS_Atti,
0.371598755938028,36.9034598741087,5547.0122263889,46.259844,0,1.98464245196,8800,2017-11-10 07:34:12,18,16.481,5547.0122263889,46.259844,0.50107456,1.98464245196,220.2, 2.1, 0.1,0,1,1024,1024,1684,1024,220.4,0,99,4.141,4.158,4.125,4.138,0,0,82.31,6,GPS_Atti,
0.371598627173704,36.9034599457997,5548.6526463889,47.900264,0,2.00994429004,8900,2017-11-10 07:34:12,18,16.481,5548.6526463889,47.900264,0.50107456,2.00994429004,220.1, 1.8, 0.4,0,1,1024,1024,1684,1024,220.4,0,99,4.141,4.158,4.125,4.138,0,0,82.31,6,GPS_Atti,
0.37159850780591,36.903460010044,5550.6211503889,49.868768,0,2.03479993388,9000,2017-11-10 07:34:12,18,16.481,5550.6211503889,49.868768,0.50107456,2.03479993388,220.2, 1.5, -0.5,0,1,1024,1024,1684,1024,220.4,0,99,4.141,4.158,4.125,4.138,0,0,82.31,6,GPS_Atti,
0.371598365949303,36.9034600661057,5552.2615703889,51.509188,0,2.06915032868,9100,2017-11-10 07:34:12,18,16.481,5552.2615703889,51.509188,0.50107456,2.06915032868,220.3, 1.4, -0.4,0,1,1024,1024,1684,1024,220.4,0,99,4.141,4.158,4.125,4.138,0,0,82.31,6,GPS_Atti,
0.371598166908665,36.9034600946477,5554.2300743889,53.477692,0,2.12753943816,9200,2017-11-10 07:34:12,18,16.481,5554.2300743889,53.477692,0.50107456,2.12753943816,220.2, 1.8, -0.2,0,1,1024,1024,1684,1024,220.4,0,99,4.141,4.158,4.125,4.138,0,0,82.31,6,GPS_Atti,
0.371597928508128,36.9034600822623,5555.8704943889,55.118112,0,2.20645348268,9300,2017-11-10 07:34:12,18,16.481,5555.8704943889,55.118112,0.50107456,2.20645348268,220.2, 2.1, 0.1,0,1,1024,1024,1684,1024,220.4,0,99,4.141,4.158,4.125,4.138,0,0,82.31,6,GPS_Atti,
0.371597652118027,36.9034600620496,5557.5109143889,56.758532,0.223694,2.2996391812,9400,2017-11-10 07:34:12,18,16.481,5557.5109143889,56.758532,0.50107456,2.2996391812,220.1, 3, 0.6,0,1,1024,1024,1684,1024,220.4,0,99,4.141,4.158,4.125,4.138,0,0,82.31,6,GPS_Atti,
0.371597388527904,36.9034600413611,5559.4794183889,58.727036,0.223694,2.38933078512,9500,2017-11-10 07:34:12,18,16.481,5559.4794183889,58.727036,0.50107456,2.38933078512,220.1, 3.7, 0.8,0,1,1024,1024,1684,1024,220.4,0,99,4.141,4.158,4.125,4.138,0,0,82.31,6,GPS_Atti,
0.371597145122752,36.9034600163713,5561.1198383889,60.367456,0.223694,2.47351057784,9600,2017-11-10 07:34:12,18,16.4,5561.1198383889,60.367456,0.50107456,2.47351057784,220.1, 4.1, 0.9,0,1,1024,1024,1684,1024,220.4,0,99,4.142,4.159,4.125,4.137,0,0,82.31,6,GPS_Atti,
0.371596949691559,36.90345998386,5563.0883423889,62.33596,0,2.54323498952,9700,2017-11-10 07:34:12,18,16.4,5563.0883423889,62.33596,0.50107456,2.54323498952,220.1, 4.2, 0.4,0,1,1024,1024,1684,1024,220.4,0,99,4.142,4.159,4.125,4.137,0,0,82.31,6,GPS_Atti,
0.37159678655119,36.9034599472809,5564.7287623889,63.97638,0,2.60295612004,9800,2017-11-10 07:34:13,18,16.4,5564.7287623889,63.97638,0.50107456,2.60295612004,220.1, 4.4, 0,0,1,1024,1024,1684,1024,220.4,0,99,4.142,4.159,4.125,4.137,0,0,82.31,6,GPS_Atti,
0.371596651980649,36.9034599198143,5566.3691823889,65.6168,0,2.65186032108,9900,2017-11-10 07:34:13,18,16.4,5566.3691823889,65.6168,0.50107456,2.65186032108,220.1, 4, 0.1,0,1,1024,1024,1684,1024,220.4,0,99,4.142,4.159,4.125,4.137,0,0,82.31,6,GPS_Atti,
0.371596523441051,36.903459916718,5568.0096023889,67.25722,0,2.69522318336,10000,2017-11-10 07:34:13,18,16.4,5568.0096023889,67.25722,0.50107456,2.69522318336,220.1, 3.5, 0.5,0,1,1024,1024,1684,1024,220.4,0,99,4.142,4.159,4.125,4.137,0,0,82.31,6,GPS_Atti,
0.3715963970282,36.903459922987,5569.6500223889,68.89764,0,2.73663722668,10100,2017-11-10 07:34:13,18,16.4,5569.6500223889,68.89764,0.50107456,2.73663722668,220.1, 3.6, 0.6,0,1,1024,1024,1684,1028,220.4,0,99,4.142,4.159,4.125,4.137,0,0,82.31,6,GPS_Atti,
0.371596278407454,36.9034599242771,5571.6185263889,70.866144,0,2.77628945892,10200,2017-11-10 07:34:13,18,16.4,5571.6185263889,70.866144,0.50107456,2.77628945892,220.1, 3.6, 0.2,0,1,1024,1024,1684,1029,220.4,0,99,4.142,4.159,4.125,4.137,0,0,82.31,6,GPS_Atti,
0.371596175337534,36.9034599153819,5573.2589463889,72.506564,0,2.81223106112,10300,2017-11-10 07:34:13,18,16.4,5573.2589463889,72.506564,0.50107456,2.81223106112,220.1, 3.7, 0,0,1,1024,1024,1684,1034,220.4,0,99,4.142,4.159,4.125,4.137,0,0,82.31,6,GPS_Atti,
0.371596084030679,36.9034598924322,5574.8993663889,74.146984,0,2.84620744016,10400,2017-11-10 07:34:13,18,16.4,5574.8993663889,74.146984,0.50107456,2.84620744016,220.1, 3.5, 0.3,0,1,1024,1024,1684,1033,220.4,0,99,4.142,4.159,4.125,4.137,0,0,82.31,6,GPS_Atti,
0.371596019031337,36.9034598436572,5576.5397863889,75.787404,0,2.87493775604,10500,2017-11-10 07:34:13,18,16.4,5576.5397863889,75.787404,0.50107456,2.87493775604,220.2, 3.5, 0.4,0,1,1024,1024,1684,1030,220.4,0,99,4.142,4.159,4.125,4.137,0,0,82.31,6,GPS_Atti,
0.371595969433004,36.9034597600733,5578.1802063889,77.427824,0,2.90345481732,10600,2017-11-10 07:34:13,18,16.507,5578.1802063889,77.427824,0.50107456,2.90345481732,220.2, 3.5, 0.1,0,1,1024,1024,1684,1033,220.3,0,99,4.137,4.153,4.121,4.134,0,0,82.31,6,GPS_Atti,
0.371595936890993,36.9034596528218,5579.8206263889,79.068244,0.223694,2.929872141,10700,2017-11-10 07:34:13,18,16.507,5579.8206263889,79.068244,0.50107456,2.929872141,220.2, 3.6, -0.4,0,1,1024,1024,1684,1033,220.3,0,99,4.137,4.153,4.121,4.134,0,0,82.31,6,GPS_Atti,
0.371595897371914,36.903459526348,5581.7891303889,81.036748,0.223694,2.96183080344,10800,2017-11-10 07:34:14,18,16.507,5581.7891303889,81.036748,0.50107456,2.96183080344,220.2, 4.1, -1.1,0,1,1024,1024,1684,1033,220.4,0,99,4.137,4.153,4.121,4.134,0,0,82.31,6,GPS_Atti,
0.371595860475444,36.9034594060351,5583.4295503889,82.677168,0.223694,2.99240823224,10900,2017-11-10 07:34:14,18,16.507,5583.4295503889,82.677168,0.50107456,2.99240823224,220.2, 4.5, -1,0,1,1024,1024,1684,1035,220.3,0,99,4.137,4.153,4.121,4.134,0,0,82.31,6,GPS_Atti,
0.37159582918245,36.9034592917197,5585.0699703889,84.317588,0.223694,3.02058080532,11000,2017-11-10 07:34:14,18,16.507,5585.0699703889,84.317588,0.50107456,3.02058080532,220.1, 4.4, -1.7,0,1,1024,1024,1684,1036,220.4,0,99,4.137,4.153,4.121,4.134,0,0,82.31,6,GPS_Atti,
0.37159581654084,36.9034591893572,5586.7103903889,85.958008,0,3.0410762128,11100,2017-11-10 07:34:14,18,16.507,5586.7103903889,85.958008,0.50107456,3.0410762128,220.1, 4.7, -2.2,0,1,1024,1024,1684,1035,220.4,0,99,4.137,4.153,4.121,4.134,0,0,82.31,6,GPS_Atti,
0.371595803768139,36.9034591182508,5588.3508103889,87.598428,0,3.0568078406,11200,2017-11-10 07:34:14,18,16.507,5588.3508103889,87.598428,0.50107456,3.0568078406,220.1, 4.8, -2,0,1,1024,1024,1684,1036,220.3,0,99,4.137,4.153,4.121,4.134,0,0,82.31,6,GPS_Atti,
0.371595810620631,36.9034590744369,5589.9912303889,89.238848,0,3.06178487488,11300,2017-11-10 07:34:14,18,16.507,5589.9912303889,89.238848,0.50107456,3.06178487488,220, 4, -1.7,0,1,1024,1024,1684,1036,220.4,0,99,4.137,4.153,4.121,4.134,0,0,82.31,6,GPS_Atti,
0.371595808760134,36.9034590307848,5591.6316503889,90.879268,0,3.069635925,11400,2017-11-10 07:34:14,18,16.507,5591.6316503889,90.879268,0.50107456,3.069635925,220.1, 2.8, -1.2,0,1,1024,1024,1684,1037,220.4,0,99,4.137,4.153,4.121,4.134,0,0,82.31,6,GPS_Atti,
0.371595785702181,36.9034589513088,5593.2720703889,92.519688,0,3.0904528548,11500,2017-11-10 07:34:14,18,16.507,5593.2720703889,92.519688,0.50107456,3.0904528548,220.2, 3.4, -0.9,0,1,1024,1024,1684,1039,220.4,0,99,4.137,4.153,4.121,4.134,0,0,82.31,6,GPS_Atti,
0.371595728365482,36.9034588131637,5594.9124903889,94.160108,0.223694,3.13254275116,11600,2017-11-10 07:34:14,18,16.454,5594.9124903889,94.160108,0.50107456,3.13254275116,220.1, 4.7, -1.6,0,1,1024,1024,1684,1039,220.3,0,98,4.137,4.153,4.121,4.134,0,0,82.31,6,GPS_Atti,
0.37159566288982,36.9034586464632,5596.5529103889,95.800528,0.223694,3.18265430132,11700,2017-11-10 07:34:15,18,16.454,5596.5529103889,95.800528,0.50107456,3.18265430132,220.1, 5.7, -2.5,0,1,1024,1024,1684,1040,220.4,0,98,4.137,4.153,4.121,4.134,0,0,82.31,6,GPS_Atti,
0.371595607404662,36.9034583287665,5599.8337503889,99.081368,0,3.2578577158,11900,2017-11-10 07:34:15,18,16.454,5599.8337503889,99.081368,0.50107456,3.2578577158,220, 6.4, -2.3,0,1,1024,1024,1684,1040,220.4,0,98,4.137,4.153,4.121,4.134,0,0,82.31,6,GPS_Atti,
0.371595613387566,36.9034581920549,5601.4741703889,100.721788,0,3.2816930184,12000,2017-11-10 07:34:15,18,16.454,5601.4741703889,100.721788,0.50107456,3.2816930184,220.1, 6.3, -2.1,0,1,1024,1024,1684,1040,220.4,0,98,4.137,4.153,4.121,4.134,0,0,82.31,6,GPS_Atti,
0.371595618625456,36.9034580918818,5603.1145903889,102.362208,0,3.2992455124,12100,2017-11-10 07:34:15,18,16.454,5603.1145903889,102.362208,0.50107456,3.2992455124,220.1, 5.9, -2.1,0,1,1024,1024,1684,1039,220.4,0,98,4.137,4.153,4.121,4.134,0,0,82.31,6,GPS_Atti,
0.371595638676487,36.9034580168842,5604.7550103889,104.002628,0,3.3076116544,12200,2017-11-10 07:34:15,18,16.454,5604.7550103889,104.002628,0.50107456,3.3076116544,220.1, 5.2, -1.9,0,1,1024,1024,1684,1042,220.4,0,98,4.137,4.153,4.121,4.134,0,0,82.31,6,GPS_Atti,
0.371595669345787,36.9034579762662,5606.3954303889,105.643048,0,3.3061680848,12300,2017-11-10 07:34:15,18,16.454,5606.3954303889,105.643048,0.50107456,3.3076116544,220.1, 5.4, -2.1,0,1,1024,1024,1684,1042,220.4,0,98,4.137,4.153,4.121,4.134,0,0,82.31,6,GPS_Atti,
0.371595710031646,36.9034579164381,5608.3639343889,107.611552,0,3.305610342,12400,2017-11-10 07:34:15,18,16.454,5608.3639343889,107.611552,0.50107456,3.3076116544,220.1, 5.6, -2.3,0,1,1024,1024,1684,1045,220.3,0,98,4.137,4.153,4.121,4.134,0,0,82.31,6,GPS_Atti,
0.371595762446373,36.9034578398148,5610.0043543889,109.251972,0,3.3050854076,12500,2017-11-10 07:34:15,18,16.454,5610.0043543889,109.251972,0.50107456,3.3076116544,220.1, 5.7, -2.3,0,1,1024,1024,1684,1044,220.3,0,98,4.137,4.153,4.121,4.134,0,0,82.31,6,GPS_Atti,
0.371595813655237,36.9034577728222,5611.6447743889,110.892392,0,3.3032809456,12600,2017-11-10 07:34:15,18,16.4,5611.6447743889,110.892392,0.50107456,3.3076116544,220.1, 5.4, -2.2,0,1,1024,1024,1684,1049,220.4,0,98,4.126,4.143,4.107,4.123,0,0,82.31,6,GPS_Atti,
0.371595882281938,36.9034576955089,5614.9256143889,114.173232,0,3.298720578,12800,2017-11-10 07:34:16,18,16.4,5614.9256143889,114.173232,0.50107456,3.3076116544,220.2, 5.5, -2.2,0,1,1024,1024,1684,1047,220.4,0,98,4.126,4.143,4.107,4.123,0,0,82.31,6,GPS_Atti,
0.371595928048542,36.9034576652667,5616.5660343889,115.813652,0,3.2914043048,12900,2017-11-10 07:34:16,18,16.4,5616.5660343889,115.813652,0.50107456,3.3076116544,220.3, 5.5, -2.2,0,1,1024,1024,1684,1050,220.3,0,98,4.126,4.143,4.107,4.123,0,0,82.31,6,GPS_Atti,
0.371595988457301,36.9034576296474,5618.2064543889,117.454072,0,3.281004042,13000,2017-11-10 07:34:16,18,16.4,5618.2064543889,117.454072,0.50107456,3.3076116544,220.4, 5.2, -2.4,0,1,1024,1024,1684,1050,220.3,0,98,4.126,4.143,4.107,4.123,0,0,82.31,6,GPS_Atti,
0.371596048126746,36.9034576013221,5619.8468743889,119.094492,0,3.26942595764,13100,2017-11-10 07:34:16,18,16.4,5619.8468743889,119.094492,0.50107456,3.3076116544,220.5, 5.1, -2.7,0,1,1024,1024,1684,1052,220.4,0,98,4.126,4.143,4.107,4.123,0,0,82.31,6,GPS_Atti,
0.371596097595617,36.9034575841452,5621.4872943889,120.734912,0,3.25856637724,13200,2017-11-10 07:34:16,18,16.4,5621.4872943889,120.734912,0.50107456,3.3076116544,220.6, 5.3, -2.8,0,1,1024,1024,1684,1052,220.4,0,98,4.126,4.143,4.107,4.123,0,0,82.31,6,GPS_Atti,
0.371596128527097,36.903457603177,5623.1277143889,122.375332,0,3.24536099624,13300,2017-11-10 07:34:16,18,16.4,5623.1277143889,122.375332,0.50107456,3.3076116544,220.7, 5.5, -2.3,0,1,1024,1024,1684,1054,220.4,0,98,4.126,4.143,4.107,4.123,0,0,82.31,6,GPS_Atti,
0.371596159677602,36.9034576268761,5624.7681343889,124.015752,0,3.23108278056,13400,2017-11-10 07:34:16,18,16.4,5624.7681343889,124.015752,0.50107456,3.3076116544,220.8, 5.4, -1.6,0,1,1024,1024,1684,1052,220.4,0,98,4.126,4.143,4.107,4.123,0,0,82.31,6,GPS_Atti,
0.371596193708011,36.9034576466937,5626.4085543889,125.656172,0,3.2167980032,13500,2017-11-10 07:34:16,18,16.4,5626.4085543889,125.656172,0.50107456,3.3076116544,220.9, 5.3, -1.5,0,1,1024,1024,1684,1054,220.4,0,98,4.126,4.143,4.107,4.123,0,0,82.31,6,GPS_Atti,
0.371596238155575,36.9034576543657,5628.0489743889,127.296592,0,3.20208999748,13600,2017-11-10 07:34:16,18,16.347,5628.0489743889,127.296592,0.50107456,3.3076116544,221.1, 5.3, -1.3,0,1,1024,1024,1684,1067,220.4,0,98,4.122,4.136,4.098,4.115,0,0,82.31,6,GPS_Atti,
0.371596294368648,36.9034576623723,5629.6893943889,128.937012,0,3.18388461632,13700,2017-11-10 07:34:16,18,16.347,5629.6893943889,128.937012,0.50107456,3.3076116544,221.2, 5.1, -1.5,0,1,1024,1024,1684,1063,220.4,0,98,4.122,4.136,4.098,4.115,0,0,82.31,6,GPS_Atti,
0.371596345671962,36.9034576674336,5631.3298143889,130.577432,0,3.16778553444,13800,2017-11-10 07:34:16,18,16.347,5631.3298143889,130.577432,0.50107456,3.3076116544,221.5, 5.2, -1.7,0,1,1024,1024,1684,1061,220.5,0,98,4.122,4.136,4.098,4.115,0,0,82.31,6,GPS_Atti,
0.371596376573315,36.9034576956523,5633.2983183889,132.545936,0,3.15258868356,13900,2017-11-10 07:34:17,18,16.347,5633.2983183889,132.545936,0.50107456,3.3076116544,221.8, 4.9, -1.8,0,1,1024,1024,1684,1065,220.6,0,98,4.122,4.136,4.098,4.115,0,0,82.31,6,GPS_Atti,
0.371596400796419,36.9034577255064,5634.9387383889,134.186356,0,3.13898960176,14000,2017-11-10 07:34:17,18,16.347,5634.9387383889,134.186356,0.50107456,3.3076116544,222.1, 5.3, -1.6,0,1,1024,1024,1684,1065,220.7,0,98,4.122,4.136,4.098,4.115,0,0,82.31,6,GPS_Atti,
0.371596432021833,36.9034577614898,5636.5791583889,135.826776,0,3.12200469308,14100,2017-11-10 07:34:17,18,16.347,5636.5791583889,135.826776,0.50107456,3.3076116544,222.3, 5.6, -1.5,0,1,1024,1024,1684,1065,220.8,0,98,4.122,4.136,4.098,4.115,0,0,82.31,6,GPS_Atti,
0.371596479600081,36.9034578020692,5638.2195783889,137.467196,0,3.09923894432,14200,2017-11-10 07:34:17,18,16.347,5638.2195783889,137.467196,0.50107456,3.3076116544,222.6, 5.4, -1.6,0,1,1024,1024,1684,1067,220.9,0,98,4.122,4.136,4.098,4.115,0,0,82.31,6,GPS_Atti,
0.3715965377795,36.9034578460046,5639.8599983889,139.107616,0,3.07264117444,14300,2017-11-10 07:34:17,18,16.347,5639.8599983889,139.107616,0.50107456,3.3076116544,222.9, 5.1, -1.8,0,1,1024,1024,1684,1066,220.9,0,98,4.122,4.136,4.098,4.115,0,0,82.31,6,GPS_Atti,
0.371596599618032,36.9034578821041,5641.5004183889,140.748036,0,3.04667988752,14400,2017-11-10 07:34:17,18,16.347,5641.5004183889,140.748036,0.50107456,3.3076116544,223.2, 5, -1.9,0,1,1024,1024,1684,1066,221.3,0,98,4.122,4.136,4.098,4.115,0,0,82.31,6,GPS_Atti,
0.371596655619407,36.9034579019784,5643.1408383889,142.388456,0,3.02597778712,14500,2017-11-10 07:34:17,18,16.347,5643.1408383889,142.388456,0.50107456,3.3076116544,223.5, 5.1, -2.2,0,1,1024,1024,1684,1065,221.5,0,98,4.122,4.136,4.098,4.115,0,0,82.31,6,GPS_Atti,
0.371596706093029,36.9034579288466,5644.7812583889,144.028876,0,3.0053642694,14600,2017-11-10 07:34:17,18,16.347,5644.7812583889,144.028876,0.50107456,3.3076116544,223.8, 4.9, -2.3,0,1,1024,1024,1684,1065,221.7,0,98,4.122,4.136,4.098,4.115,0,0,82.31,6,GPS_Atti,
0.371596741177855,36.9034579782029,5646.4216783889,145.669296,0,2.98432096164,14700,2017-11-10 07:34:17,18,16.347,5646.4216783889,145.669296,0.50107456,3.3076116544,224, 5, -2.3,0,1,1024,1024,1684,1056,221.9,0,98,4.122,4.136,4.098,4.115,0,0,82.31,6,GPS_Atti,
0.371596765591487,36.9034580475263,5648.0620983889,147.309716,0,2.96207686644,14800,2017-11-10 07:34:18,18,16.347,5648.0620983889,147.309716,0.50107456,3.3076116544,224.3, 5.3, -1.9,0,1,1024,1024,1684,1046,222.1,0,98,4.122,4.136,4.098,4.115,0,0,82.31,6,GPS_Atti,
0.371596788348992,36.9034581358514,5649.7025183889,148.950136,0,2.93630914908,14900,2017-11-10 07:34:18,18,16.347,5649.7025183889,148.950136,0.50107456,3.3076116544,224.5, 5.3, -1.4,0,1,1024,1024,1684,1024,222.1,0,98,4.122,4.136,4.098,4.115,0,0,82.31,6,GPS_Atti,
0.371596826876348,36.9034582512583,5651.3429383889,150.590556,0.223694,2.90025927916,15000,2017-11-10 07:34:18,18,16.347,5651.3429383889,150.590556,0.50107456,3.3076116544,224.6, 4.8, -1.1,0,1,1024,1024,1684,1024,222.2,0,98,4.122,4.136,4.098,4.115,0,0,82.31,6,GPS_Atti,
0.371596873545111,36.9034583718378,5652.9833583889,152.230976,0.223694,2.86092856924,15100,2017-11-10 07:34:18,18,16.347,5652.9833583889,152.230976,0.50107456,3.3076116544,224.6, 4.6, -1,0,1,1024,1024,1684,1024,222.4,0,98,4.122,4.136,4.098,4.115,0,0,82.31,6,GPS_Atti,
0.371596929388119,36.9034585136749,5654.6237783889,153.871396,0,2.81468841028,15200,2017-11-10 07:34:18,18,16.347,5654.6237783889,153.871396,0.50107456,3.3076116544,224.6, 4.4, -0.9,0,1,1024,1024,1684,1024,222.4,0,98,4.122,4.136,4.098,4.115,0,0,82.31,6,GPS_Atti,
0.371596985892276,36.9034586518307,5656.5922823889,155.8399,0,2.7693406398,15300,2017-11-10 07:34:18,18,16.347,5656.5922823889,155.8399,0.50107456,3.3076116544,224.6, 3.9, -1.2,0,1,1024,1024,1684,1024,222.6,0,98,4.122,4.136,4.098,4.115,0,0,82.31,6,GPS_Atti,
0.371597037882387,36.9034587926572,5658.2327023889,157.48032,0,2.72517069088,15400,2017-11-10 07:34:18,18,16.347,5658.2327023889,157.48032,0.50107456,3.3076116544,224.6, 4, -1,0,1,1024,1024,1684,1024,222.7,0,98,4.122,4.136,4.098,4.115,0,0,82.31,6,GPS_Atti,
0.371597069757549,36.9034589018277,5659.8731223889,159.12074,0,2.69378945628,15500,2017-11-10 07:34:18,18,16.347,5659.8731223889,159.12074,0.50107456,3.3076116544,224.6, 4.3, -0.7,0,1,1024,1024,1684,1024,222.8,0,98,4.122,4.136,4.098,4.115,0,0,82.31,6,GPS_Atti,
0.371597089619681,36.9034590030548,5661.5135423889,160.76116,0,2.66793643708,15600,2017-11-10 07:34:18,18,16.374,5661.5135423889,160.76116,0.50107456,3.3076116544,224.6, 4.4, -1,0,1,1024,1024,1684,1024,222.9,0,98,4.116,4.131,4.093,4.109,0,0,82.31,6,GPS_Atti,
0.371597087038597,36.9034590951234,5663.1539623889,162.40158,0,2.6510991662,15700,2017-11-10 07:34:18,18,16.374,5663.1539623889,162.40158,0.50107456,3.3076116544,224.6, 4.6, -0.6,0,1,1024,1024,1684,1024,223,0,98,4.116,4.131,4.093,4.109,0,0,82.31,6,GPS_Atti,
0.371597091351938,36.9034591897405,5664.7943823889,164.042,0,2.63194562228,15800,2017-11-10 07:34:19,18,16.374,5664.7943823889,164.042,0.50107456,3.3076116544,224.6, 4.6, -0.4,0,1,1024,1024,1684,1024,223,0,98,4.116,4.131,4.093,4.109,0,0,82.31,6,GPS_Atti,
0.371597120912268,36.9034592676534,5666.4348023889,165.68242,0,2.60821530656,15900,2017-11-10 07:34:19,18,16.374,5666.4348023889,165.68242,0.50107456,3.3076116544,224.6, 4.1, -0.8,0,1,1024,1024,1684,1024,223.1,0,98,4.116,4.131,4.093,4.109,0,0,82.31,6,GPS_Atti,
0.371597145962622,36.9034593394691,5668.0752223889,167.32284,0,2.58715887544,16000,2017-11-10 07:34:19,18,16.374,5668.0752223889,167.32284,0.50107456,3.3076116544,224.5, 4.2, -1.2,0,1,1024,1024,1684,1024,223.2,0,98,4.116,4.131,4.093,4.109,0,0,82.31,6,GPS_Atti,
0.371597141882555,36.9034594008817,5669.7156423889,168.96326,0,2.57734916384,16100,2017-11-10 07:34:19,18,16.374,5669.7156423889,168.96326,0.50107456,3.3076116544,224.6, 5, -1,0,1,1024,1024,1684,1024,223.3,0,98,4.116,4.131,4.093,4.109,0,0,82.31,6,GPS_Atti,
0.371597111595532,36.9034594975442,5673.3245663889,172.572184,0,2.56986884864,16300,2017-11-10 07:34:19,18,16.374,5673.3245663889,172.572184,0.50107456,3.3076116544,224.6, 5, -0.7,0,1,1024,1024,1684,1024,223.3,0,98,4.116,4.131,4.093,4.109,0,0,82.31,6,GPS_Atti,
0.371597100367004,36.9034595238947,5674.9649863889,174.212604,0,2.56887147328,16400,2017-11-10 07:34:19,18,16.374,5674.9649863889,174.212604,0.50107456,3.3076116544,224.6, 4.8, -0.5,0,1,1024,1024,1684,1024,223.3,0,98,4.116,4.131,4.093,4.109,0,0,82.31,6,GPS_Atti,
0.371597096853229,36.9034595217342,5676.6054063889,175.853024,0,2.570374098,16500,2017-11-10 07:34:19,18,16.374,5676.6054063889,175.853024,0.50107456,3.3076116544,224.6, 5.1, -0.9,0,1,1024,1024,1684,1024,223.4,0,98,4.116,4.131,4.093,4.109,0,0,82.31,6,GPS_Atti,
0.371597095584264,36.9034595136537,5678.2458263889,177.493444,0,2.57218840252,16600,2017-11-10 07:34:19,18,16.347,5678.2458263889,177.493444,0.50107456,3.3076116544,224.6, 5.5, -1.2,0,1,1024,1024,1684,1024,223.4,0,98,4.116,4.131,4.093,4.109,0,0,82.31,6,GPS_Atti,
0.371597094799354,36.9034595271686,5679.8862463889,179.133864,0,2.57009194576,16700,2017-11-10 07:34:20,18,16.347,5679.8862463889,179.133864,0.50107456,3.3076116544,224.6, 5.2, -1,0,1,1024,1024,1684,1024,223.5,0,98,4.116,4.131,4.093,4.109,0,0,82.31,6,GPS_Atti,
0.371597091453309,36.903459586167,5683.1670863889,182.414704,0,2.56100401896,16900,2017-11-10 07:34:20,18,16.347,5683.1670863889,182.414704,0.50107456,3.3076116544,224.6, 5.4, -1.2,0,1,1024,1024,1684,1024,223.5,0,98,4.116,4.131,4.093,4.109,0,0,82.31,6,GPS_Atti,
0.371597077279739,36.9034596353654,5684.8075063889,184.055124,0,2.55722121044,17000,2017-11-10 07:34:20,18,16.347,5684.8075063889,184.055124,0.50107456,3.3076116544,224.6, 5.8, -1.1,0,1,1024,1024,1684,1024,223.5,0,98,4.116,4.131,4.093,4.109,0,0,82.31,6,GPS_Atti,
0.371597060682231,36.9034596991746,5686.4479263889,185.695544,0,2.55192921552,17100,2017-11-10 07:34:20,18,16.347,5686.4479263889,185.695544,0.50107456,3.3076116544,224.6, 5.8, -0.6,0,1,1024,1024,1684,1024,223.6,0,98,4.116,4.131,4.093,4.109,0,0,82.31,6,GPS_Atti,
0.371597045457501,36.9034597744484,5688.0883463889,187.335964,0,2.54454404468,17200,2017-11-10 07:34:20,18,16.347,5688.0883463889,187.335964,0.50107456,3.3076116544,224.6, 5, 0,0,1,1024,1024,1684,1024,223.6,0,98,4.116,4.131,4.093,4.109,0,0,82.31,6,GPS_Atti,
0.371597029970184,36.9034598217503,5690.0568503889,189.304468,0,2.54199155116,17300,2017-11-10 07:34:20,18,16.347,5690.0568503889,189.304468,0.50107456,3.3076116544,224.6, 4.9, 0,0,1,1024,1024,1684,1024,223.6,0,98,4.116,4.131,4.093,4.109,0,0,82.31,6,GPS_Atti,
0.37159702925774,36.9034598557514,5691.6972703889,190.944888,0,2.53680782396,17400,2017-11-10 07:34:20,18,16.347,5691.6972703889,190.944888,0.50107456,3.3076116544,224.6, 4.7, -0.5,0,1,1024,1024,1684,1024,223.7,0,98,4.116,4.131,4.093,4.109,0,0,82.31,6,GPS_Atti,
0.37159704378346,36.9034598854363,5693.3376903889,192.585308,0,2.52733931972,17500,2017-11-10 07:34:20,18,16.347,5693.3376903889,192.585308,0.50107456,3.3076116544,224.6, 4.8, -0.8,0,1,1024,1024,1684,1024,223.7,0,98,4.116,4.131,4.093,4.109,0,0,82.31,6,GPS_Atti,
0.371597055630798,36.9034599344249,5694.9781103889,194.225728,0,2.5157645162,17600,2017-11-10 07:34:20,18,16.347,5694.9781103889,194.225728,0.50107456,3.3076116544,224.6, 4.9, -0.6,0,1,1024,1024,1684,1024,223.7,0,98,4.111,4.127,4.088,4.103,0,0,82.31,6,GPS_Atti,
0.371597069732716,36.9034599996446,5696.6185303889,195.866148,0,2.50103026376,17700,2017-11-10 07:34:20,18,16.347,5696.6185303889,195.866148,0.50107456,3.3076116544,224.6, 4.7, -0.1,0,1,1024,1024,1684,1024,223.7,0,98,4.111,4.127,4.088,4.103,0,0,82.31,6,GPS_Atti,
0.371597095615204,36.9034600585942,5698.2589503889,197.506568,0,2.4834810506,17800,2017-11-10 07:34:21,18,16.347,5698.2589503889,197.506568,0.50107456,3.3076116544,224.5, 4.8, -0.3,0,1,1024,1024,1684,1024,223.7,0,98,4.111,4.127,4.088,4.103,0,0,82.31,6,GPS_Atti,
0.371597140808596,36.9034600852434,5699.8993703889,199.146988,0,2.46444561692,17900,2017-11-10 07:34:21,18,16.347,5699.8993703889,199.146988,0.50107456,3.3076116544,224.5, 5.1, -0.9,0,1,1024,1024,1684,1024,223.7,0,98,4.111,4.127,4.088,4.103,0,0,82.31,6,GPS_Atti,
0.371597201715659,36.9034600974511,5701.5397903889,200.787408,0.223694,2.44237540624,18000,2017-11-10 07:34:21,18,16.347,5701.5397903889,200.787408,0.50107456,3.3076116544,224.5, 4.9, -1.5,0,1,1024,1024,1684,1024,223.8,0,98,4.111,4.127,4.088,4.103,0,0,82.31,6,GPS_Atti,
0.371597279346027,36.9034600918288,5703.1802103889,202.427828,0.223694,2.41750007736,18100,2017-11-10 07:34:21,18,16.347,5703.1802103889,202.427828,0.50107456,3.3076116544,224.5, 4.2, -2,0,1,1024,1024,1684,1024,223.8,0,98,4.111,4.127,4.088,4.103,0,0,82.31,6,GPS_Atti,
0.371597372186062,36.9034600863156,5704.8206303889,204.068248,0.223694,2.3876641184,18200,2017-11-10 07:34:21,18,16.347,5704.8206303889,204.068248,0.50107456,3.3076116544,224.6, 3.8, -2.4,0,1,1024,1024,1684,1024,223.8,0,98,4.111,4.127,4.088,4.103,0,0,82.31,6,GPS_Atti,
0.371597475361424,36.9034600776437,5706.4610503889,205.708668,0.223694,2.35503944544,18300,2017-11-10 07:34:21,18,16.347,5706.4610503889,205.708668,0.50107456,3.3076116544,224.7, 3.4, -2.6,0,1,1024,1024,1684,1024,223.8,0,98,4.111,4.127,4.088,4.103,0,0,82.31,6,GPS_Atti,
0.371597544662708,36.9034600605749,5708.4295543889,207.677172,0,2.33501647892,18400,2017-11-10 07:34:21,18,16.347,5708.4295543889,207.677172,0.50107456,3.3076116544,224.7, 3.8, -2.5,0,1,1024,1024,1684,1024,223.8,0,98,4.111,4.127,4.088,4.103,0,0,82.31,6,GPS_Atti,
0.371597579565555,36.9034600343164,5710.0699743889,209.317592,0,2.32784128184,18500,2017-11-10 07:34:21,18,16.347,5710.0699743889,209.317592,0.50107456,3.3076116544,224.7, 4.4, -3,0,1,1024,1024,1684,1024,223.9,0,98,4.111,4.127,4.088,4.103,0,0,82.31,6,GPS_Atti,
0.371597602554706,36.9034600144662,5711.7103943889,210.958012,0,2.32358275152,18600,2017-11-10 07:34:21,18,16.347,5711.7103943889,210.958012,0.50107456,3.3076116544,224.7, 4.1, -3.1,0,1,1024,1024,1684,1024,223.9,0,98,4.107,4.124,4.085,4.099,0,0,82.31,6,GPS_Atti,
0.371597608348303,36.9034600124363,5713.3508143889,212.598432,0,2.32202763336,18700,2017-11-10 07:34:21,18,16.347,5713.3508143889,212.598432,0.50107456,3.3076116544,224.7, 4.1, -2.1,0,1,1024,1024,1684,1024,223.9,0,98,4.107,4.124,4.085,4.099,0,0,82.31,6,GPS_Atti,
0.371597581809551,36.9034599972148,5714.9912343889,214.238852,0,2.33317264684,18800,2017-11-10 07:34:22,18,16.347,5714.9912343889,214.238852,0.50107456,3.3076116544,224.7, 4.5, -1.3,0,1,1024,1024,1684,1024,223.9,0,98,4.107,4.124,4.085,4.099,0,0,82.31,6,GPS_Atti,
0.371597535752676,36.9034599547966,5716.6316543889,215.879272,0,2.35515427484,18900,2017-11-10 07:34:22,18,16.347,5716.6316543889,215.879272,0.50107456,3.3076116544,224.6, 5.1, -1.3,0,1,1024,1024,1684,1024,224,0,98,4.107,4.124,4.085,4.099,0,0,82.31,6,GPS_Atti,
0.371597495170631,36.9034599028391,5718.2720743889,217.519692,0,2.37696201832,19000,2017-11-10 07:34:22,18,16.347,5718.2720743889,217.519692,0.50107456,3.3076116544,224.6, 5.8, -2,0,1,1024,1024,1684,1024,224,0,98,4.107,4.124,4.085,4.099,0,0,82.31,6,GPS_Atti,
0.371597471637986,36.9034598704498,5719.9124943889,219.160112,0,2.39000335732,19100,2017-11-10 07:34:22,18,16.347,5719.9124943889,219.160112,0.50107456,3.3076116544,224.6, 5.9, -2.1,0,1,1024,1024,1684,1024,224,0,98,4.107,4.124,4.085,4.099,0,0,82.31,6,GPS_Atti,
0.3715974437118,36.9034598539463,5721.5529143889,220.800532,0,2.40181766216,19200,2017-11-10 07:34:22,18,16.347,5721.5529143889,220.800532,0.50107456,3.3076116544,224.6, 5.4, -1.7,0,1,1024,1024,1684,1024,224,0,98,4.107,4.124,4.085,4.099,0,0,82.31,6,GPS_Atti,
0.371597411968134,36.9034598366254,5723.1933343889,222.440952,0,2.4150099198,19300,2017-11-10 07:34:22,18,16.347,5723.1933343889,222.440952,0.50107456,3.3076116544,224.6, 5.4, -1.6,0,1,1024,1024,1684,1024,224,0,98,4.107,4.124,4.085,4.099,0,0,82.31,6,GPS_Atti,
0.371597390797548,36.9034598089634,5724.8337543889,224.081372,0,2.42651254484,19400,2017-11-10 07:34:22,18,16.347,5724.8337543889,224.081372,0.50107456,3.3076116544,224.6, 5.2, -1.6,0,1,1024,1024,1684,1024,224,0,98,4.107,4.124,4.085,4.099,0,0,82.31,6,GPS_Atti,
0.371597387619233,36.9034597747648,5726.4741743889,225.721792,0,2.43332028784,19500,2017-11-10 07:34:22,18,16.347,5726.4741743889,225.721792,0.50107456,3.3076116544,224.6, 5, -2,0,1,1024,1024,1684,1024,224,0,98,4.107,4.124,4.085,4.099,0,0,82.31,6,GPS_Atti,
0.371597381364786,36.9034597248795,5728.1145943889,227.362212,0,2.44385178424,19600,2017-11-10 07:34:22,18,16.293,5728.1145943889,227.362212,0.50107456,3.3076116544,224.6, 5.1, -1.9,0,1,1024,1024,1684,1024,224,0,98,4.094,4.112,4.072,4.09,0,0,84.11,6,GPS_Atti,
0.371597370574309,36.9034596758052,5729.7550143889,229.002632,0,2.455790761,19700,2017-11-10 07:34:23,18,16.293,5729.7550143889,229.002632,0.50107456,3.3076116544,224.6, 5.4, -1.8,0,1,1024,1024,1684,1024,224.1,0,98,4.094,4.112,4.072,4.09,0,0,84.11,6,GPS_Atti,
0.371597355162308,36.9034596134585,5733.3639383889,232.611556,0,2.47161753316,19900,2017-11-10 07:34:23,18,16.293,5733.3639383889,232.611556,0.50107456,3.3076116544,224.6, 5.7, -1.7,0,1,1024,1024,1684,1024,224.1,0,98,4.094,4.112,4.072,4.09,0,0,84.11,6,GPS_Atti,
0.371597324851266,36.9034595753773,5736.6447783889,235.892396,0,2.4880086098,20100,2017-11-10 07:34:23,18,16.293,5736.6447783889,235.892396,0.50107456,3.3076116544,224.6, 5.6, -1.6,0,1,1024,1024,1684,1024,224.1,0,98,4.094,4.112,4.072,4.09,0,0,84.11,6,GPS_Atti,
0.371597305230551,36.9034595585007,5738.2851983889,237.532816,0,2.49725729776,20200,2017-11-10 07:34:23,18,16.293,5738.2851983889,237.532816,0.50107456,3.3076116544,224.6, 5.6, -1.6,0,1,1024,1024,1684,1024,224.1,0,98,4.094,4.112,4.072,4.09,0,0,84.11,6,GPS_Atti,
0.3715972981228,36.9034595511723,5739.9256183889,239.173236,0,2.50082029,20300,2017-11-10 07:34:23,18,16.293,5739.9256183889,239.173236,0.50107456,3.3076116544,224.6, 5.7, -1.5,0,1,1024,1024,1684,1024,224.1,0,98,4.094,4.112,4.072,4.09,0,0,84.11,6,GPS_Atti,
0.371597285951403,36.9034595307841,5741.5660383889,240.813656,0,2.5083170094,20400,2017-11-10 07:34:23,18,16.293,5741.5660383889,240.813656,0.50107456,3.3076116544,224.6, 5.6, -1.8,0,1,1024,1024,1684,1024,224.1,0,98,4.094,4.112,4.072,4.09,0,0,84.11,6,GPS_Atti,
0.371597263281427,36.9034594973204,5743.2064583889,242.454076,0,2.52149286284,20500,2017-11-10 07:34:23,18,16.293,5743.2064583889,242.454076,0.50107456,3.3076116544,224.6, 5.7, -1.7,0,1,1024,1024,1684,1024,224.1,0,98,4.094,4.112,4.072,4.09,0,0,84.11,6,GPS_Atti,
0.371597240334615,36.9034594664921,5744.8468783889,244.094496,0,2.5343012622,20600,2017-11-10 07:34:23,18,16.293,5744.8468783889,244.094496,0.50107456,3.3076116544,224.6, 5.8, -1.8,0,1,1024,1024,1684,1024,224.1,0,98,4.094,4.112,4.072,4.09,0,0,84.11,6,GPS_Atti,
0.371597235660167,36.9034594552721,5746.8153823889,246.063,0,2.53779863764,20700,2017-11-10 07:34:23,18,16.293,5746.8153823889,246.063,0.50107456,3.3076116544,224.6, 5.7, -2,0,1,1024,1024,1684,1024,224.2,0,98,4.094,4.112,4.072,4.09,0,0,84.11,6,GPS_Atti,
0.371597215237036,36.9034594575354,5748.4558023889,247.70342,0,2.54388459584,20800,2017-11-10 07:34:24,18,16.293,5748.4558023889,247.70342,0.50107456,3.3076116544,224.6, 5.4, -1.9,0,1,1024,1024,1684,1024,224.2,0,98,4.094,4.112,4.072,4.09,0,0,84.11,6,GPS_Atti,
0.371597177644814,36.9034594733205,5750.0962223889,249.34384,0,2.55304142028,20900,2017-11-10 07:34:24,18,16.293,5750.0962223889,249.34384,0.50107456,3.3076116544,224.6, 5.4, -1.6,0,1,1024,1024,1684,1024,224.2,0,98,4.094,4.112,4.072,4.09,0,0,84.11,6,GPS_Atti,
0.371597133715909,36.9034594897437,5751.7366423889,250.98426,0,2.56416346788,21000,2017-11-10 07:34:24,18,16.293,5751.7366423889,250.98426,0.50107456,3.3076116544,224.6, 5.6, -1.4,0,1,1024,1024,1684,1024,224.2,0,98,4.094,4.112,4.072,4.09,0,0,84.11,6,GPS_Atti,
0.37159709041314,36.9034594898856,5755.0174823889,254.2651,0,2.57799220848,21200,2017-11-10 07:34:24,18,16.293,5755.0174823889,254.2651,0.50107456,3.3076116544,224.6, 5.7, -1.7,0,1,1024,1024,1684,1024,224.2,0,98,4.094,4.112,4.072,4.09,0,0,84.11,6,GPS_Atti,
0.371597081417615,36.9034594684958,5756.6579023889,255.90552,0,2.58461950528,21300,2017-11-10 07:34:24,18,16.293,5756.6579023889,255.90552,0.50107456,3.3076116544,224.6, 5.6, -1.3,0,1,1024,1024,1684,1024,224.2,0,98,4.094,4.112,4.072,4.09,0,0,84.11,6,GPS_Atti,
0.371597068870047,36.9034594387728,5758.2983223889,257.54594,0,2.59385835072,21400,2017-11-10 07:34:24,18,16.293,5758.2983223889,257.54594,0.50107456,3.3076116544,224.6, 5.9, -1.3,0,1,1024,1024,1684,1024,224.2,0,98,4.094,4.112,4.072,4.09,0,0,84.11,6,GPS_Atti,
0.371597054910211,36.9034594145989,5759.9387423889,259.18636,0,2.60258866596,21500,2017-11-10 07:34:24,18,16.293,5759.9387423889,259.18636,0.50107456,3.3076116544,224.6, 6.3, -1.8,0,1,1024,1024,1684,1024,224.2,0,98,4.094,4.112,4.072,4.09,0,0,84.11,6,GPS_Atti,
0.371597036811685,36.9034593991537,5761.5791623889,260.82678,0,2.61109588408,21600,2017-11-10 07:34:24,18,16.213,5761.5791623889,260.82678,0.50107456,3.3076116544,224.6, 6.1, -2.1,0,1,1024,1024,1684,1024,224.2,0,98,4.089,4.104,4.061,4.08,0,0,84.11,6,GPS_Atti,
0.371596990751146,36.903459450176,5764.8600023889,264.10762,0,2.61685047744,21800,2017-11-10 07:34:25,18,16.213,5764.8600023889,264.10762,0.50107456,3.3076116544,224.6, 5.2, -1.4,0,1,1024,1024,1684,1024,224.2,0,98,4.089,4.104,4.061,4.08,0,0,84.11,6,GPS_Atti,
0.371596979151332,36.9034595020991,5766.8285063889,266.076124,0,2.61158472924,21900,2017-11-10 07:34:25,18,16.213,5766.8285063889,266.076124,0.50107456,3.3076116544,224.6, 5.1, -1.2,0,1,1024,1024,1684,1024,224.2,0,98,4.089,4.104,4.061,4.08,0,0,84.11,6,GPS_Atti,
0.371596968113739,36.9034595399732,5768.4689263889,267.716544,0,2.60865821996,22000,2017-11-10 07:34:25,18,16.213,5768.4689263889,267.716544,0.50107456,3.3076116544,224.6, 5.2, -1.4,0,1,1024,1024,1684,1024,224.3,0,98,4.089,4.104,4.061,4.08,0,0,84.11,6,GPS_Atti,
0.371596965334392,36.9034595534142,5770.1093463889,269.356964,0,2.60727370548,22100,2017-11-10 07:34:25,18,16.213,5770.1093463889,269.356964,0.50107456,3.3076116544,224.6, 5.4, -1.8,0,1,1024,1024,1684,1024,224.3,0,98,4.089,4.104,4.061,4.08,0,0,84.11,6,GPS_Atti,
0.371596940724125,36.9034595662482,5771.7497663889,270.997384,0,2.6130578264,22200,2017-11-10 07:34:25,18,16.213,5771.7497663889,270.997384,0.50107456,3.3076116544,224.7, 5.6, -1.6,0,1,1024,1024,1684,1024,224.3,0,98,4.089,4.104,4.061,4.08,0,0,84.11,6,GPS_Atti,
0.371596905758583,36.9034595817951,5773.3901863889,272.637804,0,2.6217684566,22300,2017-11-10 07:34:25,18,16.213,5773.3901863889,272.637804,0.50107456,3.3076116544,224.7, 5.5, -1.4,0,1,1024,1024,1684,1024,224.3,0,98,4.089,4.104,4.061,4.08,0,0,84.11,6,GPS_Atti,
0.371596868826287,36.9034595920066,5775.0306063889,274.278224,0,2.63205389,22400,2017-11-10 07:34:25,18,16.213,5775.0306063889,274.278224,0.50107456,3.3076116544,224.6, 5.3, -1.3,0,1,1024,1024,1684,1024,224.3,0,98,4.089,4.104,4.061,4.08,0,0,84.11,6,GPS_Atti,
0.371596853330421,36.9034596047202,5776.6710263889,275.918644,0,2.63498368012,22500,2017-11-10 07:34:25,18,16.213,5776.6710263889,275.918644,0.50107456,3.3076116544,224.6, 5.1, -1.1,0,1,1024,1024,1684,1024,224.3,0,98,4.089,4.104,4.061,4.08,0,0,84.11,6,GPS_Atti,
0.371596837159972,36.9034596106578,5778.3114463889,277.559064,0,2.63926517632,22600,2017-11-10 07:34:25,18,16.24,5778.3114463889,277.559064,0.50107456,3.3076116544,224.6, 5.2, -1,0,1,1024,1024,1684,1024,224.3,0,98,4.09,4.106,4.065,4.084,0,0,84.11,6,GPS_Atti,
0.371596833412923,36.9034596192693,5779.9518663889,279.199484,0,2.63906832592,22700,2017-11-10 07:34:25,18,16.24,5779.9518663889,279.199484,0.50107456,3.3076116544,224.6, 5.5, -1.2,0,1,1024,1024,1675,1024,224.3,0,98,4.09,4.106,4.065,4.084,0,0,84.11,6,GPS_Atti,
0.371596820575899,36.9034596298678,5781.5922863889,280.839904,0,2.64151255172,22800,2017-11-10 07:34:26,18,16.24,5781.5922863889,280.839904,0.50107456,3.3076116544,224.6, 5.5, -1.3,0,1,1024,1024,1451,1024,224.3,0,98,4.09,4.106,4.065,4.084,0,0,84.11,6,GPS_Atti,
0.371596802611719,36.9034596455154,5783.2327063889,282.480324,0,2.64482291928,22900,2017-11-10 07:34:26,18,16.24,5783.2327063889,282.480324,0.50107456,3.3076116544,224.6, 5.7, -1.7,0,1,1024,1024,1060,1024,224.3,0,98,4.09,4.106,4.065,4.084,0,0,84.11,6,GPS_Atti,
0.371596777127384,36.9034596665953,5784.8731263889,284.120744,0,2.64974089844,23000,2017-11-10 07:34:26,18,16.24,5784.8731263889,284.120744,0.50107456,3.3076116544,224.5, 7.3, -2.5,0,1,1024,1024,1024,1024,224.3,0,98,4.09,4.106,4.065,4.084,0,0,84.11,6,GPS_Atti,
0.371596761243542,36.9034596873791,5786.5135463889,285.761164,0,2.65160441556,23100,2017-11-10 07:34:26,18,16.24,5786.5135463889,285.761164,0.50107456,3.3076116544,224.5, 8, -2.8,0,1,1024,1024,1024,1024,224.3,0,98,4.09,4.106,4.065,4.084,0,0,84.11,6,GPS_Atti,
0.371596740686065,36.9034597210938,5787.4977983889,286.745416,0,2.65298236836,23200,2017-11-10 07:34:26,18,16.24,5787.4977983889,286.745416,0.50107456,3.3076116544,224.6, 7.4, -2.4,0,1,1024,1024,1024,1024,224.3,0,98,4.09,4.106,4.065,4.084,0,0,84.11,6,GPS_Atti,
0.371596718036851,36.9034597342227,5788.4820503889,287.729668,0,2.65835966512,23300,2017-11-10 07:34:26,18,16.24,5788.4820503889,287.729668,0.50107456,3.3076116544,224.6, 7.2, -1.8,0,1,1024,1024,1024,1024,224.3,0,98,4.09,4.106,4.065,4.084,0,0,84.11,6,GPS_Atti,
0.371596690235241,36.9034597160892,5789.1382183889,288.385836,0,2.67036753952,23400,2017-11-10 07:34:26,18,16.24,5789.1382183889,288.385836,0.50107456,3.3076116544,224.6, 7.3, -1.9,0,1,1024,1024,1024,1024,224.3,0,98,4.09,4.106,4.065,4.084,0,0,84.11,6,GPS_Atti,
0.371596665763799,36.9034596615088,5789.7943863889,289.042004,0,2.6870571726,23500,2017-11-10 07:34:26,18,16.24,5789.7943863889,289.042004,0.50107456,3.3076116544,224.6, 6.9, -1.8,0,1,1024,1024,1024,1024,224.4,0,98,4.09,4.106,4.065,4.084,0,0,84.11,6,GPS_Atti,
0.371596647771935,36.9034596051961,5789.7943863889,289.042004,0,2.70197843292,23600,2017-11-10 07:34:26,18,16.213,5789.7943863889,289.042004,0.50107456,3.3076116544,224.7, 5.9, -1.6,0,1,1024,1024,1024,1024,224.4,0,98,4.087,4.105,4.064,4.082,0,0,84.11,6,GPS_Atti,
0.371596631340936,36.9034595568048,5790.1224703889,289.370088,0,2.71518709476,23700,2017-11-10 07:34:27,18,16.213,5790.1224703889,289.370088,0.50107456,3.3076116544,224.7, 5.6, -1.4,0,1,1024,1024,1024,1024,224.4,0,98,4.087,4.105,4.064,4.082,0,0,84.11,6,GPS_Atti,
0.371596572712881,36.9034594166754,5790.1224703889,289.370088,0,2.75737869716,23900,2017-11-10 07:34:27,18,16.213,5790.1224703889,289.370088,0.50107456,3.3076116544,224.8, 5.8, -1.8,0,1,1024,1024,1024,1024,224.4,0,98,4.087,4.105,4.064,4.082,0,0,84.11,6,GPS_Atti,
