latitude,longitude,altitude(feet),ascent(feet),speed(mph),distance(feet),time(millisecond),datetime(utc),satellites,gpslevel,voltage(v),max_altitude(feet),max_ascent(feet),max_speed(mph),max_distance(feet), xSpeed(mph), ySpeed(mph), zSpeed(mph), compass_heading(degrees), pitch(degrees), roll(degrees),isPhoto,isVideo,rc_elevator,rc_aileron,rc_throttle,rc_rudder,gimbal_heading(degrees),gimbal_pitch(degrees),battery_percent,voltageCell1,voltageCell2,voltageCell3,voltageCell4,voltageCell5,voltageCell6,current(A),battery_temperature(f),flycStateRaw,flycState,message
0.0615054789033151,36.8727211848894,5979.0886017639,0,0,0,0,2018-04-13 06:25:08,16,0,0,5979.0886017639,0,0,0,0,0,0,352.8, -2.5, -4.3,0,0,1024,1024,1024,1024,0,0,99,4.277,4.276,4.272,4.276,0,0,0,75.11,41,Motors_Started,
0.0615054792723358,36.87272118117,5979.0886017639,0,0,0.00136368770768,100,2018-04-13 06:25:08,16,0,0,5979.0886017639,0,0,0.00136368770768,0,0,0,352.8, -2.5, -4.3,0,0,364,364,364,1684,357.1,0,99,4.277,4.276,4.272,4.276,0,0,0,75.11,41,Motors_Started,
0.0615054803900081,36.8727211675109,5979.0886017639,0,0,0.0063637141144,200,2018-04-13 06:25:08,16,0,0,5979.0886017639,0,0,0.0063637141144,0,0,0,352.8, -2.6, -4.3,0,0,364,364,364,1684,357.1,0,99,4.277,4.276,4.272,4.276,0,0,0,75.11,41,Motors_Started,
0.0615054842123224,36.8727211811052,5979.0886017639,0,0,0.00237868445932,300,2018-04-13 06:25:08,16,0,0,5979.0886017639,0,0,0.0063637141144,0,0,0,352.8, -2.6, -4.3,0,0,364,364,364,1684,357.1,0,99,4.277,4.276,4.272,4.276,0,0,0,75.11,41,Motors_Started,
0.0615054878590955,36.8727212005852,5979.0886017639,0,0,0.0065932416808,400,2018-04-13 06:25:08,16,0,0,5979.0886017639,0,0,0.0065932416808,0,0,0,352.8, -2.6, -4.3,0,0,364,364,364,1684,357.1,0,99,4.277,4.276,4.272,4.276,0,0,0,75.11,41,Motors_Started,
0.0615054929267878,36.8727212176327,5979.0886017639,0,0,0.0129959321744,500,2018-04-13 06:25:08,16,0,17.069,5979.0886017639,0,0,0.0129959321744,0,0,0,352.8, -2.6, -4.3,0,0,364,364,364,1684,357.1,0,99,4.277,4.276,4.272,4.276,0,0,1.53,75.11,41,Motors_Started,Setting new Return-To-Home altitude to 30m (98 ft). Setting new Maximum Flight Altitude to 150m (492 ft)
0.0615054984931147,36.8727212292459,5979.0886017639,0,0,0.0176914703824,600,2018-04-13 06:25:08,16,0,17.069,5979.0886017639,0,0,0.0176914703824,0,0,0,352.8, -2.6, -4.3,0,0,364,364,364,1684,357.1,0,99,4.277,4.276,4.272,4.276,0,0,1.53,75.11,41,Motors_Started,
0.0615055040342007,36.8727212373089,5979.0886017639,0,0,0.0212095479228,700,2018-04-13 06:25:08,16,0,17.069,5979.0886017639,0,0,0.0212095479228,0,0,0,352.8, -2.6, -4.3,0,0,364,364,364,1684,357.1,0,99,4.277,4.276,4.272,4.276,0,0,1.53,75.11,41,Motors_Started,
0.0615055097429656,36.8727212430592,5979.0886017639,0,0,0.0240214246532,800,2018-04-13 06:25:09,16,0,17.069,5979.0886017639,0,0,0.0240214246532,0,0,0,352.8, -2.6, -4.3,0,0,364,364,364,1684,357.1,0,99,4.277,4.276,4.272,4.276,0,0,1.53,75.11,41,Motors_Started,
0.0615054622563682,36.8727212464799,5979.0886017639,0,0,0.0232775926084,1000,2018-04-13 06:25:09,17,0,17.069,5979.0886017639,0,0,0.0240214246532,0,0,0,352.8, -2.6, -4.3,0,0,364,364,364,1684,357.1,0,99,4.277,4.276,4.272,4.276,0,0,1.53,75.11,41,Motors_Started,
0.0615054343076129,36.8727212438859,5979.0886017639,0,0,0.0269825139868,1100,2018-04-13 06:25:09,17,0,17.069,5979.0886017639,0,0,0.0269825139868,0,0,0,352.7, -2.6, -4.3,0,0,364,364,364,1684,357.1,0,99,4.277,4.276,4.272,4.276,0,0,1.53,75.11,41,Motors_Started,
0.0615054205426557,36.8727212438825,5979.0886017639,0,0,0.0302762148796,1200,2018-04-13 06:25:09,17,0,17.069,5979.0886017639,0,0,0.0302762148796,0,0,0,352.8, -2.6, -4.4,0,0,364,364,364,1684,357.1,0,99,4.277,4.276,4.272,4.276,0,0,1.53,75.11,41,Motors_Started,
0.0615054074345212,36.8727212393882,5979.0886017639,0,0,0.0327916349076,1300,2018-04-13 06:25:09,16,0,17.069,5979.0886017639,0,0,0.0327916349076,0,0,0,352.8, -2.6, -4.3,0,0,410,435,414,1610,357.1,0,99,4.277,4.276,4.272,4.276,0,0,1.53,75.11,41,Motors_Started,
0.0615054003541993,36.8727212355663,5979.0886017639,0,0,0.034105316052,1400,2018-04-13 06:25:09,16,0,17.069,5979.0886017639,0,0,0.034105316052,0,0,0,352.8, -2.6, -4.3,0,0,770,899,705,1289,357.1,0,99,4.277,4.276,4.272,4.276,0,0,1.53,75.11,41,Motors_Started,
0.0615053643984358,36.8727212301722,5979.0886017639,0,0,0.044925198288,1500,2018-04-13 06:25:09,16,0,16.989,5979.0886017639,0,0,0.044925198288,0,0,0,352.9, -2.6, -4.3,0,0,1038,1054,948,1024,356.8,0,99,4.274,4.273,4.268,4.267,0,0,1.744,75.11,41,Motors_Started,
0.0615053335463684,36.8727212263926,5979.0886017639,0,0,0.055152888904,1600,2018-04-13 06:25:09,16,0,16.989,5979.0886017639,0,0,0.055152888904,0,0,0,352.8, -2.6, -4.3,0,0,1001,1024,1024,1024,355.2,0,99,4.274,4.273,4.268,4.267,0,0,1.744,75.11,10,Assisted_Takeoff,
0.061505338698409,36.8727212219631,5979.0886017639,0,0,0.0529117471,1700,2018-04-13 06:25:09,17,0,16.989,5979.0886017639,0,0,0.055152888904,0,0,0,352.8, -2.6, -4.3,0,0,1024,1024,1024,1024,354.3,0,99,4.274,4.273,4.268,4.267,0,0,1.744,75.11,10,Assisted_Takeoff,
0.0615053511852666,36.8727212198121,5979.0886017639,0,0,0.048308400496,1800,2018-04-13 06:25:09,17,0,16.989,5979.0886017639,0,0,0.055152888904,0,0,0,352.7, -2.6, -4.3,0,0,1024,1024,1024,1024,353.9,0,99,4.274,4.273,4.268,4.267,0,0,1.744,75.11,10,Assisted_Takeoff,
0.0615053683727806,36.8727212175532,5979.0886017639,0,0,0.042051182448,1900,2018-04-13 06:25:10,17,0,16.989,5979.0886017639,0,0,0.055152888904,0,0,0,352.8, -2.6, -4.3,0,0,1024,1024,1024,1024,353.5,0,99,4.274,4.273,4.268,4.267,0,0,1.744,75.11,10,Assisted_Takeoff,
0.0615053960031497,36.8727212118578,5979.0886017639,0,0,0.031806267422,2100,2018-04-13 06:25:10,17,0,16.989,5979.0886017639,0,0,0.055152888904,0,0,0,352.8, -2.6, -4.3,0,0,1024,1024,1024,1024,353.4,0,99,4.274,4.273,4.268,4.267,0,0,1.744,75.11,10,Assisted_Takeoff,
0.0615054073733782,36.872721209116,5979.0886017639,0,0,0.0275539050812,2200,2018-04-13 06:25:10,17,0,16.989,5979.0886017639,0,0,0.055152888904,0,0,0,352.8, -2.6, -4.3,0,0,1024,1024,1024,1024,353.3,0,99,4.274,4.273,4.268,4.267,0,0,1.744,75.11,10,Assisted_Takeoff,
0.0615054166709029,36.8727212080016,5979.0886017639,0,0,0.0242207356832,2300,2018-04-13 06:25:10,17,0,16.989,5979.0886017639,0,0,0.055152888904,0,0,0,352.8, -2.6, -4.3,0,0,1024,1024,1024,1024,353.2,0,99,4.274,4.273,4.268,4.267,0,0,1.744,75.11,10,Assisted_Takeoff,
0.0615054261875805,36.8727212059763,5979.0886017639,0,0,0.0207149941012,2400,2018-04-13 06:25:10,17,0,16.989,5979.0886017639,0,0,0.055152888904,0,0,0,352.7, -2.6, -4.3,0,0,1024,1024,1024,1024,353.2,0,99,4.274,4.273,4.268,4.267,0,0,1.744,75.11,10,Assisted_Takeoff,
0.0615054320146111,36.8727212062121,5979.0886017639,0,0,0.018793143646,2500,2018-04-13 06:25:10,17,0,16.882,5979.0886017639,0,0,0.055152888904,0,0,0,352.8, -2.6, -4.3,0,0,1024,1024,1024,1024,353.1,0,99,4.261,4.256,4.244,4.245,0,0,3.752,75.11,10,Assisted_Takeoff,
0.0615054396272051,36.8727212056482,5979.0886017639,0,0,0.0162082682352,2600,2018-04-13 06:25:10,17,0,16.882,5979.0886017639,0,0,0.055152888904,0,0,0,352.8, -2.6, -4.3,0,0,1024,1024,1024,1024,353.1,0,99,4.261,4.256,4.244,4.245,0,0,3.752,75.11,10,Assisted_Takeoff,
0.0615054416317179,36.8727212071839,5979.0886017639,0,0,0.01584563699,2700,2018-04-13 06:25:10,17,0,16.882,5979.0886017639,0,0,0.055152888904,0,0,0,352.8, -2.6, -4.3,0,0,1024,1024,1024,1024,353.1,0,99,4.261,4.256,4.244,4.245,0,0,3.752,75.11,10,Assisted_Takeoff,
0.0615054465254974,36.8727212079657,5979.0886017639,0,0,0.0145063324852,2800,2018-04-13 06:25:10,17,0,16.882,5979.0886017639,0,0,0.055152888904,0,0,0,352.7, -2.6, -4.3,0,0,1024,1024,1024,1024,353.1,0,99,4.261,4.256,4.244,4.245,0,0,3.752,75.11,10,Assisted_Takeoff,
0.0615054454858886,36.872721210231,5979.0886017639,0,0,0.0153016081012,2900,2018-04-13 06:25:11,17,0,16.882,5979.0886017639,0,0,0.055152888904,0,0,0,352.7, -2.6, -4.3,0,0,1024,1024,1024,1024,353,0,99,4.261,4.256,4.244,4.245,0,0,3.752,75.11,10,Assisted_Takeoff,
0.0615054479998499,36.8727212112909,5979.0886017639,0,0,0.0148295280336,3000,2018-04-13 06:25:11,17,0,16.882,5979.0886017639,0,0,0.055152888904,0,0,0,352.7, -2.6, -4.3,0,0,1024,1024,1024,1024,353,0,99,4.261,4.256,4.244,4.245,0,0,3.752,75.11,10,Assisted_Takeoff,
0.0615054443359018,36.8727212132177,5979.0886017639,0,0,0.016305938842,3100,2018-04-13 06:25:11,17,0,16.882,5979.0886017639,0,0,0.055152888904,0,0,0,352.7, -2.6, -4.3,0,0,1024,1024,1024,1024,353,0,99,4.261,4.256,4.244,4.245,0,0,3.752,75.11,10,Assisted_Takeoff,
0.0615054438604725,36.8727212141156,5979.0886017639,0,0,0.0166483929212,3200,2018-04-13 06:25:11,17,0,16.882,5979.0886017639,0,0,0.055152888904,0,0,0,352.7, -2.6, -4.3,0,0,1024,1024,1024,1024,353,0,99,4.261,4.256,4.244,4.245,0,0,3.752,75.11,10,Assisted_Takeoff,
0.0615054379507729,36.872721215783,5979.0886017639,0,0,0.0187161751396,3300,2018-04-13 06:25:11,17,0,16.882,5979.0886017639,0,0,0.055152888904,0,0,0,352.7, -2.6, -4.3,0,0,1024,1024,1024,1024,353,0,99,4.261,4.256,4.244,4.245,0,0,3.752,75.11,10,Assisted_Takeoff,
0.0615054357365216,36.8727212166049,5979.0886017639,0,0,0.0195432749036,3400,2018-04-13 06:25:11,17,0,16.882,5979.0886017639,0,0,0.055152888904,0,0,0,352.7, -2.6, -4.3,0,0,1024,1024,1024,1024,352.9,0,99,4.261,4.256,4.244,4.245,0,0,3.752,75.11,10,Assisted_Takeoff,
0.0615054298528262,36.8727212175117,5979.0886017639,0,0,0.0214925859896,3500,2018-04-13 06:25:11,17,0,17.042,5979.0886017639,0,0,0.055152888904,0,0,0,352.7, -2.6, -4.3,0,0,1024,1024,1024,1024,352.9,0,99,4.261,4.256,4.244,4.245,0,0,3.752,75.11,10,Assisted_Takeoff,
0.061505428273032,36.8727212174461,5979.0886017639,0,0,0.0219619101516,3600,2018-04-13 06:25:11,17,0,17.042,5979.0886017639,0,0,0.055152888904,0,0,0,352.7, -2.6, -4.3,0,0,1024,1024,1024,1024,352.9,0,99,4.261,4.256,4.244,4.245,0,0,3.752,75.11,10,Assisted_Takeoff,
0.0615054242418952,36.8727211872406,5979.0886017639,0,0,0.019961614812,3700,2018-04-13 06:25:11,17,0,17.042,5979.0886017639,0,0,0.055152888904,0,0,0,352.7, -2.6, -4.3,0,0,1024,1024,1024,1024,352.9,0,99,4.261,4.256,4.244,4.245,0,0,3.752,75.11,10,Assisted_Takeoff,
0.0615054230748098,36.8727211562712,5979.0886017639,0,0,0.0228892395776,3800,2018-04-13 06:25:11,17,0,17.042,5979.0886017639,0,0,0.055152888904,0,0,0,352.7, -2.6, -4.3,0,0,1024,1024,1024,1024,352.9,0,99,4.261,4.256,4.244,4.245,0,0,3.752,75.11,10,Assisted_Takeoff,
0.0615054195874206,36.8727211274218,5979.0886017639,0,0,0.0301324156624,3900,2018-04-13 06:25:12,17,0,17.042,5979.0886017639,0,0,0.055152888904,0,0,0,352.7, -2.6, -4.3,0,0,1024,1024,1024,1024,352.9,0,99,4.261,4.256,4.244,4.245,0,0,3.752,75.11,10,Assisted_Takeoff,
0.0615054190127834,36.8727211072007,5979.0886017639,0,0,0.035789371224,4000,2018-04-13 06:25:12,17,0,17.042,5979.0886017639,0,0,0.055152888904,0,0,0,352.7, -2.6, -4.3,0,0,1024,1024,1024,1024,352.9,0,99,4.261,4.256,4.244,4.245,0,0,3.752,75.11,10,Assisted_Takeoff,
0.0615054167574903,36.8727210924303,5979.0886017639,0,0,0.040645670592,4100,2018-04-13 06:25:12,17,0,17.042,5979.0886017639,0,0,0.055152888904,0,0,0,352.7, -2.6, -4.3,0,0,1024,1024,1024,1024,352.9,0,99,4.261,4.256,4.244,4.245,0,0,3.752,75.11,10,Assisted_Takeoff,
0.0615054172870908,36.8727210811236,5979.0886017639,0,0,0.04403051322,4200,2018-04-13 06:25:12,17,0,17.042,5979.0886017639,0,0,0.055152888904,0,0,0,352.7, -2.6, -4.3,0,0,1024,1024,1024,1024,352.9,0,99,4.261,4.256,4.244,4.245,0,0,3.752,75.11,10,Assisted_Takeoff,
0.061505416113746,36.8727210765249,5979.0886017639,0,0,0.045694227184,4300,2018-04-13 06:25:12,17,0,17.042,5979.0886017639,0,0,0.055152888904,0,0,0,352.7, -2.6, -4.3,0,0,1024,1024,1024,1024,352.9,0,99,4.261,4.256,4.244,4.245,0,0,3.752,75.11,10,Assisted_Takeoff,
0.0615054173540351,36.8727210716043,5979.0886017639,0,0,0.047038387332,4400,2018-04-13 06:25:12,17,0,17.042,5979.0886017639,0,0,0.055152888904,0,0,0,352.7, -2.6, -4.3,0,0,1024,1024,1024,1024,352.9,0,99,4.261,4.256,4.244,4.245,0,0,3.752,75.11,10,Assisted_Takeoff,
0.0615054466736095,36.8727210739309,5979.0886017639,0,0,0.042156169328,4500,2018-04-13 06:25:12,17,0,17.042,5979.0886017639,0,0,0.055152888904,0,0,0,352.7, -2.6, -4.3,0,0,1024,1024,1024,1024,352.9,0,99,4.268,4.267,4.261,4.266,0,0,2.028,75.11,10,Assisted_Takeoff,
0.061505478532437,36.872721074615,5979.0886017639,0,0,0.040233597088,4600,2018-04-13 06:25:12,17,0,17.042,5979.0886017639,0,0,0.055152888904,0,0,0,352.7, -2.6, -4.3,0,0,1024,1024,1024,1024,352.9,0,99,4.268,4.267,4.261,4.266,0,0,2.028,75.11,10,Assisted_Takeoff,
0.0615055052365522,36.8727210796727,5979.0886017639,0,0,0.039572179744,4700,2018-04-13 06:25:12,17,0,17.042,5979.0886017639,0,0,0.055152888904,0,0,0,352.7, -2.6, -4.3,0,0,1024,1024,1024,1024,352.9,0,99,4.268,4.267,4.261,4.266,0,0,2.028,75.11,10,Assisted_Takeoff,
0.0615055263749766,36.8727210837705,5979.0886017639,0,0,0.040756562984,4800,2018-04-13 06:25:12,17,0,17.042,5979.0886017639,0,0,0.055152888904,0,0,0,352.7, -2.6, -4.3,0,0,1024,1024,1024,1024,352.9,0,99,4.268,4.267,4.261,4.266,0,0,2.028,75.11,10,Assisted_Takeoff,
0.0615055413108359,36.8727210919922,5979.0886017639,0,0,0.040831366136,4900,2018-04-13 06:25:13,17,0,17.042,5979.0886017639,0,0,0.055152888904,0,0,0,352.7, -2.6, -4.3,0,0,1024,1024,1024,1024,352.9,0,99,4.268,4.267,4.261,4.266,0,0,2.028,75.11,10,Assisted_Takeoff,
0.061505554598939,36.8727210944944,5979.0886017639,0,0,0.04301673366,5000,2018-04-13 06:25:13,17,0,17.042,5979.0886017639,0,0,0.055152888904,0,0,0,352.7, -2.6, -4.3,0,0,1024,1024,1024,1024,352.9,0,99,4.268,4.267,4.261,4.266,0,0,2.028,75.11,10,Assisted_Takeoff,
0.0615055595031253,36.8727210993039,5979.0886017639,0,0,0.042893045992,5100,2018-04-13 06:25:13,17,0,17.042,5979.0886017639,0,0,0.055152888904,0,0,0,352.7, -2.6, -4.3,0,0,1024,1024,1024,1024,352.9,0,99,4.268,4.267,4.261,4.266,0,0,2.028,75.11,10,Assisted_Takeoff,
0.0615055663876267,36.8727211017732,5979.0886017639,0,0,0.04402723238,5200,2018-04-13 06:25:13,17,0,17.042,5979.0886017639,0,0,0.055152888904,0,0,0,352.7, -2.6, -4.3,0,0,1024,1024,1024,1024,352.9,0,99,4.268,4.267,4.261,4.266,0,0,2.028,75.11,10,Assisted_Takeoff,
0.0615055645817332,36.87272110617,5979.0886017639,0,0,0.042450460676,5300,2018-04-13 06:25:13,17,0,17.042,5979.0886017639,0,0,0.055152888904,0,0,0,352.7, -2.6, -4.3,0,0,1024,1024,1024,1024,352.9,0,99,4.268,4.267,4.261,4.266,0,0,2.028,75.11,10,Assisted_Takeoff,
0.0615055679858936,36.8727211091649,5979.0886017639,0,0,0.04265748168,5400,2018-04-13 06:25:13,17,0,17.042,5979.0886017639,0,0,0.055152888904,0,0,0,352.7, -2.6, -4.3,0,0,1024,1024,1024,1024,352.9,0,99,4.268,4.267,4.261,4.266,0,0,2.028,75.11,10,Assisted_Takeoff,
0.0615055634815412,36.8727211138639,5979.0886017639,0,0,0.040295933048,5500,2018-04-13 06:25:13,17,0,17.042,5979.0886017639,0,0,0.055152888904,0,0,0,352.7, -2.6, -4.3,0,0,1024,1024,1024,1024,352.9,0,99,4.268,4.267,4.262,4.267,0,0,2.034,75.11,10,Assisted_Takeoff,
0.0615055644871053,36.8727211160821,5979.0886017639,0,0,0.040065289996,5600,2018-04-13 06:25:13,17,0,17.042,5979.0886017639,0,0,0.055152888904,0,0,0,352.7, -2.6, -4.3,0,0,1024,1024,1024,1024,352.9,0,99,4.268,4.267,4.262,4.267,0,0,2.034,75.11,10,Assisted_Takeoff,
0.0615055584091162,36.8727211190746,5979.0886017639,0,0,0.037656825352,5700,2018-04-13 06:25:13,17,0,17.042,5979.0886017639,0,0,0.055152888904,0,0,0,352.7, -2.6, -4.3,0,0,1024,1024,1024,1024,352.9,0,99,4.268,4.267,4.262,4.267,0,0,2.034,75.11,10,Assisted_Takeoff,
0.0615055580785167,36.8727211215712,5979.0886017639,0,0,0.036988518244,5800,2018-04-13 06:25:14,17,0,17.042,5979.0886017639,0,0,0.055152888904,0,0,0,352.7, -2.6, -4.3,0,0,1024,1024,1024,1024,352.9,0,99,4.268,4.267,4.262,4.267,0,0,2.034,75.11,10,Assisted_Takeoff,
0.0615055518941953,36.8727210920562,5979.0886017639,0,0,0.0430856313,5900,2018-04-13 06:25:14,17,0,17.042,5979.0886017639,0,0,0.055152888904,0,0,0,352.7, -2.6, -4.3,0,0,1024,1024,1024,1024,352.9,0,99,4.268,4.267,4.262,4.267,0,0,2.034,75.11,10,Assisted_Takeoff,
0.0615055521104221,36.8727210631161,5979.0886017639,0,0,0.051839568588,6000,2018-04-13 06:25:14,17,0,17.042,5979.0886017639,0,0,0.055152888904,0,0,0,352.7, -2.6, -4.3,0,0,1024,1024,1024,1024,352.8,0,99,4.268,4.267,4.262,4.267,0,0,2.034,75.11,10,Assisted_Takeoff,
0.0615055787713581,36.872721035941,5979.0886017639,0,0,0.065428479784,6100,2018-04-13 06:25:14,17,0,17.042,5979.0886017639,0,0,0.065428479784,0,0,0,352.7, -2.6, -4.3,0,0,1024,1024,1024,1024,352.8,0,99,4.268,4.267,4.262,4.267,0,0,2.034,75.11,10,Assisted_Takeoff,
0.0615056093061079,36.8727210174834,5979.0886017639,0,0,0.077421590404,6200,2018-04-13 06:25:14,17,0,17.042,5979.0886017639,0,0,0.077421590404,0,0,0,352.7, -2.6, -4.3,0,0,1024,1024,1024,1024,352.8,0,99,4.268,4.267,4.262,4.267,0,0,2.034,75.11,10,Assisted_Takeoff,
0.0615056333011412,36.8727210041548,5979.0886017639,0,0,0.086726380728,6300,2018-04-13 06:25:14,17,0,17.042,5979.0886017639,0,0,0.086726380728,0,0,0,352.7, -2.6, -4.3,0,0,1024,1024,1024,1024,352.8,0,99,4.268,4.267,4.262,4.267,0,0,2.034,75.11,10,Assisted_Takeoff,
0.061505654218657,36.872720994399,5979.0886017639,0,0,0.094454399348,6400,2018-04-13 06:25:14,17,0,17.042,5979.0886017639,0,0,0.094454399348,0,0,0,352.7, -2.6, -4.3,0,0,1024,1024,1024,1024,352.8,0,99,4.268,4.267,4.262,4.267,0,0,2.034,75.11,10,Assisted_Takeoff,
0.0615056656044321,36.8727209905543,5979.0886017639,0,0,0.098322181624,6500,2018-04-13 06:25:14,17,0,17.042,5979.0886017639,0,0,0.098322181624,0,0,0,352.7, -2.6, -4.3,0,0,1024,1024,1024,1024,352.8,0,99,4.268,4.267,4.262,4.267,0,0,2.034,75.11,10,Assisted_Takeoff,
0.0615056796375482,36.872720987022,5979.0886017639,0,0,0.102836945548,6600,2018-04-13 06:25:14,17,0,17.042,5979.0886017639,0,0,0.102836945548,0,0,0,352.7, -2.6, -4.3,0,0,1024,1024,1024,1024,352.8,0,99,4.268,4.267,4.262,4.267,0,0,2.034,75.11,10,Assisted_Takeoff,
0.0615056835600245,36.8727209887448,5979.0886017639,0,0,0.103424872076,6700,2018-04-13 06:25:14,17,0,17.042,5979.0886017639,0,0,0.103424872076,0,0,0,352.7, -2.6, -4.3,0,0,1024,1024,1024,1024,352.8,0,99,4.268,4.267,4.262,4.267,0,0,2.034,75.11,10,Assisted_Takeoff,
0.0615056927041065,36.872720988861,5979.0886017639,0,0,0.10583005588,6800,2018-04-13 06:25:14,17,0,17.042,5979.0886017639,0,0,0.10583005588,0,0,0,352.7, -2.6, -4.3,0,0,1024,1024,1024,1024,352.8,0,99,4.268,4.267,4.262,4.267,0,0,2.034,75.11,10,Assisted_Takeoff,
0.0615056923735833,36.8727209928537,5979.0886017639,0,0,0.104761486292,6900,2018-04-13 06:25:15,17,0,17.042,5979.0886017639,0,0,0.10583005588,0,0,0,352.7, -2.6, -4.3,0,0,1024,1024,1024,1024,352.8,0,99,4.268,4.267,4.262,4.267,0,0,2.034,75.11,10,Assisted_Takeoff,
0.0615056974428086,36.8727209957099,5979.0886017639,0,0,0.105458664792,7000,2018-04-13 06:25:15,17,0,17.042,5979.0886017639,0,0,0.10583005588,0,0,0,352.7, -2.7, -4.3,0,0,1024,1024,1024,1024,352.8,0,99,4.268,4.267,4.262,4.267,0,0,2.034,75.11,10,Assisted_Takeoff,
0.0615056919348257,36.8727210016013,5979.0886017639,0,0,0.102533139764,7100,2018-04-13 06:25:15,17,0,17.042,5979.0886017639,0,0,0.10583005588,0,0,0,352.7, -2.6, -4.3,0,0,1024,1024,1024,1024,352.8,0,99,4.268,4.267,4.262,4.267,0,0,2.034,75.11,10,Assisted_Takeoff,
0.0615056969547334,36.8727210050662,5979.0886017639,0,0,0.103119425872,7200,2018-04-13 06:25:15,17,0,17.042,5979.0886017639,0,0,0.10583005588,0,0,0,352.7, -2.7, -4.3,0,0,1024,1024,1024,1024,352.8,0,99,4.268,4.267,4.262,4.267,0,0,2.034,75.11,10,Assisted_Takeoff,
0.0615056921849382,36.8727210101861,5979.0886017639,0,0,0.10058891398,7300,2018-04-13 06:25:15,17,0,17.042,5979.0886017639,0,0,0.10583005588,0,0,0,352.7, -2.6, -4.3,0,0,1024,1024,1024,1024,352.8,0,99,4.268,4.267,4.262,4.267,0,0,2.034,75.11,10,Assisted_Takeoff,
0.0615056956434288,36.872721013685,5979.0886017639,0,0,0.100771984852,7400,2018-04-13 06:25:15,17,0,17.042,5979.0886017639,0,0,0.10583005588,0,0,0,352.7, -2.6, -4.3,0,0,1024,1024,1024,1024,352.8,0,99,4.268,4.267,4.262,4.267,0,0,2.034,75.11,10,Assisted_Takeoff,
0.0615056898300746,36.872721017417,5979.0886017639,0,0,0.098263782672,7500,2018-04-13 06:25:15,17,0,17.016,5979.0886017639,0,0,0.10583005588,0,0,0,352.7, -2.7, -4.3,0,0,1024,1024,1024,1024,352.8,0,99,4.268,4.267,4.261,4.267,0,0,2.034,75.11,10,Assisted_Takeoff,
0.0615056930058394,36.8727210201676,5979.0886017639,0,0,0.098558730188,7600,2018-04-13 06:25:15,17,0,17.016,5979.0886017639,0,0,0.10583005588,0,0,0,352.7, -2.7, -4.3,0,0,1024,1024,1024,1024,352.8,0,99,4.268,4.267,4.261,4.267,0,0,2.034,75.11,10,Assisted_Takeoff,
0.0615056877950857,36.8727210223448,5979.0886017639,0,0,0.096568900728,7700,2018-04-13 06:25:15,17,0,17.016,5979.0886017639,0,0,0.10583005588,0,0,0,352.7, -2.7, -4.3,0,0,1024,1024,1024,1024,352.8,0,99,4.268,4.267,4.261,4.267,0,0,2.034,75.11,10,Assisted_Takeoff,
0.061505690900961,36.8727210240449,5979.0886017639,0,0,0.097089570036,7800,2018-04-13 06:25:16,17,0,17.016,5979.0886017639,0,0,0.10583005588,0,0,0,352.7, -2.7, -4.3,0,0,1024,1024,1024,1024,352.8,0,99,4.268,4.267,4.261,4.267,0,0,2.034,75.11,10,Assisted_Takeoff,
0.0615057149546627,36.8727210252881,5979.0886017639,0,0,0.103961289416,7900,2018-04-13 06:25:16,17,0,17.016,5979.0886017639,0,0,0.10583005588,0,0,0,352.7, -2.7, -4.3,0,0,1024,1024,1024,1024,352.8,0,99,4.268,4.267,4.261,4.267,0,0,2.034,75.11,10,Assisted_Takeoff,
0.0615057477094493,36.8727210262227,5979.0886017639,0,0,0.113884189996,8000,2018-04-13 06:25:16,17,0,17.016,5979.0886017639,0,0,0.113884189996,0,0,0,352.7, -2.7, -4.3,0,0,1024,1024,1024,1024,352.8,0,99,4.268,4.267,4.261,4.267,0,0,2.034,75.11,10,Assisted_Takeoff,
0.061505770434266,36.872721026019,5979.0886017639,0,0,0.121133205976,8100,2018-04-13 06:25:16,17,0,17.016,5979.0886017639,0,0,0.121133205976,0,0,0,352.7, -2.7, -4.3,0,0,1024,1024,1024,1024,352.8,0,99,4.268,4.267,4.261,4.267,0,0,2.034,75.11,10,Assisted_Takeoff,
0.0615057931322058,36.8727210255603,5979.0886017639,0,0,0.12854167078,8200,2018-04-13 06:25:16,17,0,17.016,5979.0886017639,0,0,0.12854167078,0,0,0,352.7, -2.7, -4.3,0,0,1024,1024,1024,1024,352.8,0,99,4.268,4.267,4.261,4.267,0,0,2.034,75.11,10,Assisted_Takeoff,
0.0615057766416591,36.8727210240982,5979.0886017639,0,0,0.123458337284,8300,2018-04-13 06:25:16,17,0,17.016,5979.0886017639,0,0,0.12854167078,0,0,0,352.7, -2.7, -4.3,0,0,1024,1024,1024,1024,352.8,0,99,4.268,4.267,4.261,4.267,0,0,2.034,75.11,10,Assisted_Takeoff,
0.0615057591414188,36.8727210227064,5979.0886017639,0,0,0.118132877796,8400,2018-04-13 06:25:16,17,0,17.016,5979.0886017639,0,0,0.12854167078,0,0,0,352.7, -2.7, -4.3,0,0,1024,1024,1024,1024,352.8,0,99,4.268,4.267,4.261,4.267,0,0,2.034,75.11,10,Assisted_Takeoff,
0.0615057569456592,36.8727210210992,5979.0886017639,0,0,0.117736552324,8500,2018-04-13 06:25:16,17,0,17.016,5979.0886017639,0,0,0.12854167078,0,0,0,352.7, -2.7, -4.3,0,0,1024,1024,1024,1024,352.8,0,99,4.268,4.267,4.261,4.266,0,0,2.038,75.11,10,Assisted_Takeoff,
0.0615057765710429,36.8727210197865,5979.0886017639,0,0,0.124190948856,8600,2018-04-13 06:25:16,17,0,17.016,5979.0886017639,0,0,0.12854167078,0,0,0,352.7, -2.7, -4.3,0,0,1024,1024,1024,1024,352.8,0,99,4.268,4.267,4.261,4.266,0,0,2.038,75.11,10,Assisted_Takeoff,
0.0615057862622053,36.8727210188211,5979.0886017639,0,0,0.127461618252,8700,2018-04-13 06:25:16,17,0,17.016,5979.0886017639,0,0,0.12854167078,0,0,0,352.7, -2.7, -4.3,0,0,1024,1024,1024,1024,352.8,0,99,4.268,4.267,4.261,4.266,0,0,2.038,75.11,10,Assisted_Takeoff,
0.0615058003276339,36.8727210178388,5979.0886017639,0,0,0.13216371814,8800,2018-04-13 06:25:16,17,0,17.016,5979.0886017639,0,0,0.13216371814,0,0,0,352.7, -2.7, -4.3,0,0,1024,1024,1024,1024,352.8,0,99,4.268,4.267,4.261,4.266,0,0,2.038,75.11,10,Assisted_Takeoff,
0.0615058029693175,36.8727210169203,5979.0886017639,0,0,0.133173560692,8900,2018-04-13 06:25:17,17,0,17.016,5979.0886017639,0,0,0.133173560692,0,0,0,352.7, -2.7, -4.3,0,0,1024,1024,1024,1024,352.8,0,99,4.268,4.267,4.261,4.266,0,0,2.038,75.11,10,Assisted_Takeoff,
0.0615058128715325,36.87272101579,5979.0886017639,0,0,0.136577104108,9000,2018-04-13 06:25:17,17,0,17.016,5979.0886017639,0,0,0.136577104108,0,0,0,352.7, -2.7, -4.3,0,0,1024,1024,1024,1024,352.8,0,99,4.268,4.267,4.261,4.266,0,0,2.038,75.11,10,Assisted_Takeoff,
0.0615058108579106,36.8727210153233,5979.0886017639,0,0,0.135999676268,9100,2018-04-13 06:25:17,17,0,17.016,5979.0886017639,0,0,0.136577104108,0,0,0,352.7, -2.7, -4.3,0,0,1024,1024,1024,1024,352.8,0,99,4.268,4.267,4.261,4.266,0,0,2.038,75.11,10,Assisted_Takeoff,
0.0615058179898226,36.8727210143322,5979.0886017639,0,0,0.138483928316,9200,2018-04-13 06:25:17,17,0,17.016,5979.0886017639,0,0,0.138483928316,0,0,0,352.7, -2.7, -4.3,0,0,1024,1024,1024,1024,352.8,0,99,4.268,4.267,4.261,4.266,0,0,2.038,75.11,10,Assisted_Takeoff,
0.0615058133760161,36.8727210145506,5979.0886017639,0,0,0.136946198608,9300,2018-04-13 06:25:17,17,0,17.016,5979.0886017639,0,0,0.138483928316,0,0,0,352.7, -2.7, -4.3,0,0,1024,1024,1024,1024,352.8,0,99,4.268,4.267,4.261,4.266,0,0,2.038,75.11,10,Assisted_Takeoff,
0.0615058188374181,36.8727210138908,5979.0886017639,0,0,0.138832681608,9400,2018-04-13 06:25:17,17,0,17.016,5979.0886017639,0,0,0.138832681608,0,0,0,352.7, -2.7, -4.3,0,0,1024,1024,1024,1024,352.8,0,99,4.268,4.267,4.261,4.266,0,0,2.038,75.11,10,Assisted_Takeoff,
0.061505811672748,36.8727210140185,5979.0886017639,0,0,0.13648130358,9500,2018-04-13 06:25:17,17,0,17.042,5979.0886017639,0,0,0.138832681608,0,0,0,352.7, -2.7, -4.3,0,0,1024,1024,1024,1024,352.8,0,99,4.267,4.267,4.261,4.266,0,0,2.038,75.11,10,Assisted_Takeoff,
0.0615058164256862,36.8727210134267,5979.0886017639,0,0,0.138123692084,9600,2018-04-13 06:25:17,17,0,17.042,5979.0886017639,0,0,0.138832681608,0,0,0,352.7, -2.7, -4.3,0,0,1024,1024,1024,1024,352.8,0,99,4.267,4.267,4.261,4.266,0,0,2.038,75.11,10,Assisted_Takeoff,
0.0615058404316224,36.8727210137059,5979.0886017639,0,0,0.145942589972,9700,2018-04-13 06:25:17,17,0,17.042,5979.0886017639,0,0,0.145942589972,0,0,0,352.7, -2.7, -4.3,0,0,1024,1024,1024,1024,352.8,0,99,4.267,4.267,4.261,4.266,0,0,2.038,75.11,10,Assisted_Takeoff,
0.0615058750818064,36.8727210134899,5979.0886017639,0,0,0.157492787192,9800,2018-04-13 06:25:17,17,0,17.042,5979.0886017639,0,0,0.157492787192,0,0,0,352.7, -2.7, -4.3,0,0,1024,1024,1024,1024,352.8,0,99,4.267,4.267,4.261,4.266,0,0,2.038,75.11,10,Assisted_Takeoff,
0.0615058972554823,36.8727210141103,5979.0886017639,0,0,0.164863522336,9900,2018-04-13 06:25:18,17,0,17.042,5979.0886017639,0,0,0.164863522336,0,0,0,352.7, -2.7, -4.3,0,0,1024,1024,1024,1024,352.8,0,99,4.267,4.267,4.261,4.266,0,0,2.038,75.11,10,Assisted_Takeoff,
0.0615059213361552,36.872721014083,5979.0886017639,0,0,0.17303314202,10000,2018-04-13 06:25:18,17,0,17.042,5979.0886017639,0,0,0.17303314202,0,0,0,352.7, -2.7, -4.3,0,0,1024,1024,1024,1024,352.8,0,99,4.267,4.267,4.261,4.266,0,0,2.038,75.11,10,Assisted_Takeoff,
0.0615059299973908,36.87272101483,5979.0886017639,0,0,0.175888457072,10100,2018-04-13 06:25:18,17,0,17.042,5979.0886017639,0,0,0.175888457072,0,0,0,352.7, -2.7, -4.3,0,0,1024,1024,1024,1024,352.8,0,99,4.267,4.267,4.261,4.266,0,0,2.038,75.11,10,Assisted_Takeoff,
0.0615059457031098,36.8727210146121,5979.0886017639,0,0,0.181288719712,10200,2018-04-13 06:25:18,17,0,17.042,5979.0886017639,0,0,0.181288719712,0,0,0,352.7, -2.7, -4.3,0,0,1024,1024,1024,1024,352.8,0,99,4.267,4.267,4.261,4.266,0,0,2.038,75.11,10,Assisted_Takeoff,
0.0615059449309092,36.872721014842,5979.0886017639,0,0,0.180995412616,10300,2018-04-13 06:25:18,17,0,17.042,5979.0886017639,0,0,0.181288719712,0,0,0,352.7, -2.7, -4.3,0,0,1024,1024,1024,1024,352.8,0,99,4.267,4.267,4.261,4.266,0,0,2.038,75.11,10,Assisted_Takeoff,
0.0615059546503536,36.8727210145562,5979.0886017639,0,0,0.184365819548,10400,2018-04-13 06:25:18,17,0,17.042,5979.0886017639,0,0,0.184365819548,0,0,0,352.7, -2.7, -4.3,0,0,1024,1024,1024,1024,352.8,0,99,4.267,4.267,4.261,4.266,0,0,2.038,75.11,10,Assisted_Takeoff,
0.0615059483229326,36.8727210147058,5979.0886017639,0,0,0.182175530764,10500,2018-04-13 06:25:18,17,0,17.016,5979.0886017639,0,0,0.184365819548,0,0,0,352.7, -2.7, -4.3,0,0,1024,1024,1024,1024,352.8,0,99,4.267,4.267,4.261,4.266,0,0,2.038,75.11,10,Assisted_Takeoff,
0.0615059539767503,36.872721014007,5979.0886017639,0,0,0.184202105632,10600,2018-04-13 06:25:18,17,0,17.016,5979.0886017639,0,0,0.184365819548,0,0,0,352.7, -2.7, -4.3,0,0,1024,1024,1024,1024,352.8,0,99,4.267,4.267,4.261,4.266,0,0,2.038,75.11,10,Assisted_Takeoff,
0.0615059452482014,36.8727210144168,5979.0886017639,0,0,0.181157486112,10700,2018-04-13 06:25:18,17,0,17.016,5979.0886017639,0,0,0.184365819548,0,0,0,352.7, -2.7, -4.3,0,0,1024,1024,1024,1024,352.8,0,99,4.267,4.267,4.261,4.266,0,0,2.038,75.11,10,Assisted_Takeoff,
0.0615059479478816,36.8727210140852,5979.0886017639,0,0,0.182124021576,10800,2018-04-13 06:25:18,17,0,17.016,5979.0886017639,0,0,0.184365819548,0,0,0,352.7, -2.7, -4.3,0,0,1024,1024,1024,1024,352.8,0,99,4.267,4.267,4.261,4.266,0,0,2.038,75.11,10,Assisted_Takeoff,
0.0615059369030493,36.8727210145615,5979.0886017639,0,0,0.17828248602,10900,2018-04-13 06:25:19,17,0,17.016,5979.0886017639,0,0,0.184365819548,0,0,0,352.7, -2.7, -4.3,0,0,1024,1024,1024,1024,352.8,0,99,4.267,4.267,4.261,4.266,0,0,2.038,75.11,10,Assisted_Takeoff,
0.0615059395752495,36.8727210140351,5979.0886017639,0,0,0.179263129096,11000,2018-04-13 06:25:19,17,0,17.016,5979.0886017639,0,0,0.184365819548,0,0,0,352.7, -2.7, -4.3,0,0,1024,1024,1024,1024,352.8,0,99,4.267,4.267,4.261,4.266,0,0,2.038,75.11,10,Assisted_Takeoff,
0.0615059293094368,36.872721013787,5979.0886017639,0,0,0.175788391452,11100,2018-04-13 06:25:19,17,0,17.016,5979.0886017639,0,0,0.184365819548,0,0,0,352.7, -2.7, -4.3,0,0,1024,1024,1024,1024,352.8,0,99,4.267,4.267,4.261,4.266,0,0,2.038,75.11,10,Assisted_Takeoff,
0.0615059329833591,36.8727210120942,5979.0886017639,0,0,0.177260832444,11200,2018-04-13 06:25:19,17,0,17.016,5979.0886017639,0,0,0.184365819548,0,0,0,352.7, -2.7, -4.3,0,0,1024,1024,1024,1024,352.8,0,99,4.267,4.267,4.261,4.266,0,0,2.038,75.11,10,Assisted_Takeoff,
0.0615059243049358,36.8727210112931,5979.0886017639,0,0,0.17441109482,11300,2018-04-13 06:25:19,17,0,17.016,5979.0886017639,0,0,0.184365819548,0,0,0,352.7, -2.7, -4.3,0,0,1024,1024,1024,1024,352.8,0,99,4.267,4.267,4.261,4.266,0,0,2.038,75.11,10,Assisted_Takeoff,
0.061505927783254,36.8727210096565,5979.0886017639,0,0,0.17581037308,11400,2018-04-13 06:25:19,17,0,17.016,5979.0886017639,0,0,0.184365819548,0,0,0,352.7, -2.7, -4.3,0,0,1024,1024,1024,1024,352.8,0,99,4.267,4.267,4.261,4.266,0,0,2.038,75.11,10,Assisted_Takeoff,
0.0615059191615082,36.8727210093369,5979.0886017639,0,0,0.172927170888,11500,2018-04-13 06:25:19,17,0,17.016,5979.0886017639,0,0,0.184365819548,0,0,0,352.7, -2.7, -4.3,0,0,1024,1024,1024,1024,352.8,0,99,4.267,4.266,4.261,4.265,0,0,2.038,75.11,10,Assisted_Takeoff,
0.0615059239637768,36.872721007624,5979.0886017639,0,0,0.174786094832,11600,2018-04-13 06:25:19,17,0,17.016,5979.0886017639,0,0,0.184365819548,0,0,0,352.7, -2.7, -4.3,0,0,1024,1024,1024,1024,352.8,0,99,4.267,4.266,4.261,4.265,0,0,2.038,75.11,10,Assisted_Takeoff,
0.0615059172658594,36.8727210067675,5979.0886017639,0,0,0.172635504212,11700,2018-04-13 06:25:19,17,0,17.016,5979.0886017639,0,0,0.184365819548,0,0,0,352.7, -2.7, -4.3,0,0,1024,1024,1024,1024,352.8,0,99,4.267,4.266,4.261,4.265,0,0,2.038,75.11,10,Assisted_Takeoff,
0.0615059224681655,36.8727210053019,5979.0886017639,0,0,0.174595478028,11800,2018-04-13 06:25:20,17,0,17.016,5979.0886017639,0,0,0.184365819548,0,0,0,352.7, -2.7, -4.3,0,0,1024,1024,1024,1024,352.8,0,99,4.267,4.266,4.261,4.265,0,0,2.038,75.11,10,Assisted_Takeoff,
0.0615059162936147,36.8727210057644,5979.0886017639,0,0,0.172445215492,11900,2018-04-13 06:25:20,17,0,17.016,5979.0886017639,0,0,0.184365819548,0,0,0,352.7, -2.7, -4.3,0,0,1024,1024,1024,1024,352.8,0,99,4.267,4.266,4.261,4.265,0,0,2.038,75.11,10,Assisted_Takeoff,
0.0615059220245926,36.8727210051518,5979.0886017639,0,0,0.174465884848,12000,2018-04-13 06:25:20,17,0,17.016,5979.0886017639,0,0,0.184365819548,0,0,0,352.7, -2.7, -4.3,0,0,1024,1024,1024,1024,352.8,0,99,4.267,4.266,4.261,4.265,0,0,2.038,75.11,10,Assisted_Takeoff,
0.0615059165929685,36.8727210058616,5979.0886017639,0,0,0.17253281392,12100,2018-04-13 06:25:20,17,0,17.016,5979.0886017639,0,0,0.184365819548,0,0,0,352.7, -2.7, -4.3,0,0,1024,1024,1024,1024,352.8,0,99,4.267,4.266,4.261,4.265,0,0,2.038,75.11,10,Assisted_Takeoff,
0.0615059231154847,36.8727210057163,5979.0886017639,0,0,0.174757551524,12200,2018-04-13 06:25:20,17,0,17.016,5979.0886017639,0,0,0.184365819548,0,0,0,352.7, -2.7, -4.3,0,0,1024,1024,1024,1024,352.8,0,99,4.267,4.266,4.261,4.265,0,0,2.038,75.11,10,Assisted_Takeoff,
0.0615059181408045,36.8727209752356,5979.0886017639,0,0,0.177574808832,12300,2018-04-13 06:25:20,17,0,17.016,5979.0886017639,0,0,0.184365819548,0,0,0,352.7, -2.7, -4.3,0,0,1024,1024,1024,1024,352.8,0,99,4.267,4.266,4.261,4.265,0,0,2.038,75.11,10,Assisted_Takeoff,
0.0615059248779064,36.8727209448735,5979.0886017639,0,0,0.184781173892,12400,2018-04-13 06:25:20,17,0,17.016,5979.0886017639,0,0,0.184781173892,0,0,0,352.7, -2.8, -4.3,0,0,1024,1024,1024,1024,352.8,0,99,4.267,4.266,4.261,4.265,0,0,2.038,75.11,10,Assisted_Takeoff,
0.061505919167971,36.8727209182977,5979.0886017639,0,0,0.18778379866,12500,2018-04-13 06:25:20,17,0,17.016,5979.0886017639,0,0,0.18778379866,0,0,0,352.7, -2.7, -4.4,0,0,1024,1024,1024,1024,352.8,0,99,4.267,4.266,4.26,4.265,0,0,2.048,75.11,10,Assisted_Takeoff,
0.06150592567204,36.8727208990714,5979.0886017639,0,0,0.193505911704,12600,2018-04-13 06:25:20,17,0,17.016,5979.0886017639,0,0,0.193505911704,0,0,0,352.7, -2.8, -4.3,0,0,1024,1024,1024,1024,352.8,0,99,4.267,4.266,4.26,4.265,0,0,2.048,75.11,10,Assisted_Takeoff,
0.061505920159299,36.8727208863547,5979.0886017639,0,0,0.194375990472,12700,2018-04-13 06:25:20,17,0,17.016,5979.0886017639,0,0,0.194375990472,0,0,0,352.8, -2.8, -4.3,0,0,1024,1024,1024,1024,352.8,0,99,4.267,4.266,4.26,4.265,0,0,2.048,75.11,10,Assisted_Takeoff,
0.061505926839647,36.8727208764075,5979.0886017639,0,0,0.19843504572,12800,2018-04-13 06:25:20,17,0,17.016,5979.0886017639,0,0,0.19843504572,0,0,0,352.7, -2.7, -4.3,0,0,1024,1024,1024,1024,352.8,0,99,4.267,4.266,4.26,4.265,0,0,2.048,75.11,10,Assisted_Takeoff,
0.0615059214187351,36.8727208739171,5979.0886017639,0,0,0.197330386892,12900,2018-04-13 06:25:21,17,0,17.016,5979.0886017639,0,0,0.19843504572,0,0,0,352.7, -2.8, -4.3,0,0,1024,1024,1024,1024,352.8,0,99,4.267,4.266,4.26,4.265,0,0,2.048,75.11,10,Assisted_Takeoff,
0.0615059283675219,36.8727208704348,5979.0886017639,0,0,0.200135505092,13000,2018-04-13 06:25:21,17,0,17.016,5979.0886017639,0,0,0.200135505092,0,0,0,352.8, -2.7, -4.3,0,0,1024,1024,1024,1024,352.8,0,99,4.267,4.266,4.26,4.265,0,0,2.048,75.11,10,Assisted_Takeoff,
0.0615059227795545,36.8727208737763,5979.0886017639,0,0,0.197766410528,13100,2018-04-13 06:25:21,17,0,17.016,5979.0886017639,0,0,0.200135505092,0,0,0,352.8, -2.7, -4.3,0,0,1024,1024,1024,1024,352.8,0,99,4.267,4.266,4.26,4.265,0,0,2.048,75.11,10,Assisted_Takeoff,
0.0615059291041002,36.8727208736449,5979.0886017639,0,0,0.199687670432,13200,2018-04-13 06:25:21,17,0,17.016,5979.0886017639,0,0,0.200135505092,0,0,0,352.8, -2.7, -4.3,0,0,1024,1024,1024,1024,352.8,0,99,4.267,4.266,4.26,4.265,0,0,2.048,75.11,10,Assisted_Takeoff,
0.0615059232161938,36.8727208791845,5979.0886017639,0,0,0.19677165984,13300,2018-04-13 06:25:21,17,0,17.016,5979.0886017639,0,0,0.200135505092,0,0,0,352.8, -2.8, -4.3,0,0,1024,1024,1024,1024,352.8,0,99,4.267,4.266,4.26,4.265,0,0,2.048,75.11,10,Assisted_Takeoff,
0.0615059300596024,36.8727208809654,5979.0886017639,0,0,0.198469822624,13400,2018-04-13 06:25:21,17,0,17.016,5979.0886017639,0,0,0.200135505092,0,0,0,352.8, -2.8, -4.3,0,0,1024,1024,1024,1024,352.8,0,99,4.266,4.265,4.26,4.264,0,0,2.048,75.11,10,Assisted_Takeoff,
0.0615059318093019,36.8727208887487,5979.0886017639,0,0,0.197431436764,13600,2018-04-13 06:25:21,17,0,17.016,5979.0886017639,0,0,0.200135505092,0,0,0,352.8, -2.8, -4.3,0,0,1024,1024,1024,1024,352.7,0,99,4.266,4.265,4.26,4.264,0,0,2.048,75.11,10,Assisted_Takeoff,
0.0615059578217228,36.8727208628033,5979.0886017639,0,0,0.210572841384,13700,2018-04-13 06:25:21,17,0,17.016,5979.0886017639,0,0,0.210572841384,0,0,0,352.8, -2.8, -4.3,0,0,1024,1024,1024,1024,352.8,0,99,4.266,4.265,4.26,4.264,0,0,2.048,75.11,10,Assisted_Takeoff,
0.0615059949186312,36.8727208355576,5979.0886017639,0,0,0.22735236948,13800,2018-04-13 06:25:21,17,0,17.016,5979.0886017639,0,0,0.22735236948,0,0,0,352.8, -2.8, -4.3,0,0,1024,1024,1062,1024,352.8,0,99,4.266,4.265,4.26,4.264,0,0,2.048,75.11,10,Assisted_Takeoff,
0.0615060173893391,36.8727208139027,5979.0886017639,0,0,0.238578747792,13900,2018-04-13 06:25:22,17,0,17.016,5979.0886017639,0,0,0.238578747792,0,0,0,352.8, -2.8, -4.3,0,0,1024,1024,1232,1019,352.7,0,99,4.266,4.265,4.26,4.264,0,0,2.048,75.11,10,Assisted_Takeoff,
0.0615060432355951,36.872720798517,5979.0886017639,0,0,0.249529863628,14000,2018-04-13 06:25:22,17,0,17.016,5979.0886017639,0,0,0.249529863628,0,0,0,352.8, -2.7, -4.3,0,0,1024,1024,1446,1018,352.7,0,99,4.266,4.265,4.26,4.264,0,0,2.048,75.11,10,Assisted_Takeoff,
0.0615060510640088,36.8727207892325,5979.0886017639,0,0,0.253803157728,14100,2018-04-13 06:25:22,17,0,17.016,5979.0886017639,0,0,0.253803157728,0,0,0,352.8, -2.7, -4.4,0,0,1024,1024,1684,1022,352.7,0,99,4.266,4.265,4.26,4.264,0,0,2.048,75.11,10,Assisted_Takeoff,
0.0615060691027919,36.872720781309,5979.0886017639,0,0,0.260864181576,14200,2018-04-13 06:25:22,17,0,17.016,5979.0886017639,0,0,0.260864181576,0,0,0,352.7, -2.7, -4.4,0,0,1024,1024,1684,1067,352.7,0,99,4.266,4.265,4.26,4.264,0,0,2.048,75.11,10,Assisted_Takeoff,
0.061506068327449,36.8727207786093,5979.0886017639,0,0,0.261188328568,14300,2018-04-13 06:25:22,17,0,17.016,5979.0886017639,0,0,0.261188328568,0,0,0,352.9, -2.8, -4.4,0,0,1024,1024,1684,1050,352.7,0,99,4.266,4.265,4.26,4.264,0,0,2.048,75.11,10,Assisted_Takeoff,
0.0615060815029858,36.8727207726136,5979.0886017639,0,0,0.26638944422,14400,2018-04-13 06:25:22,17,0,17.016,5979.0886017639,0,0,0.26638944422,0,0,0,353, -2.6, -4.3,0,0,1024,1024,1684,1024,352.8,0,99,4.266,4.265,4.26,4.264,0,0,2.048,75.11,10,Assisted_Takeoff,
0.0615061091286222,36.8727207262267,5979.0886017639,0,0.223694,0.28438485162,14500,2018-04-13 06:25:22,17,0,17.016,5979.0886017639,0,0.223694,0.28438485162,0,-0.223694,0,353.2, -1.1, -2.8,0,0,1024,1024,1684,1024,352.8,0,99,4.266,4.265,4.26,4.264,0,0,2.048,75.11,10,Assisted_Takeoff,
0.0615061961181668,36.8727206073437,5979.0886017639,0,0.223694,0.33597113936,14600,2018-04-13 06:25:22,17,0,17.016,5979.0886017639,0,0.223694,0.33597113936,0,-0.223694,-0.223694,353.2, 0.1, -1.1,0,0,1024,1024,1684,1024,352.8,0,99,4.266,4.265,4.26,4.264,0,0,2.048,75.11,6,P-GPS,Home Point Recorded. RTH Altitude:  30m.
0.0615062747954461,36.8727204322357,5979.0886017639,0,0.3131716,0.39966208628,14700,2018-04-13 06:25:22,17,0,17.016,5979.0886017639,0,0.3131716,0.39966208628,0.223694,-0.223694,-0.671082,353.1, 0.3, 0.1,0,0,1024,1024,1684,1024,352.8,0,99,4.266,4.265,4.26,4.264,0,0,2.048,75.11,6,P-GPS,
0.0615063967765373,36.872720245654,5979.0886017639,0,0.4921268,0.47914371612,14800,2018-04-13 06:25:22,17,0,17.016,5979.0886017639,0,0.4921268,0.47914371612,0.223694,-0.447388,-1.565858,353.2, 0.8, 1.1,0,0,1024,1024,1684,1024,352.8,0,99,4.266,4.265,4.26,4.264,0,0,2.048,75.11,6,P-GPS,
0.0615065723319093,36.8727200679833,5979.4166857639,0.328084,0.4921268,0.57026904712,14900,2018-04-13 06:25:23,17,0,17.016,5979.4166857639,0.328084,0.4921268,0.57026904712,0.223694,-0.447388,-2.23694,353.2, 1.4, 1.1,0,0,1024,1024,1684,1024,352.8,0,99,4.266,4.265,4.26,4.264,0,0,2.048,75.11,6,P-GPS,
0.0615067815966826,36.8727199133796,5979.7447697639,0.656168,0.6263432,0.66416012624,15000,2018-04-13 06:25:23,17,0,17.016,5979.7447697639,0.656168,0.6263432,0.66416012624,0.447388,-0.447388,-3.131716,352.9, 0.5, 0.6,0,0,1024,1024,1684,1024,352.8,0,99,4.266,4.265,4.26,4.264,0,0,2.048,75.11,6,P-GPS,
0.0615070279608198,36.872719762722,5980.0728537639,0.984252,0.8052984,0.76723755736,15100,2018-04-13 06:25:23,17,0,17.016,5980.0728537639,0.984252,0.8052984,0.76723755736,0.671082,-0.447388,-4.026492,352.8, 1.8, 0.7,0,0,1024,1024,1684,1024,352.8,0,99,4.266,4.265,4.26,4.264,0,0,2.048,75.11,6,P-GPS,
0.0615073216806173,36.8727196059223,5980.7290217639,1.64042,0.7158208,0.88538716744,15200,2018-04-13 06:25:23,17,0,17.016,5980.7290217639,1.64042,0.8052984,0.88538716744,0.671082,-0.223694,-5.144962,352.9, 3.2, 2.4,0,0,1024,1024,1684,1023,352.8,0,99,4.266,4.265,4.26,4.264,0,0,2.048,75.11,6,P-GPS,
0.0615076150104025,36.8727194709886,5981.7132737639,2.624672,0.7158208,0.99920934956,15300,2018-04-13 06:25:23,17,0,17.016,5981.7132737639,2.624672,0.8052984,0.99920934956,0.671082,-0.223694,-6.039738,352.9, 3.4, 2.7,0,0,1024,1024,1684,1024,352.8,0,99,4.266,4.265,4.26,4.264,0,0,2.048,75.11,6,P-GPS,
0.0615079312597227,36.8727194012045,5982.6975257639,3.608924,0.671082,1.10637798816,15400,2018-04-13 06:25:23,17,0,17.016,5982.6975257639,3.608924,0.8052984,1.10637798816,0.671082,0,-7.158208,353, 4.5, 0.6,0,0,1024,1024,1684,1024,352.8,0,99,4.266,4.265,4.26,4.264,0,0,2.048,75.11,6,P-GPS,
0.0615082029114578,36.8727193511593,5984.0098617639,4.92126,0.671082,1.19806106196,15500,2018-04-13 06:25:23,17,0,16.16,5984.0098617639,4.92126,0.8052984,1.19806106196,0.671082,0,-8.500372,353.1, 5.2, -0.7,0,0,1024,1024,1684,1024,352.8,0,99,4.228,4.227,4.21,4.217,0,0,4.756,75.11,6,P-GPS,
0.0615084271349651,36.8727192628008,5985.3221977639,6.233596,0.4921268,1.28406828256,15600,2018-04-13 06:25:23,17,0,16.16,5985.3221977639,6.233596,0.8052984,1.28406828256,0.447388,-0.223694,-9.395148,353.2, 5.1, 0.2,0,0,1024,1024,1684,1024,352.8,0,99,4.228,4.227,4.21,4.217,0,0,4.756,75.11,6,P-GPS,
0.0615086033639531,36.872719158907,5986.6345337639,7.545932,0.4921268,1.35863521408,15700,2018-04-13 06:25:23,17,0,16.16,5986.6345337639,7.545932,0.8052984,1.35863521408,0.447388,-0.223694,-10.289924,353.3, 4.7, 1.3,0,0,1024,1024,1684,1024,352.8,0,99,4.228,4.227,4.21,4.217,0,0,4.756,75.11,6,P-GPS,
0.0615087731968202,36.8727190661206,5988.2749537639,9.186352,0.4921268,1.429051883,15800,2018-04-13 06:25:24,17,0,16.16,5988.2749537639,9.186352,0.8052984,1.429051883,0.447388,-0.223694,-10.961006,353.3, 4.7, 1.6,0,0,1024,1024,1684,1024,352.8,0,99,4.228,4.227,4.21,4.217,0,0,4.756,75.11,6,P-GPS,
0.0615089304381512,36.8727189535272,5989.9153737639,10.826772,0.4921268,1.49953088788,15900,2018-04-13 06:25:24,17,0,16.16,5989.9153737639,10.826772,0.8052984,1.49953088788,0.447388,-0.223694,-11.408394,353.3, 4.7, 1.8,0,0,1024,1024,1684,1024,352.8,0,99,4.228,4.227,4.21,4.217,0,0,4.756,75.11,6,P-GPS,
0.0615090790483219,36.872718855097,5991.5557937639,12.467192,0.223694,1.56456041752,16000,2018-04-13 06:25:24,17,0,16.16,5991.5557937639,12.467192,0.8052984,1.56456041752,0.223694,0,-11.632088,353.3, 4.6, 1.7,0,0,1024,1024,1684,1024,352.8,0,99,4.228,4.227,4.21,4.217,0,0,4.756,75.11,6,P-GPS,
0.0615091933286541,36.8727187768428,5993.1962137639,14.107612,0.223694,1.61507879184,16100,2018-04-13 06:25:24,17,0,16.16,5993.1962137639,14.107612,0.8052984,1.61507879184,0.223694,0,-11.632088,353.3, 4.7, 1.4,0,0,1024,1024,1684,1023,352.8,0,99,4.228,4.227,4.21,4.217,0,0,4.756,75.11,6,P-GPS,
0.0615092913544689,36.8727187154178,5995.1647177639,16.076116,0.223694,1.65728023676,16200,2018-04-13 06:25:24,17,0,16.16,5995.1647177639,16.076116,0.8052984,1.65728023676,0.223694,0,-11.632088,353.3, 4.5, 1.1,0,0,1024,1024,1684,1023,352.8,0,99,4.228,4.227,4.21,4.217,0,0,4.756,75.11,6,P-GPS,
0.0615093797565868,36.8727186915423,5996.8051377639,17.716536,0,1.68911750812,16300,2018-04-13 06:25:24,17,0,16.16,5996.8051377639,17.716536,0.8052984,1.68911750812,0,0,-11.408394,353.3, 4.1, 0.9,0,0,1024,1024,1684,1024,352.8,0,99,4.228,4.227,4.21,4.217,0,0,4.756,75.11,6,P-GPS,
0.0615094706074774,36.8727186679644,5998.4455577639,19.356956,0,1.72170937268,16400,2018-04-13 06:25:24,17,0,16.16,5998.4455577639,19.356956,0.8052984,1.72170937268,0,0,-11.408394,353.3, 3.7, 0.9,0,0,1024,1024,1684,1022,352.8,0,99,4.228,4.227,4.21,4.217,0,0,4.756,75.11,6,P-GPS,
0.0615095513799281,36.8727186071369,6000.0859777639,20.997376,0,1.75847774656,16500,2018-04-13 06:25:24,17,0,15.919,6000.0859777639,20.997376,0.8052984,1.75847774656,0,0,-11.1847,353.2, 3.5, 1.1,0,0,1024,1024,1684,1021,352.8,0,99,4.013,4.023,3.971,4.005,0,0,23.21,75.11,6,P-GPS,
0.0615096390928071,36.8727185334131,6001.7263977639,22.637796,0,1.79991475576,16600,2018-04-13 06:25:24,17,0,15.919,6001.7263977639,22.637796,0.8052984,1.79991475576,0,0,-11.1847,353.3, 3.3, 1,0,0,1024,1024,1684,1024,352.8,0,99,4.013,4.023,3.971,4.005,0,0,23.21,75.11,6,P-GPS,
0.0615097099032516,36.8727184640842,6003.3668177639,24.278216,0,1.83530845768,16700,2018-04-13 06:25:24,17,0,15.919,6003.3668177639,24.278216,0.8052984,1.83530845768,0,0,-10.961006,353.3, 3.3, 0.8,0,0,1024,1024,1684,1024,352.8,0,99,4.013,4.023,3.971,4.005,0,0,23.21,75.11,6,P-GPS,
0.0615097884048372,36.8727183910015,6005.0072377639,25.918636,0,1.8738353618,16800,2018-04-13 06:25:24,17,0,15.919,6005.0072377639,25.918636,0.8052984,1.8738353618,0,0,-10.961006,353.3, 3.4, 0.8,0,0,1024,1024,1684,1019,352.9,0,99,4.013,4.023,3.971,4.005,0,0,23.21,75.11,6,P-GPS,
0.0615098161396811,36.8727183106563,6006.6476577639,27.559056,0,1.89836948332,16900,2018-04-13 06:25:25,17,0,15.919,6006.6476577639,27.559056,0.8052984,1.89836948332,0,0,-10.961006,353.3, 3.5, 1,0,0,1024,1024,1684,1018,352.9,0,99,4.013,4.023,3.971,4.005,0,0,23.21,75.11,6,P-GPS,
0.0615098613868118,36.8727182233841,6008.2880777639,29.199476,0,1.92979664968,17000,2018-04-13 06:25:25,17,0,15.919,6008.2880777639,29.199476,0.8052984,1.92979664968,0,0,-10.961006,353.3, 3.5, 1.1,0,0,1024,1024,1684,1023,352.9,0,99,4.013,4.023,3.971,4.005,0,0,23.21,75.11,6,P-GPS,
0.0615098777974562,36.872718089758,6009.9284977639,30.839896,0,1.96240491844,17100,2018-04-13 06:25:25,17,0,15.919,6009.9284977639,30.839896,0.8052984,1.96240491844,0,0,-10.961006,353.3, 3.5, 1.2,0,0,1024,1024,1684,1023,352.9,0,99,4.013,4.023,3.971,4.005,0,0,23.21,75.11,6,P-GPS,
0.0615099189331729,36.8727179496263,6011.5689177639,32.480316,0,2.00437342372,17200,2018-04-13 06:25:25,17,0,15.919,6011.5689177639,32.480316,0.8052984,2.00437342372,0,0,-10.961006,353.3, 3.8, 1.2,0,0,1024,1024,1684,1020,352.9,0,99,4.013,4.023,3.971,4.005,0,0,23.21,75.11,6,P-GPS,
0.0615099315141241,36.8727178324974,6013.2093377639,34.120736,0,2.03350072124,17300,2018-04-13 06:25:25,17,0,15.919,6013.2093377639,34.120736,0.8052984,2.03350072124,0,0,-10.961006,353.3, 3.5, 1.2,0,0,1024,1024,1684,1024,352.9,0,99,4.013,4.023,3.971,4.005,0,0,23.21,75.11,6,P-GPS,
0.0615099632671536,36.8727177299543,6014.8497577639,35.761156,0,2.06538392436,17400,2018-04-13 06:25:25,17,0,15.919,6014.8497577639,35.761156,0.8052984,2.06538392436,0,0,-10.961006,353.3, 3.3, 1.1,0,0,1024,1024,1684,1024,352.9,0,99,4.013,4.023,3.971,4.005,0,0,23.21,75.11,6,P-GPS,
0.0615099845606873,36.8727176307841,6016.4901777639,37.401576,0,2.09375990952,17500,2018-04-13 06:25:25,17,0,16.053,6016.4901777639,37.401576,0.8052984,2.09375990952,0,0,-10.961006,353.3, 3.5, 1.1,0,0,1024,1024,1684,1021,352.9,0,99,4.057,4.064,4.016,4.046,0,0,17.132,75.11,6,P-GPS,
0.061510024511711,36.872717526912,6018.1305977639,39.041996,0,2.12877631484,17600,2018-04-13 06:25:25,17,0,16.053,6018.1305977639,39.041996,0.8052984,2.12877631484,0,0,-10.961006,353.3, 3.7, 1,0,0,1024,1024,1684,1022,352.9,0,99,4.057,4.064,4.016,4.046,0,0,17.132,75.11,6,P-GPS,
0.0615100469870879,36.8727174223604,6019.7710177639,40.682416,0,2.1592192292,17700,2018-04-13 06:25:25,17,0,16.053,6019.7710177639,40.682416,0.8052984,2.1592192292,0,0,-10.961006,353.3, 3.5, 1.4,0,0,1024,1024,1684,1022,352.9,0,99,4.057,4.064,4.016,4.046,0,0,17.132,75.11,6,P-GPS,
0.0615100859875074,36.872717316051,6021.4114377639,42.322836,0,2.19496070016,17800,2018-04-13 06:25:26,17,0,16.053,6021.4114377639,42.322836,0.8052984,2.19496070016,0,0,-11.1847,353.3, 3.6, 1.5,0,0,1024,1024,1684,1016,352.9,0,99,4.057,4.064,4.016,4.046,0,0,17.132,75.11,6,P-GPS,
0.0615101178109671,36.8727171991546,6023.0518577639,43.963256,0,2.23142067508,17900,2018-04-13 06:25:26,17,0,16.053,6023.0518577639,43.963256,0.8052984,2.23142067508,0,0,-11.1847,353.3, 4, 1.2,0,0,1024,1024,1684,1011,352.9,0,99,4.057,4.064,4.016,4.046,0,0,17.132,75.11,6,P-GPS,
0.0615101585794697,36.8727170788376,6024.6922777639,45.603676,0,2.27143379972,18000,2018-04-13 06:25:26,17,0,16.053,6024.6922777639,45.603676,0.8052984,2.27143379972,0,0,-11.1847,353.3, 4.2, 1.1,0,0,1024,1024,1684,999,352.9,0,99,4.057,4.064,4.016,4.046,0,0,17.132,75.11,6,P-GPS,
0.0615101825481298,36.8727169633521,6026.3326977639,47.244096,0,2.30594167484,18100,2018-04-13 06:25:26,17,0,16.053,6026.3326977639,47.244096,0.8052984,2.30594167484,0,0,-10.961006,353.3, 4.3, 1.2,0,0,1024,1024,1684,1020,352.9,0,99,4.057,4.064,4.016,4.046,0,0,17.132,75.11,6,P-GPS,
0.0615102099532138,36.8727168557169,6027.9731177639,48.884516,0,2.33972120348,18200,2018-04-13 06:25:26,17,0,16.053,6027.9731177639,48.884516,0.8052984,2.33972120348,0,0,-10.961006,353.3, 4.4, 1.2,0,0,1024,1024,1684,1022,352.9,0,99,4.057,4.064,4.016,4.046,0,0,17.132,75.11,6,P-GPS,
0.0615102245371511,36.8727167510577,6029.6135377639,50.524936,0,2.3695538816,18300,2018-04-13 06:25:26,17,0,16.053,6029.6135377639,50.524936,0.8052984,2.3695538816,0,0,-10.961006,353.3, 4.3, 1.5,0,0,1024,1024,1684,1024,352.9,0,99,4.057,4.064,4.016,4.046,0,0,17.132,75.11,6,P-GPS,
0.0615102440463173,36.8727166518422,6031.2539577639,52.165356,0,2.39956372508,18400,2018-04-13 06:25:26,17,0,16.053,6031.2539577639,52.165356,0.8052984,2.39956372508,0,0,-10.961006,353.3, 4.3, 1.5,0,0,1024,1024,1684,1024,352.9,0,99,4.057,4.064,4.016,4.046,0,0,17.132,75.11,6,P-GPS,
0.0615102363767532,36.8727165312552,6032.8943777639,53.805776,0,2.42809390972,18500,2018-04-13 06:25:26,17,0,16.106,6032.8943777639,53.805776,0.8052984,2.42809390972,0,0,-10.961006,353.3, 4.4, 1.7,0,0,1024,1024,1684,1019,352.9,0,99,4.057,4.064,4.016,4.046,0,0,17.132,75.11,6,P-GPS,
0.0615102263650795,36.8727164179308,6034.5347977639,55.446196,0,2.45460637776,18600,2018-04-13 06:25:26,17,0,16.106,6034.5347977639,55.446196,0.8052984,2.45460637776,0,0,-10.961006,353.4, 4.3, 1.9,0,0,1024,1024,1684,1024,352.9,0,99,4.057,4.064,4.016,4.046,0,0,17.132,75.11,6,P-GPS,
0.0615101988565893,36.8727163260634,6036.1752177639,57.086616,0,2.47146333368,18700,2018-04-13 06:25:26,17,0,16.106,6036.1752177639,57.086616,0.8052984,2.47146333368,0,0,-11.1847,353.3, 4.3, 1.8,0,0,1024,1024,1684,1004,352.9,0,99,4.057,4.064,4.016,4.046,0,0,17.132,75.11,6,P-GPS,
0.0615101735143367,36.8727162634656,6037.8156377639,58.727036,0,2.48150598492,18800,2018-04-13 06:25:26,17,0,16.106,6037.8156377639,58.727036,0.8052984,2.48150598492,0,0,-11.1847,353.4, 4.3, 1.5,0,0,1024,1024,1684,998,352.9,0,99,4.057,4.064,4.016,4.046,0,0,17.132,75.11,6,P-GPS,
0.061510140018465,36.8727162071104,6039.4560577639,60.367456,0,2.48805454156,18900,2018-04-13 06:25:27,17,0,16.106,6039.4560577639,60.367456,0.8052984,2.48805454156,0,0,-11.1847,353.4, 4.4, 1.6,0,0,1024,1024,1684,980,352.9,0,99,4.057,4.064,4.016,4.046,0,0,17.132,75.11,6,P-GPS,
0.0615101149795101,36.8727161622814,6041.0964777639,62.007876,0,2.49381241576,19000,2018-04-13 06:25:27,17,0,16.106,6041.0964777639,62.007876,0.8052984,2.49381241576,0,0,-11.1847,353.3, 4.3, 1.5,0,0,1024,1024,1684,990,352.9,0,99,4.057,4.064,4.016,4.046,0,0,17.132,75.11,6,P-GPS,
0.0615100589931984,36.8727161293767,6042.7368977639,63.648296,0,2.48888787492,19100,2018-04-13 06:25:27,17,0,16.106,6042.7368977639,63.648296,0.8052984,2.49381241576,0,0,-11.1847,353.1, 4.1, 1.5,0,0,1024,1024,1684,1007,352.9,0,99,4.057,4.064,4.016,4.046,0,0,17.132,75.11,6,P-GPS,
0.0615100052545465,36.8727161148843,6044.3773177639,65.288716,0,2.4797080846,19200,2018-04-13 06:25:27,17,0,16.106,6044.3773177639,65.288716,0.8052984,2.49381241576,0,0,-11.1847,352.8, 4.1, 1.3,0,0,1024,1024,1684,1024,352.8,0,99,4.057,4.064,4.016,4.046,0,0,17.132,75.11,6,P-GPS,
0.061509930681175,36.8727161269491,6046.0177377639,66.929136,0,2.4583662204,19300,2018-04-13 06:25:27,17,0,16.106,6046.0177377639,66.929136,0.8052984,2.49381241576,0,0,-11.1847,352.7, 4, 1.3,0,0,1024,1024,1684,1022,352.8,0,99,4.057,4.064,4.016,4.046,0,0,17.132,75.11,6,P-GPS,
0.0615098648448126,36.8727161469184,6047.6581577639,68.569556,0,2.43706372628,19400,2018-04-13 06:25:27,17,0,16.106,6047.6581577639,68.569556,0.8052984,2.49381241576,0,0,-11.1847,352.7, 3.9, 1.4,0,0,1024,1024,1684,1021,352.8,0,99,4.057,4.064,4.016,4.046,0,0,17.132,75.11,6,P-GPS,
0.0615097895622538,36.8727161853733,6049.2985777639,70.209976,0,2.40847448652,19500,2018-04-13 06:25:27,17,0,15.919,6049.2985777639,70.209976,0.8052984,2.49381241576,0,0,-11.1847,352.7, 3.9, 1.1,0,0,1024,1024,1684,1005,352.8,0,99,4.042,4.049,3.999,4.032,0,0,18.18,75.11,6,P-GPS,
0.0615097304595073,36.8727162262509,6050.9389977639,71.850396,0,2.38310703164,19600,2018-04-13 06:25:27,17,0,15.919,6050.9389977639,71.850396,0.8052984,2.49381241576,0,0,-11.1847,352.7, 3.8, 1,0,0,1024,1024,1684,1007,352.8,0,99,4.042,4.049,3.999,4.032,0,0,18.18,75.11,6,P-GPS,
0.0615096686995474,36.8727162675204,6052.5794177639,73.490816,0,2.3570210728,19700,2018-04-13 06:25:27,17,0,15.919,6052.5794177639,73.490816,0.8052984,2.49381241576,0,0,-11.1847,352.7, 3.8, 0.9,0,0,1024,1024,1684,1024,352.8,0,99,4.042,4.049,3.999,4.032,0,0,18.18,75.11,6,P-GPS,
0.0615096207435002,36.8727163122823,6054.2198377639,75.131236,0,2.33324154448,19800,2018-04-13 06:25:27,17,0,15.919,6054.2198377639,75.131236,0.8052984,2.49381241576,0,0,-10.961006,352.6, 3.8, 0.6,0,0,1024,1024,1684,1024,352.8,0,99,4.042,4.049,3.999,4.032,0,0,18.18,75.11,6,P-GPS,
0.0615095399274886,36.872716341991,6055.8602577639,76.771656,0,2.305938394,19900,2018-04-13 06:25:28,17,0,15.919,6055.8602577639,76.771656,0.8052984,2.49381241576,0,0,-10.961006,352.6, 3.8, 0.4,0,0,1024,1024,1684,1023,352.8,0,99,4.042,4.049,3.999,4.032,0,0,18.18,75.11,6,P-GPS,
0.0615094634639007,36.8727163643996,6057.5006777639,78.412076,0,2.28180453496,20000,2018-04-13 06:25:28,17,0,15.919,6057.5006777639,78.412076,0.8052984,2.49381241576,0,0,-10.961006,352.6, 3.6, 0.5,0,0,1024,1024,1684,1024,352.8,0,99,4.042,4.049,3.999,4.032,0,0,18.18,75.11,6,P-GPS,
0.0615093546166684,36.8727164101341,6059.1410977639,80.052496,0,2.2437336676,20100,2018-04-13 06:25:28,17,0,15.919,6059.1410977639,80.052496,0.8052984,2.49381241576,0,0,-10.961006,352.6, 3.4, 1.1,0,0,1024,1024,1684,1024,352.8,0,99,4.042,4.049,3.999,4.032,0,0,18.18,75.11,6,P-GPS,
0.0615092622000289,36.8727164663424,6060.7815177639,81.692916,0,2.20660112048,20200,2018-04-13 06:25:28,17,0,15.919,6060.7815177639,81.692916,0.8052984,2.49381241576,0,0,-10.961006,352.6, 3.1, 1.5,0,0,1024,1024,1684,1016,352.8,0,99,4.042,4.049,3.999,4.032,0,0,18.18,75.11,6,P-GPS,
0.061509153256922,36.8727165491836,6062.4219377639,83.333336,0,2.15818904544,20300,2018-04-13 06:25:28,17,0,15.919,6062.4219377639,83.333336,0.8052984,2.49381241576,0,0,-10.961006,352.6, 3.2, 1,0,0,1024,1024,1684,1016,352.8,0,99,4.042,4.049,3.999,4.032,0,0,18.18,75.11,6,P-GPS,
0.0615090741475197,36.8727166439546,6064.0623577639,84.973756,0,2.11316279728,20400,2018-04-13 06:25:28,17,0,15.919,6064.0623577639,84.973756,0.8052984,2.49381241576,0,0,-10.961006,352.6, 3.5, 0.4,0,0,1024,1024,1684,1005,352.8,0,99,4.042,4.049,3.999,4.032,0,0,18.18,75.11,6,P-GPS,
0.0615089966362317,36.8727167444435,6066.0308617639,86.94226,0,2.0668635832,20500,2018-04-13 06:25:28,17,0,16.079,6066.0308617639,86.94226,0.8052984,2.49381241576,0,0,-10.961006,352.6, 3.5, 0,0,0,1024,1024,1684,980,352.8,0,99,4.038,4.045,3.994,4.027,0,0,18.102,75.11,6,P-GPS,
0.0615089401027628,36.8727168361172,6067.6712817639,88.58268,0,2.02784455308,20600,2018-04-13 06:25:28,17,0,16.079,6067.6712817639,88.58268,0.8052984,2.49381241576,0,0,-10.961006,352.6, 3.4, 0,0,0,1024,1024,1684,980,352.8,0,99,4.038,4.045,3.994,4.027,0,0,18.102,75.11,6,P-GPS,
0.0615088514781587,36.8727169065536,6069.3117017639,90.2231,0,1.98762145468,20700,2018-04-13 06:25:28,17,0,16.079,6069.3117017639,90.2231,0.8052984,2.49381241576,0,0,-11.1847,352.5, 3.2, 0.1,0,0,1024,1024,1684,976,352.8,0,99,4.038,4.045,3.994,4.027,0,0,18.102,75.11,6,P-GPS,
0.0615087767578201,36.8727169703139,6070.9521217639,91.86352,0,1.95249021996,20800,2018-04-13 06:25:28,17,0,16.079,6070.9521217639,91.86352,0.8052984,2.49381241576,0,0,-10.961006,352.1, 3.1, 0,0,0,1024,1024,1684,987,352.6,0,99,4.038,4.045,3.994,4.027,0,0,18.102,75.11,6,P-GPS,
0.0615086760597287,36.8727170694062,6072.5925417639,93.50394,0,1.90138785612,20900,2018-04-13 06:25:29,17,0,16.079,6072.5925417639,93.50394,0.8052984,2.49381241576,0,0,-10.961006,351.7, 3.1, 0,0,0,1024,1024,1684,987,352.5,0,99,4.038,4.045,3.994,4.027,0,0,18.102,75.11,6,P-GPS,
0.0615085975850124,36.8727171704958,6074.2329617639,95.14436,0,1.85469494124,21000,2018-04-13 06:25:29,17,0,16.079,6074.2329617639,95.14436,0.8052984,2.49381241576,0,0,-10.961006,351.4, 3, 0,0,0,1024,1024,1684,1022,352.4,0,99,4.038,4.045,3.994,4.027,0,0,18.102,75.11,6,P-GPS,
0.0615085174999687,36.8727172809599,6075.8733817639,96.78478,0,1.80494428348,21100,2018-04-13 06:25:29,17,0,16.079,6075.8733817639,96.78478,0.8052984,2.49381241576,0,0,-11.1847,351.3, 3.1, -0.1,0,0,1024,1024,1684,1018,352.4,0,99,4.038,4.045,3.994,4.027,0,0,18.102,75.11,6,P-GPS,
0.0615084676089228,36.8727173714324,6077.5138017639,98.4252,0,1.76772315368,21200,2018-04-13 06:25:29,17,0,16.079,6077.5138017639,98.4252,0.8052984,2.49381241576,0,0,-11.1847,351.3, 3.2, 0,0,0,1024,1024,1684,996,352.4,0,99,4.038,4.045,3.994,4.027,0,0,18.102,75.11,6,P-GPS,
0.0615083907512515,36.8727174657739,6079.1542217639,100.06562,0,1.72333666932,21300,2018-04-13 06:25:29,17,0,16.079,6079.1542217639,100.06562,0.8052984,2.49381241576,0,0,-11.1847,351.3, 3.1, 0,0,0,1024,1024,1684,980,352.4,0,99,4.038,4.045,3.994,4.027,0,0,18.102,75.11,6,P-GPS,
0.0615083238002192,36.8727175482642,6080.7946417639,101.70604,0,1.6845801064,21400,2018-04-13 06:25:29,17,0,16.079,6080.7946417639,101.70604,0.8052984,2.49381241576,0,0,-11.1847,351.1, 3.2, -0.3,0,0,1024,1024,1684,1022,352.3,0,99,4.038,4.045,3.994,4.027,0,0,18.102,75.11,6,P-GPS,
0.0615082466129916,36.8727176392793,6082.4350617639,103.34646,0,1.64107288716,21500,2018-04-13 06:25:29,17,0,15.972,6082.4350617639,103.34646,0.8052984,2.49381241576,0,0,-11.1847,350.9, 3.2, -0.5,0,0,1024,1024,1684,1022,352.2,0,98,4.033,4.04,3.992,4.026,0,0,17.842,75.11,6,P-GPS,
0.0615081893858055,36.872717697677,6084.0754817639,104.98688,0,1.6114337786,21600,2018-04-13 06:25:29,17,0,15.972,6084.0754817639,104.98688,0.8052984,2.49381241576,0,0,-10.961006,350.9, 2.9, 0,0,0,1024,1024,1684,1009,352.2,0,98,4.033,4.04,3.992,4.026,0,0,17.842,75.11,6,P-GPS,
0.061508126697429,36.8727177639284,6085.7159017639,106.6273,0,1.57831697964,21700,2018-04-13 06:25:29,17,0,15.972,6085.7159017639,106.6273,0.8052984,2.49381241576,0,0,-11.1847,351, 2.9, 0.3,0,0,1024,1024,1684,1019,352.2,0,98,4.033,4.04,3.992,4.026,0,0,17.842,75.11,6,P-GPS,
0.0615080874963037,36.8727178151498,6087.3563217639,108.26772,0,1.55478351432,21800,2018-04-13 06:25:29,17,0,15.972,6087.3563217639,108.26772,0.8052984,2.49381241576,0,0,-10.961006,351, 3, 0.2,0,0,1024,1024,1684,1009,352.2,0,98,4.033,4.04,3.992,4.026,0,0,17.842,75.11,6,P-GPS,
0.0615080150392988,36.872717895482,6088.9967417639,109.90814,0,1.51542983852,21900,2018-04-13 06:25:30,17,0,15.972,6088.9967417639,109.90814,0.8052984,2.49381241576,0,0,-11.1847,351, 2.9, 0.1,0,0,1024,1024,1684,1006,352.2,0,98,4.033,4.04,3.992,4.026,0,0,17.842,75.11,6,P-GPS,
0.0615079577209199,36.872717952732,6090.9652457639,111.876644,0,1.4861220948,22000,2018-04-13 06:25:30,17,0,15.972,6090.9652457639,111.876644,0.8052984,2.49381241576,0,0,-11.1847,351, 3, 0.1,0,0,1024,1024,1684,998,352.1,0,98,4.033,4.04,3.992,4.026,0,0,17.842,75.11,6,P-GPS,
0.0615078891850045,36.8727180086097,6092.6056657639,113.517064,0,1.45474742188,22100,2018-04-13 06:25:30,17,0,15.972,6092.6056657639,113.517064,0.8052984,2.49381241576,0,0,-11.1847,350.9, 3, 0.3,0,0,1024,1024,1684,1013,352.1,0,98,4.033,4.04,3.992,4.026,0,0,17.842,75.11,6,P-GPS,
0.0615078474754648,36.8727180322124,6094.2460857639,115.157484,0,1.43870411428,22200,2018-04-13 06:25:30,17,0,15.972,6094.2460857639,115.157484,0.8052984,2.49381241576,0,0,-11.1847,350.9, 3, 0.5,0,0,1024,1024,1684,1007,352.1,0,98,4.033,4.04,3.992,4.026,0,0,17.842,75.11,6,P-GPS,
