latitude,longitude,altitude(feet),ascent(feet),speed(mph),distance(feet),time(millisecond),datetime(utc),satellites,gpslevel,voltage(v),max_altitude(feet),max_ascent(feet),max_speed(mph),max_distance(feet), xSpeed(mph), ySpeed(mph), zSpeed(mph), compass_heading(degrees), pitch(degrees), roll(degrees),isPhoto,isVideo,rc_elevator,rc_aileron,rc_throttle,rc_rudder,gimbal_heading(degrees),gimbal_pitch(degrees),battery_percent,voltageCell1,voltageCell2,voltageCell3,voltageCell4,voltageCell5,voltageCell6,current(A),battery_temperature(f),flycStateRaw,flycState,message
0.31373575603036,36.8846557224377,5835.7873416008,0,0,0,0,2018-03-31 06:53:16,15,0,0,5835.7873416008,0,0,0,0,0,0,49.4, 0, 4,0,0,364,364,364,1684,54,0,98,4.282,4.285,4.282,4.282,0,0,0,82.31,41,Motors_Started,
0.313735749537449,36.8846557257886,5835.7873416008,0,0,0.00266581045276,100,2018-03-31 06:53:16,15,0,0,5835.7873416008,0,0,0.00266581045276,0,0,0,49.4, 0, 4,0,0,364,364,364,1684,54,0,98,4.282,4.285,4.282,4.282,0,0,0,82.31,41,Motors_Started,
0.313735747602247,36.8846557335481,5835.7873416008,0,0,0.005087926672,200,2018-03-31 06:53:16,15,0,17.123,5835.7873416008,0,0,0.005087926672,0,0,0,49.4, 0, 4,0,0,364,364,364,1684,54,0,98,4.282,4.285,4.282,4.282,0,0,1.512,82.31,41,Motors_Started,Setting new Return-To-Home altitude to 45m (148 ft). Setting new Maximum Flight Altitude to 150m (492 ft)
0.313735779968589,36.8846557367056,5835.7873416008,0,0,0.010167487202,300,2018-03-31 06:53:16,15,0,17.123,5835.7873416008,0,0,0.010167487202,0,0,0,49.4, 0, 4,0,0,364,364,364,1684,53.9,0,98,4.282,4.285,4.282,4.282,0,0,1.512,82.31,41,Motors_Started,
0.313735809128525,36.8846557455995,5835.7873416008,0,0,0.021135663406,400,2018-03-31 06:53:16,15,0,17.123,5835.7873416008,0,0,0.021135663406,0,0,0,49.4, 0, 3.9,0,0,364,364,364,1684,54,0,98,4.282,4.285,4.282,4.282,0,0,1.512,82.31,41,Motors_Started,
0.313735828976407,36.8846557468621,5835.7873416008,0,0,0.0280665363312,500,2018-03-31 06:53:16,15,0,17.123,5835.7873416008,0,0,0.0280665363312,0,0,0,49.4, 0, 4,0,0,364,364,364,1684,53.9,0,98,4.282,4.285,4.282,4.282,0,0,1.512,82.31,41,Motors_Started,
0.313735846821711,36.884655754267,5835.7873416008,0,0,0.03510170716,600,2018-03-31 06:53:16,15,0,17.123,5835.7873416008,0,0,0.03510170716,0,0,0,49.4, 0, 3.9,0,0,364,364,364,1684,53.9,0,98,4.282,4.285,4.282,4.282,0,0,1.512,82.31,41,Motors_Started,
0.313735855093087,36.8846557546851,5835.7873416008,0,0,0.038009843736,700,2018-03-31 06:53:16,15,0,17.123,5835.7873416008,0,0,0.038009843736,0,0,0,49.4, 0, 3.9,0,0,364,364,364,1684,53.9,0,98,4.282,4.285,4.282,4.282,0,0,1.512,82.31,41,Motors_Started,
0.313735864790776,36.8846557612431,5835.7873416008,0,0,0.042131234944,800,2018-03-31 06:53:16,15,0,17.123,5835.7873416008,0,0,0.042131234944,0,0,0,49.4, -0.1, 3.9,0,0,364,364,364,1684,53.9,0,98,4.282,4.285,4.282,4.282,0,0,1.512,82.31,41,Motors_Started,
0.31373586442346,36.8846557982255,5835.7873416008,0,0,0.048254922804,900,2018-03-31 06:53:17,15,0,17.123,5835.7873416008,0,0,0.048254922804,0,0,0,49.4, 0, 4,0,0,364,364,364,1684,53.9,0,98,4.282,4.285,4.282,4.282,0,0,1.512,82.31,41,Motors_Started,
0.313735869418712,36.8846558338963,5835.7873416008,0,0,0.058009516292,1000,2018-03-31 06:53:17,15,0,17.123,5835.7873416008,0,0,0.058009516292,0,0,0,49.5, 0, 3.9,0,0,364,364,364,1684,54,0,98,4.282,4.285,4.282,4.282,0,0,1.512,82.31,41,Motors_Started,
0.313735903383372,36.8846558567816,5835.7873416008,0,0,0.072751314664,1100,2018-03-31 06:53:17,15,0,17.123,5835.7873416008,0,0,0.072751314664,0,0,0,49.4, -0.1, 4,0,0,364,364,364,1684,54,0,98,4.282,4.285,4.282,4.282,0,0,1.512,82.31,41,Motors_Started,
0.313735933210563,36.8846558779501,5835.7873416008,0,0,0.086011813776,1200,2018-03-31 06:53:17,15,0,17.123,5835.7873416008,0,0,0.086011813776,0,0,0,49.4, 0, 3.9,0,0,364,364,364,1684,54,0,98,4.282,4.285,4.282,4.281,0,0,1.508,82.31,41,Motors_Started,
0.31373595157473,36.8846558878869,5835.7873416008,0,0,0.093454399316,1300,2018-03-31 06:53:17,15,0,17.123,5835.7873416008,0,0,0.093454399316,0,0,0,49.4, 0, 3.9,0,0,364,364,364,1684,54,0,98,4.282,4.285,4.282,4.281,0,0,1.508,82.31,41,Motors_Started,
0.313735967907921,36.8846559017081,5835.7873416008,0,0,0.101260830012,1400,2018-03-31 06:53:17,15,0,17.123,5835.7873416008,0,0,0.101260830012,0,0,0,49.4, -0.1, 4,0,0,627,525,570,1563,54,0,98,4.282,4.285,4.282,4.281,0,0,1.508,82.31,41,Motors_Started,
0.313735971512991,36.8846559025952,5835.7873416008,0,0,0.102475725064,1500,2018-03-31 06:53:17,15,0,17.123,5835.7873416008,0,0,0.102475725064,0,0,0,49.4, -0.1, 4,0,0,627,525,570,1563,54,0,98,4.282,4.285,4.282,4.281,0,0,1.508,82.31,41,Motors_Started,
0.313735979991993,36.8846559100209,5835.7873416008,0,0,0.106586617584,1600,2018-03-31 06:53:17,15,0,17.123,5835.7873416008,0,0,0.106586617584,0,0,0,49.5, 0, 3.9,0,0,1024,1024,1024,1024,53.5,0,98,4.282,4.285,4.282,4.281,0,0,1.508,82.31,10,Assisted_Takeoff,
0.31373597619263,36.8846559015296,5835.7873416008,0,0,0.103545606988,1700,2018-03-31 06:53:17,15,0,17.123,5835.7873416008,0,0,0.106586617584,0,0,0,49.5, -0.1, 3.9,0,0,1024,1024,1024,1024,51.8,0,98,4.282,4.285,4.282,4.281,0,0,1.508,82.31,10,Assisted_Takeoff,
0.313735977649171,36.8846559036574,5835.7873416008,0,0,0.104447837988,1800,2018-03-31 06:53:17,15,0,17.123,5835.7873416008,0,0,0.106586617584,0,0,0,49.5, 0, 3.9,0,0,1024,1024,1024,1024,51,0,98,4.282,4.285,4.282,4.281,0,0,1.508,82.31,10,Assisted_Takeoff,
0.313735971300886,36.8846559352034,5835.7873416008,0,0,0.110429137392,1900,2018-03-31 06:53:18,15,0,17.123,5835.7873416008,0,0,0.110429137392,0,0,0,49.5, 0, 3.9,0,0,1024,1024,1024,1024,50.7,0,98,4.282,4.285,4.282,4.281,0,0,1.508,82.31,10,Assisted_Takeoff,
0.313735970002609,36.884655965768,5835.7873416008,0,0,0.11822014814,2000,2018-03-31 06:53:18,15,0,17.123,5835.7873416008,0,0,0.11822014814,0,0,0,49.4, 0, 3.9,0,0,1024,1024,1024,1024,50.4,0,98,4.282,4.285,4.282,4.281,0,0,1.508,82.31,10,Assisted_Takeoff,
0.313736001206751,36.8846559802313,5835.7873416008,0,0,0.12979987292,2100,2018-03-31 06:53:18,15,0,17.096,5835.7873416008,0,0,0.12979987292,0,0,0,49.4, 0, 3.9,0,0,1024,1024,1024,1024,50.2,0,98,4.27,4.273,4.266,4.266,0,0,1.97,82.31,10,Assisted_Takeoff,
0.313736047869305,36.8846560012349,5835.7873416008,0,0,0.147254269804,2300,2018-03-31 06:53:18,15,0,17.096,5835.7873416008,0,0,0.147254269804,0,0,0,49.4, 0, 3.9,0,0,1024,1024,1024,1024,50.1,0,98,4.27,4.273,4.266,4.266,0,0,1.97,82.31,10,Assisted_Takeoff,
0.313736066084469,36.8846560106438,5835.7873416008,0,0,0.154445543,2400,2018-03-31 06:53:18,15,0,17.096,5835.7873416008,0,0,0.154445543,0,0,0,49.4, 0, 3.9,0,0,1024,1024,1024,1024,50,0,98,4.27,4.273,4.266,4.266,0,0,1.97,82.31,10,Assisted_Takeoff,
0.313736072692084,36.8846560040582,5835.7873416008,0,0,0.15461286584,2500,2018-03-31 06:53:18,15,0,17.096,5835.7873416008,0,0,0.15461286584,0,0,0,49.4, 0, 3.9,0,0,1024,1024,1024,1024,50,0,98,4.27,4.273,4.266,4.266,0,0,1.97,82.31,10,Assisted_Takeoff,
0.313736083360631,36.8846560081101,5835.7873416008,0,0,0.158510831844,2600,2018-03-31 06:53:18,15,0,17.096,5835.7873416008,0,0,0.158510831844,0,0,0,49.4, 0, 3.9,0,0,1024,1024,1024,1024,50,0,98,4.27,4.273,4.266,4.266,0,0,1.97,82.31,10,Assisted_Takeoff,
0.31373608259852,36.8846559984614,5835.7873416008,0,0,0.156006238588,2700,2018-03-31 06:53:18,15,0,17.096,5835.7873416008,0,0,0.158510831844,0,0,0,49.4, 0, 3.9,0,0,1024,1024,1024,1024,50,0,98,4.27,4.273,4.266,4.266,0,0,1.97,82.31,10,Assisted_Takeoff,
0.31373608783071,36.8846559994975,5835.7873416008,0,0,0.157710963052,2800,2018-03-31 06:53:18,15,0,17.096,5835.7873416008,0,0,0.158510831844,0,0,0,49.4, 0, 3.9,0,0,1024,1024,1024,1024,49.9,0,98,4.27,4.273,4.266,4.266,0,0,1.97,82.31,10,Assisted_Takeoff,
0.313736082135634,36.8846559890359,5835.7873416008,0,0,0.15367782644,2900,2018-03-31 06:53:19,15,0,17.096,5835.7873416008,0,0,0.158510831844,0,0,0,49.4, 0, 3.9,0,0,1024,1024,1047,1024,49.9,0,98,4.27,4.273,4.266,4.266,0,0,1.97,82.31,10,Assisted_Takeoff,
0.313736083677567,36.8846559892224,5835.7873416008,0,0,0.15415682908,3000,2018-03-31 06:53:19,15,0,17.096,5835.7873416008,0,0,0.158510831844,0,0,0,49.4, 0, 3.9,0,0,1024,1024,1085,1024,49.9,0,98,4.27,4.273,4.266,4.266,0,0,1.97,82.31,10,Assisted_Takeoff,
0.31373607605421,36.8846560190861,5835.7873416008,0,0,0.159207026092,3100,2018-03-31 06:53:19,15,0,17.096,5835.7873416008,0,0,0.159207026092,0,0,0,49.4, 0, 3.9,0,0,1024,1024,1095,1024,49.8,0,98,4.27,4.273,4.266,4.266,0,0,1.97,82.31,10,Assisted_Takeoff,
0.313736075882206,36.8846560498428,5835.7873416008,0,0,0.166994427916,3200,2018-03-31 06:53:19,15,0,17.096,5835.7873416008,0,0,0.166994427916,0,0,0,49.4, -0.1, 3.9,0,0,1024,1024,1098,1024,49.8,0,98,4.27,4.273,4.266,4.266,0,0,2.888,82.31,10,Assisted_Takeoff,
0.313736106913631,36.8846560664357,5835.7873416008,0,0,0.17927822096,3300,2018-03-31 06:53:19,15,0,17.096,5835.7873416008,0,0,0.17927822096,0,0,0,49.4, 0, 3.9,0,0,1024,1024,1103,1024,49.8,0,98,4.27,4.273,4.266,4.266,0,0,2.888,82.31,10,Assisted_Takeoff,
0.313736136335339,36.8846560862534,5835.7873416008,0,0,0.192019691184,3400,2018-03-31 06:53:19,15,0,17.096,5835.7873416008,0,0,0.192019691184,0,0,0,49.4, 0, 3.9,0,0,1024,1024,1104,1024,49.8,0,98,4.27,4.273,4.266,4.266,0,0,2.888,82.31,10,Assisted_Takeoff,
0.313736115738169,36.884656090511,5835.7873416008,0,0,0.187769362964,3500,2018-03-31 06:53:19,15,0,17.096,5835.7873416008,0,0,0.192019691184,0,0,0,49.4, 0, 3.9,0,0,1024,1024,1099,1024,49.8,0,98,4.27,4.273,4.266,4.266,0,0,2.888,82.31,10,Assisted_Takeoff,
0.31373610453936,36.8846561023233,5835.7873416008,0,0,0.188089572948,3600,2018-03-31 06:53:19,15,0,17.096,5835.7873416008,0,0,0.192019691184,0,0,0,49.4, 0, 3.9,0,0,1024,1024,1104,1024,49.8,0,98,4.27,4.273,4.266,4.266,0,0,2.888,82.31,10,Assisted_Takeoff,
0.313736123621874,36.8846560991074,5835.7873416008,0,0,0.192022972024,3700,2018-03-31 06:53:19,15,0,17.096,5835.7873416008,0,0,0.192022972024,0,0,0,49.4, 0, 3.9,0,0,1024,1024,1122,1024,49.8,0,98,4.27,4.273,4.266,4.266,0,0,2.888,82.31,10,Assisted_Takeoff,
0.313736144382703,36.8846561059517,5835.7873416008,0,0,0.199134192724,3800,2018-03-31 06:53:19,15,0,17.096,5835.7873416008,0,0,0.199134192724,0,0,0,49.4, -0.1, 4,0,0,1024,1024,1137,1024,49.8,0,98,4.27,4.273,4.266,4.266,0,0,2.888,82.31,10,Assisted_Takeoff,
0.313736155420499,36.8846560989976,5835.7873416008,0,0,0.2002706757,3900,2018-03-31 06:53:20,15,0,17.096,5835.7873416008,0,0,0.2002706757,0,0,0,49.3, -0.1, 4,0,0,1024,1024,1139,1024,49.8,0,98,4.27,4.273,4.266,4.266,0,0,2.888,82.31,10,Assisted_Takeoff,
0.313736165918671,36.8846561040774,5835.7873416008,0,0,0.204333011788,4000,2018-03-31 06:53:20,15,0,17.096,5835.7873416008,0,0,0.204333011788,0,0,0,49.3, -0.1, 4.1,0,0,1024,1024,1143,1024,49.7,0,98,4.27,4.273,4.266,4.266,0,0,2.888,82.31,10,Assisted_Takeoff,
0.313736165301898,36.8846560983403,5835.7873416008,0,0,0.202746725648,4100,2018-03-31 06:53:20,15,0,17.096,5835.7873416008,0,0,0.204333011788,0,0,0,49.1, 0, 4,0,0,1024,1024,1146,1024,49.7,0,98,4.27,4.273,4.266,4.266,0,0,2.888,82.31,10,Assisted_Takeoff,
0.31373615734186,36.8846561179083,5835.7873416008,0,0,0.205563982956,4200,2018-03-31 06:53:20,15,0,17.096,5835.7873416008,0,0,0.205563982956,0,0,0,48.9, 0.4, 2.1,0,0,1024,1024,1156,1024,49.7,0,98,4.268,4.279,4.274,4.275,0,0,2.888,82.31,10,Assisted_Takeoff,
0.313736117026268,36.8846561859261,5835.7873416008,0,0,0.214341870376,4300,2018-03-31 06:53:20,15,0,17.096,5835.7873416008,0,0,0.214341870376,0,0,-0.223694,48.9, 0.2, -0.2,0,0,1024,1024,1163,1024,49.7,0,98,4.268,4.279,4.274,4.275,0,0,2.888,82.31,10,Assisted_Takeoff,
0.313736093766592,36.8846562534525,5835.7873416008,0,0,0.229604338056,4400,2018-03-31 06:53:20,15,0,17.096,5835.7873416008,0,0,0.229604338056,0,0,-0.447388,48.9, 0.1, -0.8,0,0,1024,1024,1180,1024,49.7,0,98,4.268,4.279,4.274,4.275,0,0,2.888,82.31,6,P-GPS,Obstacle Avoided. Revise Flight Route
0.313736100592622,36.8846562889489,5835.7873416008,0,0,0.241917002492,4500,2018-03-31 06:53:20,15,0,17.096,5835.7873416008,0,0,0.241917002492,0,0,-0.447388,48.8, 0.3, -0.5,0,0,1024,1024,1195,1024,49.7,0,98,4.268,4.279,4.274,4.275,0,0,2.888,82.31,6,P-GPS,
0.313736130296051,36.8846563240002,5835.7873416008,0,0,0.258487869164,4600,2018-03-31 06:53:20,15,0,17.096,5835.7873416008,0,0,0.258487869164,0,0,-0.671082,48.9, 0.4, -0.3,0,0,1024,1024,1198,1024,49.7,0,98,4.268,4.279,4.274,4.275,0,0,2.888,82.31,6,P-GPS,
0.313736143902312,36.8846563502877,5835.7873416008,0,0,0.269254929876,4700,2018-03-31 06:53:20,15,0,17.096,5835.7873416008,0,0,0.269254929876,0,0,-0.894776,48.9, 0.5, -0.1,0,0,1024,1024,1198,1024,49.6,0,98,4.268,4.279,4.274,4.275,0,0,2.888,82.31,6,P-GPS,
0.313736181658803,36.8846563798447,5836.1154256008,0.328084,0,0.28573327686,4800,2018-03-31 06:53:20,15,0,17.096,5836.1154256008,0.328084,0,0.28573327686,0,0,-0.894776,48.9, 0.7, -0.1,0,0,1024,1024,1225,1024,49.6,0,98,4.268,4.279,4.274,4.275,0,0,2.888,82.31,6,P-GPS,
0.313736215272941,36.8846563335706,5836.1154256008,0.328084,0,0.278907161156,4900,2018-03-31 06:53:21,15,0,17.096,5836.1154256008,0.328084,0,0.28573327686,0,0,-1.11847,48.9, 1, 0.1,0,0,1024,1024,1251,1024,49.6,0,98,4.268,4.279,4.274,4.275,0,0,2.888,82.31,6,P-GPS,
0.313736272834976,36.8846562996729,5836.4435096008,0.656168,0,0.282676518232,5000,2018-03-31 06:53:21,15,0,17.096,5836.4435096008,0.656168,0,0.28573327686,0,0,-1.11847,48.9, 1.3, 0.4,0,0,1024,1024,1270,1024,49.6,0,98,4.268,4.279,4.274,4.275,0,0,2.888,82.31,6,P-GPS,
0.31373633134965,36.8846562772518,5836.4435096008,0.656168,0,0.291606308544,5100,2018-03-31 06:53:21,15,0,17.096,5836.4435096008,0.656168,0,0.291606308544,0,0,-1.342164,48.9, 1.3, 0.5,0,0,1024,1024,1278,1024,49.6,0,98,4.268,4.279,4.274,4.275,0,0,2.888,82.31,6,P-GPS,
0.313736396920373,36.8846562578188,5836.7715936008,0.984252,0,0.304679799776,5200,2018-03-31 06:53:21,15,0,16.962,5836.7715936008,0.984252,0,0.304679799776,0,0,-1.565858,48.9, 1.3, 1,0,0,1024,1024,1285,1024,49.6,0,98,4.26,4.265,4.255,4.251,0,0,2.736,82.31,6,P-GPS,
0.313736475845761,36.8846562645553,5837.0996776008,1.312336,0,0.3287729764,5300,2018-03-31 06:53:21,14,0,16.962,5837.0996776008,1.312336,0,0.3287729764,0,0,-1.789552,48.9, 1.3, 0.9,0,0,1024,1024,1290,1024,49.6,0,98,4.26,4.265,4.255,4.251,0,0,2.736,82.31,6,P-GPS,Home Point Recorded. RTH Altitude:  45m.
0.313736541788786,36.8846562687541,5837.4277616008,1.64042,0,0.349163397,5400,2018-03-31 06:53:21,14,0,16.962,5837.4277616008,1.64042,0,0.349163397,0,0,-2.013246,48.8, 1.4, 0.5,0,0,1024,1024,1284,1024,49.6,0,98,4.26,4.265,4.255,4.251,0,0,2.736,82.31,6,P-GPS,
0.313736541784919,36.8846562606728,5837.7558456008,1.968504,0,0.3474901686,5500,2018-03-31 06:53:21,15,0,16.962,5837.7558456008,1.968504,0,0.349163397,0,0,-2.23694,48.8, 1.1, 0.2,0,0,1024,1024,1287,1024,49.6,0,98,4.26,4.265,4.255,4.251,0,0,2.736,82.31,6,P-GPS,
0.313736561245232,36.8846562373376,5838.0839296008,2.296588,0,0.34871064108,5600,2018-03-31 06:53:21,15,0,16.962,5838.0839296008,2.296588,0,0.349163397,0,0,-2.460634,48.8, 0.6, 0.6,0,0,1024,1024,1291,1024,49.5,0,98,4.26,4.265,4.255,4.251,0,0,2.736,82.31,6,P-GPS,
0.313736631538034,36.8846561779109,5838.4120136008,2.624672,0,0.36006890916,5700,2018-03-31 06:53:21,15,0,16.962,5838.4120136008,2.624672,0,0.36006890916,0,0,-2.684328,48.9, 0.3, 1.3,0,0,1024,1024,1293,1024,49.6,0,98,4.26,4.265,4.255,4.251,0,0,2.736,82.31,6,P-GPS,
0.313736715064387,36.8846561430086,5838.7400976008,2.952756,0,0.3820702222,5800,2018-03-31 06:53:21,15,0,16.962,5838.7400976008,2.952756,0,0.3820702222,0,0,-2.684328,48.8, 1.1, 1.4,0,0,1024,1024,1287,1024,49.6,0,98,4.26,4.265,4.255,4.251,0,0,2.736,82.31,6,P-GPS,
0.313736796480888,36.8846560654881,5839.3962656008,3.608924,0,0.39970801804,5900,2018-03-31 06:53:22,15,0,16.962,5839.3962656008,3.608924,0,0.39970801804,0,0,-2.908022,48.8, 1.7, 1.8,0,0,1024,1024,1292,1024,49.5,0,98,4.26,4.265,4.255,4.251,0,0,2.736,82.31,6,P-GPS,
0.313736863790992,36.8846560072381,5839.7243496008,3.937008,0,0.41730972464,6000,2018-03-31 06:53:22,15,0,16.962,5839.7243496008,3.937008,0,0.41730972464,0,0,-2.908022,48.8, 1.4, 2,0,0,1024,1024,1296,1024,49.5,0,98,4.26,4.265,4.255,4.251,0,0,2.736,82.31,6,P-GPS,
0.313736892877037,36.8846559460057,5840.0524336008,4.265092,0,0.42272311064,6100,2018-03-31 06:53:22,15,0,16.962,5840.0524336008,4.265092,0,0.42272311064,0,0,-2.908022,48.7, 0.9, 1.7,0,0,1024,1024,1300,1024,49.5,0,98,4.26,4.265,4.255,4.251,0,0,2.736,82.31,6,P-GPS,
0.313736919114934,36.8846559190332,5840.7086016008,4.92126,0,0.43037074868,6200,2018-03-31 06:53:22,15,0,16.588,5840.7086016008,4.92126,0,0.43037074868,0,0,-2.908022,48.8, 0.8, 1,0,0,1024,1024,1300,1024,49.5,0,98,4.179,4.192,4.168,4.174,0,0,12.818,82.31,6,P-GPS,
0.313736977869804,36.8846559606139,5841.0366856008,5.249344,0,0.45417652372,6300,2018-03-31 06:53:22,15,0,16.588,5841.0366856008,5.249344,0,0.45417652372,0,0,-2.908022,48.8, 0.8, 0.8,0,0,1024,1024,1312,1024,49.5,0,98,4.179,4.192,4.168,4.174,0,0,12.818,82.31,6,P-GPS,
0.313737044750813,36.8846560044712,5841.3647696008,5.577428,0,0.4813156322,6400,2018-03-31 06:53:22,15,0,16.588,5841.3647696008,5.577428,0,0.4813156322,0,0,-2.908022,48.8, 1.3, 1.2,0,0,1024,1024,1314,1024,49.5,0,98,4.179,4.192,4.168,4.174,0,0,12.818,82.31,6,P-GPS,
0.313737074324985,36.8846560140744,5842.0209376008,6.233596,0,0.49260828348,6500,2018-03-31 06:53:22,15,0,16.588,5842.0209376008,6.233596,0,0.49260828348,0,0,-2.908022,48.9, 1.9, 1.1,0,0,1024,1024,1304,1024,49.5,0,98,4.179,4.192,4.168,4.174,0,0,12.818,82.31,6,P-GPS,
0.313737093207811,36.8846560245456,5842.3490216008,6.56168,0,0.500164058,6600,2018-03-31 06:53:22,15,0,16.588,5842.3490216008,6.56168,0,0.500164058,0,0,-3.131716,48.9, 1.8, 0.8,0,0,1024,1024,1305,1024,49.5,0,98,4.179,4.192,4.168,4.174,0,0,12.818,82.31,6,P-GPS,
0.313737065638864,36.8846560070583,5843.0051896008,7.217848,0,0.48896327024,6700,2018-03-31 06:53:22,15,0,16.588,5843.0051896008,7.217848,0,0.500164058,0,0,-3.131716,48.9, 1.4, 0.9,0,0,1024,1024,1334,1024,49.5,0,98,4.179,4.192,4.168,4.174,0,0,12.818,82.31,6,P-GPS,
0.313737048104187,36.8846559933759,5843.3332736008,7.545932,0,0.48166340124,6800,2018-03-31 06:53:22,15,0,16.588,5843.3332736008,7.545932,0,0.500164058,0,0,-3.131716,48.9, 1.2, 1.2,0,0,1024,1024,1351,1024,49.5,0,98,4.179,4.192,4.168,4.174,0,0,12.818,82.31,6,P-GPS,
0.31373700255844,36.884655931132,5843.9894416008,8.2021,0,0.46112534284,6900,2018-03-31 06:53:23,15,0,16.588,5843.9894416008,8.2021,0,0.500164058,0,0,-3.131716,48.8, 0.9, 1.1,0,0,1024,1024,1374,1024,49.5,0,98,4.179,4.192,4.168,4.174,0,0,12.818,82.31,6,P-GPS,
0.313736963657559,36.8846558911835,5844.3175256008,8.530184,0,0.444881904,7000,2018-03-31 06:53:23,15,0,16.588,5844.3175256008,8.530184,0,0.500164058,0,0,-3.35541,48.8, 1.1, 0.6,0,0,1024,1024,1381,1024,49.4,0,98,4.179,4.192,4.168,4.174,0,0,12.818,82.31,6,P-GPS,
0.313736923876708,36.8846558152179,5844.9736936008,9.186352,0,0.42743111604,7100,2018-03-31 06:53:23,15,0,16.588,5844.9736936008,9.186352,0,0.500164058,0,0,-3.579104,48.9, 1.1, 0.7,0,0,1024,1024,1403,1024,49.4,0,98,4.179,4.192,4.168,4.174,0,0,12.818,82.31,6,P-GPS,
0.313736899784897,36.8846557636487,5845.3017776008,9.514436,0,0.417568911,7200,2018-03-31 06:53:23,15,0,16.507,5845.3017776008,9.514436,0,0.500164058,0,0,-3.802798,48.9, 1, 0.6,0,0,1024,1024,1407,1024,49.4,0,98,4.179,4.192,4.168,4.174,0,0,12.818,82.31,6,P-GPS,
0.313736885119741,36.8846556860117,5845.9579456008,10.170604,0,0.41216208668,7300,2018-03-31 06:53:23,15,0,16.507,5845.9579456008,10.170604,0,0.500164058,0,0,-4.026492,48.9, 0.9, 0.6,0,0,1024,1024,1421,1024,49.4,0,98,4.179,4.192,4.168,4.174,0,0,12.818,82.31,6,P-GPS,
0.313736880488242,36.8846556260805,5846.6141136008,10.826772,0,0.4117618242,7400,2018-03-31 06:53:23,15,0,16.507,5846.6141136008,10.826772,0,0.500164058,0,0,-4.47388,48.9, 0.8, 0.6,0,0,1024,1024,1444,1024,49.5,0,98,4.179,4.192,4.168,4.174,0,0,12.818,82.31,6,P-GPS,
0.313736891689494,36.8846555487688,5847.2702816008,11.48294,0,0.4191601184,7500,2018-03-31 06:53:23,15,0,16.507,5847.2702816008,11.48294,0,0.500164058,0,0,-4.697574,48.9, 0.9, 0.2,0,0,1024,1024,1457,1024,49.4,0,98,4.179,4.192,4.168,4.174,0,0,12.818,82.31,6,P-GPS,
0.31373692210089,36.8846554913296,5847.9264496008,12.139108,0,0.43371392464,7600,2018-03-31 06:53:23,15,0,16.507,5847.9264496008,12.139108,0,0.500164058,0,0,-4.921268,49, 1.6, 0.1,0,0,1024,1024,1462,1024,49.4,0,98,4.179,4.192,4.168,4.174,0,0,12.818,82.31,6,P-GPS,
0.313736967002994,36.8846554282232,5848.9107016008,13.12336,0,0.4546752114,7700,2018-03-31 06:53:23,15,0,16.507,5848.9107016008,13.12336,0,0.500164058,0,0,-5.368656,49.1, 1.7, 1.4,0,0,1024,1024,1462,1024,49.4,0,98,4.179,4.192,4.168,4.174,0,0,12.818,82.31,6,P-GPS,
0.313736991770813,36.884655346333,5849.5668696008,13.779528,0,0.47127954264,7800,2018-03-31 06:53:24,15,0,16.507,5849.5668696008,13.779528,0,0.500164058,0,0,-5.59235,49, 1, 1.9,0,0,1024,1024,1500,1024,49.4,0,98,4.179,4.192,4.168,4.174,0,0,12.818,82.31,6,P-GPS,
0.313736999885553,36.8846552112097,5850.5511216008,14.76378,0,0.49065290284,7900,2018-03-31 06:53:24,15,0,16.507,5850.5511216008,14.76378,0,0.500164058,0,0,-5.816044,48.9, 0.2, 1.2,0,0,1024,1024,1542,1024,49.4,0,98,4.179,4.192,4.168,4.174,0,0,12.818,82.31,6,P-GPS,
0.313736998498526,36.8846550911013,5851.2072896008,15.419948,0,0.50847770656,8000,2018-03-31 06:53:24,15,0,16.507,5851.2072896008,15.419948,0,0.50847770656,0,0,-6.039738,48.9, -0.9, 1.4,0,0,1024,1024,1542,1024,49.4,0,98,4.179,4.192,4.168,4.174,0,0,12.818,82.31,6,P-GPS,
0.313736998603357,36.8846549870667,5852.1915416008,16.4042,0,0.52679135544,8100,2018-03-31 06:53:24,15,0,16.507,5852.1915416008,16.4042,0,0.52679135544,0,0,-6.487126,48.8, -0.1, 1.1,0,0,1024,1024,1556,1024,49.4,0,98,4.179,4.192,4.168,4.174,0,0,12.818,82.31,6,P-GPS,
0.313737011574524,36.8846549259225,5853.1757936008,17.388452,0,0.542486894,8200,2018-03-31 06:53:24,15,0,16.481,5853.1757936008,17.388452,0,0.542486894,0,0,-6.934514,48.9, 0.7, 1,0,0,1024,1024,1605,1024,49.4,0,98,4.152,4.17,4.141,4.152,0,0,14.084,82.31,6,P-GPS,
0.313736989459847,36.8846548887273,5854.1600456008,18.372704,0,0.54317258956,8300,2018-03-31 06:53:24,15,0,16.481,5854.1600456008,18.372704,0,0.54317258956,0,0,-7.381902,48.8, 0.3, 1,0,0,1024,1024,1605,1024,49.4,0,98,4.152,4.17,4.141,4.152,0,0,14.084,82.31,6,P-GPS,
0.313736977169573,36.8846548631784,5855.4723816008,19.68504,0,0.54477363948,8400,2018-03-31 06:53:24,15,0,16.481,5855.4723816008,19.68504,0,0.54477363948,0,0,-7.82929,48.8, 0, 0.7,0,0,1024,1024,1626,1024,49.4,0,98,4.152,4.17,4.141,4.152,0,0,14.084,82.31,6,P-GPS,
0.313736976324614,36.8846548078658,5856.7847176008,20.997376,0,0.55638453224,8500,2018-03-31 06:53:24,15,0,16.481,5856.7847176008,20.997376,0,0.55638453224,0,0,-8.500372,48.9, 0.3, 0.5,0,0,1024,1024,1647,1024,49.4,0,98,4.152,4.17,4.141,4.152,0,0,14.084,82.31,6,P-GPS,
0.313737006351697,36.8846547613987,5857.7689696008,21.981628,0,0.5753609108,8600,2018-03-31 06:53:24,15,0,16.481,5857.7689696008,21.981628,0,0.5753609108,0,0,-8.94776,48.9, 0.6, 1.1,0,0,1024,1024,1663,1024,49.4,0,98,4.152,4.17,4.141,4.152,0,0,14.084,82.31,6,P-GPS,
0.313737036942424,36.8846546981177,5859.4093896008,23.622048,0,0.59838912676,8700,2018-03-31 06:53:24,15,0,16.481,5859.4093896008,23.622048,0,0.59838912676,0,0,-9.395148,48.8, 0.6, 1.4,0,0,1024,1024,1684,1024,49.4,0,98,4.152,4.17,4.141,4.152,0,0,14.084,82.31,6,P-GPS,
0.313737073735081,36.8846546537789,5860.7217256008,24.934384,0,0.61899280196,8800,2018-03-31 06:53:24,15,0,16.481,5860.7217256008,24.934384,0,0.61899280196,0,0,-9.842536,48.9, 0.8, 1.3,0,0,1024,1024,1684,1024,49.4,0,98,4.152,4.17,4.141,4.152,0,0,14.084,82.31,6,P-GPS,
0.313737117742966,36.8846545569685,5862.0340616008,26.24672,0,0.65394030964,8900,2018-03-31 06:53:25,15,0,16.481,5862.0340616008,26.24672,0,0.65394030964,0,0,-10.289924,48.9, 0.5, 0.7,0,0,1024,1024,1684,1024,49.4,0,98,4.152,4.17,4.141,4.152,0,0,14.084,82.31,6,P-GPS,
0.313737185271281,36.8846544613086,5863.6744816008,27.88714,0,0.69542981228,9000,2018-03-31 06:53:25,15,0,16.481,5863.6744816008,27.88714,0,0.69542981228,0,0,-10.513618,48.8, 0.4, 1.5,0,0,1024,1024,1684,1024,49.4,0,98,4.152,4.17,4.141,4.152,0,0,14.084,82.31,6,P-GPS,
0.313737366723503,36.8846541964797,5866.9553216008,31.16798,0,0.80950461908,9200,2018-03-31 06:53:25,15,0,16.481,5866.9553216008,31.16798,0,0.80950461908,0,0,-10.737312,48.8, 0, 2.9,0,0,1024,1024,1684,1024,49.4,0,98,4.126,4.144,4.105,4.116,0,0,16.414,82.31,6,P-GPS,
0.313737412288384,36.8846540828836,5868.2676576008,32.480316,0,0.85028217944,9300,2018-03-31 06:53:25,15,0,16.481,5868.2676576008,32.480316,0,0.85028217944,0,0,-10.737312,48.8, 0.3, 2.8,0,0,1024,1024,1684,1024,49.4,0,98,4.126,4.144,4.105,4.116,0,0,16.414,82.31,6,P-GPS,
0.313737461966104,36.8846540189208,5869.9080776008,34.120736,0,0.87958992316,9400,2018-03-31 06:53:25,15,0,16.481,5869.9080776008,34.120736,0,0.87958992316,0,0,-10.737312,48.8, 1.1, 1.9,0,0,1024,1024,1684,1024,49.4,0,98,4.126,4.144,4.105,4.116,0,0,16.414,82.31,6,P-GPS,
0.313737521091852,36.8846539019697,5871.5484976008,35.761156,0,0.92512470152,9500,2018-03-31 06:53:25,15,0,16.481,5871.5484976008,35.761156,0,0.92512470152,0,0,-10.737312,48.9, 1.4, 1.6,0,0,1024,1024,1684,1024,49.3,0,98,4.126,4.144,4.105,4.116,0,0,16.414,82.31,6,P-GPS,
0.313737589370473,36.8846537958314,5873.1889176008,37.401576,0,0.97030843,9600,2018-03-31 06:53:25,15,0,16.481,5873.1889176008,37.401576,0,0.97030843,0,0,-10.737312,48.9, 1.2, 1.9,0,0,1024,1024,1684,1024,49.3,0,98,4.126,4.144,4.105,4.116,0,0,16.414,82.31,6,P-GPS,
0.313737633286351,36.8846536768791,5874.8293376008,39.041996,0,1.01295935,9700,2018-03-31 06:53:25,15,0,16.481,5874.8293376008,39.041996,0,1.01295935,0,0,-10.737312,48.8, 0.7, 2.1,0,0,1024,1024,1684,1024,49.3,0,98,4.126,4.144,4.105,4.116,0,0,16.414,82.31,6,P-GPS,
0.313737685704131,36.8846535809429,5876.4697576008,40.682416,0,1.0517224746,9800,2018-03-31 06:53:26,15,0,16.481,5876.4697576008,40.682416,0,1.0517224746,0,0,-10.737312,48.8, 0.3, 2,0,0,1024,1024,1684,1024,49.3,0,98,4.126,4.144,4.105,4.116,0,0,16.414,82.31,6,P-GPS,
0.313737699704475,36.8846534592761,5877.7820936008,41.994752,0,1.08842851252,9900,2018-03-31 06:53:26,15,0,16.481,5877.7820936008,41.994752,0,1.08842851252,0,0,-10.737312,48.8, 0.5, 2,0,0,1024,1024,1684,1024,49.3,0,98,4.126,4.144,4.105,4.116,0,0,16.414,82.31,6,P-GPS,
0.313737749934441,36.884653372623,5879.4225136008,43.635172,0,1.12437011472,10000,2018-03-31 06:53:26,15,0,16.481,5879.4225136008,43.635172,0,1.12437011472,0,0,-10.737312,48.8, 1.1, 2.1,0,0,1024,1024,1684,1024,49.3,0,98,4.126,4.144,4.105,4.116,0,0,16.414,82.31,6,P-GPS,
0.313737795867146,36.8846532692138,5881.0629336008,45.275592,0,1.16403875116,10100,2018-03-31 06:53:26,15,0,16.481,5881.0629336008,45.275592,0,1.16403875116,0,0,-10.737312,48.9, 1.4, 2.1,0,0,1024,1024,1684,1024,49.3,0,98,4.126,4.144,4.105,4.116,0,0,16.414,82.31,6,P-GPS,
0.313737854466704,36.8846531781863,5882.7033536008,46.916012,0,1.20325463168,10200,2018-03-31 06:53:26,15,0,16.293,5882.7033536008,46.916012,0,1.20325463168,0,0,-10.737312,48.8, 1.5, 2,0,0,1024,1024,1684,1024,49.3,0,98,4.084,4.11,4.077,4.091,0,0,19.882,82.31,6,P-GPS,
0.313737894422206,36.8846530440174,5884.3437736008,48.556432,0,1.25045279592,10300,2018-03-31 06:53:26,15,0,16.293,5884.3437736008,48.556432,0,1.25045279592,0,0,-10.737312,48.8, 1.4, 2.4,0,0,1024,1024,1684,1024,49.3,0,98,4.084,4.11,4.077,4.091,0,0,19.882,82.31,6,P-GPS,
0.313737952499439,36.8846529219406,5885.9841936008,50.196852,0,1.29852694444,10400,2018-03-31 06:53:26,15,0,16.293,5885.9841936008,50.196852,0,1.29852694444,0,0,-10.961006,48.8, 0.8, 2.6,0,0,1024,1024,1684,1024,49.3,0,98,4.084,4.11,4.077,4.091,0,0,19.882,82.31,6,P-GPS,
0.313737998361715,36.8846527805894,5887.6246136008,51.837272,0,1.34956041064,10500,2018-03-31 06:53:26,15,0,16.293,5887.6246136008,51.837272,0,1.34956041064,0,0,-10.961006,48.8, 0.8, 2.9,0,0,1024,1024,1684,1029,49.3,0,98,4.084,4.11,4.077,4.091,0,0,19.882,82.31,6,P-GPS,
0.31373806284199,36.8846526748327,5889.2650336008,53.477692,0,1.39451776116,10600,2018-03-31 06:53:26,15,0,16.293,5889.2650336008,53.477692,0,1.39451776116,0,0,-10.961006,48.8, 1.3, 2.7,0,0,1024,1024,1684,1024,49.3,0,98,4.084,4.11,4.077,4.091,0,0,19.882,82.31,6,P-GPS,
0.313738139488778,36.8846525724018,5890.9054536008,55.118112,0,1.441190991,10700,2018-03-31 06:53:26,15,0,16.293,5890.9054536008,55.118112,0,1.441190991,0,0,-11.1847,48.8, 1.7, 2.4,0,0,1024,1024,1684,1024,49.3,0,98,4.084,4.11,4.077,4.091,0,0,19.882,82.31,6,P-GPS,
0.313738213186047,36.8846524759576,5892.5458736008,56.758532,0,1.48547576932,10800,2018-03-31 06:53:26,15,0,16.293,5892.5458736008,56.758532,0,1.48547576932,0,0,-11.1847,48.8, 1.6, 2.6,0,0,1024,1024,1684,1024,49.3,0,98,4.084,4.11,4.077,4.091,0,0,19.882,82.31,6,P-GPS,
0.3137382469156,36.8846523201823,5894.1862936008,58.398952,0,1.53841540356,10900,2018-03-31 06:53:27,15,0,16.293,5894.1862936008,58.398952,0,1.53841540356,0,0,-11.408394,48.8, 1.3, 3,0,0,1024,1024,1684,1024,49.3,0,98,4.084,4.11,4.077,4.091,0,0,19.882,82.31,6,P-GPS,
0.313738275792798,36.8846521842879,5895.8267136008,60.039372,0,1.58478023444,11000,2018-03-31 06:53:27,15,0,16.293,5895.8267136008,60.039372,0,1.58478023444,0,0,-11.408394,48.8, 0.7, 3.5,0,0,1024,1024,1684,1024,49.3,0,98,4.084,4.11,4.077,4.091,0,0,19.882,82.31,6,P-GPS,
0.313738306432786,36.8846520607589,5897.7952176008,62.007876,0,1.62806435656,11100,2018-03-31 06:53:27,15,0,16.293,5897.7952176008,62.007876,0,1.62806435656,0,0,-11.408394,48.8, 0.4, 3.5,0,0,1024,1024,1684,1024,49.3,0,98,4.084,4.11,4.077,4.091,0,0,19.882,82.31,6,P-GPS,
0.313738330642048,36.8846519848856,5899.4356376008,63.648296,0,1.65584979052,11200,2018-03-31 06:53:27,15,0,16.293,5899.4356376008,63.648296,0,1.65584979052,0,0,-11.632088,48.9, 0.4, 2.8,0,0,1024,1024,1684,1024,49.3,0,98,4.084,4.11,4.077,4.091,0,0,19.882,82.31,6,P-GPS,
0.313738318427904,36.8846518880822,5901.4041416008,65.6168,0,1.68257223232,11300,2018-03-31 06:53:27,15,0,16.293,5901.4041416008,65.6168,0,1.68257223232,0,0,-11.632088,48.9, 0.7, 2.5,0,0,1024,1024,1684,1024,49.3,0,98,4.084,4.11,4.077,4.091,0,0,19.882,82.31,6,P-GPS,
0.313738321683164,36.8846518148361,5903.0445616008,67.25722,0,1.70550858476,11400,2018-03-31 06:53:27,15,0,16.293,5903.0445616008,67.25722,0,1.70550858476,0,0,-11.632088,48.9, 1.1, 2.5,0,0,1024,1024,1684,1024,49.3,0,98,4.084,4.11,4.077,4.091,0,0,19.882,82.31,6,P-GPS,
0.313738309913585,36.8846517092769,5905.0130656008,69.225724,0,1.73552170908,11500,2018-03-31 06:53:27,15,0,16.293,5905.0130656008,69.225724,0,1.73552170908,0,0,-11.632088,48.9, 0.8, 3,0,0,1024,1024,1684,1024,49.3,0,98,4.084,4.11,4.077,4.091,0,0,19.882,82.31,6,P-GPS,
0.313738303218237,36.8846516244283,5906.6534856008,70.866144,0,1.76042656552,11600,2018-03-31 06:53:27,15,0,16.293,5906.6534856008,70.866144,0,1.76042656552,0,0,-11.408394,48.9, 0.5, 3.2,0,0,1024,1024,1684,1024,49.3,0,98,4.084,4.11,4.077,4.091,0,0,19.882,82.31,6,P-GPS,
0.31373831745898,36.8846515077815,5908.2939056008,72.506564,0,1.79940294472,11700,2018-03-31 06:53:27,15,0,16.293,5908.2939056008,72.506564,0,1.79940294472,0,0,-11.408394,48.8, 0.5, 3.4,0,0,1024,1024,1684,1024,49.3,0,98,4.084,4.11,4.077,4.091,0,0,19.882,82.31,6,P-GPS,
0.313738335268865,36.8846514258074,5910.2624096008,74.475068,0,1.8283629194,11800,2018-03-31 06:53:27,15,0,16.293,5910.2624096008,74.475068,0,1.8283629194,0,0,-11.408394,48.9, 0.4, 3.2,0,0,1024,1024,1684,1024,49.3,0,98,4.084,4.11,4.077,4.091,0,0,19.882,82.31,6,P-GPS,
0.313738342098559,36.8846513283183,5911.9028296008,76.115488,0,1.86021003328,11900,2018-03-31 06:53:28,15,0,16.293,5911.9028296008,76.115488,0,1.86021003328,0,0,-11.408394,48.9, 0.5, 3.2,0,0,1024,1024,1684,1024,49.3,0,98,4.084,4.11,4.077,4.091,0,0,19.882,82.31,6,P-GPS,
0.313738358111863,36.8846512596528,5913.8713336008,78.083992,0,1.88478024404,12000,2018-03-31 06:53:28,15,0,16.293,5913.8713336008,78.083992,0,1.88478024404,0,0,-11.408394,48.9, 0.3, 3.5,0,0,1024,1024,1684,1024,49.3,0,98,4.084,4.11,4.077,4.091,0,0,19.882,82.31,6,P-GPS,
0.313738370387481,36.8846511734012,5915.5117536008,79.724412,0,1.91425859144,12100,2018-03-31 06:53:28,15,0,16.293,5915.5117536008,79.724412,0,1.91425859144,0,0,-11.408394,48.8, 0.7, 3.6,0,0,1024,1024,1684,1024,49.3,0,98,4.084,4.11,4.077,4.091,0,0,19.882,82.31,6,P-GPS,
0.313738380135754,36.8846511312295,5917.4802576008,81.692916,0,1.92937670216,12200,2018-03-31 06:53:28,15,0,16.293,5917.4802576008,81.692916,0,1.92937670216,0,0,-11.1847,48.8, 0.9, 3.5,0,0,1024,1024,1684,1024,49.2,0,98,4.082,4.106,4.067,4.084,0,0,18.452,82.31,6,P-GPS,
0.313738361089473,36.8846510544216,5919.1206776008,83.333336,0,1.9503609548,12300,2018-03-31 06:53:28,15,0,16.293,5919.1206776008,83.333336,0,1.9503609548,0,0,-11.1847,48.9, 0.7, 3.4,0,0,1024,1024,1684,1024,49.3,0,98,4.082,4.106,4.067,4.084,0,0,18.452,82.31,6,P-GPS,
0.31373833772863,36.884651024141,5921.0891816008,85.30184,0,1.95589573188,12400,2018-03-31 06:53:28,15,0,16.293,5921.0891816008,85.30184,0,1.95589573188,0,0,-11.1847,48.9, 0.5, 2.9,0,0,1024,1024,1684,1024,49.2,0,98,4.082,4.106,4.067,4.084,0,0,18.452,82.31,6,P-GPS,
0.313738309480419,36.884650988834,5922.7296016008,86.94226,0,1.96228024652,12500,2018-03-31 06:53:28,15,0,16.293,5922.7296016008,86.94226,0,1.96228024652,0,0,-11.1847,48.9, 0.8, 2.9,0,0,1024,1024,1684,1024,49.2,0,98,4.082,4.106,4.067,4.084,0,0,18.452,82.31,6,P-GPS,
0.313738287531843,36.8846509991282,5924.3700216008,88.58268,0,1.95518050876,12600,2018-03-31 06:53:28,15,0,16.293,5924.3700216008,88.58268,0,1.96228024652,0,0,-10.961006,48.9, 1.3, 2.5,0,0,1024,1024,1684,1024,49.2,0,98,4.082,4.106,4.067,4.084,0,0,18.452,82.31,6,P-GPS,
0.313738225827251,36.8846510144377,5926.3385256008,90.551184,0,1.9396982248,12700,2018-03-31 06:53:28,15,0,16.293,5926.3385256008,90.551184,0,1.96228024652,0,0,-11.1847,48.9, 1.4, 1.9,0,0,1024,1024,1684,1024,49.2,0,98,4.082,4.106,4.067,4.084,0,0,18.452,82.31,6,P-GPS,
0.31373817693037,36.8846510394344,5927.9789456008,92.191604,0,1.92336948412,12800,2018-03-31 06:53:28,15,0,16.293,5927.9789456008,92.191604,0,1.96228024652,0,0,-11.1847,48.9, 1.2, 2.2,0,0,1024,1024,1684,1024,49.2,0,98,4.082,4.106,4.067,4.084,0,0,18.452,82.31,6,P-GPS,
0.313738099796677,36.8846509937763,5929.9474496008,94.160108,0,1.92552171516,12900,2018-03-31 06:53:29,15,0,16.293,5929.9474496008,94.160108,0,1.96228024652,0,0,-11.408394,48.9, 1.1, 1.8,0,0,1024,1024,1684,1024,49.2,0,98,4.082,4.106,4.067,4.084,0,0,18.452,82.31,6,P-GPS,
0.313738044777661,36.88465096852,5931.9159536008,96.128612,0,1.92498693824,13000,2018-03-31 06:53:29,15,0,16.293,5931.9159536008,96.128612,0,1.96228024652,0,0,-11.408394,48.9, 1, 1.9,0,0,1024,1024,1684,1024,49.2,0,98,4.082,4.106,4.067,4.084,0,0,18.452,82.31,6,P-GPS,
0.313737988825954,36.8846509034538,5933.5563736008,97.769032,0,1.93773300164,13100,2018-03-31 06:53:29,15,0,16.293,5933.5563736008,97.769032,0,1.96228024652,0,0,-11.408394,48.9, 0.6, 2.4,0,0,1024,1024,1684,1024,49.2,0,98,4.082,4.106,4.067,4.084,0,0,18.452,82.31,6,P-GPS,
0.313737948042795,36.8846508638125,5935.5248776008,99.737536,0,1.9447015058,13200,2018-03-31 06:53:29,15,0,16.267,5935.5248776008,99.737536,0,1.96228024652,0,0,-11.1847,48.8, 0.4, 2.4,0,0,1024,1024,1684,1024,49.2,0,98,4.082,4.108,4.071,4.088,0,0,18.268,84.11,6,P-GPS,
0.313737899572974,36.8846508234587,5937.1652976008,101.377956,0,1.95097447188,13300,2018-03-31 06:53:29,15,0,16.267,5937.1652976008,101.377956,0,1.96228024652,0,0,-11.1847,48.9, 0.5, 2.6,0,0,1024,1024,1684,1024,49.2,0,98,4.082,4.108,4.071,4.088,0,0,18.268,84.11,6,P-GPS,
0.313737860199641,36.8846508208144,5939.1338016008,103.34646,0,1.9461450754,13400,2018-03-31 06:53:29,15,0,16.267,5939.1338016008,103.34646,0,1.96228024652,0,0,-11.1847,48.9, 0.8, 2.4,0,0,1024,1024,1684,1024,49.2,0,98,4.082,4.108,4.071,4.088,0,0,18.268,84.11,6,P-GPS,
0.313737797337224,36.8846507879386,5940.7742216008,104.98688,0,1.94829074476,13500,2018-03-31 06:53:29,15,0,16.267,5940.7742216008,104.98688,0,1.96228024652,0,0,-11.1847,48.9, 0.5, 2.4,0,0,1024,1024,1684,1024,49.2,0,98,4.082,4.108,4.071,4.088,0,0,18.268,84.11,6,P-GPS,
0.313737739655702,36.8846507927236,5942.7427256008,106.955384,0,1.93872381532,13600,2018-03-31 06:53:29,15,0,16.267,5942.7427256008,106.955384,0,1.96228024652,0,0,-11.1847,48.9, 0.5, 1.9,0,0,1024,1024,1684,1024,49.2,0,98,4.082,4.108,4.071,4.088,0,0,18.268,84.11,6,P-GPS,
0.313737633174396,36.8846508047683,5944.3831456008,108.595804,0,1.92045281736,13700,2018-03-31 06:53:29,15,0,16.267,5944.3831456008,108.595804,0,1.96228024652,0,0.223694,-10.961006,48.9, 0.7, 1.5,0,0,1024,1024,1684,1024,49.2,0,98,4.082,4.108,4.071,4.088,0,0,18.268,84.11,6,P-GPS,
0.313737556438043,36.8846508412369,5946.3516496008,110.564308,0.223694,1.89815950956,13800,2018-03-31 06:53:29,15,0,16.267,5946.3516496008,110.564308,0.223694,1.96228024652,0,0.223694,-11.1847,48.9, 0.9, 1.1,0,0,1024,1024,1684,1024,49.2,0,98,4.082,4.108,4.071,4.088,0,0,18.268,84.11,6,P-GPS,
0.313737493071827,36.8846508481208,5947.9920696008,112.204728,0,1.88791672708,13900,2018-03-31 06:53:30,15,0,16.267,5947.9920696008,112.204728,0.223694,1.96228024652,0,0,-11.1847,48.9, 1, 1.4,0,0,1024,1024,1684,1024,49.2,0,98,4.082,4.108,4.071,4.088,0,0,18.268,84.11,6,P-GPS,
0.313737464614972,36.8846508668722,5949.9605736008,114.173232,0,1.8780020286,14000,2018-03-31 06:53:30,15,0,16.267,5949.9605736008,114.173232,0.223694,1.96228024652,0,0,-10.961006,48.9, 1, 2,0,0,1024,1024,1684,1024,49.2,0,98,4.082,4.108,4.071,4.088,0,0,18.268,84.11,6,P-GPS,
0.313737436693467,36.8846508953805,5951.6009936008,115.813652,0.223694,1.86481961348,14100,2018-03-31 06:53:30,15,0,16.267,5951.6009936008,115.813652,0.223694,1.96228024652,0,0.223694,-10.961006,48.9, 1.2, 1.9,0,0,1024,1024,1684,1024,49.2,0,98,4.082,4.108,4.071,4.088,0,0,18.268,84.11,6,P-GPS,
0.313737425907876,36.8846509478914,5953.2414136008,117.454072,0,1.84543641076,14200,2018-03-31 06:53:30,15,0,16.267,5953.2414136008,117.454072,0.223694,1.96228024652,0,0,-10.961006,48.9, 1.6, 1.7,0,0,1024,1024,1684,1024,49.2,0,98,4.082,4.108,4.071,4.088,0,0,18.268,84.11,6,P-GPS,
0.313737428913983,36.8846509612684,5955.2099176008,119.422576,0,1.8411910038,14300,2018-03-31 06:53:30,15,0,16.267,5955.2099176008,119.422576,0.223694,1.96228024652,0,0,-11.1847,48.9, 1.7, 1.8,0,0,1024,1024,1684,1024,49.2,0,98,4.082,4.108,4.071,4.088,0,0,18.268,84.11,6,P-GPS,
0.313737439954426,36.8846509846983,5956.8503376008,121.062996,0,1.83447512432,14400,2018-03-31 06:53:30,15,0,16.267,5956.8503376008,121.062996,0.223694,1.96228024652,0,0,-11.408394,48.9, 1.5, 1.7,0,0,1024,1024,1684,1024,49.2,0,98,4.082,4.108,4.071,4.088,0,0,18.268,84.11,6,P-GPS,
0.313737425444583,36.8846510005516,5958.8188416008,123.0315,0,1.82725399548,14500,2018-03-31 06:53:30,15,0,16.267,5958.8188416008,123.0315,0.223694,1.96228024652,0,0,-11.408394,48.9, 1.3, 1.7,0,0,1024,1024,1684,1024,49.2,0,98,4.082,4.108,4.071,4.088,0,0,18.268,84.11,6,P-GPS,
0.313737445395261,36.8846510302209,5960.7873456008,125.000004,0,1.8195046514,14600,2018-03-31 06:53:30,15,0,16.267,5960.7873456008,125.000004,0.223694,1.96228024652,0,0,-11.408394,48.9, 1.4, 2.1,0,0,1024,1024,1684,1024,49.2,0,98,4.082,4.108,4.071,4.088,0,0,18.268,84.11,6,P-GPS,
0.313737478919834,36.8846510345546,5962.4277656008,126.640424,0,1.82220150188,14700,2018-03-31 06:53:30,15,0,16.267,5962.4277656008,126.640424,0.223694,1.96228024652,0,0,-11.408394,49, 1.8, 2.6,0,0,1024,1024,1684,1024,49.2,0,98,4.082,4.108,4.071,4.088,0,0,18.268,84.11,6,P-GPS,
0.313737533683999,36.8846510685619,5964.3962696008,128.608928,0.223694,1.81759192168,14800,2018-03-31 06:53:30,15,0,16.267,5964.3962696008,128.608928,0.223694,1.96228024652,0,0.223694,-11.1847,48.9, 2.3, 3,0,0,1024,1024,1684,1024,49.2,0,98,4.082,4.108,4.071,4.088,0,0,18.268,84.11,6,P-GPS,
0.313737591487043,36.8846511299689,5966.0366896008,130.249348,0.223694,1.80440294488,14900,2018-03-31 06:53:31,15,0,16.267,5966.0366896008,130.249348,0.223694,1.96228024652,0,0.223694,-11.1847,48.9, 2.9, 3.2,0,0,1024,1024,1684,1024,49.2,0,98,4.082,4.108,4.071,4.088,0,0,18.268,84.11,6,P-GPS,
0.313737635218093,36.8846512174801,5967.6771096008,131.889768,0.223694,1.78087604124,15000,2018-03-31 06:53:31,15,0,16.267,5967.6771096008,131.889768,0.223694,1.96228024652,0,0.223694,-11.1847,49, 3.2, 2.8,0,0,1024,1024,1684,1024,49.2,0,98,4.082,4.108,4.071,4.088,0,0,18.268,84.11,6,P-GPS,
0.313737648251548,36.8846513037799,5969.6456136008,133.858272,0.223694,1.7537238094,15100,2018-03-31 06:53:31,15,0,16.267,5969.6456136008,133.858272,0.223694,1.96228024652,0,0.223694,-10.961006,49, 2.9, 0.9,0,0,1024,1024,1684,1024,49.2,0,98,4.082,4.108,4.071,4.088,0,0,18.268,84.11,6,P-GPS,
0.313737673760512,36.8846513810915,5971.2860336008,135.498692,0,1.73157157772,15200,2018-03-31 06:53:31,15,0,16.267,5971.2860336008,135.498692,0.223694,1.96228024652,0,0,-10.961006,48.9, 2.1, 0,0,0,1024,1024,1684,942,49.2,0,98,4.082,4.108,4.071,4.088,0,0,18.268,84.11,6,P-GPS,
0.313737802235177,36.8846514701144,5974.8949576008,139.107616,0,1.72171265352,15400,2018-03-31 06:53:31,15,0,16.267,5974.8949576008,139.107616,0.223694,1.96228024652,0,0,-11.1847,48.9, 3.2, 3.8,0,0,1024,1024,1684,897,49,0,98,4.082,4.108,4.071,4.088,0,0,18.268,84.11,6,P-GPS,
0.313737879202768,36.8846514674775,5976.5353776008,140.748036,0,1.73493443872,15500,2018-03-31 06:53:31,15,0,16.267,5976.5353776008,140.748036,0.223694,1.96228024652,0,0,-11.1847,48.3, 3.4, 3.2,0,0,1024,1024,1684,959,48.4,0,98,4.082,4.108,4.071,4.088,0,0,18.268,84.11,6,P-GPS,
0.313737911410948,36.8846514798423,5978.1757976008,142.388456,0,1.73619100044,15600,2018-03-31 06:53:31,15,0,16.267,5978.1757976008,142.388456,0.223694,1.96228024652,0,0,-10.961006,47, 2.9, 2.5,0,0,1024,1024,1684,942,47.9,0,98,4.082,4.108,4.071,4.088,0,0,18.268,84.11,6,P-GPS,
0.313737845557894,36.8846514485393,5979.8162176008,144.028876,0,1.73569231276,15700,2018-03-31 06:53:31,15,0,16.267,5979.8162176008,144.028876,0.223694,1.96228024652,0,0,-11.1847,46.2, 2.3, 2.5,0,0,1024,1024,1684,932,47.6,0,98,4.082,4.108,4.071,4.088,0,0,18.268,84.11,6,P-GPS,
0.313737772511188,36.8846514406378,5981.7847216008,145.99738,0,1.72676186628,15800,2018-03-31 06:53:31,15,0,16.267,5981.7847216008,145.99738,0.223694,1.96228024652,0,0,-11.1847,45.5, 2.5, 2,0,0,1024,1024,1684,927,47.1,0,98,4.082,4.108,4.071,4.088,0,0,18.268,84.11,6,P-GPS,
0.313737655866559,36.8846513871693,5983.4251416008,147.6378,0.223694,1.72691278492,15900,2018-03-31 06:53:32,15,0,16.267,5983.4251416008,147.6378,0.223694,1.96228024652,-0.223694,0,-10.961006,44.6, 1.5, 1.5,0,0,1024,1024,1684,936,46.6,0,98,4.082,4.108,4.071,4.088,0,0,18.268,84.11,6,P-GPS,
0.313737539523803,36.8846513389766,5985.0655616008,149.27822,0.223694,1.7265912626,16000,2018-03-31 06:53:32,15,0,16.267,5985.0655616008,149.27822,0.223694,1.96228024652,-0.223694,0,-10.961006,43.6, 0.4, 1.6,0,0,1024,1024,1684,943,46,0,98,4.082,4.108,4.071,4.088,0,0,18.268,84.11,6,P-GPS,
0.313737425964464,36.8846512474711,5986.7059816008,150.91864,0,1.74264441272,16100,2018-03-31 06:53:32,15,0,16.267,5986.7059816008,150.91864,0.223694,1.96228024652,0,0,-10.961006,42.7, 0.2, 1.5,0,0,1024,1024,1684,938,45.4,0,98,4.082,4.108,4.071,4.088,0,0,18.268,84.11,6,P-GPS,
0.313737332116626,36.8846511940068,5988.3464016008,152.55906,0,1.74937997724,16200,2018-03-31 06:53:32,15,0,16.24,5988.3464016008,152.55906,0.223694,1.96228024652,0,0,-10.737312,41.8, 0, 1.3,0,0,1024,1024,1684,942,44.8,0,98,4.076,4.1,4.061,4.079,0,0,17.98,84.11,6,P-GPS,
0.313737251350078,36.8846510907526,5991.6272416008,155.8399,0,1.77572840328,16400,2018-03-31 06:53:32,15,0,16.24,5991.6272416008,155.8399,0.223694,1.96228024652,0,0,-10.961006,40.1, 0.1, 0.9,0,0,1024,1024,1684,946,44.1,0,98,4.076,4.1,4.061,4.079,0,0,17.98,84.11,6,P-GPS,
0.313737233425795,36.8846510336307,5993.5957456008,157.808404,0,1.79359585792,16500,2018-03-31 06:53:32,15,0,16.24,5993.5957456008,157.808404,0.223694,1.96228024652,0,0,-10.961006,39.3, 0.3, 1.2,0,0,1024,1024,1684,948,43.4,0,98,4.076,4.1,4.061,4.079,0,0,17.98,84.11,6,P-GPS,
0.313737247972278,36.8846510060095,5995.2361656008,159.448824,0,1.80480320736,16600,2018-03-31 06:53:32,15,0,16.24,5995.2361656008,159.448824,0.223694,1.96228024652,0,0,-11.1847,38.5, 0.9, 1.6,0,0,1024,1024,1684,950,42.8,0,98,4.076,4.1,4.061,4.079,0,0,17.98,84.11,6,P-GPS,
0.313737277135675,36.8846509217609,5996.8765856008,161.089244,0,1.8373196126,16700,2018-03-31 06:53:32,15,0,16.24,5996.8765856008,161.089244,0.223694,1.96228024652,0,0,-11.1847,37.8, 1.4, 1.9,0,0,1024,1024,1684,995,42,0,98,4.076,4.1,4.061,4.079,0,0,17.98,84.11,6,P-GPS,
0.313737326452083,36.8846508736523,5998.8450896008,163.057748,0,1.85952433772,16800,2018-03-31 06:53:32,15,0,16.24,5998.8450896008,163.057748,0.223694,1.96228024652,0,0,-11.408394,37.1, 1.9, 2.1,0,0,1024,1024,1684,1024,41.4,0,98,4.076,4.1,4.061,4.079,0,0,17.98,84.11,6,P-GPS,
0.313737407414451,36.8846507941272,6000.4855096008,164.698168,0,1.89632552,16900,2018-03-31 06:53:33,15,0,16.24,6000.4855096008,164.698168,0.223694,1.96228024652,0,0,-11.1847,36.7, 2.1, 2.6,0,0,1024,1024,1684,1024,41,0,98,4.076,4.1,4.061,4.079,0,0,17.98,84.11,6,P-GPS,
0.313737481943855,36.8846507550576,6002.1259296008,166.338588,0,1.91859914276,17000,2018-03-31 06:53:33,15,0,16.24,6002.1259296008,166.338588,0.223694,1.96228024652,0,0,-11.1847,36.7, 2.3, 2.6,0,0,1024,1024,1684,1024,40.7,0,98,4.076,4.1,4.061,4.079,0,0,17.98,84.11,6,P-GPS,
0.313737539772547,36.8846506967762,6003.7663496008,167.979008,0,1.9456529494,17100,2018-03-31 06:53:33,15,0,16.24,6003.7663496008,167.979008,0.223694,1.96228024652,0,0,-11.1847,36.7, 2.6, 2.3,0,0,1024,1024,1684,1023,40.4,0,98,4.076,4.1,4.061,4.079,0,0,17.98,84.11,6,P-GPS,
0.313737580428484,36.8846506688076,6005.4067696008,169.619428,0,1.96025924908,17200,2018-03-31 06:53:33,15,0,16.213,6005.4067696008,169.619428,0.223694,1.96228024652,0,0,-10.961006,36.7, 2.5, 2.2,0,0,1024,1024,1684,1024,40.2,0,98,4.081,4.104,4.067,4.085,0,0,16.712,84.11,6,P-GPS,
0.31373755492298,36.8846506015348,6007.0471896008,171.259848,0,1.98025924972,17300,2018-03-31 06:53:33,15,0,16.213,6007.0471896008,171.259848,0.223694,1.98025924972,0,0,-11.1847,36.7, 1.9, 1.8,0,0,1024,1024,1684,1024,40,0,98,4.081,4.104,4.067,4.085,0,0,16.712,84.11,6,P-GPS,
0.313737533256125,36.8846505607459,6008.6876096008,172.900268,0,1.991715943,17400,2018-03-31 06:53:33,15,0,16.213,6008.6876096008,172.900268,0.223694,1.991715943,0,0,-10.961006,36.7, 1.5, 1.7,0,0,1024,1024,1684,1024,39.8,0,98,4.081,4.104,4.067,4.085,0,0,16.712,84.11,6,P-GPS,
0.313737498564976,36.8846504771868,6010.6561136008,174.868772,0,2.01653877844,17500,2018-03-31 06:53:33,15,0,16.213,6010.6561136008,174.868772,0.223694,2.01653877844,0,0,-11.1847,36.7, 1.4, 1.9,0,0,1024,1024,1684,1024,39.7,0,98,4.081,4.104,4.067,4.085,0,0,16.712,84.11,6,P-GPS,
0.313737442751279,36.8846503568855,6013.9369536008,178.149612,0,2.05204074808,17700,2018-03-31 06:53:33,15,0,16.213,6013.9369536008,178.149612,0.223694,2.05204074808,0,0,-11.1847,36.7, 1.6, 2.1,0,0,1024,1024,1684,1024,39.5,0,98,4.081,4.104,4.067,4.085,0,0,16.712,84.11,6,P-GPS,
0.313737415223044,36.8846503184058,6015.5773736008,179.790032,0,2.0624672576,17800,2018-03-31 06:53:33,15,0,16.213,6015.5773736008,179.790032,0.223694,2.0624672576,0,0,-11.1847,36.7, 1.6, 2.1,0,0,1024,1024,1684,1024,39.4,0,98,4.081,4.104,4.067,4.085,0,0,16.712,84.11,6,P-GPS,
0.313737349897402,36.8846502182435,6017.2177936008,181.430452,0,2.09067591992,17900,2018-03-31 06:53:34,15,0,16.213,6017.2177936008,181.430452,0.223694,2.09067591992,0,0,-11.1847,36.7, 1.7, 2.2,0,0,1024,1024,1684,1024,39.1,0,98,4.081,4.104,4.067,4.085,0,0,16.712,84.11,6,P-GPS,
0.313737247080909,36.8846500689164,6020.4986336008,184.711292,0,2.1331857638,18100,2018-03-31 06:53:34,15,0,16.213,6020.4986336008,184.711292,0.223694,2.1331857638,0,0,-10.961006,36.6, 1.3, 2,0,0,1024,1024,1684,1053,39.1,0,98,4.081,4.104,4.067,4.085,0,0,16.712,84.11,6,P-GPS,
0.313737212698349,36.8846500232321,6022.4671376008,186.679796,0,2.14616476684,18200,2018-03-31 06:53:34,15,0,16.267,6022.4671376008,186.679796,0.223694,2.14616476684,0,0,-11.1847,36.6, 1.1, 2,0,0,1024,1024,1684,1053,38.9,0,98,4.081,4.104,4.067,4.085,0,0,16.608,84.11,6,P-GPS,
0.313737193218088,36.884649963642,6024.1075576008,188.320216,0,2.16550531864,18300,2018-03-31 06:53:34,15,0,16.267,6024.1075576008,188.320216,0.223694,2.16550531864,0,0,-11.1847,36.6, 1.3, 1.8,0,0,1024,1024,1684,1037,38.9,0,98,4.081,4.104,4.067,4.085,0,0,16.608,84.11,6,P-GPS,
0.313737185390768,36.8846499384124,6025.7479776008,189.960636,0,2.17375006956,18400,2018-03-31 06:53:34,15,0,16.267,6025.7479776008,189.960636,0.223694,2.17375006956,0,0,-11.1847,36.7, 1.4, 1.8,0,0,1024,1024,1684,1032,38.8,0,98,4.081,4.104,4.067,4.085,0,0,16.608,84.11,6,P-GPS,
0.31373715667723,36.884649885097,6027.3883976008,191.601056,0,2.19017067376,18500,2018-03-31 06:53:34,15,0,16.267,6027.3883976008,191.601056,0.223694,2.19017067376,0,0,-10.961006,36.8, 1.1, 1.8,0,0,1024,1024,1684,1043,38.7,0,98,4.081,4.104,4.067,4.085,0,0,16.608,84.11,6,P-GPS,
0.313737148963901,36.88464986799,6029.0288176008,193.241476,0,2.1955873406,18600,2018-03-31 06:53:34,15,0,16.267,6029.0288176008,193.241476,0.223694,2.1955873406,0,0,-11.1847,36.7, 1.3, 1.7,0,0,1024,1024,1684,1043,38.6,0,98,4.081,4.104,4.067,4.085,0,0,16.608,84.11,6,P-GPS,
0.313737119679796,36.8846498041346,6032.6377416008,196.8504,0,2.21583340424,18800,2018-03-31 06:53:34,15,0,16.267,6032.6377416008,196.8504,0.223694,2.21583340424,0,0,-11.1847,36.7, 1.7, 2.1,0,0,1024,1024,1684,1042,38.5,0,98,4.081,4.104,4.067,4.085,0,0,16.608,84.11,6,P-GPS,
0.313737116964569,36.8846497488905,6034.2781616008,198.49082,0,2.23525925788,18900,2018-03-31 06:53:35,15,0,16.267,6034.2781616008,198.49082,0.223694,2.23525925788,0,0,-11.408394,36.8, 2, 2.4,0,0,1024,1024,1684,1051,38.4,0,98,4.081,4.104,4.067,4.085,0,0,16.608,84.11,6,P-GPS,
0.313737086157462,36.8846497152884,6037.5590016008,201.77166,0,2.24475728968,19100,2018-03-31 06:53:35,15,0,16.24,6037.5590016008,201.77166,0.223694,2.24475728968,0,0,-10.961006,37, 1.9, 1.8,0,0,1024,1024,1684,1079,38.4,0,98,4.081,4.106,4.07,4.085,0,0,16.608,84.11,6,P-GPS,
0.313736991019489,36.8846496651462,6040.8398416008,205.0525,0,2.25543314304,19300,2018-03-31 06:53:35,15,0,16.24,6040.8398416008,205.0525,0.223694,2.25543314304,0,0,-11.1847,37.4, 1.5, 1.5,0,0,1024,1024,1684,1072,38.5,0,98,4.081,4.106,4.07,4.085,0,0,16.608,84.11,6,P-GPS,
0.313736889829608,36.8846495778872,6044.4487656008,208.661424,0,2.27964902308,19500,2018-03-31 06:53:35,15,0,16.24,6044.4487656008,208.661424,0.223694,2.27964902308,0,0,-11.1847,38.1, 0.9, 1.9,0,0,1024,1024,1684,1074,38.7,0,98,4.081,4.106,4.07,4.085,0,0,16.608,84.11,6,P-GPS,
0.313736870559416,36.8846495585271,6046.0891856008,210.301844,0,2.2853347188,19600,2018-03-31 06:53:35,15,0,16.24,6046.0891856008,210.301844,0.223694,2.2853347188,0,0,-11.1847,38.5, 1.2, 1.9,0,0,1024,1024,1684,1077,38.8,0,98,4.081,4.106,4.07,4.085,0,0,16.608,84.11,6,P-GPS,
0.313736839850219,36.8846495049125,6047.7296056008,211.942264,0,2.30263458812,19700,2018-03-31 06:53:35,15,0,16.24,6047.7296056008,211.942264,0.223694,2.30263458812,0,0,-10.961006,38.9, 1.6, 2.1,0,0,1024,1024,1684,1079,38.9,0,98,4.081,4.106,4.07,4.085,0,0,16.608,84.11,6,P-GPS,
0.313736830142047,36.8846494796182,6049.3700256008,213.582684,0,2.3111221212,19800,2018-03-31 06:53:35,15,0,16.24,6049.3700256008,213.582684,0.223694,2.3111221212,0,0,-10.961006,39.3, 1.6, 2.4,0,0,1024,1024,1684,1077,39.1,0,98,4.081,4.106,4.07,4.085,0,0,16.608,84.11,6,P-GPS,
0.313736811372397,36.8846494542719,6051.0104456008,215.223104,0,2.31909128156,19900,2018-03-31 06:53:36,15,0,16.24,6051.0104456008,215.223104,0.223694,2.31909128156,0,0,-10.961006,39.8, 1.7, 2.5,0,0,1024,1024,1684,1076,39.3,0,98,4.081,4.106,4.07,4.085,0,0,16.608,84.11,6,P-GPS,
0.313736788295107,36.8846494501566,6052.6508656008,216.863524,0,2.31918970676,20000,2018-03-31 06:53:36,15,0,16.24,6052.6508656008,216.863524,0.223694,2.31918970676,0,0,-10.961006,40.3, 1.3, 2.3,0,0,1024,1024,1684,1074,39.4,0,98,4.081,4.106,4.07,4.085,0,0,16.608,84.11,6,P-GPS,
0.31373673951466,36.8846494020132,6054.2912856008,218.503944,0,2.33372054712,20100,2018-03-31 06:53:36,15,0,16.24,6054.2912856008,218.503944,0.223694,2.33372054712,0,0,-11.1847,40.7, 0.9, 2.1,0,0,1024,1024,1684,1072,39.6,0,98,4.081,4.106,4.07,4.085,0,0,16.608,84.11,6,P-GPS,
0.31373669764594,36.8846493817244,6055.9317056008,220.144364,0,2.33874023232,20200,2018-03-31 06:53:36,15,0,16.213,6055.9317056008,220.144364,0.223694,2.33874023232,0,0,-11.1847,41.1, 0, 2.2,0,0,1024,1024,1684,1057,39.8,0,98,4.081,4.105,4.069,4.087,0,0,16.298,84.11,6,P-GPS,
0.313736631432593,36.8846493442393,6057.5721256008,221.784784,0,2.34886162372,20300,2018-03-31 06:53:36,15,0,16.213,6057.5721256008,221.784784,0.223694,2.34886162372,0,0,-11.1847,41.5, 0.1, 1.7,0,0,1024,1024,1684,1024,39.9,0,98,4.081,4.105,4.069,4.087,0,0,16.298,84.11,6,P-GPS,
0.313736601285616,36.8846493628279,6059.2125456008,223.425204,0.223694,2.34066936624,20400,2018-03-31 06:53:36,15,0,16.213,6059.2125456008,223.425204,0.223694,2.34886162372,0,0.223694,-11.1847,41.7, 0.9, 1.3,0,0,1024,1024,1684,1024,39.9,0,98,4.081,4.105,4.069,4.087,0,0,16.298,84.11,6,P-GPS,
0.313736575352442,36.8846493784275,6060.8529656008,225.065624,0.223694,2.33379600644,20500,2018-03-31 06:53:36,15,0,16.213,6060.8529656008,225.065624,0.223694,2.34886162372,0,0.223694,-11.1847,41.8, 1.5, 1.2,0,0,1024,1024,1684,1024,40,0,98,4.081,4.105,4.069,4.087,0,0,16.298,84.11,6,P-GPS,
0.313736571927621,36.8846494145626,6062.4933856008,226.706044,0.223694,2.32056109788,20600,2018-03-31 06:53:36,15,0,16.213,6062.4933856008,226.706044,0.223694,2.34886162372,0,0.223694,-11.1847,41.8, 1.6, 1.2,0,0,1024,1024,1684,1024,40,0,98,4.081,4.105,4.069,4.087,0,0,16.298,84.11,6,P-GPS,
0.313736579510267,36.8846494435778,6064.4618896008,228.674548,0,2.31042330228,20700,2018-03-31 06:53:36,15,0,16.213,6064.4618896008,228.674548,0.223694,2.34886162372,0,0,-11.1847,41.8, 1.5, 1.4,0,0,1024,1024,1684,1024,40.1,0,98,4.081,4.105,4.069,4.087,0,0,16.298,84.11,6,P-GPS,
0.313736598341796,36.8846494861364,6066.1023096008,230.314968,0,2.29593839368,20800,2018-03-31 06:53:36,15,0,16.213,6066.1023096008,230.314968,0.223694,2.34886162372,0,0,-10.961006,41.8, 1.7, 1.4,0,0,1024,1024,1684,1024,40.1,0,98,4.081,4.105,4.069,4.087,0,0,16.298,84.11,6,P-GPS,
0.313736606833521,36.8846494770835,6067.7427296008,231.955388,0,2.29962605784,20900,2018-03-31 06:53:37,16,0,16.213,6067.7427296008,231.955388,0.223694,2.34886162372,0,0,-11.1847,41.8, 1.5, 1.5,0,0,1024,1024,1684,1024,40.2,0,98,4.081,4.105,4.069,4.087,0,0,16.298,84.11,6,P-GPS,
0.313736622153515,36.8846494720983,6069.3831496008,233.595808,0,2.30218839388,21000,2018-03-31 06:53:37,16,0,16.213,6069.3831496008,233.595808,0.223694,2.34886162372,0,0,-11.1847,41.8, 1.1, 1.9,0,0,1024,1024,1684,1024,40.3,0,98,4.081,4.105,4.069,4.087,0,0,16.298,84.11,6,P-GPS,
0.313736623458306,36.8846494352138,6071.0235696008,235.236228,0,2.3155840636,21100,2018-03-31 06:53:37,16,0,16.213,6071.0235696008,235.236228,0.223694,2.34886162372,0,0,-11.1847,41.8, 1.1, 2,0,0,1024,1024,1684,1024,40.3,0,98,4.081,4.105,4.069,4.087,0,0,16.298,84.11,6,P-GPS,
0.313736641884964,36.8846494356147,6072.6639896008,236.876648,0,2.31636818436,21200,2018-03-31 06:53:37,16,0,16.267,6072.6639896008,236.876648,0.223694,2.34886162372,0,0,-11.1847,41.8, 1.2, 2.1,0,0,1024,1024,1684,1024,40.4,0,97,4.079,4.102,4.066,4.084,0,0,16.254,84.11,6,P-GPS,
0.313736606492769,36.8846494194981,6074.3044096008,238.517068,0,2.32042986428,21300,2018-03-31 06:53:37,16,0,16.267,6074.3044096008,238.517068,0.223694,2.34886162372,0,0,-10.961006,41.8, 1.1, 1.9,0,0,1024,1024,1684,1024,40.4,0,97,4.079,4.102,4.066,4.084,0,0,16.254,84.11,6,P-GPS,
0.313736592373753,36.8846494292843,6075.9448296008,240.157488,0,2.3162074232,21400,2018-03-31 06:53:37,16,0,16.267,6075.9448296008,240.157488,0.223694,2.34886162372,0,0,-11.1847,41.8, 0.9, 1.6,0,0,1024,1024,1684,1024,40.5,0,97,4.079,4.102,4.066,4.084,0,0,16.254,84.11,6,P-GPS,
0.313736573036591,36.8846493778012,6077.5852496008,241.797908,0,2.33391739752,21500,2018-03-31 06:53:37,16,0,16.267,6077.5852496008,241.797908,0.223694,2.34886162372,0,0,-11.1847,41.7, 0.8, 1.7,0,0,1024,1024,1684,1024,40.5,0,97,4.079,4.102,4.066,4.084,0,0,16.254,84.11,6,P-GPS,
0.31373658961985,36.8846493514379,6079.2256696008,243.438328,0,2.34423235848,21600,2018-03-31 06:53:37,16,0,16.267,6079.2256696008,243.438328,0.223694,2.34886162372,0,0,-11.1847,41.7, 0.9, 2,0,0,1024,1024,1684,1024,40.5,0,97,4.079,4.102,4.066,4.084,0,0,16.254,84.11,6,P-GPS,
0.313736604151678,36.8846493052382,6081.1941736008,245.406832,0,2.36163721468,21700,2018-03-31 06:53:37,16,0,16.267,6081.1941736008,245.406832,0.223694,2.36163721468,0,0,-11.1847,41.7, 1, 2.3,0,0,1024,1024,1684,1024,40.6,0,97,4.079,4.102,4.066,4.084,0,0,16.254,84.11,6,P-GPS,
0.313736640563278,36.8846492909024,6082.8345936008,247.047252,0,2.36859587632,21800,2018-03-31 06:53:37,16,0,16.267,6082.8345936008,247.047252,0.223694,2.36859587632,0,0,-11.1847,41.7, 1.2, 2.4,0,0,1024,1024,1684,1024,40.6,0,97,4.079,4.102,4.066,4.084,0,0,16.254,84.11,6,P-GPS,
0.313736691392104,36.8846492700205,6084.4750136008,248.687672,0,2.37873367192,21900,2018-03-31 06:53:38,16,0,16.267,6084.4750136008,248.687672,0.223694,2.37873367192,0,0,-11.1847,41.8, 1.3, 2.5,0,0,1024,1024,1684,1024,40.7,0,97,4.079,4.102,4.066,4.084,0,0,16.254,84.11,6,P-GPS,
0.313736805075408,36.8846492234364,6087.7558536008,251.968512,0,2.40181438132,22100,2018-03-31 06:53:38,16,0,16.267,6087.7558536008,251.968512,0.223694,2.40181438132,0,0,-11.1847,41.8, 1.3, 2.5,0,0,1024,1024,1684,1024,40.7,0,97,4.079,4.102,4.066,4.084,0,0,16.254,84.11,6,P-GPS,
0.313736864159631,36.884649200408,6089.3962736008,253.608932,0,2.41362540532,22200,2018-03-31 06:53:38,16,0,16.267,6089.3962736008,253.608932,0.223694,2.41362540532,0,0,-10.961006,41.7, 1, 2.7,0,0,1024,1024,1684,1024,40.7,0,97,4.079,4.102,4.066,4.084,0,0,16.254,84.11,6,P-GPS,
0.313736883866653,36.8846491802119,6091.0366936008,255.249352,0,2.42209981504,22300,2018-03-31 06:53:38,16,0,16.267,6091.0366936008,255.249352,0.223694,2.42209981504,0,0,-10.961006,41.8, 1.2, 3.1,0,0,1024,1024,1684,1024,40.7,0,97,4.079,4.102,4.066,4.084,0,0,16.254,84.11,6,P-GPS,
0.313736921417757,36.8846492003315,6092.6771136008,256.889772,0,2.417240891,22400,2018-03-31 06:53:38,16,0,16.267,6092.6771136008,256.889772,0.223694,2.42209981504,0,0,-10.961006,41.8, 1.3, 2.9,0,0,1024,1024,1684,1024,40.7,0,97,4.079,4.102,4.066,4.084,0,0,16.254,84.11,6,P-GPS,
0.31373695200075,36.8846492231233,6094.3175336008,258.530192,0,2.41104994592,22500,2018-03-31 06:53:38,16,0,16.267,6094.3175336008,258.530192,0.223694,2.42209981504,0,0,-10.961006,41.8, 2, 2.8,0,0,1024,1024,1684,1024,40.8,0,97,4.079,4.102,4.066,4.084,0,0,16.254,84.11,6,P-GPS,
0.313736962940637,36.8846492663313,6097.5983736008,261.811032,0,2.3962763234,22700,2018-03-31 06:53:38,16,0,16.267,6097.5983736008,261.811032,0.223694,2.42209981504,0,0,-10.737312,41.7, 1.3, 2.8,0,0,1024,1024,1684,1024,40.8,0,97,4.079,4.102,4.066,4.084,0,0,16.254,84.11,6,P-GPS,
0.313736952247866,36.8846493052018,6099.2387936008,263.451452,0,2.38162081112,22800,2018-03-31 06:53:38,16,0,16.267,6099.2387936008,263.451452,0.223694,2.42209981504,0,0,-10.961006,41.8, 1.8, 2.4,0,0,1024,1024,1684,1024,40.8,0,97,4.079,4.102,4.066,4.084,0,0,16.254,84.11,6,P-GPS,
0.313736937396457,36.8846493079516,6100.8792136008,265.091872,0,2.37964574544,22900,2018-03-31 06:53:39,17,0,16.267,6100.8792136008,265.091872,0.223694,2.42209981504,0,0,-10.961006,41.8, 2.1, 2,0,0,1024,1024,1684,1024,40.9,0,97,4.079,4.102,4.066,4.084,0,0,16.254,84.11,6,P-GPS,
0.313736881891961,36.8846492663907,6104.1600536008,268.372712,0,2.39099745184,23100,2018-03-31 06:53:39,17,0,16.267,6104.1600536008,268.372712,0.223694,2.42209981504,0,0,-11.1847,41.7, 0.5, 2.1,0,0,1024,1024,1684,1024,40.9,0,97,4.079,4.102,4.066,4.084,0,0,16.254,84.11,6,P-GPS,
0.313736873014092,36.8846492416568,6106.1285576008,270.341216,0,2.39933734712,23200,2018-03-31 06:53:39,17,0,16.24,6106.1285576008,270.341216,0.223694,2.42209981504,0,0,-11.1847,41.7, -0.2, 2.8,0,0,1024,1024,1684,1024,40.9,0,97,4.082,4.103,4.068,4.086,0,0,15.88,84.11,6,P-GPS,
0.313736877065457,36.884649164881,6107.7689776008,271.981636,0,2.42719495956,23300,2018-03-31 06:53:39,17,0,16.24,6107.7689776008,271.981636,0.223694,2.42719495956,0,0,-11.1847,41.7, 0, 3.3,0,0,1024,1024,1684,1024,40.9,0,97,4.082,4.103,4.068,4.086,0,0,15.88,84.11,6,P-GPS,
