latitude,longitude,altitude(feet),ascent(feet),speed(mph),distance(feet),time(millisecond),datetime(utc),satellites,gpslevel,voltage(v),max_altitude(feet),max_ascent(feet),max_speed(mph),max_distance(feet), xSpeed(mph), ySpeed(mph), zSpeed(mph), compass_heading(degrees), pitch(degrees), roll(degrees),isPhoto,isVideo,rc_elevator,rc_aileron,rc_throttle,rc_rudder,gimbal_heading(degrees),gimbal_pitch(degrees),battery_percent,voltageCell1,voltageCell2,voltageCell3,voltageCell4,voltageCell5,voltageCell6,current(A),battery_temperature(f),flycStateRaw,flycState,message
0.378999676727094,36.9222540794807,5318.5652384356,0,0,0,0,2018-04-15 05:37:17,17,0,0,5318.5652384356,0,0,0,0,0,0,145.1, -3.3, -0.7,0,0,364,364,364,1684,149.6,0,99,4.293,4.293,4.292,4.292,0,0,0,82.31,41,Motors_Started,
0.378999673762715,36.9222540373205,5318.5652384356,0,0,0.0154197511496,100,2018-04-15 05:37:17,17,0,17.104,5318.5652384356,0,0,0.0154197511496,0,0,0,145.1, -3.4, -0.7,0,0,364,364,364,1684,149.6,0,99,4.293,4.293,4.292,4.292,0,0,1.516,82.31,41,Motors_Started,Setting new Return-To-Home altitude to 30m (98 ft). Setting new Maximum Flight Altitude to 150m (492 ft)
0.378999667058208,36.9222539879165,5318.5652384356,0,0,0.033592192676,200,2018-04-15 05:37:17,17,0,17.104,5318.5652384356,0,0,0.033592192676,0,0,0,145, -3.4, -0.7,0,0,380,364,364,1684,149.6,0,99,4.293,4.293,4.292,4.292,0,0,1.516,82.31,41,Motors_Started,
0.378999663399298,36.9222539381838,5318.5652384356,0,0,0.0517798573,300,2018-04-15 05:37:17,17,0,17.104,5318.5652384356,0,0,0.0517798573,0,0,0,145.2, -3.3, -0.7,0,0,692,586,534,1559,149.6,0,99,4.293,4.293,4.292,4.292,0,0,1.516,82.31,41,Motors_Started,
0.378999657256196,36.9222538949412,5318.5652384356,0,0,0.067701445736,400,2018-04-15 05:37:17,17,0,17.104,5318.5652384356,0,0,0.067701445736,0,0,0,145.1, -3.3, -0.7,0,0,1021,1024,962,1186,149.4,0,99,4.293,4.293,4.292,4.292,0,0,1.516,82.31,41,Motors_Started,
0.378999654457715,36.9222538705235,5318.5652384356,0,0,0.076667981456,500,2018-04-15 05:37:17,17,0,17.104,5318.5652384356,0,0,0.076667981456,0,0,0,145.1, -3.4, -0.7,0,0,1024,1024,1024,1024,148.1,0,99,4.293,4.293,4.292,4.292,0,0,1.516,82.31,41,Motors_Started,
0.378999636596331,36.9222538311426,5318.5652384356,0,0,0.091779530496,600,2018-04-15 05:37:17,17,0,17.104,5318.5652384356,0,0,0.091779530496,0,0,0,145.1, -3.3, -0.7,0,0,1024,1024,1024,1024,148.1,0,99,4.293,4.293,4.292,4.292,0,0,1.516,82.31,41,Motors_Started,
0.378999604654605,36.9222537646675,5318.5652384356,0,0,0.117828415844,700,2018-04-15 05:37:17,17,0,17.104,5318.5652384356,0,0,0.117828415844,0,0,0,145.1, -3.4, -0.7,0,0,1024,1024,1024,1024,147,0,99,4.293,4.293,4.292,4.292,0,0,1.516,82.31,41,Motors_Started,
0.378999574592104,36.9222536992019,5318.5652384356,0,0,0.143658469164,800,2018-04-15 05:37:17,17,0,17.104,5318.5652384356,0,0,0.143658469164,0,0,0,145.1, -3.3, -0.7,0,0,1024,1024,1024,1024,146.4,0,99,4.293,4.293,4.292,4.292,0,0,1.516,82.31,41,Motors_Started,
0.378999548121951,36.9222536681816,5318.5652384356,0,0,0.157223758312,900,2018-04-15 05:37:18,17,0,17.104,5318.5652384356,0,0,0.157223758312,0,0,0,145.1, -3.4, -0.7,0,0,1024,1024,1024,1024,146.1,0,99,4.293,4.293,4.292,4.292,0,0,1.516,82.31,41,Motors_Started,
0.378999527907872,36.9222536343391,5318.5652384356,0,0,0.171242131464,1000,2018-04-15 05:37:18,17,0,17.104,5318.5652384356,0,0,0.171242131464,0,0,0,145.1, -3.4, -0.8,0,0,1024,1024,1024,1024,146,0,99,4.293,4.293,4.292,4.292,0,0,1.516,82.31,41,Motors_Started,
0.378999514497025,36.9222535925033,5318.5652384356,0,0,0.187269362948,1100,2018-04-15 05:37:18,17,0,17.13,5318.5652384356,0,0,0.187269362948,0,0,0,145, -3.5, -0.7,0,0,1024,1024,1024,1024,145.8,0,99,4.293,4.293,4.292,4.292,0,0,1.514,82.31,41,Motors_Started,
0.378999506098325,36.9222535555464,5318.5652384356,0,0,0.201034783336,1200,2018-04-15 05:37:18,17,0,17.13,5318.5652384356,0,0,0.201034783336,0,0,0,145, -3.4, -0.7,0,0,1024,1024,1024,1024,145.7,0,99,4.293,4.293,4.292,4.292,0,0,1.514,82.31,41,Motors_Started,
0.378999500384318,36.922253539093,5318.5652384356,0,0,0.207388129996,1300,2018-04-15 05:37:18,17,0,17.13,5318.5652384356,0,0,0.207388129996,0,0,0,145, -3.4, -0.7,0,0,1024,1024,1024,1024,145.7,0,99,4.293,4.293,4.292,4.292,0,0,1.514,82.31,41,Motors_Started,
0.378999496371629,36.9222535175296,5318.5652384356,0,0,0.215324153872,1400,2018-04-15 05:37:18,17,0,17.13,5318.5652384356,0,0,0.215324153872,0,0,0,145, -3.4, -0.8,0,0,1024,1024,1024,1024,145.6,0,99,4.293,4.293,4.292,4.292,0,0,1.514,82.31,41,Motors_Started,
0.378999497097101,36.9222534889331,5318.5652384356,0,0,0.22520341928,1500,2018-04-15 05:37:18,17,0,17.13,5318.5652384356,0,0,0.22520341928,0,0,0,145, -3.6, -0.8,0,0,1024,1024,1024,1024,145.6,0,99,4.293,4.293,4.292,4.292,0,0,1.514,82.31,10,Assisted_Takeoff,
0.378999497399177,36.9222534595605,5318.5652384356,0,0,0.235445873676,1600,2018-04-15 05:37:18,17,0,17.13,5318.5652384356,0,0,0.235445873676,0,0,0,145, -3.3, -0.7,0,0,1024,1024,1024,1024,145.5,0,99,4.293,4.293,4.292,4.292,0,0,1.514,82.31,10,Assisted_Takeoff,
0.378999502195555,36.9222534512835,5318.5652384356,0,0,0.23787402336,1700,2018-04-15 05:37:19,17,0,17.13,5318.5652384356,0,0,0.23787402336,0,0,0,145, -3.4, -0.8,0,0,1024,1024,1024,1024,145.5,0,99,4.293,4.293,4.292,4.292,0,0,1.514,82.31,10,Assisted_Takeoff,
0.378999508652336,36.9222534468575,5318.5652384356,0,0,0.238814312104,1800,2018-04-15 05:37:19,17,0,17.13,5318.5652384356,0,0,0.238814312104,0,0,0,145, -3.3, -0.7,0,0,1024,1024,1024,1024,145.5,0,99,4.293,4.293,4.292,4.292,0,0,1.514,82.31,10,Assisted_Takeoff,
0.378999510769516,36.9222534162773,5318.5652384356,0,0,0.249425204832,1900,2018-04-15 05:37:19,17,0,17.13,5318.5652384356,0,0,0.249425204832,0,0,0,145, -3.4, -0.7,0,0,1024,1024,1024,1024,145.4,0,99,4.293,4.293,4.292,4.292,0,0,1.514,82.31,10,Assisted_Takeoff,
0.378999501151723,36.9222533934579,5318.5652384356,0,0,0.258356963648,2000,2018-04-15 05:37:19,17,0,17.13,5318.5652384356,0,0,0.258356963648,0,0,0,145, -3.3, -0.7,0,0,1024,1024,1024,1024,145.4,0,99,4.293,4.293,4.292,4.292,0,0,1.514,82.31,10,Assisted_Takeoff,
0.378999473130476,36.9222533829765,5318.5652384356,0,0,0.264748039968,2100,2018-04-15 05:37:19,17,0,17.023,5318.5652384356,0,0,0.264748039968,0,0,0,145, -3.4, -0.7,0,0,1024,1024,1024,1024,145.4,0,99,4.293,4.293,4.292,4.292,0,0,1.514,82.31,10,Assisted_Takeoff,
0.378999442610382,36.92225336693,5318.5652384356,0,0,0.273641084872,2200,2018-04-15 05:37:19,17,0,17.023,5318.5652384356,0,0,0.273641084872,0,0,0,144.9, -3.4, -0.7,0,0,1024,1024,1024,1024,145.4,0,99,4.293,4.293,4.292,4.292,0,0,1.514,82.31,10,Assisted_Takeoff,
0.378999424262704,36.9222533390188,5318.5652384356,0,0,0.285422909396,2300,2018-04-15 05:37:19,17,0,17.023,5318.5652384356,0,0,0.285422909396,0,0,0,144.9, -3.4, -0.7,0,0,1024,1024,1024,1024,145.4,0,99,4.293,4.293,4.292,4.292,0,0,1.514,82.31,10,Assisted_Takeoff,
0.378999408326954,36.9222532997439,5318.5652384356,0,0,0.30086287052,2400,2018-04-15 05:37:19,17,0,17.023,5318.5652384356,0,0,0.30086287052,0,0,0,144.9, -3.4, -0.7,0,0,1024,1024,1024,1024,145.4,0,99,4.293,4.293,4.292,4.292,0,0,1.514,82.31,10,Assisted_Takeoff,
0.378999399235351,36.9222532575002,5318.5652384356,0,0,0.316521007504,2500,2018-04-15 05:37:19,17,0,17.023,5318.5652384356,0,0,0.316521007504,0,0,0,144.9, -3.4, -0.7,0,0,1024,1024,1024,1024,145.3,0,99,4.293,4.293,4.292,4.292,0,0,1.514,82.31,10,Assisted_Takeoff,
0.378999394279589,36.9222532030075,5318.5652384356,0,0,0.33596785852,2600,2018-04-15 05:37:19,17,0,17.023,5318.5652384356,0,0,0.33596785852,0,0,0,144.9, -3.4, -0.7,0,0,1024,1024,1024,1024,145.3,0,99,4.293,4.293,4.292,4.292,0,0,1.514,82.31,10,Assisted_Takeoff,
0.378999391247223,36.922253152307,5318.5652384356,0,0,0.35394358088,2700,2018-04-15 05:37:19,17,0,17.023,5318.5652384356,0,0,0.35394358088,0,0,0,144.9, -3.4, -0.7,0,1,1024,1024,1024,1024,145.3,0,99,4.293,4.293,4.292,4.292,0,0,1.514,82.31,10,Assisted_Takeoff,
0.378999387870644,36.9222531033761,5318.5652384356,0,0,0.371391088,2800,2018-04-15 05:37:19,17,0,17.023,5318.5652384356,0,0,0.371391088,0,0,0,144.9, -3.4, -0.7,0,1,1024,1024,1024,1024,145.3,0,99,4.293,4.293,4.292,4.292,0,0,1.514,82.31,10,Assisted_Takeoff,
0.37899939232851,36.9222530831167,5318.5652384356,0,0,0.378034789,2900,2018-04-15 05:37:20,17,0,17.023,5318.5652384356,0,0,0.378034789,0,0,0,144.9, -3.4, -0.7,0,1,1024,1024,1024,1024,145.3,0,99,4.293,4.293,4.292,4.292,0,0,1.514,82.31,10,Assisted_Takeoff,
0.378999399034442,36.9222530212506,5318.5652384356,0,0,0.39915683692,3100,2018-04-15 05:37:20,17,0,16.836,5318.5652384356,0,0,0.39915683692,0,0,0,144.9, -3.4, -0.7,0,1,1024,1024,1024,1024,145.3,0,99,4.263,4.258,4.275,4.265,0,0,3.148,82.31,10,Assisted_Takeoff,
0.378999389990064,36.9222529803045,5318.5652384356,0,0,0.41444555132,3200,2018-04-15 05:37:20,17,0,16.836,5318.5652384356,0,0,0.41444555132,0,0,0,144.9, -3.4, -0.7,0,1,1024,1024,1024,1024,145.3,0,99,4.263,4.258,4.275,4.265,0,0,3.148,82.31,10,Assisted_Takeoff,
0.378999362168506,36.9222529365213,5318.5652384356,0,0,0.43250329468,3300,2018-04-15 05:37:20,17,0,16.836,5318.5652384356,0,0,0.43250329468,0,0,0,144.9, -3.4, -0.7,0,1,1024,1024,1024,1024,145.3,0,99,4.263,4.258,4.275,4.265,0,0,3.148,82.31,10,Assisted_Takeoff,
0.378999332074454,36.922252886553,5318.5652384356,0,0,0.45303151056,3400,2018-04-15 05:37:20,17,0,16.836,5318.5652384356,0,0,0.45303151056,0,0,0,144.9, -3.4, -0.7,0,1,1024,1024,1024,1024,145.3,0,99,4.263,4.258,4.275,4.265,0,0,3.148,82.31,10,Assisted_Takeoff,
0.378999315438066,36.9222528376201,5318.5652384356,0,0,0.471866813,3500,2018-04-15 05:37:20,17,0,16.836,5318.5652384356,0,0,0.471866813,0,0,0,144.9, -3.4, -0.7,0,1,1024,1024,1024,1024,145.3,0,99,4.263,4.258,4.275,4.265,0,0,3.148,82.31,10,Assisted_Takeoff,
0.378999298722903,36.9222527909686,5318.5652384356,0,0,0.48991471384,3600,2018-04-15 05:37:20,17,0,16.836,5318.5652384356,0,0,0.48991471384,0,0,0,144.9, -3.4, -0.7,0,1,1024,1024,1024,1024,145.3,0,99,4.263,4.258,4.275,4.265,0,0,3.148,82.31,10,Assisted_Takeoff,
0.37899929231925,36.922252774755,5318.5652384356,0,0,0.49625001588,3700,2018-04-15 05:37:21,17,0,16.836,5318.5652384356,0,0,0.49625001588,0,0,0,144.9, -3.4, -0.7,0,1,1024,1024,1024,1024,145.3,0,99,4.263,4.258,4.275,4.265,0,0,3.148,82.31,10,Assisted_Takeoff,
0.378999288409153,36.9222527518233,5318.5652384356,0,0,0.50467849384,3800,2018-04-15 05:37:21,17,0,16.836,5318.5652384356,0,0,0.50467849384,0,0,0,144.9, -3.4, -0.7,0,1,1024,1024,1024,1024,145.3,0,99,4.263,4.258,4.275,4.265,0,0,3.148,82.31,10,Assisted_Takeoff,
0.378999285268902,36.9222527176264,5318.5652384356,0,0,0.51698164384,3900,2018-04-15 05:37:21,17,0,16.836,5318.5652384356,0,0,0.51698164384,0,0,0,144.9, -3.4, -0.7,0,1,1024,1024,1024,1024,145.3,0,99,4.263,4.258,4.275,4.265,0,0,3.148,82.31,10,Assisted_Takeoff,
0.37899928608577,36.9222526912355,5318.5652384356,0,0,0.52616143416,4000,2018-04-15 05:37:21,17,0,16.836,5318.5652384356,0,0,0.52616143416,0,0,0,144.9, -3.4, -0.7,0,1,1024,1024,1024,1024,145.3,0,99,4.263,4.258,4.275,4.265,0,0,3.148,82.31,10,Assisted_Takeoff,
0.378999286535221,36.9222526788355,5318.5652384356,0,0,0.53047245792,4100,2018-04-15 05:37:21,17,0,17.077,5318.5652384356,0,0,0.53047245792,0,0,0,144.9, -3.4, -0.7,0,1,1024,1024,1024,1024,145.3,0,99,4.285,4.287,4.287,4.285,0,0,1.946,82.31,10,Assisted_Takeoff,
0.378999290808258,36.9222526639131,5318.5652384356,0,0,0.53530841608,4200,2018-04-15 05:37:21,17,0,17.077,5318.5652384356,0,0,0.53530841608,0,0,0,144.9, -3.4, -0.7,0,1,1024,1024,1024,1024,145.2,0,99,4.285,4.287,4.287,4.285,0,0,1.946,82.31,10,Assisted_Takeoff,
0.378999292895109,36.9222526354752,5318.5652384356,0,0,0.5451279702,4300,2018-04-15 05:37:21,17,0,17.077,5318.5652384356,0,0,0.5451279702,0,0,0,144.9, -3.4, -0.7,0,1,1024,1024,1024,1024,145.2,0,99,4.285,4.287,4.287,4.285,0,0,1.946,82.31,10,Assisted_Takeoff,
0.37899929810043,36.9222526128657,5318.5652384356,0,0,0.5526246896,4400,2018-04-15 05:37:21,17,0,17.077,5318.5652384356,0,0,0.5526246896,0,0,0,144.9, -3.4, -0.7,0,1,1024,1024,1024,1024,145.2,0,99,4.285,4.287,4.287,4.285,0,0,1.946,82.31,10,Assisted_Takeoff,
0.378999300445593,36.922252602198,5318.5652384356,0,0,0.556184401,4500,2018-04-15 05:37:21,17,0,17.077,5318.5652384356,0,0,0.556184401,0,0,0,144.9, -3.4, -0.7,0,1,1024,1024,1024,1024,145.2,0,99,4.285,4.287,4.287,4.285,0,0,1.946,82.31,10,Assisted_Takeoff,
0.378999305339067,36.9222525867596,5318.5652384356,0,0,0.56121064788,4600,2018-04-15 05:37:21,17,0,17.077,5318.5652384356,0,0,0.56121064788,0,0,0,144.8, -3.4, -0.7,0,1,1024,1024,1024,1024,145.2,0,99,4.285,4.287,4.287,4.285,0,0,1.946,82.31,10,Assisted_Takeoff,
0.378999307590594,36.9222525569298,5318.5652384356,0,0,0.57158466396,4700,2018-04-15 05:37:21,17,0,17.077,5318.5652384356,0,0,0.57158466396,0,0,0,144.8, -3.4, -0.7,0,1,1024,1024,1024,1024,145.2,0,99,4.285,4.287,4.287,4.285,0,0,1.946,82.31,10,Assisted_Takeoff,
0.378999311939761,36.9222525181945,5318.5652384356,0,0,0.58496392948,4800,2018-04-15 05:37:21,17,0,17.077,5318.5652384356,0,0,0.58496392948,0,0,0,144.8, -3.4, -0.7,0,1,1024,1024,1024,1024,145.2,0,99,4.285,4.287,4.287,4.285,0,0,1.946,82.31,10,Assisted_Takeoff,
0.378999314058367,36.9222524757635,5318.5652384356,0,0,0.59987862812,4900,2018-04-15 05:37:22,17,0,17.077,5318.5652384356,0,0,0.59987862812,0,0,0,144.8, -3.4, -0.7,0,1,1024,1024,1024,1024,145.2,0,99,4.285,4.287,4.287,4.285,0,0,1.946,82.31,10,Assisted_Takeoff,
0.378999315844159,36.922252434902,5318.5652384356,0,0,0.6142880774,5000,2018-04-15 05:37:22,17,0,17.077,5318.5652384356,0,0,0.6142880774,0,0,0,144.8, -3.4, -0.7,0,1,1024,1024,1024,1024,145.2,0,99,4.285,4.287,4.287,4.285,0,0,1.946,82.31,10,Assisted_Takeoff,
0.378999318900138,36.9222524164594,5318.5652384356,0,0,0.62062666028,5100,2018-04-15 05:37:22,17,0,17.104,5318.5652384356,0,0,0.62062666028,0,0,0,144.8, -3.4, -0.7,0,1,1024,1024,1024,1024,145.2,0,99,4.285,4.287,4.287,4.285,0,0,1.946,82.31,10,Assisted_Takeoff,
0.378999321031771,36.92225239085,5318.5652384356,0,0,0.62960303852,5200,2018-04-15 05:37:22,17,0,17.104,5318.5652384356,0,0,0.62960303852,0,0,0,144.8, -3.4, -0.7,0,1,1024,1024,1024,1024,145.2,0,99,4.285,4.287,4.287,4.285,0,0,1.946,82.31,10,Assisted_Takeoff,
0.378999320727659,36.9222523552646,5318.5652384356,0,0,0.64233597856,5300,2018-04-15 05:37:22,17,0,17.104,5318.5652384356,0,0,0.64233597856,0,0,0,144.8, -3.4, -0.7,0,1,1024,1024,1034,1024,145.2,0,99,4.285,4.287,4.287,4.285,0,0,1.946,82.31,10,Assisted_Takeoff,
0.378999320676567,36.9222523116408,5318.5652384356,0,0,0.65793309192,5400,2018-04-15 05:37:22,17,0,17.104,5318.5652384356,0,0,0.65793309192,0,0,0,144.8, -3.4, -0.7,0,1,1024,1024,1055,1024,145.2,0,99,4.285,4.287,4.287,4.285,0,0,1.946,82.31,10,Assisted_Takeoff,
0.378999319533196,36.9222522671349,5318.5652384356,0,0,0.67394031028,5500,2018-04-15 05:37:22,17,0,17.104,5318.5652384356,0,0,0.67394031028,0,0,0,144.8, -3.4, -0.7,0,1,1024,1024,1099,1024,145.2,0,99,4.285,4.287,4.287,4.285,0,0,1.946,82.31,10,Assisted_Takeoff,
0.37899930579666,36.9222522262006,5318.5652384356,0,0,0.68956367036,5600,2018-04-15 05:37:22,16,0,17.104,5318.5652384356,0,0,0.68956367036,0,0,0,144.8, -3.4, -0.7,0,1,1024,1024,1150,1024,145.2,0,99,4.285,4.287,4.287,4.285,0,0,1.946,82.31,10,Assisted_Takeoff,
0.378999274706,36.9222522059422,5318.5652384356,0,0,0.69910435308,5700,2018-04-15 05:37:23,16,0,17.104,5318.5652384356,0,0,0.69910435308,0,0,0,144.8, -3.4, -0.7,0,1,1024,1024,1215,1024,145.2,0,99,4.285,4.287,4.287,4.285,0,0,1.946,82.31,10,Assisted_Takeoff,
0.378999240430104,36.9222521810973,5318.5652384356,0,0,0.71066603324,5800,2018-04-15 05:37:23,16,0,17.104,5318.5652384356,0,0,0.71066603324,0,0,0,144.8, -3.4, -0.7,0,1,1024,1024,1269,1024,145.2,0,99,4.285,4.287,4.287,4.285,0,0,1.946,82.31,10,Assisted_Takeoff,
0.37899922054782,36.9222521466703,5318.5652384356,0,0,0.72454398644,5900,2018-04-15 05:37:23,16,0,17.104,5318.5652384356,0,0,0.72454398644,0,0,0,144.8, -3.3, -0.7,0,1,1024,1024,1271,1024,145.2,0,99,4.285,4.287,4.287,4.285,0,0,1.946,82.31,10,Assisted_Takeoff,
0.37899920187771,36.9222521087658,5318.5652384356,0,0,0.73957679532,6000,2018-04-15 05:37:23,17,0,17.104,5318.5652384356,0,0,0.73957679532,0,0,0,144.8, -3, -0.5,0,1,1024,1024,1271,1024,145.2,0,99,4.285,4.287,4.287,4.285,0,0,1.946,82.31,10,Assisted_Takeoff,
0.3789991920529,36.9222520963059,5318.5652384356,0,0,0.74483926268,6100,2018-04-15 05:37:23,17,0,17.077,5318.5652384356,0,0,0.74483926268,0,0,0,144.8, -3, -0.4,0,1,1024,1024,1256,1024,145.2,0,99,4.286,4.286,4.286,4.285,0,0,1.976,82.31,10,Assisted_Takeoff,
0.37899917012468,36.9222520895438,5318.5652384356,0,0,0.74916997148,6200,2018-04-15 05:37:23,17,0,17.077,5318.5652384356,0,0,0.74916997148,0,0,0,144.9, -1.2, 0,0,1,1024,1024,1253,1024,145.2,0,99,4.286,4.286,4.286,4.285,0,0,1.976,82.31,10,Assisted_Takeoff,
0.378999127273194,36.9222520967898,5318.5652384356,0,0,0.75063322612,6300,2018-04-15 05:37:23,17,0,17.077,5318.5652384356,0,0,0.75063322612,0,0,-0.223694,144.9, 1.7, 0.9,0,1,1024,1024,1275,1024,145.2,0,99,4.286,4.286,4.286,4.285,0,0,1.976,82.31,10,Assisted_Takeoff,
0.378999087591882,36.9222520919613,5318.5652384356,0,0,0.756315641,6400,2018-04-15 05:37:23,16,0,17.077,5318.5652384356,0,0,0.756315641,0,0,-0.447388,144.8, 2.3, 0.9,0,1,1024,1024,1275,1024,145.2,0,99,4.286,4.286,4.286,4.285,0,0,1.976,82.31,6,P-GPS,
0.378999060674517,36.9222520570631,5318.5652384356,0,0,0.77133532652,6500,2018-04-15 05:37:23,16,0,17.077,5318.5652384356,0,0,0.77133532652,0,0,-0.894776,144.7, 1.3, 0.3,0,1,1024,1024,1274,1024,145.2,0,99,4.286,4.286,4.286,4.285,0,0,1.976,82.31,6,P-GPS,
0.37899905407769,36.9222520004206,5318.5652384356,0,0,0.7918143298,6600,2018-04-15 05:37:23,15,0,17.077,5318.5652384356,0,0,0.7918143298,0,0,-1.11847,144.7, 0.6, 0.2,0,1,1024,1024,1278,1024,145.2,0,99,4.286,4.286,4.286,4.285,0,0,1.976,82.31,6,P-GPS,
0.378999058436627,36.9222519304402,5318.8933224356,0.328084,0,0.81586616784,6700,2018-04-15 05:37:23,15,0,17.077,5318.8933224356,0.328084,0,0.81586616784,0,0,-1.565858,144.7, 0.3, -0.1,0,1,1024,1024,1278,1024,145.2,0,99,4.286,4.286,4.286,4.285,0,0,1.976,82.31,6,P-GPS,
0.378999076138221,36.9222518791401,5319.2214064356,0.656168,0,0.83214569592,6800,2018-04-15 05:37:23,16,0,17.077,5319.2214064356,0.656168,0,0.83214569592,0,0,-1.565858,144.8, 0.4, -0.1,0,1,1024,1024,1295,1024,145.2,0,99,4.286,4.286,4.286,4.285,0,0,1.976,82.31,6,P-GPS,
0.378999109346265,36.9222518643955,5319.2214064356,0.656168,0,0.83424543352,6900,2018-04-15 05:37:24,16,0,17.077,5319.2214064356,0.656168,0,0.83424543352,0,0,-1.789552,144.8, 0.5, 0,0,1,1024,1024,1337,1024,145.2,0,99,4.286,4.286,4.286,4.285,0,0,1.976,82.31,6,P-GPS,
0.378999155455046,36.9222518505544,5319.5494904356,0.984252,0,0.83514766452,7000,2018-04-15 05:37:24,16,0,17.077,5319.5494904356,0.984252,0,0.83514766452,0,0,-2.013246,144.9, 0.4, 0.1,0,1,1024,1024,1337,1024,145.2,0,99,4.286,4.286,4.286,4.285,0,0,1.976,82.31,6,P-GPS,
0.378999188024537,36.9222518226432,5319.8775744356,1.312336,0,0.84247378024,7100,2018-04-15 05:37:24,16,0,17.104,5319.8775744356,1.312336,0,0.84247378024,0,0,-2.460634,144.9, 0.1, 0.2,0,1,1024,1024,1345,1024,145.2,0,99,4.286,4.286,4.286,4.285,0,0,1.976,82.31,6,P-GPS,
0.37899922345561,36.9222517995027,5320.2056584356,1.64042,0,0.84811026336,7200,2018-04-15 05:37:24,16,0,17.104,5320.2056584356,1.64042,0,0.84811026336,0,0,-2.908022,144.9, 0, 0.2,0,1,1024,1024,1362,1024,145.2,0,99,4.286,4.286,4.286,4.285,0,0,1.976,82.31,6,P-GPS,
0.378999236463621,36.9222517834519,5320.8618264356,2.296588,0,0.85294950236,7300,2018-04-15 05:37:24,16,0,17.104,5320.8618264356,2.296588,0,0.85294950236,0,0,-3.131716,144.8, 0.1, 0,0,1,1024,1024,1382,1024,145.2,0,99,4.286,4.286,4.286,4.285,0,0,1.976,82.31,6,P-GPS,Home Point Recorded. RTH Altitude:  30m.
0.378999258951415,36.9222517780345,5321.5179944356,2.952756,0,0.85338585408,7400,2018-04-15 05:37:24,17,0,17.104,5321.5179944356,2.952756,0,0.85338585408,0,0,-3.579104,144.8, 0, 0.2,0,1,1024,1024,1377,1024,145.2,0,99,4.286,4.286,4.286,4.285,0,0,1.976,82.31,6,P-GPS,
0.378999285083259,36.9222517661291,5321.8460784356,3.28084,0,0.85601708776,7500,2018-04-15 05:37:24,17,0,17.104,5321.8460784356,3.28084,0,0.85601708776,0,0,-4.026492,144.8, -0.1, -0.2,0,1,1024,1024,1385,1024,145.2,0,99,4.286,4.286,4.286,4.285,0,0,1.976,82.31,6,P-GPS,
0.378999307477214,36.9222517547591,5322.5022464356,3.937008,0,0.85878611672,7600,2018-04-15 05:37:25,17,0,17.104,5322.5022464356,3.937008,0,0.85878611672,0,0,-4.250186,144.8, 0, -0.6,0,1,1024,1024,1411,1024,145.2,0,99,4.286,4.286,4.286,4.285,0,0,1.976,82.31,6,P-GPS,
0.378999353220613,36.9222518677572,5323.8145824356,5.249344,0,0.81551511796,7800,2018-04-15 05:37:25,17,0,17.104,5323.8145824356,5.249344,0,0.85878611672,0,0,-4.697574,144.8, 0, -0.3,0,1,1024,1024,1380,1024,145.2,0,99,4.286,4.286,4.286,4.285,0,0,1.976,82.31,6,P-GPS,
0.378999380838005,36.9222518782387,5324.7988344356,6.233596,0,0.81032810992,7900,2018-04-15 05:37:25,17,0,17.104,5324.7988344356,6.233596,0,0.85878611672,0,0,-4.921268,144.9, -0.3, -0.1,0,1,1024,1024,1378,1024,145.2,0,99,4.286,4.286,4.286,4.285,0,0,1.976,82.31,6,P-GPS,
0.378999413984372,36.9222518902746,5325.4550024356,6.889764,0,0.8044455638,8000,2018-04-15 05:37:25,17,0,17.104,5325.4550024356,6.889764,0,0.85878611672,0,0,-4.921268,144.8, -0.7, -0.2,0,1,1024,1024,1418,1024,145.2,0,99,4.286,4.286,4.286,4.285,0,0,1.976,82.31,6,P-GPS,
0.378999449376363,36.9222519037281,5326.1111704356,7.545932,0,0.79812666596,8100,2018-04-15 05:37:25,17,0,16.542,5326.1111704356,7.545932,0,0.85878611672,0,0,-4.697574,144.8, -0.5, -0.4,0,1,1024,1024,1445,1024,145.2,0,99,4.179,4.173,4.172,4.168,0,0,14.224,82.31,6,P-GPS,
0.378999489084342,36.9222519206033,5326.7673384356,8.2021,0,0.7906168232,8200,2018-04-15 05:37:25,17,0,16.542,5326.7673384356,8.2021,0,0.85878611672,0,0,-4.921268,144.8, 0, -0.6,0,1,1024,1024,1447,1024,145.2,0,99,4.179,4.173,4.172,4.168,0,0,14.224,82.31,6,P-GPS,
0.37899953336662,36.9222519353201,5327.7515904356,9.186352,0,0.78402561564,8300,2018-04-15 05:37:25,17,0,16.542,5327.7515904356,9.186352,0,0.85878611672,0,0,-5.368656,144.8, 0, -0.5,0,1,1024,1024,1453,1024,145.2,0,99,4.179,4.173,4.172,4.168,0,0,14.224,82.31,6,P-GPS,
0.378999596999697,36.922251942821,5328.4077584356,9.84252,0,0.7800853268,8400,2018-04-15 05:37:25,17,0,16.542,5328.4077584356,9.84252,0,0.85878611672,0,0,-5.368656,144.8, -0.4, -0.6,0,1,1024,1024,1476,1024,145.1,0,99,4.179,4.173,4.172,4.168,0,0,14.224,82.31,6,P-GPS,
0.378999660400314,36.9222519465938,5329.3920104356,10.826772,0,0.77818900128,8500,2018-04-15 05:37:25,17,0,16.542,5329.3920104356,10.826772,0,0.85878611672,0,0,-5.59235,144.8, -0.7, -0.7,0,1,1024,1024,1483,1024,145.2,-0.2,99,4.179,4.173,4.172,4.168,0,0,14.224,82.31,6,P-GPS,
0.378999728761172,36.9222519529427,5330.0481784356,11.48294,0,0.776082702,8600,2018-04-15 05:37:25,17,0,16.542,5330.0481784356,11.48294,0,0.85878611672,0,0,-5.816044,144.8, -0.9, -0.7,0,1,1024,1024,1486,1024,145.1,-0.9,99,4.179,4.173,4.172,4.168,0,0,14.224,82.31,6,P-GPS,
0.378999781720206,36.922251968835,5331.0324304356,12.467192,0,0.77100396168,8700,2018-04-15 05:37:25,17,0,16.542,5331.0324304356,12.467192,0,0.85878611672,0,0,-6.039738,144.9, -0.6, -0.8,0,1,1024,1024,1481,1024,145.1,-2.9,99,4.179,4.173,4.172,4.168,0,0,14.224,82.31,6,P-GPS,
0.378999851906957,36.9222520007418,5332.0166824356,13.451444,0,0.76109910572,8800,2018-04-15 05:37:25,17,0,16.542,5332.0166824356,13.451444,0,0.85878611672,0,0,-6.263432,144.9, -0.3, -0.8,0,1,1024,1024,1482,1024,145.1,-6.9,99,4.179,4.173,4.172,4.168,0,0,14.224,82.31,6,P-GPS,
0.378999936477143,36.9222520533631,5333.0009344356,14.435696,0,0.74526249104,8900,2018-04-15 05:37:26,17,0,16.542,5333.0009344356,14.435696,0,0.85878611672,0,0,-6.487126,144.9, -0.5, -0.9,0,1,1024,1024,1487,1024,145.1,-11,99,4.179,4.173,4.172,4.168,0,0,14.224,82.31,6,P-GPS,
0.379000041171843,36.9222520916422,5333.9851864356,15.419948,0,0.73733270076,9000,2018-04-15 05:37:26,16,0,16.542,5333.9851864356,15.419948,0,0.85878611672,0,0,-6.487126,144.9, -0.8, -0.8,0,1,1024,1024,1487,1024,145.1,-11,99,4.179,4.173,4.172,4.168,0,0,14.224,82.31,6,P-GPS,
0.37900013082603,36.9222521072948,5334.9694384356,16.4042,0,0.73836288452,9100,2018-04-15 05:37:26,16,0,16.434,5334.9694384356,16.4042,0,0.85878611672,0,0,-6.487126,144.9, -1, -0.5,0,1,1024,1024,1478,1024,145.1,-15.3,99,4.179,4.173,4.172,4.168,0,0,14.224,82.31,6,P-GPS,
0.379000215375453,36.9222521089992,5335.9536904356,17.388452,0,0.7452920186,9200,2018-04-15 05:37:26,17,0,16.434,5335.9536904356,17.388452,0,0.85878611672,0,0,-6.71082,144.9, -1, -0.5,0,1,1024,1024,1469,1024,145.1,-19.5,99,4.179,4.173,4.172,4.168,0,0,14.224,82.31,6,P-GPS,
0.379000280011449,36.9222521125344,5336.9379424356,18.372704,0,0.75062010276,9300,2018-04-15 05:37:26,17,0,16.434,5336.9379424356,18.372704,0,0.85878611672,0,0,-6.71082,144.9, -1.2, -0.8,0,1,1024,1024,1470,1024,145.1,-20.7,99,4.179,4.173,4.172,4.168,0,0,14.224,82.31,6,P-GPS,
0.379000354712043,36.9222521114938,5337.9221944356,19.356956,0,0.75941931564,9400,2018-04-15 05:37:26,17,0,16.434,5337.9221944356,19.356956,0,0.85878611672,0,0,-6.487126,144.9, -1.5, -0.9,0,1,1024,1024,1478,1024,145.1,-20.7,99,4.179,4.173,4.172,4.168,0,0,14.224,82.31,6,P-GPS,
0.379000434456945,36.9222521429509,5338.9064464356,20.341208,0,0.75868768832,9500,2018-04-15 05:37:26,17,0,16.434,5338.9064464356,20.341208,0,0.85878611672,0,0,-6.487126,144.9, -1.5, -0.7,0,1,1024,1024,1488,1024,145.1,-20.7,99,4.179,4.173,4.172,4.168,0,0,14.224,82.31,6,P-GPS,
0.379000506693296,36.9222521778747,5339.8906984356,21.32546,0,0.7569882132,9600,2018-04-15 05:37:26,17,0,16.434,5339.8906984356,21.32546,0,0.85878611672,0,0,-6.487126,144.8, -1.5, -0.7,0,1,1024,1024,1480,1024,145.1,-20.7,99,4.179,4.173,4.172,4.168,0,0,14.224,82.31,6,P-GPS,
0.379000603410453,36.9222522215306,5340.8749504356,22.309712,0,0.7574967434,9700,2018-04-15 05:37:26,17,0,16.434,5340.8749504356,22.309712,0,0.85878611672,0,0,-6.487126,144.8, -1.6, -0.9,0,1,1024,1024,1490,1024,145.1,-20.7,99,4.179,4.173,4.172,4.168,0,0,14.224,82.31,6,P-GPS,
0.379000686086554,36.9222522731775,5341.5311184356,22.96588,0,0.75492784568,9800,2018-04-15 05:37:27,17,0,16.434,5341.5311184356,22.96588,0,0.85878611672,0,0,-6.487126,144.9, -1.8, -0.8,0,1,1024,1024,1494,1024,145.1,-20.7,99,4.179,4.173,4.172,4.168,0,0,14.224,82.31,6,P-GPS,
0.379000749758307,36.9222522979518,5342.5153704356,23.950132,0,0.75877299016,9900,2018-04-15 05:37:27,17,0,16.434,5342.5153704356,23.950132,0,0.85878611672,0,0,-6.487126,144.8, -1.7, -0.7,0,1,1024,1024,1490,1024,145.1,-20.7,99,4.179,4.173,4.172,4.168,0,0,14.224,82.31,6,P-GPS,
0.379000800778069,36.9222523378284,5343.4996224356,24.934384,0,0.75627955176,10000,2018-04-15 05:37:27,17,0,16.434,5343.4996224356,24.934384,0,0.85878611672,0,0,-6.487126,144.8, -1.5, -0.8,0,1,1024,1024,1491,1024,145.1,-20.7,99,4.179,4.173,4.172,4.168,0,0,14.224,82.31,6,P-GPS,
0.379000845118665,36.922252401552,5344.4838744356,25.918636,0,0.74597771416,10100,2018-04-15 05:37:27,17,0,16.515,5344.4838744356,25.918636,0,0.85878611672,0,0,-6.71082,144.9, -1.6, -0.7,0,1,1024,1024,1499,1024,145.1,-20.7,99,4.156,4.148,4.149,4.138,0,0,15.084,82.31,6,P-GPS,
0.379000888099714,36.9222524640423,5345.4681264356,26.902888,0,0.73668309444,10200,2018-04-15 05:37:27,17,0,16.515,5345.4681264356,26.902888,0,0.85878611672,0,0,-6.71082,144.8, -1.7, -0.7,0,1,1024,1024,1519,1024,145.1,-20.7,99,4.156,4.148,4.149,4.138,0,0,15.084,82.31,6,P-GPS,
0.379000927873237,36.9222525358363,5346.4523784356,27.88714,0,0.7249508106,10300,2018-04-15 05:37:27,17,0,16.515,5346.4523784356,27.88714,0,0.85878611672,0,0,-6.71082,144.9, -1.5, -0.5,0,1,1024,1024,1515,1024,145.1,-20.7,99,4.156,4.148,4.149,4.138,0,0,15.084,82.31,6,P-GPS,
0.37900096664944,36.9222526181268,5347.7647144356,29.199476,0,0.71116144008,10400,2018-04-15 05:37:27,17,0,16.515,5347.7647144356,29.199476,0,0.85878611672,0,0,-6.934514,144.8, -1.4, -0.5,0,1,1024,1024,1502,1024,145.1,-20.7,99,4.156,4.148,4.149,4.138,0,0,15.084,82.31,6,P-GPS,
0.379001007778541,36.9222527173181,5348.7489664356,30.183728,0,0.69485566528,10500,2018-04-15 05:37:27,17,0,16.515,5348.7489664356,30.183728,0,0.85878611672,0,0,-6.934514,144.9, -1.7, -0.5,0,1,1024,1024,1509,1024,145.1,-20.7,99,4.156,4.148,4.149,4.138,0,0,15.084,82.31,6,P-GPS,
0.379001039312647,36.9222528135042,5349.7332184356,31.16798,0,0.67858597972,10600,2018-04-15 05:37:27,17,0,16.515,5349.7332184356,31.16798,0,0.85878611672,0,0,-6.934514,144.9, -1.9, -0.3,0,1,1024,1024,1509,1024,145.1,-20.7,99,4.156,4.148,4.149,4.138,0,0,15.084,82.31,6,P-GPS,
0.379001048283134,36.9222528978331,5350.7174704356,32.152232,0,0.66050855132,10700,2018-04-15 05:37:27,17,0,16.515,5350.7174704356,32.152232,0,0.85878611672,0,0,-6.934514,144.9, -1.7, -0.2,0,1,1024,1024,1510,1024,145.1,-20.7,99,4.156,4.148,4.149,4.138,0,0,15.084,82.31,6,P-GPS,
0.379001048132809,36.9222529681668,5351.7017224356,33.136484,0,0.64400920696,10800,2018-04-15 05:37:27,17,0,16.515,5351.7017224356,33.136484,0,0.85878611672,0,0,-6.934514,144.9, -1.4, -0.3,0,1,1024,1024,1521,1024,145.1,-20.7,99,4.156,4.148,4.149,4.138,0,0,15.084,82.31,6,P-GPS,
0.379001063131592,36.9222530294527,5352.6859744356,34.120736,0,0.63452757936,10900,2018-04-15 05:37:28,17,0,16.515,5352.6859744356,34.120736,0,0.85878611672,0,0,-7.158208,144.9, -1.5, -0.3,0,1,1024,1024,1536,1024,145.1,-20.7,99,4.156,4.148,4.149,4.138,0,0,15.084,82.31,6,P-GPS,
0.37900107370284,36.9222530838137,5353.9983104356,35.433072,0,0.62588912764,11000,2018-04-15 05:37:28,17,0,16.515,5353.9983104356,35.433072,0,0.85878611672,0,0,-7.158208,144.9, -1.7, -0.6,0,1,1024,1024,1549,1024,145.1,-20.7,99,4.156,4.148,4.149,4.138,0,0,15.084,82.31,6,P-GPS,
0.379001076189067,36.9222531622959,5354.9825624356,36.417324,0,0.61047574132,11100,2018-04-15 05:37:28,17,0,16.488,5354.9825624356,36.417324,0,0.85878611672,0,0,-7.158208,144.9, -1.7, -0.4,0,1,1024,1024,1558,1024,145.1,-20.7,99,4.151,4.146,4.146,4.131,0,0,14.22,82.31,6,P-GPS,
0.379001082710883,36.9222532362108,5355.9668144356,37.401576,0,0.59815946796,11200,2018-04-15 05:37:28,17,0,16.488,5355.9668144356,37.401576,0,0.85878611672,0,0,-7.605596,144.9, -1.5, -0.1,0,1,1024,1024,1556,1024,145.1,-20.7,99,4.151,4.146,4.146,4.131,0,0,14.22,82.31,6,P-GPS,
0.379001098770496,36.9222533025308,5357.2791504356,38.713912,0,0.59121721052,11300,2018-04-15 05:37:28,17,0,16.488,5357.2791504356,38.713912,0,0.85878611672,0,0,-7.82929,144.9, -1.4, -0.2,0,1,1024,1024,1556,1024,145.1,-20.7,99,4.151,4.146,4.146,4.131,0,0,14.22,82.31,6,P-GPS,
0.379001110178357,36.9222533633669,5358.2634024356,39.698164,0,0.58462272212,11400,2018-04-15 05:37:28,17,0,16.488,5358.2634024356,39.698164,0,0.85878611672,0,0,-7.82929,144.8, -1.6, -0.6,0,1,1024,1024,1582,1024,145.1,-20.7,99,4.151,4.146,4.146,4.131,0,0,14.22,82.31,6,P-GPS,
0.37900111273939,36.9222534348601,5359.5757384356,41.0105,0,0.5742946378,11500,2018-04-15 05:37:28,17,0,16.488,5359.5757384356,41.0105,0,0.85878611672,0,0,-8.052984,144.8, -1.7, -0.8,0,1,1024,1024,1589,1024,145.1,-20.7,99,4.151,4.146,4.146,4.131,0,0,14.22,82.31,6,P-GPS,
0.379001113518601,36.9222535189974,5360.8880744356,42.322836,0,0.56268374504,11600,2018-04-15 05:37:28,17,0,16.488,5360.8880744356,42.322836,0,0.85878611672,0,0,-8.052984,144.9, -1.5, -0.7,0,1,1024,1024,1626,1024,145.1,-20.7,99,4.151,4.146,4.146,4.131,0,0,14.22,82.31,6,P-GPS,
0.379001155469048,36.9222535839062,5361.8723264356,43.307088,0,0.56900920456,11700,2018-04-15 05:37:28,17,0,16.488,5361.8723264356,43.307088,0,0.85878611672,0,0,-8.500372,144.9, -1.5, -0.5,0,1,1024,1024,1620,1024,145.1,-20.7,99,4.151,4.146,4.146,4.131,0,0,14.22,82.31,6,P-GPS,
0.379001187060251,36.9222536630319,5363.1846624356,44.619424,0,0.57160762984,11800,2018-04-15 05:37:28,17,0,16.488,5363.1846624356,44.619424,0,0.85878611672,0,0,-8.94776,144.9, -1.3, -0.2,0,1,1024,1024,1620,1024,145.1,-20.7,99,4.151,4.146,4.146,4.131,0,0,14.22,82.31,6,P-GPS,
0.379001204915224,36.9222537138417,5364.8250824356,46.259844,0,0.5732939816,11900,2018-04-15 05:37:29,17,0,16.488,5364.8250824356,46.259844,0,0.85878611672,0,0,-9.171454,144.9, -1.2, -0.4,0,1,1024,1024,1634,1024,145.1,-20.7,99,4.151,4.146,4.146,4.131,0,0,14.22,82.31,6,P-GPS,
0.379001224264599,36.9222537718535,5366.1374184356,47.57218,0,0.57566602892,12000,2018-04-15 05:37:29,17,0,16.488,5366.1374184356,47.57218,0,0.85878611672,0,0,-9.395148,144.9, -1.6, -0.4,0,1,1024,1024,1641,1024,145.1,-20.7,99,4.151,4.146,4.146,4.131,0,0,14.22,82.31,6,P-GPS,
0.379001276781104,36.9222538403543,5367.4497544356,48.884516,0,0.59026248608,12100,2018-04-15 05:37:29,17,0,16.381,5367.4497544356,48.884516,0,0.85878611672,0,0,-9.618842,144.9, -1.7, 0,0,1,1024,1024,1650,1024,145.1,-20.7,99,4.133,4.115,4.119,4.109,0,0,15.45,82.31,6,P-GPS,
0.37900132338941,36.9222540497655,5372.0429304356,53.477692,0,0.60088256516,12400,2018-04-15 05:37:29,17,0,16.381,5372.0429304356,53.477692,0,0.85878611672,0,0,-10.06623,144.9, -1.6, -0.6,0,1,1024,1024,1651,1024,145.1,-20.7,99,4.133,4.115,4.119,4.109,0,0,15.45,82.31,6,P-GPS,
0.379001368660356,36.9222540897384,5373.6833504356,55.118112,0,0.61731301188,12500,2018-04-15 05:37:29,17,0,16.381,5373.6833504356,55.118112,0,0.85878611672,0,0,-10.06623,145, -1.8, -0.2,0,1,1024,1024,1654,1024,145.1,-20.7,99,4.133,4.115,4.119,4.109,0,0,15.45,82.31,6,P-GPS,
0.379001401517776,36.9222541269416,5374.9956864356,56.430448,0,0.6295275792,12600,2018-04-15 05:37:29,17,0,16.381,5374.9956864356,56.430448,0,0.85878611672,0,0,-10.289924,144.9, -2.2, -0.4,0,1,1024,1024,1661,1024,145.1,-20.7,99,4.133,4.115,4.119,4.109,0,0,15.45,82.31,6,P-GPS,
0.379001414641305,36.9222541519011,5376.6361064356,58.070868,0,0.63462600456,12700,2018-04-15 05:37:29,17,0,16.381,5376.6361064356,58.070868,0,0.85878611672,0,0,-10.289924,144.9, -2.4, -0.7,0,1,1024,1024,1663,1024,145.1,-20.7,99,4.133,4.115,4.119,4.109,0,0,15.45,82.31,6,P-GPS,
0.37900140955313,36.9222541934371,5378.2765264356,59.711288,0,0.63358597828,12800,2018-04-15 05:37:29,17,0,16.381,5378.2765264356,59.711288,0,0.85878611672,0,0,-10.289924,145, -2.2, -0.4,0,1,1024,1024,1662,1024,145.1,-20.7,99,4.133,4.115,4.119,4.109,0,0,15.45,82.31,6,P-GPS,
0.379001379084434,36.9222542020128,5379.9169464356,61.351708,0,0.62270999368,12900,2018-04-15 05:37:30,17,0,16.381,5379.9169464356,61.351708,0,0.85878611672,0,0,-10.289924,144.9, -1.8, -0.4,0,1,1024,1024,1661,1024,145.1,-20.7,99,4.133,4.115,4.119,4.109,0,0,15.45,82.31,6,P-GPS,
0.379001329608946,36.9222542031327,5381.2292824356,62.664044,0,0.60473755216,13000,2018-04-15 05:37:30,17,0,16.381,5381.2292824356,62.664044,0,0.85878611672,0,0,-10.513618,144.8, -1.7, -0.7,0,1,1024,1024,1661,1024,145.1,-20.7,99,4.133,4.115,4.119,4.109,0,0,15.45,82.31,6,P-GPS,
0.379001272438959,36.9222542090864,5382.8697024356,64.304464,0,0.58411091108,13100,2018-04-15 05:37:30,17,0,16.434,5382.8697024356,64.304464,0,0.85878611672,0,0,-10.513618,144.8, -1.7, -0.6,0,1,1024,1024,1664,1024,145.1,-20.7,99,4.133,4.115,4.119,4.109,0,0,15.45,82.31,6,P-GPS,
0.379001208576576,36.9222541770469,5386.1505424356,67.585304,0,0.56002626464,13300,2018-04-15 05:37:30,17,0,16.434,5386.1505424356,67.585304,0,0.85878611672,0,0,-10.513618,144.9, -2, -0.7,0,1,1024,1024,1664,1024,145.1,-20.7,99,4.133,4.115,4.119,4.109,0,0,15.45,82.31,6,P-GPS,
0.379001190673565,36.9222541496581,5387.7909624356,69.225724,0,0.55295605444,13400,2018-04-15 05:37:30,17,0,16.434,5387.7909624356,69.225724,0,0.85878611672,0,0,-10.737312,144.9, -2.2, -0.9,0,1,1024,1024,1675,1024,145.1,-20.7,99,4.133,4.115,4.119,4.109,0,0,15.45,82.31,6,P-GPS,
0.379001157611063,36.9222541060761,5389.4313824356,70.866144,0,0.5403871564,13500,2018-04-15 05:37:30,17,0,16.434,5389.4313824356,70.866144,0,0.85878611672,0,0,-10.737312,144.9, -2.4, -1,0,1,1024,1024,1678,1024,145.1,-20.7,99,4.133,4.115,4.119,4.109,0,0,15.45,82.31,6,P-GPS,
0.379001126247842,36.9222540927308,5391.0718024356,72.506564,0,0.52887796968,13600,2018-04-15 05:37:30,17,0,16.434,5391.0718024356,72.506564,0,0.85878611672,0,0,-10.737312,144.9, -2.2, -0.5,0,1,1024,1024,1678,1024,145.1,-20.7,99,4.133,4.115,4.119,4.109,0,0,15.45,82.31,6,P-GPS,
0.379001119349855,36.9222540529228,5392.7122224356,74.146984,0,0.52643046304,13700,2018-04-15 05:37:30,17,0,16.434,5392.7122224356,74.146984,0,0.85878611672,0,0,-10.737312,144.9, -2.3, 0.2,0,1,1024,1024,1667,1024,145.1,-20.7,99,4.133,4.115,4.119,4.109,0,0,15.45,82.31,6,P-GPS,
0.379001096275414,36.922254010648,5394.3526424356,75.787404,0,0.51853020032,13800,2018-04-15 05:37:30,17,0,16.434,5394.3526424356,75.787404,0,0.85878611672,0,0,-10.737312,144.9, -2.3, 0,0,1,1024,1024,1666,1024,145.1,-20.7,99,4.133,4.115,4.119,4.109,0,0,15.45,82.31,6,P-GPS,
0.379001029104237,36.9222539480293,5395.9930624356,77.427824,0,0.49573820484,13900,2018-04-15 05:37:31,17,0,16.434,5395.9930624356,77.427824,0,0.85878611672,0,0,-10.513618,144.9, -2.2, -0.7,0,1,1024,1024,1667,1024,145.1,-20.7,99,4.133,4.115,4.119,4.109,0,0,15.45,82.31,6,P-GPS,
0.379000956032698,36.9222539082438,5397.6334824356,79.068244,0,0.4709153694,14000,2018-04-15 05:37:31,17,0,16.434,5397.6334824356,79.068244,0,0.85878611672,0,0,-10.737312,144.9, -2.1, -1.1,0,1,1024,1024,1665,1024,145.1,-20.7,99,4.133,4.115,4.119,4.109,0,0,15.45,82.31,6,P-GPS,
0.37900087334652,36.9222538790553,5399.2739024356,80.708664,0,0.442667337,14100,2018-04-15 05:37:31,17,0,16.301,5399.2739024356,80.708664,0,0.85878611672,0,0,-10.513618,144.9, -2.1, -1.5,0,1,1024,1024,1668,1024,145.1,-20.7,99,4.11,4.1,4.102,4.102,0,0,17.718,82.31,6,P-GPS,
0.379000804435757,36.9222538717911,5400.9143224356,82.349084,0,0.41836287428,14200,2018-04-15 05:37:31,17,0,16.301,5400.9143224356,82.349084,0,0.85878611672,0,0,-10.737312,144.9, -2, -1.4,0,1,1024,1024,1673,1024,145.1,-20.7,99,4.11,4.1,4.102,4.102,0,0,17.718,82.31,6,P-GPS,
0.37900076160422,36.9222538589618,5402.5547424356,83.989504,0,0.40391077408,14300,2018-04-15 05:37:31,17,0,16.301,5402.5547424356,83.989504,0,0.85878611672,0,0,-10.737312,144.9, -2, -0.6,0,1,1024,1024,1682,1024,145.1,-20.7,99,4.11,4.1,4.102,4.102,0,0,17.718,82.31,6,P-GPS,
0.379000726459549,36.9222538633117,5404.1951624356,85.629924,0,0.39103019624,14400,2018-04-15 05:37:31,17,0,16.301,5404.1951624356,85.629924,0,0.85878611672,0,0,-10.513618,144.9, -2, -0.2,0,1,1024,1024,1684,1024,145.1,-20.7,99,4.11,4.1,4.102,4.102,0,0,17.718,82.31,6,P-GPS,
0.379000692944746,36.922253867014,5405.5074984356,86.94226,0,0.37878282052,14500,2018-04-15 05:37:31,17,0,16.301,5405.5074984356,86.94226,0,0.85878611672,0,0,-10.513618,144.9, -2, -0.7,0,1,1024,1024,1684,1024,145.1,-20.7,99,4.11,4.1,4.102,4.102,0,0,17.718,82.31,6,P-GPS,
0.379000657828573,36.9222538813475,5407.1479184356,88.58268,0,0.36518045788,14600,2018-04-15 05:37:31,17,0,16.301,5407.1479184356,88.58268,0,0.85878611672,0,0,-10.737312,144.9, -1.9, -0.2,0,1,1024,1024,1684,1024,145.1,-20.7,99,4.11,4.1,4.102,4.102,0,0,17.718,82.31,6,P-GPS,
0.379000651548275,36.9222538819963,5408.7883384356,90.2231,0,0.36288715072,14700,2018-04-15 05:37:31,17,0,16.301,5408.7883384356,90.2231,0,0.85878611672,0,0,-10.961006,144.9, -1.6, -0.1,0,1,1024,1024,1684,1024,145.1,-20.7,99,4.11,4.1,4.102,4.102,0,0,17.718,82.31,6,P-GPS,
0.379000635632881,36.922253876338,5410.7568424356,92.191604,0,0.35762140252,14800,2018-04-15 05:37:31,17,0,16.301,5410.7568424356,92.191604,0,0.85878611672,0,0,-10.961006,144.8, -1.9, -0.9,0,1,1024,1024,1684,1024,145.1,-20.7,99,4.11,4.1,4.102,4.102,0,0,17.718,82.31,6,P-GPS,
0.379000620152078,36.9222538610367,5412.3972624356,93.832024,0,0.3533136596,14900,2018-04-15 05:37:32,17,0,16.301,5412.3972624356,93.832024,0,0.85878611672,0,0,-11.1847,144.8, -2.1, -1,0,1,1024,1024,1684,1024,145.1,-20.7,99,4.11,4.1,4.102,4.102,0,0,17.718,82.31,6,P-GPS,
0.379000614024854,36.9222538667591,5414.0376824356,95.472444,0,0.35066930256,15000,2018-04-15 05:37:32,17,0,16.301,5414.0376824356,95.472444,0,0.85878611672,0,0,-11.1847,144.9, -2.3, -0.4,0,1,1024,1024,1684,1024,145.1,-20.7,99,4.11,4.1,4.102,4.102,0,0,17.718,82.31,6,P-GPS,
0.379000594891858,36.9222538670536,5415.6781024356,97.112864,0,0.34384187452,15100,2018-04-15 05:37:32,17,0,16.247,5415.6781024356,97.112864,0,0.85878611672,0,0,-11.1847,144.9, -2.5, -0.3,0,1,1024,1024,1684,1024,145.1,-20.7,99,4.114,4.096,4.099,4.098,0,0,16.814,82.31,6,P-GPS,
0.379000568760828,36.922253872123,5417.6466064356,99.081368,0,0.33413386896,15200,2018-04-15 05:37:32,17,0,16.247,5417.6466064356,99.081368,0,0.85878611672,0,0,-11.1847,145, -2.4, -0.4,0,1,1024,1024,1684,1024,145.1,-20.7,99,4.114,4.096,4.099,4.098,0,0,16.814,82.31,6,P-GPS,
0.379000552884517,36.922253831406,5419.2870264356,100.721788,0,0.33223098176,15300,2018-04-15 05:37:32,17,0,16.247,5419.2870264356,100.721788,0,0.85878611672,0,0,-11.1847,145, -2.3, -0.3,0,1,1024,1024,1684,1024,145.1,-20.7,99,4.114,4.096,4.099,4.098,0,0,16.814,82.31,6,P-GPS,
0.379000529771604,36.9222538002326,5420.9274464356,102.362208,0,0.327483934364,15400,2018-04-15 05:37:32,17,0,16.247,5420.9274464356,102.362208,0,0.85878611672,0,0,-10.961006,144.9, -2, -0.7,0,1,1024,1024,1684,1024,145.1,-20.7,99,4.114,4.096,4.099,4.098,0,0,16.814,82.31,6,P-GPS,
0.379000482613698,36.9222537649019,5422.5678664356,104.002628,0,0.315633540284,15500,2018-04-15 05:37:32,17,0,16.247,5422.5678664356,104.002628,0,0.85878611672,0,0,-10.961006,144.9, -2.2, -0.7,0,1,1024,1024,1684,1024,145.1,-20.7,99,4.114,4.096,4.099,4.098,0,0,16.814,82.31,6,P-GPS,
0.379000444449485,36.9222537484839,5424.2082864356,105.643048,0,0.30502625648,15600,2018-04-15 05:37:32,17,0,16.247,5424.2082864356,105.643048,0,0.85878611672,0,0,-10.961006,144.9, -2.4, -0.5,0,1,1024,1024,1684,1024,145.1,-20.7,99,4.114,4.096,4.099,4.098,0,0,16.814,82.31,6,P-GPS,
0.379000425122704,36.922253699719,5425.8487064356,107.283468,0,0.306192923184,15700,2018-04-15 05:37:32,17,0,16.247,5425.8487064356,107.283468,0,0.85878611672,0,0,-10.961006,144.9, -2.2, -0.3,0,1,1024,1024,1684,1024,145.1,-20.7,99,4.114,4.096,4.099,4.098,0,0,16.814,82.31,6,P-GPS,
0.379000394644543,36.9222536724866,5427.4891264356,108.923888,0,0.301093185488,15800,2018-04-15 05:37:32,17,0,16.247,5427.4891264356,108.923888,0,0.85878611672,0,0,-10.961006,145, -2.1, -0.5,0,1,1024,1024,1684,1024,145.1,-20.7,99,4.114,4.096,4.099,4.098,0,0,16.814,82.31,6,P-GPS,
0.379000343735923,36.9222536535601,5429.1295464356,110.564308,0,0.288738854384,15900,2018-04-15 05:37:33,17,0,16.247,5429.1295464356,110.564308,0,0.85878611672,0,0,-10.961006,145, -2.1, -0.8,0,1,1024,1024,1684,1024,145.1,-20.7,99,4.114,4.096,4.099,4.098,0,0,16.814,82.31,6,P-GPS,
0.379000297823166,36.9222536539102,5430.7699664356,112.204728,0,0.274696203016,16000,2018-04-15 05:37:33,17,0,16.247,5430.7699664356,112.204728,0,0.85878611672,0,0,-10.961006,145, -2, -0.6,0,1,1024,1024,1681,1024,145.1,-20.7,99,4.114,4.096,4.099,4.098,0,0,16.814,82.31,6,P-GPS,
0.379000287875816,36.9222535787169,5432.4103864356,113.845148,0,0.288267069592,16100,2018-04-15 05:37:33,17,0,16.354,5432.4103864356,113.845148,0,0.85878611672,0,0,-10.961006,144.9, -1.9, -0.4,0,1,1024,1024,1684,1024,145.1,-20.7,99,4.114,4.096,4.099,4.098,0,0,16.558,82.31,6,P-GPS,
0.379000272289164,36.9222535339337,5434.3788904356,115.813652,0,0.294671597356,16200,2018-04-15 05:37:33,17,0,16.354,5434.3788904356,115.813652,0,0.85878611672,0,0,-11.1847,144.9, -1.8, -0.6,0,1,1024,1024,1684,1024,145.1,-20.7,99,4.114,4.096,4.099,4.098,0,0,16.558,82.31,6,P-GPS,
0.379000249048826,36.9222534954768,5436.0193104356,117.454072,0,0.298329405872,16300,2018-04-15 05:37:33,17,0,16.354,5436.0193104356,117.454072,0,0.85878611672,0,0,-11.1847,144.9, -1.8, -0.5,0,1,1024,1024,1684,1024,145.1,-20.7,99,4.114,4.096,4.099,4.098,0,0,16.558,82.31,6,P-GPS,
0.379000233102491,36.9222534719519,5437.6597304356,119.094492,0,0.300559064736,16400,2018-04-15 05:37:33,17,0,16.354,5437.6597304356,119.094492,0,0.85878611672,0,0,-11.1847,144.9, -2.1, -0.3,0,1,1024,1024,1684,1024,145.1,-20.7,99,4.114,4.096,4.099,4.098,0,0,16.558,82.31,6,P-GPS,
0.379000240491963,36.9222534465856,5439.3001504356,120.734912,0,0.309234261864,16500,2018-04-15 05:37:33,17,0,16.354,5439.3001504356,120.734912,0,0.85878611672,0,0,-11.1847,144.9, -2.2, -0.5,0,1,1024,1024,1684,1024,145.1,-20.7,99,4.114,4.096,4.099,4.098,0,0,16.558,82.31,6,P-GPS,
0.379000239213838,36.9222534314084,5440.9405704356,122.375332,0,0.313084655688,16600,2018-04-15 05:37:33,17,0,16.354,5440.9405704356,122.375332,0,0.85878611672,0,0,-11.1847,144.9, -2.3, -0.6,0,1,1024,1024,1671,1024,145.1,-20.7,99,4.114,4.096,4.099,4.098,0,0,16.558,82.31,6,P-GPS,
0.379000290293851,36.9222533830611,5442.5809904356,124.015752,0,0.3386319006,16700,2018-04-15 05:37:33,17,0,16.354,5442.5809904356,124.015752,0,0.85878611672,0,0,-10.961006,144.9, -2.5, -0.6,0,1,1024,1024,1675,1024,145.1,-20.7,99,4.114,4.096,4.099,4.098,0,0,16.558,82.31,6,P-GPS,
0.379000329003187,36.9222533535268,5444.5494944356,125.984256,0,0.3560695652,16800,2018-04-15 05:37:33,17,0,16.354,5444.5494944356,125.984256,0,0.85878611672,0,0,-10.961006,144.9, -2.1, -0.5,0,1,1024,1024,1682,1024,145.1,-20.7,99,4.114,4.096,4.099,4.098,0,0,16.558,82.31,6,P-GPS,
0.379000343039763,36.9222533496169,5445.8618304356,127.296592,0,0.360564316,16900,2018-04-15 05:37:34,17,0,16.354,5445.8618304356,127.296592,0,0.85878611672,0,0,-10.737312,145, -1.9, -0.4,0,1,1024,1024,1682,1024,145.1,-20.7,99,4.114,4.096,4.099,4.098,0,0,16.558,82.31,6,P-GPS,
0.379000357274806,36.9222533479328,5447.5022504356,128.937012,0,0.36453741324,17000,2018-04-15 05:37:34,17,0,16.354,5447.5022504356,128.937012,0,0.85878611672,0,0,-10.737312,145, -2.1, -0.3,0,1,1024,1024,1666,1024,145.1,-20.7,99,4.114,4.096,4.099,4.098,0,0,16.558,82.31,6,P-GPS,
0.379000372588287,36.9222532989056,5449.1426704356,130.577432,0,0.38152232192,17100,2018-04-15 05:37:34,17,0,16.22,5449.1426704356,130.577432,0,0.85878611672,0,0,-10.961006,145, -2.2, -0.4,0,1,1024,1024,1672,1024,145.1,-20.7,99,4.106,4.099,4.101,4.094,0,0,16.558,82.31,6,P-GPS,
0.379000376893078,36.9222532691786,5450.7830904356,132.217852,0,0.39071195476,17200,2018-04-15 05:37:34,17,0,16.22,5450.7830904356,132.217852,0,0.85878611672,0,0,-10.737312,145, -2.3, -0.8,0,1,1024,1024,1682,1024,145.1,-20.7,99,4.106,4.099,4.101,4.094,0,0,16.558,82.31,6,P-GPS,
0.379000375299849,36.9222532518516,5452.4235104356,133.858272,0,0.39514108876,17300,2018-04-15 05:37:34,17,0,16.22,5452.4235104356,133.858272,0,0.85878611672,0,0,-10.737312,145, -2.3, -0.8,0,1,1024,1024,1669,1024,145.1,-20.7,99,4.106,4.099,4.101,4.094,0,0,16.558,82.31,6,P-GPS,
0.379000361449323,36.9222532425532,5454.3920144356,135.826776,0,0.39452101,17400,2018-04-15 05:37:34,17,0,16.22,5454.3920144356,135.826776,0,0.85878611672,0,0,-10.961006,144.9, -2, -0.6,0,1,1024,1024,1667,1024,145.1,-20.7,99,4.106,4.099,4.101,4.094,0,0,16.558,82.31,6,P-GPS,
0.379000333539014,36.9222532405265,5455.7043504356,137.139112,0,0.38873360824,17500,2018-04-15 05:37:34,17,0,16.22,5455.7043504356,137.139112,0,0.85878611672,0,0,-10.737312,144.9, -1.5, -0.7,0,1,1024,1024,1672,1024,145.1,-20.7,99,4.106,4.099,4.101,4.094,0,0,16.558,82.31,6,P-GPS,
0.37900030314146,36.9222532473132,5457.3447704356,138.779532,0,0.38001641636,17600,2018-04-15 05:37:34,17,0,16.22,5457.3447704356,138.779532,0,0.85878611672,0,0,-10.737312,144.9, -1.1, -0.7,0,1,1024,1024,1684,1024,145.1,-20.7,99,4.106,4.099,4.101,4.094,0,0,16.558,82.31,6,P-GPS,
0.379000257260661,36.9222532455563,5458.9851904356,140.419952,0,0.37071523496,17700,2018-04-15 05:37:34,17,0,16.22,5458.9851904356,140.419952,0,0.85878611672,0,0,-10.737312,144.9, -1.1, -0.5,0,1,1024,1024,1684,1024,145.1,-20.7,99,4.106,4.099,4.101,4.094,0,0,16.558,82.31,6,P-GPS,
0.379000224402733,36.9222532553162,5460.6256104356,142.060372,0,0.36103019528,17800,2018-04-15 05:37:34,17,0,16.22,5460.6256104356,142.060372,0,0.85878611672,0,0,-10.961006,144.9, -1.2, -0.4,0,1,1024,1024,1684,1024,145.1,-20.7,99,4.106,4.099,4.101,4.094,0,0,16.558,82.31,6,P-GPS,
0.379000226920511,36.9222532005376,5462.2660304356,143.700792,0,0.37832350292,17900,2018-04-15 05:37:35,17,0,16.22,5462.2660304356,143.700792,0,0.85878611672,0,0,-11.1847,144.9, -1.3, -0.4,0,1,1024,1024,1684,1024,145.1,-20.7,99,4.106,4.099,4.101,4.094,0,0,16.558,82.31,6,P-GPS,
0.37900022686494,36.9222531703427,5464.2345344356,145.669296,0,0.38769358196,18000,2018-04-15 05:37:35,17,0,16.22,5464.2345344356,145.669296,0,0.85878611672,0,0,-11.1847,144.9, -1.5, -0.5,0,1,1024,1024,1684,1024,145.1,-20.7,99,4.106,4.099,4.101,4.094,0,0,16.558,82.31,6,P-GPS,
0.379000244798994,36.9222531721232,5465.8749544356,147.309716,0,0.39057087864,18100,2018-04-15 05:37:35,17,0,16.247,5465.8749544356,147.309716,0,0.85878611672,0,0,-10.961006,144.9, -1.6, -0.6,0,1,1024,1024,1684,1024,145.1,-20.7,99,4.104,4.098,4.1,4.089,0,0,16.424,82.31,6,P-GPS,
0.379000264983761,36.9222531662701,5467.5153744356,148.950136,0,0.39632219116,18200,2018-04-15 05:37:35,17,0,16.247,5467.5153744356,148.950136,0,0.85878611672,0,0,-10.961006,144.9, -1.7, -0.5,0,1,1024,1024,1684,1024,145.1,-20.7,99,4.104,4.098,4.1,4.089,0,0,16.424,82.31,6,P-GPS,
0.3790002763446,36.922253151398,5469.1557944356,150.590556,0,0.40312665332,18300,2018-04-15 05:37:35,17,0,16.247,5469.1557944356,150.590556,0,0.85878611672,0,0,-10.961006,144.9, -1.5, -0.3,0,1,1024,1024,1684,1024,145.1,-20.7,99,4.104,4.098,4.1,4.089,0,0,16.424,82.31,6,P-GPS,
0.379000286341618,36.922253138695,5470.7962144356,152.230976,0,0.40899935692,18400,2018-04-15 05:37:35,17,0,16.247,5470.7962144356,152.230976,0,0.85878611672,0,0,-10.961006,144.9, -1.4, -0.3,0,1,1024,1024,1684,1024,145.1,-21,99,4.104,4.098,4.1,4.089,0,0,16.424,82.31,6,P-GPS,
0.37900031220599,36.9222530957908,5474.0770544356,155.511816,0,0.42727035488,18600,2018-04-15 05:37:35,17,0,16.247,5474.0770544356,155.511816,0,0.85878611672,0,0,-10.961006,144.9, -1.9, -0.4,0,1,1024,1024,1684,1024,145.1,-21.3,99,4.104,4.098,4.1,4.089,0,0,16.424,82.31,6,P-GPS,
0.37900039206692,36.9222530700893,5477.3578944356,158.792656,0,0.45137468636,18800,2018-04-15 05:37:36,17,0,16.247,5477.3578944356,158.792656,0,0.85878611672,0,0,-11.1847,144.9, -2, -0.5,0,1,1024,1024,1684,1024,145.1,-21.9,99,4.104,4.098,4.1,4.089,0,0,16.424,82.31,6,P-GPS,
0.379000407680644,36.9222530707767,5478.9983144356,160.433076,0,0.45448820352,18900,2018-04-15 05:37:36,17,0,16.247,5478.9983144356,160.433076,0,0.85878611672,0,0,-11.1847,144.9, -2, -0.3,0,1,1024,1024,1684,1024,145.1,-22.6,99,4.104,4.098,4.1,4.089,0,0,16.424,82.31,6,P-GPS,
0.379000411014883,36.9222530848747,5480.6387344356,162.073496,0,0.45105316404,19000,2018-04-15 05:37:36,17,0,16.247,5480.6387344356,162.073496,0,0.85878611672,0,0,-11.1847,144.9, -1.9, -0.2,0,1,1024,1024,1681,1024,145.1,-23.8,99,4.104,4.098,4.1,4.089,0,0,16.424,82.31,6,P-GPS,
0.379000398570314,36.922253051333,5482.2791544356,163.713916,0,0.458333348,19100,2018-04-15 05:37:36,17,0,16.22,5482.2791544356,163.713916,0,0.85878611672,0,0,-11.1847,144.9, -1.7, -0.4,0,1,1024,1024,1683,1024,145.1,-23.8,99,4.096,4.096,4.098,4.086,0,0,16.168,84.11,6,P-GPS,
0.379000383220194,36.9222530323755,5483.9195744356,165.354336,0,0.46085303312,19200,2018-04-15 05:37:36,17,0,16.22,5483.9195744356,165.354336,0,0.85878611672,0,0,-11.1847,144.9, -1.8, -0.8,0,1,1024,1024,1674,1024,145.1,-27.3,99,4.096,4.096,4.098,4.086,0,0,16.168,84.11,6,P-GPS,
0.379000417278693,36.9222530107424,5485.5599944356,166.994756,0,0.47438321728,19300,2018-04-15 05:37:36,17,0,16.22,5485.5599944356,166.994756,0,0.85878611672,0,0,-11.1847,144.9, -1.9, -0.6,0,1,1024,1024,1671,1024,145.1,-29,99,4.096,4.096,4.098,4.086,0,0,16.168,84.11,6,P-GPS,
0.379000463898602,36.9222529916339,5487.2004144356,168.635176,0,0.48990487132,19400,2018-04-15 05:37:36,17,0,16.22,5487.2004144356,168.635176,0,0.85878611672,0,0,-10.961006,144.9, -1.8, -0.2,0,1,1024,1024,1668,1024,145.1,-29.9,99,4.096,4.096,4.098,4.086,0,0,16.168,84.11,6,P-GPS,
0.379000510977122,36.9222529691154,5488.8408344356,170.275596,0,0.50671261464,19500,2018-04-15 05:37:36,17,0,16.22,5488.8408344356,170.275596,0,0.85878611672,0,0,-10.961006,144.9, -1.8, -0.2,0,1,1024,1024,1665,1024,145.1,-29.9,99,4.096,4.096,4.098,4.086,0,0,16.168,84.11,6,P-GPS,
0.379000628472409,36.9222529258642,5492.1216744356,173.556436,0,0.54563978124,19700,2018-04-15 05:37:36,17,0,16.22,5492.1216744356,173.556436,0,0.85878611672,0,0,-10.737312,144.9, -2.2, -0.2,0,1,1024,1024,1666,1024,145.1,-29.9,99,4.096,4.096,4.098,4.086,0,0,16.168,84.11,6,P-GPS,
0.379000676085873,36.9222529178849,5493.7620944356,175.196856,0,0.55906169768,19800,2018-04-15 05:37:37,17,0,16.22,5493.7620944356,175.196856,0,0.85878611672,0,0,-10.737312,144.9, -2.3, -0.2,0,1,1024,1024,1670,1024,145.1,-29.9,99,4.096,4.096,4.098,4.086,0,0,16.168,84.11,6,P-GPS,
0.379000742121109,36.9222529075426,5495.4025144356,176.837276,0,0.57785106836,19900,2018-04-15 05:37:37,17,0,16.22,5495.4025144356,176.837276,0,0.85878611672,0,0,-10.737312,144.9, -2.3, -0.2,0,1,1024,1024,1683,1024,145.1,-29.9,99,4.096,4.096,4.098,4.086,0,0,16.168,84.11,6,P-GPS,
0.379000778044583,36.9222529194073,5497.0429344356,178.477696,0,0.58359910004,20000,2018-04-15 05:37:37,17,0,16.22,5497.0429344356,178.477696,0,0.85878611672,0,0,-10.737312,144.9, -2.1, -0.2,0,1,1024,1024,1683,1024,145.1,-29.9,99,4.096,4.096,4.098,4.086,0,0,16.168,84.11,6,P-GPS,
0.379000833946827,36.9222529303983,5498.6833544356,180.118116,0,0.59499345736,20100,2018-04-15 05:37:37,17,0,16.274,5498.6833544356,180.118116,0,0.85878611672,0,0,-10.737312,144.9, -2, 0.1,0,1,1024,1024,1674,1024,145.1,-29.9,99,4.096,4.096,4.098,4.086,0,0,16.592,84.11,6,P-GPS,
0.379000863581861,36.9222529546951,5500.3237744356,181.758536,0,0.59658466476,20200,2018-04-15 05:37:37,17,0,16.274,5500.3237744356,181.758536,0,0.85878611672,0,0,-10.737312,145, -1.7, 0.2,0,1,1024,1024,1674,1024,145.1,-29.9,99,4.096,4.096,4.098,4.086,0,0,16.592,84.11,6,P-GPS,
0.37900091659728,36.9222529501953,5501.9641944356,183.398956,0,0.61187337916,20300,2018-04-15 05:37:37,17,0,16.274,5501.9641944356,183.398956,0,0.85878611672,0,0,-10.737312,144.9, -1.9, 0,0,1,1024,1024,1684,1024,145.1,-29.9,99,4.096,4.096,4.098,4.086,0,0,16.592,84.11,6,P-GPS,
0.37900094467308,36.9222529564081,5503.2765304356,184.711292,0,0.6179790224,20400,2018-04-15 05:37:37,17,0,16.274,5503.2765304356,184.711292,0,0.85878611672,0,0,-10.961006,145, -2.1, -0.1,0,1,1024,1024,1684,1024,145.1,-29.9,99,4.096,4.096,4.098,4.086,0,0,16.592,84.11,6,P-GPS,
0.379000955445135,36.9222529028661,5504.9169504356,186.351712,0,0.63398624076,20500,2018-04-15 05:37:37,17,0,16.274,5504.9169504356,186.351712,0,0.85878611672,0,0,-10.961006,145, -1.9, 0,0,1,1024,1024,1684,1024,145.1,-29.9,99,4.096,4.096,4.098,4.086,0,0,16.592,84.11,6,P-GPS,
0.37900094830797,36.9222528797877,5506.5573704356,187.992132,0,0.63782154272,20600,2018-04-15 05:37:37,17,0,16.274,5506.5573704356,187.992132,0,0.85878611672,0,0,-10.961006,144.9, -1.9, 0,0,1,1024,1024,1675,1024,145.1,-29.9,99,4.096,4.096,4.098,4.086,0,0,16.592,84.11,6,P-GPS,
0.379000975212817,36.9222528473242,5508.1977904356,189.632552,0,0.65309057208,20700,2018-04-15 05:37:38,17,0,16.274,5508.1977904356,189.632552,0,0.85878611672,0,0,-10.961006,145, -1.7, -0.2,0,1,1024,1024,1684,1024,145.1,-29.9,99,4.096,4.096,4.098,4.086,0,0,16.592,84.11,6,P-GPS,
0.379000981854833,36.922252834026,5509.8382104356,191.272972,0,0.65819227828,20800,2018-04-15 05:37:38,17,0,16.274,5509.8382104356,191.272972,0,0.85878611672,0,0,-10.961006,144.9, -1.5, -0.6,0,1,1024,1024,1684,1024,145.1,-29.9,99,4.096,4.096,4.098,4.086,0,0,16.592,84.11,6,P-GPS,
0.379001004425779,36.9222527751019,5511.4786304356,192.913392,0,0.67906170152,20900,2018-04-15 05:37:38,17,0,16.274,5511.4786304356,192.913392,0,0.85878611672,0,0,-10.961006,144.9, -1.5, -0.3,0,1,1024,1024,1684,1024,145.1,-29.9,99,4.096,4.096,4.098,4.086,0,0,16.592,84.11,6,P-GPS,
0.379001025909026,36.9222527445548,5513.1190504356,194.553812,0,0.69246721376,21000,2018-04-15 05:37:38,17,0,16.274,5513.1190504356,194.553812,0,0.85878611672,0,0,-10.961006,144.9, -1.8, -0.2,0,1,1024,1024,1683,1024,145.1,-29.9,99,4.096,4.096,4.098,4.086,0,0,16.592,84.11,6,P-GPS,
0.37900106237345,36.922252712451,5514.7594704356,196.194232,0,0.71016406472,21100,2018-04-15 05:37:38,17,0,16.301,5514.7594704356,196.194232,0,0.85878611672,0,0,-10.961006,144.9, -2.1, -0.1,0,1,1024,1024,1684,1024,145.1,-29.9,98,4.092,4.093,4.1,4.088,0,0,16.592,84.11,6,P-GPS,
0.379001089363993,36.9222526994344,5516.3998904356,197.834652,0,0.72051839576,21200,2018-04-15 05:37:38,17,0,16.301,5516.3998904356,197.834652,0,0.85878611672,0,0,-10.961006,144.9, -2.5, 0.2,0,1,1024,1024,1684,1024,145.1,-29.9,98,4.092,4.093,4.1,4.088,0,0,16.592,84.11,6,P-GPS,
0.379001135942275,36.9222526855783,5518.0403104356,199.475072,0,0.7362533044,21300,2018-04-15 05:37:38,17,0,16.301,5518.0403104356,199.475072,0,0.85878611672,0,0,-11.1847,144.9, -2.4, 0,0,1,1024,1024,1684,1024,145.1,-29.9,98,4.092,4.093,4.1,4.088,0,0,16.592,84.11,6,P-GPS,
0.379001147407233,36.9222526930492,5519.6807304356,201.115492,0,0.73741144092,21400,2018-04-15 05:37:38,17,0,16.301,5519.6807304356,201.115492,0,0.85878611672,0,0,-11.1847,144.9, -2.3, -0.1,0,1,1024,1024,1684,1024,145.1,-29.9,98,4.092,4.093,4.1,4.088,0,0,16.592,84.11,6,P-GPS,
0.379001169870498,36.9222527110036,5521.3211504356,202.755912,0,0.73895671656,21500,2018-04-15 05:37:38,17,0,16.301,5521.3211504356,202.755912,0,0.85878611672,0,0,-10.961006,144.9, -1.9, 0.1,0,1,1024,1024,1684,1024,145.1,-29.9,98,4.092,4.093,4.1,4.088,0,0,16.592,84.11,6,P-GPS,
0.379001165337215,36.9222527411845,5522.9615704356,204.396332,0,0.73032810736,21600,2018-04-15 05:37:38,17,0,16.301,5522.9615704356,204.396332,0,0.85878611672,0,0,-11.1847,144.9, -1.5, 0.1,0,1,1024,1024,1684,1024,145.1,-29.9,98,4.092,4.093,4.1,4.088,0,0,16.592,84.11,6,P-GPS,
0.379001197006177,36.9222527534549,5524.6019904356,206.036752,0,0.73601380308,21700,2018-04-15 05:37:38,17,0,16.301,5524.6019904356,206.036752,0,0.85878611672,0,0,-11.1847,144.9, -1.5, 0,0,1,1024,1024,1684,1024,145.1,-29.9,98,4.092,4.093,4.1,4.088,0,0,16.592,84.11,6,P-GPS,
0.379001208760692,36.9222527743311,5526.2424104356,207.677172,0,0.73428808124,21800,2018-04-15 05:37:38,17,0,16.301,5526.2424104356,207.677172,0,0.85878611672,0,0,-11.1847,144.9, -1.5, 0,0,1,1024,1024,1684,1024,145.1,-29.9,98,4.092,4.093,4.1,4.088,0,0,16.592,84.11,6,P-GPS,
0.379001236187557,36.9222527681247,5527.8828304356,209.317592,0,0.7433891314,21900,2018-04-15 05:37:39,18,0,16.301,5527.8828304356,209.317592,0,0.85878611672,0,0,-11.1847,144.9, -1.4, 0,0,1,1024,1024,1684,1024,145.1,-29.9,98,4.092,4.093,4.1,4.088,0,0,16.592,84.11,6,P-GPS,
0.379001261754331,36.9222527562247,5529.8513344356,211.286096,0,0.75332679576,22000,2018-04-15 05:37:39,18,0,16.301,5529.8513344356,211.286096,0,0.85878611672,0,0,-11.1847,144.9, -1.6, -0.1,0,1,1024,1024,1684,1024,145.1,-29.9,98,4.092,4.093,4.1,4.088,0,0,16.592,84.11,6,P-GPS,
0.379001265439703,36.9222527564634,5531.4917544356,212.926516,0,0.75430448608,22100,2018-04-15 05:37:39,18,0,16.113,5531.4917544356,212.926516,0,0.85878611672,0,0,-10.961006,144.9, -1.6, -0.1,0,1,1024,1024,1684,1024,145.1,-29.9,98,4.085,4.075,4.078,4.086,0,0,16.556,84.11,6,P-GPS,
0.379001260253415,36.9222527659781,5533.1321744356,214.566936,0,0.75062994528,22200,2018-04-15 05:37:39,18,0,16.113,5533.1321744356,214.566936,0,0.85878611672,0,0,-11.1847,144.9, -1.5, 0,0,1,1024,1024,1684,1024,145.1,-29.9,98,4.085,4.075,4.078,4.086,0,0,16.556,84.11,6,P-GPS,
0.379001268486013,36.9222527550866,5534.4445104356,215.879272,0,0.7554790268,22300,2018-04-15 05:37:39,18,0,16.113,5534.4445104356,215.879272,0,0.85878611672,0,0,-10.961006,144.9, -1.4, -0.1,0,1,1024,1024,1684,1024,145.1,-29.9,98,4.085,4.075,4.078,4.086,0,0,16.556,84.11,6,P-GPS,
0.379001264142546,36.9222527601346,5536.0849304356,217.519692,0,0.7530840136,22400,2018-04-15 05:37:39,18,0,16.113,5536.0849304356,217.519692,0,0.85878611672,0,0,-10.961006,144.9, -1.3, 0,0,1,1024,1024,1684,1024,145.1,-29.9,98,4.085,4.075,4.078,4.086,0,0,16.556,84.11,6,P-GPS,
0.379001279109575,36.922252744951,5537.7253504356,219.160112,0,0.76082351516,22500,2018-04-15 05:37:39,18,0,16.113,5537.7253504356,219.160112,0,0.85878611672,0,0,-11.1847,144.9, -1.5, 0,0,1,1024,1024,1684,1024,145.1,-29.9,98,4.085,4.075,4.078,4.086,0,0,16.556,84.11,6,P-GPS,
0.379001277467391,36.9222527421556,5539.6938544356,221.128616,0,0.76101708472,22600,2018-04-15 05:37:39,18,0,16.113,5539.6938544356,221.128616,0,0.85878611672,0,0,-11.1847,144.9, -1.6, -0.1,0,1,1024,1024,1684,1024,145.1,-29.9,98,4.085,4.075,4.078,4.086,0,0,16.556,84.11,6,P-GPS,
