latitude,longitude,altitude(feet),ascent(feet),speed(mph),distance(feet),time(millisecond),datetime(utc),satellites,voltage(v),max_altitude(feet),max_ascent(feet),max_speed(mph),max_distance(feet),compass_heading(degrees), pitch(degrees), roll(degrees),isPhoto,isVideo,rc_elevator,rc_aileron,rc_throttle,rc_rudder,gimbal_heading(degrees),gimbal_pitch(degrees),battery_percent,voltageCell1,voltageCell2,voltageCell3,voltageCell4,voltageCell5,voltageCell6,battery_temperature(f),flycStateRaw,flycState,message
0.353320494506787,36.8836847200068,5803.1535567639,0,0,0,100,2017-11-11 06:26:38,9,0,5803.1535567639,0,0,0,161.7, -2.4, 0.5,0,0,1024,1024,1024,1024,0,0,100,4.309,4.311,4.31,4.309,0,0,78.71,41,Motors_Started,
0.353320458166431,36.8836846817848,5803.1535567639,0,0,0.0192420937916,200,2017-11-11 06:26:38,9,0,5803.1535567639,0,0,0.0192420937916,161.7, -2.4, 0.5,0,0,1024,1024,1024,1024,166.3,0,100,4.309,4.311,4.31,4.309,0,0,78.71,41,Motors_Started,
0.353320435582355,36.8836846627726,5803.1535567639,0,0,0.0299703749748,300,2017-11-11 06:26:38,9,0,5803.1535567639,0,0,0.0299703749748,161.7, -2.4, 0.5,0,0,1024,1024,1024,1024,166.2,0,100,4.309,4.311,4.31,4.309,0,0,78.71,41,Motors_Started,
0.353320419954586,36.8836846457035,5803.1535567639,0,0,0.038402560284,400,2017-11-11 06:26:38,9,0,5803.1535567639,0,0,0.038402560284,161.7, -2.4, 0.5,0,0,1024,1024,1024,1024,166.2,0,100,4.309,4.311,4.31,4.309,0,0,78.71,41,Motors_Started,
0.353320399278385,36.8836846233671,5803.1535567639,0,0,0.049500329668,500,2017-11-11 06:26:39,9,0,5803.1535567639,0,0,0.049500329668,161.7, -2.4, 0.5,0,0,1024,1024,1024,1024,166.2,0,100,4.309,4.311,4.31,4.309,0,0,78.71,41,Motors_Started,
0.353320371210015,36.8836845949967,5803.1535567639,0,0,0.064061025672,600,2017-11-11 06:26:39,9,0,5803.1535567639,0,0,0.064061025672,161.7, -2.5, 0.5,0,0,1024,1024,1024,1024,166.2,0,100,4.309,4.311,4.31,4.309,0,0,78.71,41,Motors_Started,
0.353320351996819,36.883684558791,5803.1535567639,0,0,0.078504923772,700,2017-11-11 06:26:39,9,0,5803.1535567639,0,0,0.078504923772,161.7, -2.4, 0.5,0,0,1024,1024,1024,1024,166.2,0,100,4.309,4.311,4.31,4.309,0,0,78.71,41,Motors_Started,
0.35332034087475,36.88368451578,5803.1535567639,0,0,0.093240160464,800,2017-11-11 06:26:39,9,0,5803.1535567639,0,0,0.093240160464,161.7, -2.5, 0.5,0,0,1024,1024,1024,1024,166.2,0,100,4.309,4.311,4.31,4.309,0,0,78.71,41,Motors_Started,
0.35332034063089,36.8836844853902,5803.1535567639,0,0,0.102366473092,900,2017-11-11 06:26:39,9,17.234,5803.1535567639,0,0,0.102366473092,161.7, -2.5, 0.5,0,0,1024,1024,1024,1024,166.2,0,100,4.309,4.311,4.31,4.309,0,0,78.71,41,Motors_Started,Setting new Return-To-Home altitude to 30m (98 ft). Setting new Maximum Flight Altitude to 150m (492 ft)
0.353320340400873,36.8836844653976,5803.1535567639,0,0,0.108583008724,1000,2017-11-11 06:26:39,9,17.234,5803.1535567639,0,0,0.108583008724,161.7, -2.5, 0.5,0,0,1024,1024,1024,1024,166.2,0,100,4.309,4.311,4.31,4.309,0,0,78.71,41,Motors_Started,
0.353320327300499,36.8836844382503,5803.1535567639,0,0,0.11953576498,1100,2017-11-11 06:26:39,9,17.234,5803.1535567639,0,0,0.11953576498,161.6, -2.6, 0.6,0,0,1024,1024,1024,1024,166.2,0,100,4.309,4.311,4.31,4.309,0,0,78.71,41,Motors_Started,
0.353320305482402,36.8836844027698,5803.1535567639,0,0,0.134730647356,1200,2017-11-11 06:26:39,9,17.234,5803.1535567639,0,0,0.134730647356,161.7, -2.4, 0.4,0,0,509,437,438,1643,166.2,0,100,4.309,4.311,4.31,4.309,0,0,78.71,41,Motors_Started,
0.353320296220576,36.8836843832188,5803.1535567639,0,0,0.142589899576,1300,2017-11-11 06:26:39,9,17.234,5803.1535567639,0,0,0.142589899576,161.7, -2.3, 0.4,0,0,821,693,599,1515,166.1,0,100,4.309,4.311,4.31,4.309,0,0,78.71,41,Motors_Started,
0.353320286903587,36.8836843666377,5803.1535567639,0,0,0.149527891924,1400,2017-11-11 06:26:39,9,17.234,5803.1535567639,0,0,0.149527891924,161.6, -2.6, 0.6,0,0,1024,1024,917,1187,165.7,0,100,4.309,4.311,4.31,4.309,0,0,78.71,41,Motors_Started,
0.353320259105539,36.8836843652739,5803.1535567639,0,0,0.155326776624,1500,2017-11-11 06:26:40,9,17.234,5803.1535567639,0,0,0.155326776624,161.6, -2.6, 0.6,0,0,1024,1024,1024,1024,165.7,0,100,4.309,4.311,4.31,4.309,0,0,78.71,41,Motors_Started,
0.353320229180743,36.883684362474,5803.1535567639,0,0,0.162438981576,1600,2017-11-11 06:26:40,9,17.234,5803.1535567639,0,0,0.162438981576,161.7, -2.6, 0.6,0,0,1024,1024,1024,1024,164.5,0,100,4.309,4.311,4.31,4.309,0,0,78.71,10,Assisted_Takeoff,
0.353320208613699,36.8836843753517,5803.1535567639,0,0,0.163376645648,1700,2017-11-11 06:26:40,9,17.234,5803.1535567639,0,0,0.163376645648,161.6, -2.3, 0.4,0,0,1024,1024,1024,1024,163.5,0,100,4.309,4.311,4.31,4.309,0,0,78.71,10,Assisted_Takeoff,
0.353320200163194,36.8836843825442,5803.1535567639,0,0,0.163375333312,1800,2017-11-11 06:26:40,9,17.234,5803.1535567639,0,0,0.163376645648,161.7, -2.4, 0.4,0,0,1024,1024,1024,1024,163,0,100,4.309,4.311,4.31,4.309,0,0,78.71,10,Assisted_Takeoff,
0.353320193403828,36.8836843984333,5803.1535567639,0,0,0.160728023516,1900,2017-11-11 06:26:40,9,17.207,5803.1535567639,0,0,0.163376645648,161.7, -2.5, 0.5,0,0,1024,1024,1024,1024,162.8,0,100,4.309,4.311,4.31,4.309,0,0,78.71,10,Assisted_Takeoff,
0.353320192747056,36.8836844066326,5803.1535567639,0,0,0.158723430276,2000,2017-11-11 06:26:40,9,17.207,5803.1535567639,0,0,0.163376645648,161.7, -2.4, 0.4,0,0,1024,1024,1024,1024,162.6,0,100,4.309,4.311,4.31,4.309,0,0,78.71,10,Assisted_Takeoff,
0.353320175919581,36.8836844018922,5803.1535567639,0,0,0.164259519692,2100,2017-11-11 06:26:40,9,17.207,5803.1535567639,0,0,0.164259519692,161.7, -2.4, 0.5,0,0,1024,1024,1024,1024,162.5,0,100,4.309,4.311,4.31,4.309,0,0,78.71,10,Assisted_Takeoff,
0.353320151716629,36.8836843812282,5803.1535567639,0,0,0.175837604052,2200,2017-11-11 06:26:40,9,17.207,5803.1535567639,0,0,0.175837604052,161.7, -2.4, 0.4,0,0,1024,1024,1024,1024,162.4,0,100,4.309,4.311,4.31,4.309,0,0,78.71,10,Assisted_Takeoff,
0.35332015310162,36.8836843656866,5803.1535567639,0,0,0.17951772228,2300,2017-11-11 06:26:40,9,17.207,5803.1535567639,0,0,0.17951772228,161.7, -2.4, 0.4,0,0,1024,1024,1024,1024,162.3,0,100,4.309,4.311,4.31,4.309,0,0,78.71,10,Assisted_Takeoff,
0.353320172173499,36.8836843552778,5803.1535567639,0,0,0.17758858836,2400,2017-11-11 06:26:40,9,17.207,5803.1535567639,0,0,0.17951772228,161.7, -2.4, 0.4,0,0,1024,1024,1024,1024,162.3,0,100,4.309,4.311,4.31,4.309,0,0,78.71,10,Assisted_Takeoff,
0.353320178526364,36.8836843340136,5803.1535567639,0,0,0.181996724984,2500,2017-11-11 06:26:41,12,17.207,5803.1535567639,0,0,0.181996724984,161.6, -2.4, 0.4,0,0,1024,1024,1024,1024,162.3,0,100,4.309,4.311,4.31,4.309,0,0,78.71,10,Assisted_Takeoff,
0.353320165567105,36.883684300586,5803.1535567639,0,0,0.194471462916,2600,2017-11-11 06:26:41,12,17.207,5803.1535567639,0,0,0.194471462916,161.6, -2.4, 0.4,0,0,1024,1024,1024,1024,162.2,0,100,4.309,4.311,4.31,4.309,0,0,78.71,10,Assisted_Takeoff,
0.353320149091984,36.8836842672304,5803.1535567639,0,0,0.207775269116,2700,2017-11-11 06:26:41,12,17.207,5803.1535567639,0,0,0.207775269116,161.7, -2.4, 0.4,0,0,1024,1024,1024,1024,162.2,0,100,4.309,4.311,4.31,4.309,0,0,78.71,10,Assisted_Takeoff,
0.353320146879234,36.8836842478786,5803.1535567639,0,0,0.21390912758,2800,2017-11-11 06:26:41,12,17.207,5803.1535567639,0,0,0.21390912758,161.6, -2.4, 0.4,0,0,1024,1024,1024,1024,162.1,0,100,4.309,4.311,4.31,4.309,0,0,78.71,10,Assisted_Takeoff,
0.353320117270764,36.8836842095908,5803.1535567639,0,0,0.23156332762,2900,2017-11-11 06:26:41,12,17.015,5803.1535567639,0,0,0.23156332762,161.6, -2.4, 0.4,0,0,1024,1024,1024,1024,162.1,0,100,4.283,4.283,4.313,4.306,0,0,78.71,10,Assisted_Takeoff,
0.353320067107666,36.8836841211071,5803.1535567639,0,0,0.268440297304,3100,2017-11-11 06:26:41,12,17.015,5803.1535567639,0,0,0.268440297304,161.6, -2.4, 0.4,0,0,1024,1024,1024,1024,162.1,0,100,4.283,4.283,4.313,4.306,0,0,78.71,10,Assisted_Takeoff,
0.353320054339037,36.883684071734,5803.1535567639,0,0,0.285886820172,3200,2017-11-11 06:26:41,12,17.015,5803.1535567639,0,0,0.285886820172,161.6, -2.4, 0.4,0,0,1024,1024,1024,1024,162.1,0,100,4.283,4.283,4.313,4.306,0,0,78.71,10,Assisted_Takeoff,
0.353320017547601,36.8836840334019,5803.1535567639,0,0,0.30501477354,3300,2017-11-11 06:26:41,12,17.015,5803.1535567639,0,0,0.30501477354,161.6, -2.4, 0.4,0,0,1024,1024,1024,1024,162.1,0,100,4.283,4.283,4.313,4.306,0,0,78.71,10,Assisted_Takeoff,
0.353319985034903,36.8836840071514,5803.1535567639,0,0,0.319676519416,3400,2017-11-11 06:26:41,12,17.015,5803.1535567639,0,0,0.319676519416,161.6, -2.4, 0.4,0,0,1024,1024,1024,1024,162.1,0,100,4.283,4.283,4.313,4.306,0,0,78.71,10,Assisted_Takeoff,
0.353319929460078,36.8836839700419,5803.1535567639,0,0,0.34259187448,3500,2017-11-11 06:26:42,12,17.015,5803.1535567639,0,0,0.34259187448,161.6, -2.4, 0.4,0,0,1024,1024,1024,1024,162,0,100,4.283,4.283,4.313,4.306,0,0,78.71,10,Assisted_Takeoff,
0.353319884368871,36.8836839297845,5803.1535567639,0,0,0.36424541848,3600,2017-11-11 06:26:42,12,17.015,5803.1535567639,0,0,0.36424541848,161.6, -2.4, 0.4,0,0,1024,1024,1024,1024,162,0,100,4.283,4.283,4.313,4.306,0,0,78.71,10,Assisted_Takeoff,
0.353319844072516,36.883683903674,5803.1535567639,0,0,0.38081694132,3700,2017-11-11 06:26:42,12,17.015,5803.1535567639,0,0,0.38081694132,161.6, -2.3, 0.4,0,0,1024,1024,1024,1024,162,0,100,4.283,4.283,4.313,4.306,0,0,78.71,10,Assisted_Takeoff,
0.353319781520928,36.88368385314,5803.1535567639,0,0,0.40950788712,3900,2017-11-11 06:26:42,12,17.207,5803.1535567639,0,0,0.40950788712,161.6, -2.4, 0.4,0,0,1024,1024,1024,1024,162,0,100,4.298,4.305,4.305,4.303,0,0,78.71,10,Assisted_Takeoff,
0.353319748817193,36.8836838198503,5803.1535567639,0,0,0.42646982992,4000,2017-11-11 06:26:42,12,17.207,5803.1535567639,0,0,0.42646982992,161.6, -2.4, 0.4,0,0,1024,1024,1024,1024,162,0,100,4.298,4.305,4.305,4.303,0,0,78.71,10,Assisted_Takeoff,
0.353319695619795,36.8836837993424,5803.1535567639,0,0,0.44472770452,4100,2017-11-11 06:26:42,12,17.207,5803.1535567639,0,0,0.44472770452,161.6, -2.3, 0.4,0,0,1024,1024,1024,1024,162,0,100,4.298,4.305,4.305,4.303,0,0,78.71,10,Assisted_Takeoff,
0.353319653256435,36.8836837843644,5803.1535567639,0,0,0.45905841364,4200,2017-11-11 06:26:42,12,17.207,5803.1535567639,0,0,0.45905841364,161.6, -2.3, 0.4,0,0,1024,1024,1061,1024,162,0,100,4.298,4.305,4.305,4.303,0,0,78.71,10,Assisted_Takeoff,
0.353319594201728,36.8836837827496,5803.1535567639,0,0,0.47416012016,4300,2017-11-11 06:26:42,12,17.207,5803.1535567639,0,0,0.47416012016,161.6, -2.4, 0.4,0,0,1024,1024,1122,1024,162,0,100,4.298,4.305,4.305,4.303,0,0,78.71,10,Assisted_Takeoff,
0.353319546199575,36.8836837799465,5803.1535567639,0,0,0.48717521244,4400,2017-11-11 06:26:42,12,17.207,5803.1535567639,0,0,0.48717521244,161.6, -2.3, 0.4,0,0,1024,1024,1181,1024,162,0,100,4.298,4.305,4.305,4.303,0,0,78.71,10,Assisted_Takeoff,
0.353319494077561,36.8836837457965,5803.1535567639,0,0,0.50947180108,4600,2017-11-11 06:26:43,12,17.207,5803.1535567639,0,0,0.50947180108,161.6, -2.1, 0.2,0,0,1024,1024,1190,1024,162,0,100,4.298,4.305,4.305,4.303,0,0,78.71,10,Assisted_Takeoff,
0.353319464896252,36.8836837567064,5803.1535567639,0,0,0.51442586948,4700,2017-11-11 06:26:43,12,17.207,5803.1535567639,0,0,0.51442586948,161.6, -1.8, 0,0,0,1024,1024,1207,1024,162,0,100,4.298,4.305,4.305,4.303,0,0,78.71,10,Assisted_Takeoff,
0.353319439237267,36.8836837755035,5803.1535567639,0,0,0.51670277244,4800,2017-11-11 06:26:43,12,17.207,5803.1535567639,0,0,0.51670277244,161.6, -1.7, 0,0,0,1024,1024,1234,1024,162,0,100,4.298,4.305,4.305,4.303,0,0,78.71,10,Assisted_Takeoff,
0.353319386199762,36.8836837792087,5803.1535567639,0,0,0.53040356028,4900,2017-11-11 06:26:43,12,17.179,5803.1535567639,0,0,0.53040356028,161.7, -1.7, -0.1,0,0,1024,1024,1251,1024,162,0,100,4.302,4.305,4.305,4.304,0,0,78.71,10,Assisted_Takeoff,
0.353319347010036,36.8836837722579,5803.1535567639,0,0,0.5429954242,5000,2017-11-11 06:26:43,12,17.179,5803.1535567639,0,0,0.5429954242,162, -0.9, 0.1,0,0,1024,1024,1260,1024,162,0,100,4.302,4.305,4.305,4.304,0,0,78.71,10,Assisted_Takeoff,
0.353319289977754,36.8836837793274,5803.1535567639,0,0,0.55760172388,5100,2017-11-11 06:26:43,12,17.179,5803.1535567639,0,0,0.55760172388,162.4, 1.4, 1.3,0,0,1024,1024,1284,1024,162,0,100,4.302,4.305,4.305,4.304,0,0,78.71,10,Assisted_Takeoff,
0.353319210289033,36.88368372723,5803.1535567639,0,0,0.5922244284,5300,2017-11-11 06:26:43,12,17.179,5803.1535567639,0,0,0.5922244284,162.6, 1.2, 0.7,0,0,1024,1024,1287,1024,162,0,100,4.302,4.305,4.305,4.304,0,0,78.71,6,GPS_Atti,
0.353319189988036,36.883683664547,5803.1535567639,0,0,0.6122211482,5400,2017-11-11 06:26:43,12,17.179,5803.1535567639,0,0,0.6122211482,162.6, 0.5, 0.2,0,0,1024,1024,1285,1024,162,0,100,4.302,4.305,4.305,4.304,0,0,78.71,6,GPS_Atti,
0.353319149694632,36.8836835860429,5803.4816407639,0.328084,0,0.6417979208,5500,2017-11-11 06:26:44,12,17.179,5803.4816407639,0.328084,0,0.6417979208,162.6, 0, 0,0,0,1024,1024,1282,1024,162,0,100,4.302,4.305,4.305,4.304,0,0,78.71,6,GPS_Atti,
0.353319096635855,36.883683501673,5803.8097247639,0.656168,0,0.67652889304,5600,2017-11-11 06:26:44,12,17.179,5803.8097247639,0.656168,0,0.67652889304,162.6, 0, -0.5,0,0,1024,1024,1281,1024,162,0,100,4.302,4.305,4.305,4.304,0,0,78.71,6,GPS_Atti,
0.353319013059631,36.8836833838394,5804.1378087639,0.984252,0,0.72786747736,5700,2017-11-11 06:26:44,12,17.179,5804.1378087639,0.984252,0,0.72786747736,162.6, 0.9, -0.2,0,0,1024,1024,1281,1024,162,0,100,4.302,4.305,4.305,4.304,0,0,78.71,6,GPS_Atti,
0.353318946908776,36.8836832546133,5804.4658927639,1.312336,0,0.77759516924,5800,2017-11-11 06:26:44,12,17.179,5804.4658927639,1.312336,0,0.77759516924,162.5, 0.8, -0.5,0,0,1024,1024,1281,1024,162,0,100,4.302,4.305,4.305,4.304,0,0,78.71,6,GPS_Atti,
0.353318919191844,36.8836831110434,5804.7939767639,1.64042,0,0.82154202104,5900,2017-11-11 06:26:44,12,17.015,5804.7939767639,1.64042,0,0.82154202104,162.6, 0, -1.2,0,0,1024,1024,1277,1024,162,0,100,4.302,4.305,4.305,4.304,0,0,78.71,6,GPS_Atti,
0.353318915619445,36.883682997684,5805.1220607639,1.968504,0,0.85246721888,6000,2017-11-11 06:26:44,12,17.015,5805.1220607639,1.968504,0,0.85246721888,162.7, -0.6, -1.4,0,0,1024,1024,1277,1024,162,0,100,4.302,4.305,4.305,4.304,0,0,78.71,6,GPS_Atti,Home Point Recorded. RTH Altitude:  30m.
0.353318890576827,36.8836828819726,5805.4501447639,2.296588,0,0.8900262752,6100,2017-11-11 06:26:44,12,17.015,5805.4501447639,2.296588,0,0.8900262752,162.7, -0.7, -1.4,0,0,1024,1024,1277,1024,162.1,0,100,4.302,4.305,4.305,4.304,0,0,78.71,6,GPS_Atti,
0.353318839250511,36.8836827729237,5806.1063127639,2.952756,0,0.93239176212,6200,2017-11-11 06:26:44,12,17.015,5806.1063127639,2.952756,0,0.93239176212,162.6, -0.3, -1.8,0,0,1024,1024,1278,1024,162.1,0,100,4.302,4.305,4.305,4.304,0,0,78.71,6,GPS_Atti,
0.353318759939385,36.8836826686492,5806.4343967639,3.28084,0,0.98012470328,6300,2017-11-11 06:26:44,12,17.015,5806.4343967639,3.28084,0,0.98012470328,162.6, 0.5, -2.1,0,0,1024,1024,1279,1024,162.1,0,100,4.302,4.305,4.305,4.304,0,0,78.71,6,GPS_Atti,
0.353318690415818,36.8836825692237,5806.7624807639,3.608924,0,1.02420935036,6400,2017-11-11 06:26:44,12,17.015,5806.7624807639,3.608924,0,1.02420935036,162.5, 1, -1.9,0,0,1024,1024,1280,1024,162.1,0,100,4.302,4.305,4.305,4.304,0,0,78.71,6,GPS_Atti,
0.353318635802692,36.883682465245,5807.0905647639,3.937008,0.223694,1.06611880052,6500,2017-11-11 06:26:45,12,17.015,5807.0905647639,3.937008,0.223694,1.06611880052,162.4, 0.7, -2.2,0,0,1024,1024,1279,1024,162.1,0,100,4.302,4.305,4.305,4.304,0,0,78.71,6,GPS_Atti,
0.353318619552449,36.8836823571024,5807.7467327639,4.593176,0,1.1005249696,6600,2017-11-11 06:26:45,12,17.015,5807.7467327639,4.593176,0.223694,1.1005249696,162.3, 0, -2.8,0,0,1024,1024,1279,1024,162.1,0,100,4.302,4.305,4.305,4.304,0,0,78.71,6,GPS_Atti,
0.353318632504279,36.8836822889796,5808.0748167639,4.92126,0,1.11722116436,6700,2017-11-11 06:26:45,12,17.015,5808.0748167639,4.92126,0.223694,1.11722116436,162.3, -0.9, -2.6,0,0,1024,1024,1282,1024,162.1,0,100,4.302,4.305,4.305,4.304,0,0,78.71,6,GPS_Atti,
0.353318676763555,36.8836822525651,5808.4029007639,5.249344,0,1.1181430804,6800,2017-11-11 06:26:45,12,17.015,5808.4029007639,5.249344,0.223694,1.1181430804,162.3, -1.8, -1.8,0,0,1024,1024,1287,1024,162.1,0,100,4.302,4.305,4.305,4.304,0,0,78.71,6,GPS_Atti,
0.353318701115917,36.8836822064291,5809.0590687639,5.905512,0,1.126558435,6900,2017-11-11 06:26:45,12,16.66,5809.0590687639,5.905512,0.223694,1.126558435,162.3, -2, -1.7,0,0,1024,1024,1288,1024,162.1,0,100,4.221,4.223,4.223,4.217,0,0,78.71,6,GPS_Atti,
0.353318712833386,36.8836821396156,5809.3871527639,6.233596,0,1.14405187388,7000,2017-11-11 06:26:45,12,16.66,5809.3871527639,6.233596,0.223694,1.14405187388,162.3, -1.7, -1.9,0,0,1024,1024,1286,1024,162.1,0,100,4.221,4.223,4.223,4.217,0,0,78.71,6,GPS_Atti,
0.353318710208945,36.8836820869695,5809.7152367639,6.56168,0,1.16044623136,7100,2017-11-11 06:26:45,12,16.66,5809.7152367639,6.56168,0.223694,1.16044623136,162.3, -1.3, -2,0,0,1024,1024,1281,1024,162.1,0,100,4.221,4.223,4.223,4.217,0,0,78.71,6,GPS_Atti,
0.353318720728896,36.8836820590915,5810.0433207639,6.889764,0,1.166748725,7200,2017-11-11 06:26:45,12,16.66,5810.0433207639,6.889764,0.223694,1.166748725,162.4, -1, -1.4,0,0,1024,1024,1282,1024,162.1,0,100,4.221,4.223,4.223,4.217,0,0,78.71,6,GPS_Atti,
0.353318725010076,36.8836820350137,5810.6994887639,7.545932,0,1.17320541812,7300,2017-11-11 06:26:45,12,16.66,5810.6994887639,7.545932,0.223694,1.17320541812,162.4, -1.2, -1,0,0,1024,1024,1281,1024,162.1,0,100,4.221,4.223,4.223,4.217,0,0,78.71,6,GPS_Atti,
0.353318730158808,36.8836819947427,5811.0275727639,7.874016,0,1.1844816652,7400,2017-11-11 06:26:45,12,16.66,5811.0275727639,7.874016,0.223694,1.1844816652,162.4, -1.5, -1.7,0,0,1024,1024,1286,1024,162.1,0,100,4.221,4.223,4.223,4.217,0,0,78.71,6,GPS_Atti,
0.353318696478515,36.8836819621123,5811.3556567639,8.2021,0,1.20115817492,7500,2017-11-11 06:26:46,12,16.66,5811.3556567639,8.2021,0.223694,1.20115817492,162.4, -1.7, -2.3,0,0,1024,1024,1287,1024,162.1,0,100,4.221,4.223,4.223,4.217,0,0,78.71,6,GPS_Atti,
0.353318654433923,36.8836819477328,5811.6837407639,8.530184,0,1.21397313596,7600,2017-11-11 06:26:46,12,16.66,5811.6837407639,8.530184,0.223694,1.21397313596,162.4, -1.4, -2,0,0,1024,1024,1287,1024,162.1,0,100,4.221,4.223,4.223,4.217,0,0,78.71,6,GPS_Atti,
0.353318600674712,36.8836819196428,5812.3399087639,9.186352,0,1.23340227044,7700,2017-11-11 06:26:46,12,16.66,5812.3399087639,9.186352,0.223694,1.23340227044,162.4, -1.2, -1.7,0,0,1024,1024,1287,1024,162.1,0,100,4.221,4.223,4.223,4.217,0,0,78.71,6,GPS_Atti,
0.353318567376086,36.8836818750147,5812.6679927639,9.514436,0,1.25369754668,7800,2017-11-11 06:26:46,12,16.66,5812.6679927639,9.514436,0.223694,1.25369754668,162.4, -1.3, -1.8,0,0,1024,1024,1287,1024,162.1,0,100,4.221,4.223,4.223,4.217,0,0,78.71,6,GPS_Atti,
0.353318511000373,36.8836818156855,5812.9960767639,9.84252,0,1.28316277072,7900,2017-11-11 06:26:46,12,16.742,5812.9960767639,9.84252,0.223694,1.28316277072,162.4, -1.3, -2,0,0,1024,1024,1286,1024,162.1,0,100,4.204,4.207,4.213,4.207,0,0,78.71,6,GPS_Atti,
0.353318468387047,36.8836817748055,5813.3241607639,10.170604,0,1.30425529108,8000,2017-11-11 06:26:46,12,16.742,5813.3241607639,10.170604,0.223694,1.30425529108,162.4, -1.3, -2,0,0,1024,1024,1280,1024,162.1,0,100,4.204,4.207,4.213,4.207,0,0,78.71,6,GPS_Atti,
0.353318408934592,36.8836817690859,5813.9803287639,10.826772,0,1.31837602644,8100,2017-11-11 06:26:46,12,16.742,5813.9803287639,10.826772,0.223694,1.31837602644,162.4, -1.4, -2,0,0,1024,1024,1277,1024,162.1,0,100,4.204,4.207,4.213,4.207,0,0,78.71,6,GPS_Atti,
0.353318364995509,36.8836817915703,5814.3084127639,11.154856,0,1.32104991104,8200,2017-11-11 06:26:46,12,16.742,5814.3084127639,11.154856,0.223694,1.32104991104,162.4, -1.6, -1.9,0,0,1024,1024,1278,1024,162.1,0,100,4.204,4.207,4.213,4.207,0,0,78.71,6,GPS_Atti,
0.353318327622719,36.883681808794,5814.6364967639,11.48294,0,1.32406828384,8300,2017-11-11 06:26:46,12,16.742,5814.6364967639,11.48294,0.223694,1.32406828384,162.4, -1.7, -1.6,0,0,1024,1024,1283,1024,162.1,0,100,4.204,4.207,4.213,4.207,0,0,78.71,6,GPS_Atti,
0.353318307495965,36.8836818105169,5815.2926647639,12.139108,0,1.32796264092,8400,2017-11-11 06:26:46,12,16.742,5815.2926647639,12.139108,0.223694,1.32796264092,162.4, -1.7, -1.6,0,0,1024,1024,1285,1024,162.1,0,100,4.204,4.207,4.213,4.207,0,0,78.71,6,GPS_Atti,
0.353318268073168,36.8836818057503,5815.6207487639,12.467192,0,1.33803481972,8500,2017-11-11 06:26:47,12,16.742,5815.6207487639,12.467192,0.223694,1.33803481972,162.4, -1.7, -1.8,0,0,1024,1024,1287,1024,162.1,0,100,4.204,4.207,4.213,4.207,0,0,78.71,6,GPS_Atti,
0.353318221209603,36.8836818004999,5815.9488327639,12.795276,0,1.34999676236,8600,2017-11-11 06:26:47,12,16.742,5815.9488327639,12.795276,0.223694,1.34999676236,162.4, -1.7, -2.1,0,0,1024,1024,1291,1024,162.1,0,100,4.204,4.207,4.213,4.207,0,0,78.71,6,GPS_Atti,
0.353318099645648,36.8836818482621,5816.9330847639,13.779528,0,1.36426185468,8800,2017-11-11 06:26:47,12,16.742,5816.9330847639,13.779528,0.223694,1.36426185468,162.3, -1.7, -1.9,0,0,1024,1024,1293,1024,162.1,0,100,4.204,4.207,4.213,4.207,0,0,78.71,6,GPS_Atti,
0.353318049994798,36.8836818872784,5817.2611687639,14.107612,0,1.3651247156,8900,2017-11-11 06:26:47,12,16.742,5817.2611687639,14.107612,0.223694,1.3651247156,162.4, -1.3, -1.6,0,0,1024,1024,1294,1024,162.1,0,100,4.196,4.199,4.206,4.2,0,0,78.71,6,GPS_Atti,
0.353318024794627,36.8836819094164,5817.5892527639,14.435696,0,1.36507222216,9000,2017-11-11 06:26:47,12,16.742,5817.5892527639,14.435696,0.223694,1.3651247156,162.4, -1.4, -1.8,0,0,1024,1024,1292,1024,162.1,0,100,4.196,4.199,4.206,4.2,0,0,78.71,6,GPS_Atti,
0.353317998378212,36.8836819190002,5818.2454207639,15.091864,0,1.36884190732,9100,2017-11-11 06:26:47,12,16.742,5818.2454207639,15.091864,0.223694,1.36884190732,162.4, -1.6, -2.2,0,0,1024,1024,1292,1024,162.1,0,100,4.196,4.199,4.206,4.2,0,0,78.71,6,GPS_Atti,
0.353317972330029,36.8836819246162,5818.5735047639,15.419948,0,1.37366146128,9200,2017-11-11 06:26:47,12,16.742,5818.5735047639,15.419948,0.223694,1.37366146128,162.4, -2, -2,0,0,1024,1024,1292,1024,162.1,0,100,4.196,4.199,4.206,4.2,0,0,78.71,6,GPS_Atti,
0.353317930818753,36.8836819266504,5818.9015887639,15.748032,0,1.38330713088,9300,2017-11-11 06:26:47,12,16.742,5818.9015887639,15.748032,0.223694,1.38330713088,162.4, -1.8, -1.9,0,0,1024,1024,1296,1024,162.1,0,100,4.196,4.199,4.206,4.2,0,0,78.71,6,GPS_Atti,
0.353317884889915,36.883681926232,5819.5577567639,16.4042,0,1.39480319424,9400,2017-11-11 06:26:47,12,16.742,5819.5577567639,16.4042,0.223694,1.39480319424,162.4, -1.5, -2,0,0,1024,1024,1300,1024,162.1,0,100,4.196,4.199,4.206,4.2,0,0,78.71,6,GPS_Atti,
0.353317830476273,36.8836819186637,5819.8858407639,16.732284,0,1.41042983516,9500,2017-11-11 06:26:48,12,16.742,5819.8858407639,16.732284,0.223694,1.41042983516,162.4, -1.6, -2.2,0,0,1024,1024,1300,1024,162.1,0,100,4.196,4.199,4.206,4.2,0,0,78.71,6,GPS_Atti,
0.353317785136931,36.8836819151704,5820.2139247639,17.060368,0,1.42279532112,9600,2017-11-11 06:26:48,12,16.742,5820.2139247639,17.060368,0.223694,1.42279532112,162.4, -1.6, -2.3,0,0,1024,1024,1301,1024,162.1,0,100,4.196,4.199,4.206,4.2,0,0,78.71,6,GPS_Atti,
0.353317736070285,36.8836819151027,5820.8700927639,17.716536,0,1.43530844488,9700,2017-11-11 06:26:48,12,16.742,5820.8700927639,17.716536,0.223694,1.43530844488,162.4, -1.6, -2.3,0,0,1024,1024,1303,1024,162.1,0,100,4.196,4.199,4.206,4.2,0,0,78.71,6,GPS_Atti,
0.353317698817186,36.8836819251494,5821.1981767639,18.04462,0,1.44227694904,9800,2017-11-11 06:26:48,12,16.742,5821.1981767639,18.04462,0.223694,1.44227694904,162.4, -1.6, -2.1,0,0,1024,1024,1305,1024,162.1,0,100,4.196,4.199,4.206,4.2,0,0,78.71,6,GPS_Atti,
0.353317652611513,36.8836819604119,5821.8543447639,18.700788,0,1.44525595176,9900,2017-11-11 06:26:48,12,16.688,5821.8543447639,18.700788,0.223694,1.44525595176,162.4, -1.7, -2,0,0,1024,1024,1305,1024,162.1,0,100,4.196,4.199,4.206,4.2,0,0,78.71,6,GPS_Atti,
0.353317618141628,36.8836820045181,5822.1824287639,19.028872,0,1.44321198844,10000,2017-11-11 06:26:48,12,16.688,5822.1824287639,19.028872,0.223694,1.44525595176,162.4, -1.8, -2,0,0,1024,1024,1305,1024,162.1,0,100,4.196,4.199,4.206,4.2,0,0,78.71,6,GPS_Atti,
0.353317519054067,36.8836820769118,5823.1666807639,20.013124,0,1.45203744804,10200,2017-11-11 06:26:48,12,16.688,5823.1666807639,20.013124,0.223694,1.45203744804,162.4, -1.7, -2,0,0,1024,1024,1304,1024,162.1,0,100,4.196,4.199,4.206,4.2,0,0,78.71,6,GPS_Atti,
0.353317476312705,36.8836820933682,5823.4947647639,20.341208,0,1.45978351128,10300,2017-11-11 06:26:48,12,16.688,5823.4947647639,20.341208,0.223694,1.45978351128,162.4, -1.8, -2.1,0,0,1024,1024,1303,1024,162.1,0,100,4.196,4.199,4.206,4.2,0,0,78.71,6,GPS_Atti,
0.353317447148087,36.8836821076063,5824.1509327639,20.997376,0,1.46444230408,10400,2017-11-11 06:26:48,12,16.688,5824.1509327639,20.997376,0.223694,1.46444230408,162.4, -1.7, -1.9,0,0,1024,1024,1304,1024,162.1,0,100,4.196,4.199,4.206,4.2,0,0,78.71,6,GPS_Atti,
0.353317406532251,36.8836821295656,5824.4790167639,21.32546,0,1.47056107068,10500,2017-11-11 06:26:49,13,16.688,5824.4790167639,21.32546,0.223694,1.47056107068,162.4, -1.5, -1.9,0,0,1024,1024,1304,1024,162.1,0,100,4.196,4.199,4.206,4.2,0,0,78.71,6,GPS_Atti,
0.353317361525316,36.8836821613516,5825.1351847639,21.981628,0,1.47581697636,10600,2017-11-11 06:26:49,13,16.688,5825.1351847639,21.981628,0.223694,1.47581697636,162.4, -1.5, -2,0,0,1024,1024,1305,1024,162.1,0,100,4.196,4.199,4.206,4.2,0,0,78.71,6,GPS_Atti,
0.353317287679045,36.8836821603319,5825.4632687639,22.309712,0,1.4970144836,10700,2017-11-11 06:26:49,13,16.688,5825.4632687639,22.309712,0.223694,1.4970144836,162.4, -1.6, -2.1,0,0,1024,1024,1305,1024,162.1,0,100,4.196,4.199,4.206,4.2,0,0,78.71,6,GPS_Atti,
0.353317205597732,36.8836821423223,5826.1194367639,22.96588,0,1.52458010128,10800,2017-11-11 06:26:49,13,16.688,5826.1194367639,22.96588,0.223694,1.52458010128,162.4, -1.6, -2.3,0,0,1024,1024,1306,1024,162.1,0,100,4.196,4.199,4.206,4.2,0,0,78.71,6,GPS_Atti,
0.353317114115005,36.8836821335276,5826.4475207639,23.293964,0,1.55293312056,10900,2017-11-11 06:26:49,13,16.66,5826.4475207639,23.293964,0.223694,1.55293312056,162.3, -1.4, -2.5,0,0,1024,1024,1306,1024,162.1,0,100,4.188,4.19,4.195,4.189,0,0,78.71,6,GPS_Atti,
0.353317042090963,36.8836821528484,5827.1036887639,23.950132,0,1.5696686854,11000,2017-11-11 06:26:49,13,16.66,5827.1036887639,23.950132,0.223694,1.5696686854,162.4, -1.2, -2.6,0,0,1024,1024,1307,1024,162.1,0,100,4.188,4.19,4.195,4.189,0,0,78.71,6,GPS_Atti,
0.353316952384054,36.8836821757795,5827.4317727639,24.278216,0,1.5911581874,11100,2017-11-11 06:26:49,13,16.66,5827.4317727639,24.278216,0.223694,1.5911581874,162.4, -1.2, -2.2,0,0,1024,1024,1307,1024,162.1,0,100,4.188,4.19,4.195,4.189,0,0,78.71,6,GPS_Atti,
0.353316872536967,36.8836822039718,5828.0879407639,24.934384,0,1.60901579952,11200,2017-11-11 06:26:49,13,16.66,5828.0879407639,24.934384,0.223694,1.60901579952,162.4, -1.2, -2.1,0,0,1024,1024,1307,1024,162.1,0,100,4.188,4.19,4.195,4.189,0,0,78.71,6,GPS_Atti,
0.353316793800071,36.8836822425518,5828.4160247639,25.262468,0,1.6248196058,11300,2017-11-11 06:26:49,12,16.66,5828.4160247639,25.262468,0.223694,1.6248196058,162.4, -1.2, -1.9,0,0,1024,1024,1307,1024,162.1,0,100,4.188,4.19,4.195,4.189,0,0,78.71,6,GPS_Atti,
0.353316735218427,36.8836822890411,5829.0721927639,25.918636,0,1.63335307064,11400,2017-11-11 06:26:49,12,16.66,5829.0721927639,25.918636,0.223694,1.63335307064,162.4, -1.2, -1.8,0,0,1024,1024,1306,1024,162.1,0,100,4.188,4.19,4.195,4.189,0,0,78.71,6,GPS_Atti,
0.353316618572169,36.8836823276816,5830.0564447639,26.902888,0,1.66180123428,11600,2017-11-11 06:26:50,13,16.66,5830.0564447639,26.902888,0.223694,1.66180123428,162.4, -0.7, -2.1,0,0,1024,1024,1306,1024,162.1,0,100,4.188,4.19,4.195,4.189,0,0,78.71,6,GPS_Atti,
0.353316560058105,36.8836823651964,5830.3845287639,27.230972,0,1.67293640524,11700,2017-11-11 06:26:50,13,16.66,5830.3845287639,27.230972,0.223694,1.67293640524,162.4, -0.9, -2.3,0,0,1024,1024,1309,1024,162.1,0,100,4.188,4.19,4.195,4.189,0,0,78.71,6,GPS_Atti,
0.353316510832279,36.8836824255914,5830.7126127639,27.559056,0,1.67726711404,11800,2017-11-11 06:26:50,13,16.66,5830.7126127639,27.559056,0.223694,1.67726711404,162.4, -1.2, -2.2,0,0,1024,1024,1307,1024,162.1,0,100,4.188,4.19,4.195,4.189,0,0,78.71,6,GPS_Atti,
0.353316459826156,36.8836824858866,5831.3687807639,28.215224,0,1.68265425332,11900,2017-11-11 06:26:50,13,16.66,5831.3687807639,28.215224,0.223694,1.68265425332,162.4, -1.1, -2.1,0,0,1024,1024,1307,1024,162.1,0,99,4.188,4.19,4.195,4.189,0,0,78.71,6,GPS_Atti,
0.35331643403486,36.8836825291818,5831.6968647639,28.543308,0,1.6833333872,12000,2017-11-11 06:26:50,13,16.66,5831.6968647639,28.543308,0.223694,1.6833333872,162.4, -1, -1.8,0,0,1024,1024,1307,1024,162.1,0,99,4.188,4.19,4.195,4.189,0,0,78.71,6,GPS_Atti,
0.353316404293366,36.8836825779293,5832.3530327639,29.199476,0,1.68456698304,12100,2017-11-11 06:26:50,13,16.66,5832.3530327639,29.199476,0.223694,1.68456698304,162.4, -1.1, -1.6,0,0,1024,1024,1306,1024,162.1,0,99,4.188,4.19,4.195,4.189,0,0,78.71,6,GPS_Atti,
0.353316356442353,36.8836826475258,5833.3372847639,30.183728,0,1.68853023776,12300,2017-11-11 06:26:50,13,16.66,5833.3372847639,30.183728,0.223694,1.68853023776,162.4, -1.6, -1.8,0,0,1024,1024,1307,1024,162.1,0,99,4.188,4.19,4.195,4.189,0,0,78.71,6,GPS_Atti,
0.353316329095893,36.8836826539524,5833.6653687639,30.511812,0,1.69641409628,12400,2017-11-11 06:26:50,13,16.66,5833.6653687639,30.511812,0.223694,1.69641409628,162.4, -1.8, -1.7,0,0,1024,1024,1307,1024,162.1,0,99,4.188,4.19,4.195,4.189,0,0,78.71,6,GPS_Atti,
0.353316271751052,36.8836826533659,5834.3215367639,31.16798,0,1.71527892628,12500,2017-11-11 06:26:51,13,16.66,5834.3215367639,31.16798,0.223694,1.71527892628,162.4, -1.7, -2,0,0,1024,1024,1308,1024,162.1,0,99,4.188,4.19,4.195,4.189,0,0,78.71,6,GPS_Atti,
0.353316221028278,36.8836826602881,5834.6496207639,31.496064,0,1.73082026536,12600,2017-11-11 06:26:51,13,16.66,5834.6496207639,31.496064,0.223694,1.73082026536,162.4, -1.6, -2.4,0,0,1024,1024,1310,1024,162.1,0,99,4.188,4.19,4.195,4.189,0,0,78.71,6,GPS_Atti,
0.353316173629566,36.8836826609918,5835.3057887639,32.152232,0,1.74630583016,12700,2017-11-11 06:26:51,13,16.66,5835.3057887639,32.152232,0.223694,1.74630583016,162.4, -1.6, -2.5,0,0,1024,1024,1309,1024,162.1,0,99,4.188,4.19,4.195,4.189,0,0,78.71,6,GPS_Atti,
0.353316153049291,36.883682668281,5835.6338727639,32.480316,0,1.75194887496,12800,2017-11-11 06:26:51,13,16.633,5835.6338727639,32.480316,0.223694,1.75194887496,162.4, -1.7, -2.3,0,0,1024,1024,1310,1024,162.1,0,99,4.179,4.183,4.191,4.182,0,0,78.71,6,GPS_Atti,
0.353316133088639,36.8836826412556,5836.6181247639,33.464568,0,1.76275596192,13000,2017-11-11 06:26:51,13,16.633,5836.6181247639,33.464568,0.223694,1.76275596192,162.4, -1.8, -2.2,0,0,1024,1024,1312,1024,162.1,0,99,4.179,4.183,4.191,4.182,0,0,78.71,6,GPS_Atti,
0.35331610329707,36.8836826432675,5837.2742927639,34.120736,0,1.7722605554,13100,2017-11-11 06:26:51,13,16.633,5837.2742927639,34.120736,0.223694,1.7722605554,162.5, -1.6, -2,0,0,1024,1024,1312,1024,162.1,0,99,4.179,4.183,4.191,4.182,0,0,78.71,6,GPS_Atti,
0.353316058292577,36.883682669377,5837.6023767639,34.44882,0,1.78310045076,13200,2017-11-11 06:26:51,13,16.633,5837.6023767639,34.44882,0.223694,1.78310045076,162.5, -1.4, -2.3,0,0,1024,1024,1312,1024,162.1,0,99,4.179,4.183,4.191,4.182,0,0,78.71,6,GPS_Atti,
0.353315993643351,36.8836826886675,5838.2585447639,35.104988,0,1.80163063508,13300,2017-11-11 06:26:51,13,16.633,5838.2585447639,35.104988,0.223694,1.80163063508,162.5, -1.4, -2.6,0,0,1024,1024,1312,1024,162.1,0,99,4.179,4.183,4.191,4.182,0,0,78.71,6,GPS_Atti,
0.353315932395536,36.8836827143182,5838.9147127639,35.761156,0,1.81823496632,13400,2017-11-11 06:26:51,13,16.633,5838.9147127639,35.761156,0.223694,1.81823496632,162.4, -1.4, -2.6,0,0,1024,1024,1316,1024,162.1,0,99,4.179,4.183,4.191,4.182,0,0,78.71,6,GPS_Atti,
0.353315858816737,36.8836827417777,5839.2427967639,36.08924,0,1.83888785412,13500,2017-11-11 06:26:52,13,16.633,5839.2427967639,36.08924,0.223694,1.83888785412,162.4, -1.2, -2.5,0,0,1024,1024,1317,1024,162.1,0,99,4.179,4.183,4.191,4.182,0,0,78.71,6,GPS_Atti,
0.353315730066255,36.8836828131337,5840.2270487639,37.073492,0,1.87235242212,13700,2017-11-11 06:26:52,13,16.633,5840.2270487639,37.073492,0.223694,1.87235242212,162.4, -1.2, -1.5,0,0,1024,1024,1317,1024,162.1,0,99,4.179,4.183,4.191,4.182,0,0,78.71,6,GPS_Atti,
0.353315662983726,36.8836828360579,5840.8832167639,37.72966,0,1.8920440238,13800,2017-11-11 06:26:52,13,16.633,5840.8832167639,37.72966,0.223694,1.8920440238,162.3, -0.7, -1.8,0,0,1024,1024,1317,1024,162.1,0,99,4.179,4.183,4.191,4.182,0,0,78.71,6,GPS_Atti,
0.353315565575091,36.8836828468294,5841.5393847639,38.385828,0,1.92379927416,13900,2017-11-11 06:26:52,13,16.66,5841.5393847639,38.385828,0.223694,1.92379927416,162.3, -0.1, -2.3,0,0,1024,1024,1317,1024,162.1,0,99,4.179,4.183,4.191,4.182,0,0,78.71,6,GPS_Atti,
0.353315490312888,36.8836828673102,5841.8674687639,38.713912,0,1.9468832644,14000,2017-11-11 06:26:52,13,16.66,5841.8674687639,38.713912,0.223694,1.9468832644,162.3, -0.1, -2.4,0,0,1024,1024,1318,1024,162.1,0,99,4.179,4.183,4.191,4.182,0,0,78.71,6,GPS_Atti,
0.353315403632036,36.8836828891153,5842.5236367639,39.37008,0,1.9738681734,14100,2017-11-11 06:26:52,13,16.66,5842.5236367639,39.37008,0.223694,1.9738681734,162.3, -0.4, -2.5,0,0,1024,1024,1317,1024,162.1,0,99,4.179,4.183,4.191,4.182,0,0,78.71,6,GPS_Atti,
0.353315340152032,36.8836829277191,5842.8517207639,39.698164,0,1.99100728156,14200,2017-11-11 06:26:52,13,16.66,5842.8517207639,39.698164,0.223694,1.99100728156,162.5, -0.6, -2.5,0,0,1024,1024,1320,1024,162.1,0,99,4.179,4.183,4.191,4.182,0,0,78.71,6,GPS_Atti,
0.35331527115201,36.8836829769539,5843.5078887639,40.354332,0,2.00904205904,14300,2017-11-11 06:26:52,13,16.66,5843.5078887639,40.354332,0.223694,2.00904205904,162.5, -0.4, -2.4,0,0,1024,1024,1322,1024,162.1,0,99,4.179,4.183,4.191,4.182,0,0,78.71,6,GPS_Atti,
0.353315222816128,36.8836830366462,5844.1640567639,41.0105,0,2.01904862104,14400,2017-11-11 06:26:52,13,16.66,5844.1640567639,41.0105,0.223694,2.01904862104,162.5, -0.3, -2.4,0,0,1024,1024,1325,1024,162.2,0,99,4.179,4.183,4.191,4.182,0,0,78.71,6,GPS_Atti,
0.353315147948008,36.883683104437,5844.8202247639,41.666668,0,2.0377953408,14500,2017-11-11 06:26:53,13,16.66,5844.8202247639,41.666668,0.223694,2.0377953408,162.5, -0.3, -2.1,0,0,1024,1024,1329,1024,162.1,0,99,4.179,4.183,4.191,4.182,0,0,78.71,6,GPS_Atti,
0.353315068562584,36.8836831754145,5845.1483087639,41.994752,0,2.05829730996,14600,2017-11-11 06:26:53,13,16.66,5845.1483087639,41.994752,0.223694,2.05829730996,162.5, -0.3, -1.8,0,0,1024,1024,1330,1024,162.2,0,99,4.179,4.183,4.191,4.182,0,0,78.71,6,GPS_Atti,
0.353314951532828,36.883683218802,5845.8044767639,42.65092,0,2.09520347912,14700,2017-11-11 06:26:53,13,16.66,5845.8044767639,42.65092,0.223694,2.09520347912,162.4, 0, -1.7,0,0,1024,1024,1330,1024,162.2,0,99,4.179,4.183,4.191,4.182,0,0,78.71,6,GPS_Atti,
0.353314848450695,36.883683243017,5846.4606447639,43.307088,0,2.12927500252,14800,2017-11-11 06:26:53,13,16.66,5846.4606447639,43.307088,0.223694,2.12927500252,162.4, 0.2, -1.7,0,0,1024,1024,1330,1024,162.2,0,99,4.179,4.183,4.191,4.182,0,0,78.71,6,GPS_Atti,
0.353314745548097,36.8836832739381,5847.1168127639,43.963256,0,2.16283799572,14900,2017-11-11 06:26:53,13,16.633,5847.1168127639,43.963256,0.223694,2.16283799572,162.4, 0.1, -1.8,0,0,1024,1024,1332,1024,162.2,0,99,4.176,4.179,4.185,4.177,0,0,78.71,6,GPS_Atti,
0.353314613233358,36.8836833630068,5848.1010647639,44.947508,0,2.20215558228,15100,2017-11-11 06:26:53,13,16.633,5848.1010647639,44.947508,0.223694,2.20215558228,162.4, 0, -2.1,0,0,1024,1024,1332,1024,162.2,0,99,4.176,4.179,4.185,4.177,0,0,78.71,6,GPS_Atti,
0.353314551985544,36.8836834101256,5848.7572327639,45.603676,0,2.22017067472,15200,2017-11-11 06:26:53,13,16.633,5848.7572327639,45.603676,0.223694,2.22017067472,162.4, -0.2, -1.9,0,0,1024,1024,1332,1024,162.2,0,99,4.176,4.179,4.185,4.177,0,0,78.71,6,GPS_Atti,
0.353314481739356,36.8836834434005,5849.4134007639,46.259844,0,2.24265427124,15300,2017-11-11 06:26:53,13,16.633,5849.4134007639,46.259844,0.223694,2.24265427124,162.4, -0.2, -1.8,0,0,1024,1024,1333,1024,162.2,0,99,4.176,4.179,4.185,4.177,0,0,78.71,6,GPS_Atti,
0.353314427411614,36.8836834642655,5849.7414847639,46.587928,0,2.26049219832,15400,2017-11-11 06:26:53,13,16.633,5849.7414847639,46.587928,0.223694,2.26049219832,162.4, -0.2, -1.7,0,0,1024,1024,1337,1024,162.2,0,99,4.176,4.179,4.185,4.177,0,0,78.71,6,GPS_Atti,
0.353314362262048,36.8836834845961,5850.7257367639,47.57218,0,2.28229666096,15500,2017-11-11 06:26:54,13,16.633,5850.7257367639,47.57218,0.223694,2.28229666096,162.4, 0, -1.6,0,0,1024,1024,1346,1024,162.2,0,99,4.176,4.179,4.185,4.177,0,0,78.71,6,GPS_Atti,
0.353314311307628,36.8836835110786,5851.0538207639,47.900264,0,2.29864836752,15600,2017-11-11 06:26:54,13,16.633,5851.0538207639,47.900264,0.223694,2.29864836752,162.4, 0.2, -1.6,0,0,1024,1024,1345,1024,162.2,0,99,4.176,4.179,4.185,4.177,0,0,78.71,6,GPS_Atti,
0.353314241950163,36.8836835310667,5851.7099887639,48.556432,0,2.32211621604,15700,2017-11-11 06:26:54,13,16.633,5851.7099887639,48.556432,0.223694,2.32211621604,162.4, 0.3, -1.7,0,0,1024,1024,1345,1024,162.2,0,99,4.176,4.179,4.185,4.177,0,0,78.71,6,GPS_Atti,
0.353314186819191,36.883683550085,5852.3661567639,49.2126,0,2.34060374944,15800,2017-11-11 06:26:54,13,16.633,5852.3661567639,49.2126,0.223694,2.34060374944,162.4, 0.1, -1.7,0,0,1024,1024,1350,1024,162.2,0,99,4.176,4.179,4.185,4.177,0,0,78.71,6,GPS_Atti,
0.353314134566902,36.8836835565687,5853.0223247639,49.868768,0,2.35892396,15900,2017-11-11 06:26:54,13,16.66,5853.0223247639,49.868768,0.223694,2.35892396,162.3, -0.1, -1.6,0,0,1024,1024,1351,1024,162.2,0,99,4.175,4.179,4.186,4.177,0,0,80.51,6,GPS_Atti,
0.353314111941301,36.8836835467822,5853.6784927639,50.524936,0,2.36768708364,16000,2017-11-11 06:26:54,13,16.66,5853.6784927639,50.524936,0.223694,2.36768708364,162.3, -0.2, -1.8,0,0,1024,1024,1352,1024,162.2,0,99,4.175,4.179,4.186,4.177,0,0,80.51,6,GPS_Atti,
0.353314062474057,36.8836835047589,5854.3346607639,51.181104,0,2.38824154624,16100,2017-11-11 06:26:54,13,16.66,5854.3346607639,51.181104,0.223694,2.38824154624,162.3, -0.6, -1.9,0,0,1024,1024,1354,1024,162.2,0,99,4.175,4.179,4.186,4.177,0,0,80.51,6,GPS_Atti,
0.353314017095023,36.8836834550728,5854.6627447639,51.509188,0,2.40792002456,16200,2017-11-11 06:26:54,13,16.66,5854.6627447639,51.509188,0.223694,2.40792002456,162.3, -0.7, -2,0,0,1024,1024,1354,1024,162.2,0,99,4.175,4.179,4.186,4.177,0,0,80.51,6,GPS_Atti,
0.353313986441193,36.883683408053,5855.3189127639,52.165356,0,2.4222277678,16300,2017-11-11 06:26:54,13,16.66,5855.3189127639,52.165356,0.223694,2.4222277678,162.3, -0.4, -1.8,0,0,1024,1024,1352,1024,162.2,0,99,4.175,4.179,4.186,4.177,0,0,80.51,6,GPS_Atti,
0.353314005639733,36.8836833753188,5855.9750807639,52.821524,0,2.41775598288,16400,2017-11-11 06:26:54,13,16.66,5855.9750807639,52.821524,0.223694,2.4222277678,162.3, -0.6, -1.6,0,0,1024,1024,1352,1024,162.2,0,99,4.175,4.179,4.186,4.177,0,0,80.51,6,GPS_Atti,
0.353314014079145,36.8836833154472,5856.6312487639,53.477692,0,2.4192750118,16500,2017-11-11 06:26:55,13,16.66,5856.6312487639,53.477692,0.223694,2.4222277678,162.4, -1, -1.7,0,0,1024,1024,1354,1024,162.2,0,99,4.175,4.179,4.186,4.177,0,0,80.51,6,GPS_Atti,
0.353314013339831,36.8836832413731,5857.2874167639,54.13386,0,2.42540690176,16600,2017-11-11 06:26:55,13,16.66,5857.2874167639,54.13386,0.223694,2.42540690176,162.4, -1.2, -2,0,0,1024,1024,1356,1024,162.2,0,99,4.175,4.179,4.186,4.177,0,0,80.51,6,GPS_Atti,
0.353313999679628,36.8836831534426,5857.9435847639,54.790028,0,2.43758866068,16700,2017-11-11 06:26:55,13,16.66,5857.9435847639,54.790028,0.223694,2.43758866068,162.4, -1.3, -2.5,0,0,1024,1024,1356,1024,162.2,0,99,4.175,4.179,4.186,4.177,0,0,80.51,6,GPS_Atti,
0.353313993094201,36.8836830754231,5858.5997527639,55.446196,0,2.44674876596,16800,2017-11-11 06:26:55,13,16.66,5858.5997527639,55.446196,0.223694,2.44674876596,162.4, -1.3, -2.6,0,0,1024,1024,1360,1024,162.2,0,99,4.175,4.179,4.186,4.177,0,0,80.51,6,GPS_Atti,
0.353313965575126,36.8836829820951,5859.5840047639,56.430448,0,2.46501976392,16900,2017-11-11 06:26:55,13,16.578,5859.5840047639,56.430448,0.223694,2.46501976392,162.5, -0.9, -2.4,0,0,1024,1024,1361,1024,162.2,0,99,4.175,4.179,4.186,4.177,0,0,80.51,6,GPS_Atti,
0.353313952512562,36.8836828998626,5860.2401727639,57.086616,0,2.47750007928,17000,2017-11-11 06:26:55,13,16.578,5860.2401727639,57.086616,0.223694,2.47750007928,162.5, -0.9, -2.6,0,0,1024,1024,1361,1024,162.2,0,99,4.175,4.179,4.186,4.177,0,0,80.51,6,GPS_Atti,
0.353313928927808,36.8836828126362,5860.8963407639,57.742784,0,2.49448170712,17100,2017-11-11 06:26:55,13,16.578,5860.8963407639,57.742784,0.223694,2.49448170712,162.5, -0.9, -2.8,0,0,1024,1024,1371,1024,162.2,0,99,4.175,4.179,4.186,4.177,0,0,80.51,6,GPS_Atti,
0.35331391201886,36.8836827474703,5861.5525087639,58.398952,0,2.50712606448,17200,2017-11-11 06:26:55,13,16.578,5861.5525087639,58.398952,0.223694,2.50712606448,162.5, -0.8, -2.8,0,0,1024,1024,1371,1024,162.2,0,99,4.175,4.179,4.186,4.177,0,0,80.51,6,GPS_Atti,
0.353313870015589,36.8836826717995,5862.2086767639,59.05512,0,2.52982619644,17300,2017-11-11 06:26:55,13,16.578,5862.2086767639,59.05512,0.223694,2.52982619644,162.5, -0.6, -2.8,0,0,1024,1024,1371,1024,162.2,0,99,4.175,4.179,4.186,4.177,0,0,80.51,6,GPS_Atti,
0.353313824549433,36.8836825946815,5862.8648447639,59.711288,0,2.55408144656,17400,2017-11-11 06:26:55,13,16.578,5862.8648447639,59.711288,0.223694,2.55408144656,162.4, -0.4, -3.1,0,0,1024,1024,1374,1024,162.2,0,99,4.175,4.179,4.186,4.177,0,0,80.51,6,GPS_Atti,
0.353313782225359,36.8836825042573,5863.5210127639,60.367456,0,2.57894693292,17500,2017-11-11 06:26:56,13,16.578,5863.5210127639,60.367456,0.223694,2.57894693292,162.4, -0.4, -3.3,0,0,1024,1024,1375,1024,162.2,0,99,4.175,4.179,4.186,4.177,0,0,80.51,6,GPS_Atti,
0.353313770301078,36.8836824297537,5864.1771807639,61.023624,0,2.5917159622,17600,2017-11-11 06:26:56,13,16.578,5864.1771807639,61.023624,0.223694,2.5917159622,162.4, -0.3, -3.2,0,0,1024,1024,1375,1024,162.2,0,99,4.175,4.179,4.186,4.177,0,0,80.51,6,GPS_Atti,
0.353313751218971,36.8836823621969,5864.8333487639,61.679792,0,2.60633866608,17700,2017-11-11 06:26:56,13,16.578,5864.8333487639,61.679792,0.223694,2.60633866608,162.4, -0.4, -3.1,0,0,1024,1024,1374,1024,162.2,0,99,4.175,4.179,4.186,4.177,0,0,80.51,6,GPS_Atti,
0.353313737334858,36.8836823213105,5865.8176007639,62.664044,0,2.61607291836,17800,2017-11-11 06:26:56,13,16.578,5865.8176007639,62.664044,0.223694,2.61607291836,162.4, -0.5, -2.8,0,0,1024,1024,1375,1024,162.2,0,99,4.175,4.179,4.186,4.177,0,0,80.51,6,GPS_Atti,
0.353313716868574,36.8836822740616,5866.4737687639,63.320212,0,2.62891084528,17900,2017-11-11 06:26:56,13,16.66,5866.4737687639,63.320212,0.223694,2.62891084528,162.4, -0.4, -2.9,0,0,1024,1024,1375,1024,162.2,0,99,4.17,4.173,4.178,4.17,0,0,80.51,6,GPS_Atti,
0.353313712632177,36.8836822362275,5867.1299367639,63.97638,0,2.63507882448,18000,2017-11-11 06:26:56,13,16.66,5867.1299367639,63.97638,0.223694,2.63507882448,162.4, -0.6, -3.2,0,0,1024,1024,1376,1024,162.2,0,99,4.17,4.173,4.178,4.17,0,0,80.51,6,GPS_Atti,
0.353313711808998,36.883682180931,5867.7861047639,64.632548,0,2.64236885096,18100,2017-11-11 06:26:56,13,16.66,5867.7861047639,64.632548,0.223694,2.64236885096,162.4, -0.7, -3.5,0,0,1024,1024,1377,1024,162.2,0,99,4.17,4.173,4.178,4.17,0,0,80.51,6,GPS_Atti,
0.353313719458614,36.8836821279945,5868.4422727639,65.288716,0,2.64659457288,18200,2017-11-11 06:26:56,13,16.66,5868.4422727639,65.288716,0.223694,2.64659457288,162.4, -0.5, -3.3,0,0,1024,1024,1377,1024,162.2,0,99,4.17,4.173,4.178,4.17,0,0,80.51,6,GPS_Atti,
0.353313728822981,36.8836820805441,5869.0984407639,65.944884,0,2.64964575408,18300,2017-11-11 06:26:56,13,16.66,5869.0984407639,65.944884,0.223694,2.64964575408,162.4, -0.6, -2.2,0,0,1024,1024,1376,1024,162.2,0,99,4.17,4.173,4.178,4.17,0,0,80.51,6,GPS_Atti,
0.353313744678326,36.883682043105,5869.7546087639,66.601052,0,2.6492618958,18400,2017-11-11 06:26:56,13,16.66,5869.7546087639,66.601052,0.223694,2.64964575408,162.4, -0.4, -2.2,0,0,1024,1024,1377,1024,162.2,0,99,4.17,4.173,4.178,4.17,0,0,80.51,6,GPS_Atti,
0.353313755183418,36.8836819694151,5870.4107767639,67.25722,0,2.6557415548,18500,2017-11-11 06:26:57,13,16.66,5870.4107767639,67.25722,0.223694,2.6557415548,162.4, -0.4, -2.9,0,0,1024,1024,1377,1024,162.2,0,99,4.17,4.173,4.178,4.17,0,0,80.51,6,GPS_Atti,
0.353313776384945,36.8836818976961,5871.0669447639,67.913388,0,2.65860572812,18600,2017-11-11 06:26:57,13,16.66,5871.0669447639,67.913388,0.223694,2.65860572812,162.4, -0.7, -3.2,0,0,1024,1024,1370,1024,162.2,0,99,4.17,4.173,4.178,4.17,0,0,80.51,6,GPS_Atti,
0.353313794020179,36.8836818008111,5871.7231127639,68.569556,0,2.66659457352,18700,2017-11-11 06:26:57,13,16.66,5871.7231127639,68.569556,0.223694,2.66659457352,162.3, -1.1, -3.3,0,0,1024,1024,1372,1024,162.2,0,99,4.17,4.173,4.178,4.17,0,0,80.51,6,GPS_Atti,
0.353313822077455,36.8836817155705,5872.7073647639,69.553808,0,2.66982948176,18800,2017-11-11 06:26:57,13,16.66,5872.7073647639,69.553808,0.223694,2.66982948176,162.3, -1.3, -3.4,0,0,1024,1024,1381,1024,162.2,0,99,4.17,4.173,4.178,4.17,0,0,80.51,6,GPS_Atti,
0.353313839300693,36.8836816311154,5873.3635327639,70.209976,0,2.67692593868,18900,2017-11-11 06:26:57,13,16.578,5873.3635327639,70.209976,0.223694,2.67692593868,162.2, -1.2, -3.6,0,0,1024,1024,1381,1024,162.2,0,99,4.163,4.167,4.176,4.167,0,0,80.51,6,GPS_Atti,
0.353313863432605,36.8836815950575,5874.0197007639,70.866144,0,2.6745243638,19000,2017-11-11 06:26:57,13,16.578,5874.0197007639,70.866144,0.223694,2.67692593868,162.2, -1.2, -3.4,0,0,1024,1024,1380,1024,162.2,0,99,4.163,4.167,4.176,4.167,0,0,80.51,6,GPS_Atti,
0.353313895302068,36.8836815615976,5874.6758687639,71.522312,0,2.6692586156,19100,2017-11-11 06:26:57,13,16.578,5874.6758687639,71.522312,0.223694,2.67692593868,162.2, -1.2, -3.2,0,0,1024,1024,1382,1024,162.2,0,99,4.163,4.167,4.176,4.167,0,0,80.51,6,GPS_Atti,
0.353313957005439,36.8836815533783,5875.3320367639,72.17848,0,2.65027567536,19200,2017-11-11 06:26:57,13,16.578,5875.3320367639,72.17848,0.223694,2.67692593868,162.2, -1.3, -3.1,0,0,1024,1024,1389,1024,162.2,0,99,4.163,4.167,4.176,4.167,0,0,80.51,6,GPS_Atti,
0.353314024339156,36.8836815440264,5875.9882047639,72.834648,0,2.62968840436,19300,2017-11-11 06:26:57,13,16.578,5875.9882047639,72.834648,0.223694,2.67692593868,162.3, -1.4, -2.7,0,0,1024,1024,1380,1024,162.2,0,99,4.163,4.167,4.176,4.167,0,0,80.51,6,GPS_Atti,
0.353314097973322,36.8836815468416,5876.6443727639,73.490816,0,2.60514444032,19400,2017-11-11 06:26:57,13,16.578,5876.6443727639,73.490816,0.223694,2.67692593868,162.4, -1.7, -2.4,0,0,1024,1024,1380,1024,162.2,0,99,4.163,4.167,4.176,4.167,0,0,80.51,6,GPS_Atti,
0.353314153078239,36.8836815455903,5877.3005407639,74.146984,0,2.587352445,19500,2017-11-11 06:26:58,13,16.578,5877.3005407639,74.146984,0.223694,2.67692593868,162.4, -1.9, -2.2,0,0,1024,1024,1371,1024,162.2,0,99,4.163,4.167,4.176,4.167,0,0,80.51,6,GPS_Atti,
0.353314193513725,36.8836815619771,5877.9567087639,74.803152,0,2.57148302192,19600,2017-11-11 06:26:58,13,16.578,5877.9567087639,74.803152,0.223694,2.67692593868,162.5, -1.7, -2.2,0,0,1024,1024,1372,1024,162.2,0,99,4.163,4.167,4.176,4.167,0,0,80.51,6,GPS_Atti,
0.353314227822597,36.8836815678651,5878.6128767639,75.45932,0,2.5593340714,19700,2017-11-11 06:26:58,13,16.578,5878.6128767639,75.45932,0.223694,2.67692593868,162.4, -1.4, -1.9,0,0,1024,1024,1370,1024,162.2,0,99,4.163,4.167,4.176,4.167,0,0,80.51,6,GPS_Atti,
0.353314267998753,36.8836815719901,5879.2690447639,76.115488,0,2.54556766676,19800,2017-11-11 06:26:58,13,16.578,5879.2690447639,76.115488,0.223694,2.67692593868,162.4, -1.3, -2.1,0,0,1024,1024,1373,1024,162.2,0,99,4.163,4.167,4.176,4.167,0,0,80.51,6,GPS_Atti,
0.353314285870519,36.8836815472636,5879.9252127639,76.771656,0,2.54384194492,19900,2017-11-11 06:26:58,13,16.551,5879.9252127639,76.771656,0.223694,2.67692593868,162.4, -1.2, -2.5,0,0,1024,1024,1385,1024,162.2,0,99,4.165,4.169,4.174,4.16,0,0,80.51,6,GPS_Atti,
0.353314289999031,36.8836815335158,5880.5813807639,77.427824,0,2.54479010768,20000,2017-11-11 06:26:58,13,16.551,5880.5813807639,77.427824,0.223694,2.67692593868,162.5, -1.2, -2.8,0,0,1024,1024,1389,1024,162.2,0,99,4.165,4.169,4.174,4.16,0,0,80.51,6,GPS_Atti,
0.353314296660181,36.8836815167969,5881.2375487639,78.083992,0,2.5454233098,20100,2017-11-11 06:26:58,13,16.551,5881.2375487639,78.083992,0.223694,2.67692593868,162.4, -0.7, -2.8,0,0,1024,1024,1386,1024,162.2,0,99,4.165,4.169,4.174,4.16,0,0,80.51,6,GPS_Atti,
0.35331434692007,36.8836815147071,5882.8779687639,79.724412,0,2.52949811244,20300,2017-11-11 06:26:58,13,16.551,5882.8779687639,79.724412,0.223694,2.67692593868,162.3, -0.7, -2.2,0,0,1024,1024,1387,1024,162.2,0,99,4.165,4.169,4.174,4.16,0,0,80.51,6,GPS_Atti,
0.353314377769313,36.8836815231415,5883.5341367639,80.38058,0,2.51809719344,20400,2017-11-11 06:26:58,13,16.551,5883.5341367639,80.38058,0.223694,2.67692593868,162.3, -1.1, -2.1,0,0,1024,1024,1384,1024,162.2,0,99,4.165,4.169,4.174,4.16,0,0,80.51,6,GPS_Atti,
0.353314402634839,36.8836815033518,5884.5183887639,81.364832,0,2.51342199644,20500,2017-11-11 06:26:59,13,16.551,5884.5183887639,81.364832,0.223694,2.67692593868,162.3, -1.2, -2.4,0,0,1024,1024,1381,1024,162.2,0,99,4.165,4.169,4.174,4.16,0,0,80.51,6,GPS_Atti,
0.353314433282969,36.8836814575059,5885.1745567639,82.021,0,2.51142396488,20600,2017-11-11 06:26:59,13,16.551,5885.1745567639,82.021,0.223694,2.67692593868,162.4, -1.5, -3.2,0,0,1024,1024,1379,1024,162.2,0,99,4.165,4.169,4.174,4.16,0,0,80.51,6,GPS_Atti,
0.353314472616812,36.8836813839361,5886.1588087639,83.005252,0,2.51169299376,20700,2017-11-11 06:26:59,13,16.551,5886.1588087639,83.005252,0.223694,2.67692593868,162.4, -1.9, -3.8,0,0,1024,1024,1376,1024,162.2,0,99,4.165,4.169,4.174,4.16,0,0,80.51,6,GPS_Atti,
0.353314529762983,36.8836813082904,5886.8149767639,83.66142,0,2.50706372852,20800,2017-11-11 06:26:59,13,16.551,5886.8149767639,83.66142,0.223694,2.67692593868,162.4, -2.3, -3.9,0,0,1024,1024,1373,1024,162.2,0,99,4.165,4.169,4.174,4.16,0,0,80.51,6,GPS_Atti,
0.353314585200102,36.8836812340606,5887.4711447639,84.317588,0,2.50317593312,20900,2017-11-11 06:26:59,13,16.551,5887.4711447639,84.317588,0.223694,2.67692593868,162.4, -2.5, -3.9,0,0,1024,1024,1371,1024,162.2,0,99,4.165,4.169,4.174,4.16,0,0,80.51,6,GPS_Atti,
0.353314638278013,36.8836811764074,5888.1273127639,84.973756,0,2.4973425996,21000,2017-11-11 06:26:59,13,16.551,5888.1273127639,84.973756,0.223694,2.67692593868,162.4, -2.5, -3.9,0,0,1024,1024,1369,1024,162.2,0,99,4.165,4.169,4.174,4.16,0,0,80.51,6,GPS_Atti,
0.353314661675903,36.883681096963,5888.7834807639,85.629924,0,2.50521333476,21100,2017-11-11 06:26:59,13,16.551,5888.7834807639,85.629924,0.223694,2.67692593868,162.5, -2.3, -3.9,0,0,1024,1024,1370,1024,162.2,0,99,4.165,4.169,4.174,4.16,0,0,80.51,6,GPS_Atti,
0.353314674734803,36.8836810180086,5889.4396487639,86.286092,0,2.51650926688,21200,2017-11-11 06:26:59,13,16.551,5889.4396487639,86.286092,0.223694,2.67692593868,162.5, -2.4, -4.1,0,0,1024,1024,1371,1024,162.2,0,99,4.165,4.169,4.174,4.16,0,0,80.51,6,GPS_Atti,
0.35331466141576,36.8836809145917,5890.4239007639,87.270344,0,2.5410269842,21300,2017-11-11 06:26:59,13,16.551,5890.4239007639,87.270344,0.223694,2.67692593868,162.4, -2.3, -4.3,0,0,1024,1024,1362,1024,162.2,0,99,4.165,4.169,4.174,4.16,0,0,80.51,6,GPS_Atti,
0.353314650152627,36.8836808194743,5891.0800687639,87.926512,0,2.56357291668,21400,2017-11-11 06:26:59,13,16.551,5891.0800687639,87.926512,0.223694,2.67692593868,162.4, -2, -4.6,0,0,1024,1024,1360,1024,162.2,0,99,4.165,4.169,4.174,4.16,0,0,80.51,6,GPS_Atti,
0.353314651364596,36.8836807286676,5891.7362367639,88.58268,0,2.58174548944,21500,2017-11-11 06:27:00,13,16.551,5891.7362367639,88.58268,0.223694,2.67692593868,162.4, -2.2, -4.8,0,0,1024,1024,1385,1024,162.2,0,99,4.165,4.169,4.174,4.16,0,0,80.51,6,GPS_Atti,
0.353314691937278,36.8836806734018,5892.3924047639,89.238848,0,2.58101386212,21600,2017-11-11 06:27:00,13,16.551,5892.3924047639,89.238848,0.223694,2.67692593868,162.4, -2.7, -4.7,0,0,1024,1024,1378,1024,162.2,0,99,4.165,4.169,4.174,4.16,0,0,80.51,6,GPS_Atti,
0.353314746559768,36.8836806368498,5893.0485727639,89.895016,0,2.57239509544,21700,2017-11-11 06:27:00,13,16.551,5893.0485727639,89.895016,0.223694,2.67692593868,162.4, -2.8, -4.1,0,0,1024,1024,1360,1024,162.2,0,99,4.165,4.169,4.174,4.16,0,0,80.51,6,GPS_Atti,
0.35331480071408,36.8836806280687,5893.7047407639,90.551184,0,2.55817921572,21800,2017-11-11 06:27:00,13,16.551,5893.7047407639,90.551184,0.223694,2.67692593868,162.4, -2.6, -4,0,0,1024,1024,1360,1024,162.2,0,99,4.165,4.169,4.174,4.16,0,0,80.51,6,GPS_Atti,
0.35331486032368,36.8836806160936,5894.3609087639,91.207352,0,2.54312016012,21900,2017-11-11 06:27:00,13,16.633,5894.3609087639,91.207352,0.223694,2.67692593868,162.4, -3.1, -4.1,0,0,1024,1024,1359,1024,162.2,0,99,4.154,4.158,4.168,4.158,0,0,80.51,6,GPS_Atti,
0.353314924101282,36.8836806050084,5895.6732447639,92.519688,0,2.52674876852,22100,2017-11-11 06:27:00,13,16.633,5895.6732447639,92.519688,0.223694,2.67692593868,162.4, -2.6, -3.2,0,0,1024,1024,1337,1024,162.2,0,99,4.154,4.158,4.168,4.158,0,0,80.51,6,GPS_Atti,
0.353314927361834,36.8836805889548,5896.3294127639,93.175856,0,2.52927829616,22200,2017-11-11 06:27:00,13,16.633,5896.3294127639,93.175856,0.223694,2.67692593868,162.3, -2.5, -3.3,0,0,1024,1024,1331,1024,162.2,0,99,4.154,4.158,4.168,4.158,0,0,80.51,6,GPS_Atti,
0.353314932207269,36.8836805601482,5896.9855807639,93.832024,0,2.53414050104,22300,2017-11-11 06:27:00,13,16.633,5896.9855807639,93.832024,0.223694,2.67692593868,162.4, -2.8, -3.7,0,0,1024,1024,1331,1024,162.2,0,99,4.154,4.158,4.168,4.158,0,0,80.51,6,GPS_Atti,
0.353314953177557,36.8836805396779,5897.6417487639,94.488192,0,2.53250664272,22400,2017-11-11 06:27:00,13,16.633,5897.6417487639,94.488192,0.223694,2.67692593868,162.4, -3, -4,0,0,1024,1024,1323,1024,162.2,0,99,4.154,4.158,4.168,4.158,0,0,80.51,6,GPS_Atti,
0.353314960434717,36.8836805058941,5897.9698327639,94.816276,0,2.53784128856,22500,2017-11-11 06:27:01,14,16.633,5897.9698327639,94.816276,0.223694,2.67692593868,162.3, -2.4, -3.8,0,0,1024,1024,1240,1024,162.2,0,99,4.154,4.158,4.168,4.158,0,0,80.51,6,GPS_Atti,
0.353314974031003,36.8836804722025,5898.6260007639,95.472444,0,2.54137475324,22600,2017-11-11 06:27:01,14,16.633,5898.6260007639,95.472444,0.223694,2.67692593868,162.3, -2.5, -3.5,0,0,1024,1024,1024,1024,162.2,0,99,4.154,4.158,4.168,4.158,0,0,80.51,6,GPS_Atti,
0.353314990646017,36.8836804245839,5899.2821687639,96.128612,0,2.54722449096,22700,2017-11-11 06:27:01,14,16.633,5899.2821687639,96.128612,0.223694,2.67692593868,162.4, -3.5, -4.1,0,0,1024,1024,1024,1024,162.2,0,99,4.154,4.158,4.168,4.158,0,0,80.51,6,GPS_Atti,
0.35331502413049,36.8836803803774,5899.6102527639,96.456696,0,2.54759850672,22800,2017-11-11 06:27:01,14,16.633,5899.6102527639,96.456696,0.223694,2.67692593868,162.5, -4.9, -5.4,0,0,1024,1024,1024,1024,162.2,0,99,4.154,4.158,4.168,4.158,0,0,80.51,6,GPS_Atti,
0.353315065720543,36.883680312713,5899.9383367639,96.78478,0,2.5512139924,22900,2017-11-11 06:27:01,14,16.606,5899.9383367639,96.78478,0.223694,2.67692593868,162.5, -4.8, -5.3,0,0,1024,1024,1024,1024,162.2,0,99,4.173,4.177,4.178,4.159,0,0,80.51,6,GPS_Atti,
0.353315105328372,36.8836802769369,5899.9383367639,96.78478,0,2.5482940448,23000,2017-11-11 06:27:01,14,16.606,5899.9383367639,96.78478,0.223694,2.67692593868,162.4, -3, -3.6,0,0,1024,1024,1024,1024,162.2,0,99,4.173,4.177,4.178,4.159,0,0,80.51,6,GPS_Atti,
0.353315125078955,36.8836802073256,5900.2664207639,97.112864,0,2.55900270656,23100,2017-11-11 06:27:01,14,16.606,5900.2664207639,97.112864,0.223694,2.67692593868,162.4, -2.3, -3.1,0,0,1024,1024,1024,1024,162.2,0,99,4.173,4.177,4.178,4.159,0,0,80.51,6,GPS_Atti,
0.353315134582961,36.8836801119917,5900.2664207639,97.112864,0,2.5788878778,23200,2017-11-11 06:27:01,14,16.606,5900.2664207639,97.112864,0.223694,2.67692593868,162.4, -2.7, -3,0,0,1024,1024,1024,1024,162.2,0,99,4.173,4.177,4.178,4.159,0,0,80.51,6,GPS_Atti,
0.353315143029293,36.8836799631151,5900.2664207639,97.112864,0,2.6123196374,23300,2017-11-11 06:27:01,14,16.606,5900.2664207639,97.112864,0.223694,2.67692593868,162.5, -3.2, -2.9,0,0,1024,1024,1024,1024,162.2,0,99,4.173,4.177,4.178,4.159,0,0,80.51,6,GPS_Atti,
0.353315175568454,36.8836797958488,5900.2664207639,97.112864,0,2.64453092452,23400,2017-11-11 06:27:01,14,16.606,5900.2664207639,97.112864,0.223694,2.67692593868,162.5, -3.3, -3.6,0,0,1024,1024,1024,1024,162.2,0,99,4.173,4.177,4.178,4.159,0,0,80.51,6,GPS_Atti,
0.353315198065,36.8836795837058,5900.2664207639,97.112864,0,2.69180782892,23500,2017-11-11 06:27:02,14,16.606,5900.2664207639,97.112864,0.223694,2.69180782892,162.5, -3.9, -4.5,0,0,1024,1024,1024,1024,162.2,0,99,4.173,4.177,4.178,4.159,0,0,80.51,6,GPS_Atti,
0.353315227275215,36.8836793867418,5900.5945047639,97.440948,0,2.73482292216,23600,2017-11-11 06:27:02,14,16.606,5900.5945047639,97.440948,0.223694,2.73482292216,162.6, -4.3, -5,0,0,1024,1024,1024,1024,162.2,0,99,4.173,4.177,4.178,4.159,0,0,80.51,6,GPS_Atti,
0.353315243971651,36.8836791842417,5900.5945047639,97.440948,0,2.78367462976,23700,2017-11-11 06:27:02,14,16.606,5900.5945047639,97.440948,0.223694,2.78367462976,162.6, -4.1, -5.1,0,0,1024,1024,1024,1024,162.2,0,99,4.173,4.177,4.178,4.159,0,0,80.51,6,GPS_Atti,
0.353315258386637,36.8836790076093,5900.5945047639,97.440948,0,2.82722121908,23800,2017-11-11 06:27:02,14,16.606,5900.5945047639,97.440948,0.223694,2.82722121908,162.6, -4.2, -5.5,0,0,1024,1024,1024,1024,162.2,0,99,4.173,4.177,4.178,4.159,0,0,80.51,6,GPS_Atti,
0.353315272571199,36.8836788203325,5900.5945047639,97.440948,0,2.87452765104,23900,2017-11-11 06:27:02,14,16.988,5900.5945047639,97.440948,0.223694,2.87452765104,162.6, -4.2, -5.3,0,0,1024,1024,1024,1024,162.2,0,99,4.192,4.191,4.184,4.177,0,0,80.51,6,GPS_Atti,
0.353315284842745,36.8836786737502,5900.5945047639,97.440948,0,2.91186361024,24000,2017-11-11 06:27:02,14,16.988,5900.5945047639,97.440948,0.223694,2.91186361024,162.5, -4, -5,0,1,1024,1024,1024,1024,162.2,0,99,4.192,4.191,4.184,4.177,0,0,80.51,6,GPS_Atti,
0.353315289344579,36.8836785216072,5900.5945047639,97.440948,0,2.95308080316,24100,2017-11-11 06:27:02,14,16.988,5900.5945047639,97.440948,0.223694,2.95308080316,162.5, -4.3, -4.9,0,1,1024,1024,1024,1024,162.2,0,99,4.192,4.191,4.184,4.177,0,0,80.51,6,GPS_Atti,
0.353315284190554,36.8836783964052,5900.5945047639,97.440948,0,2.9894029828,24200,2017-11-11 06:27:02,14,16.988,5900.5945047639,97.440948,0.223694,2.9894029828,162.5, -4.1, -4.8,0,1,1024,1024,1024,1024,162.2,0,99,4.192,4.191,4.184,4.177,0,0,80.51,6,GPS_Atti,
0.353315289139802,36.8836782859828,5900.5945047639,97.440948,0,3.01946531972,24300,2017-11-11 06:27:02,14,16.988,5900.5945047639,97.440948,0.223694,3.01946531972,162.5, -3.9, -4.6,0,1,1024,1024,1024,1024,162.2,0,99,4.192,4.191,4.184,4.177,0,0,80.51,6,GPS_Atti,
0.353315310123931,36.8836781980301,5900.5945047639,97.440948,0,3.03971138336,24400,2017-11-11 06:27:02,14,16.988,5900.5945047639,97.440948,0.223694,3.03971138336,162.5, -3.9, -4.3,0,1,1024,1024,1024,1024,162.2,0,99,4.192,4.191,4.184,4.177,0,0,80.51,6,GPS_Atti,
0.353315318572299,36.8836781128438,5900.5945047639,97.440948,0,3.06219826072,24500,2017-11-11 06:27:03,14,16.988,5900.5945047639,97.440948,0.223694,3.06219826072,162.5, -4.1, -4.4,0,1,1024,1024,1024,1024,162.2,0,99,4.192,4.191,4.184,4.177,0,0,80.51,6,GPS_Atti,
0.353315303360596,36.8836780328253,5900.5945047639,97.440948,0,3.0886319886,24600,2017-11-11 06:27:03,14,16.988,5900.5945047639,97.440948,0.223694,3.0886319886,162.6, -4, -4.5,0,1,1024,1024,1024,1024,162.2,0,99,4.192,4.191,4.184,4.177,0,0,80.51,6,GPS_Atti,
