latitude,longitude,altitude(feet),ascent(feet),speed(mph),distance(feet),time(millisecond),datetime(utc),satellites,voltage(v),max_altitude(feet),max_ascent(feet),max_speed(mph),max_distance(feet),compass_heading(degrees), pitch(degrees), roll(degrees),isPhoto,isVideo,rc_elevator,rc_aileron,rc_throttle,rc_rudder,gimbal_heading(degrees),gimbal_pitch(degrees),battery_percent,voltageCell1,voltageCell2,voltageCell3,voltageCell4,voltageCell5,voltageCell6,battery_temperature(f),flycStateRaw,flycState,message
0.345830284622497,36.9133784188207,5395.6369439858,0,0,0,100,2017-11-15 06:18:27,15,17.157,5395.6369439858,0,0,0,211.2, 0.2, -0.3,0,0,1024,1024,1024,1024,215.8,0,99,4.307,4.306,4.305,4.302,0,0,80.51,41,Motors_Started,Setting new Return-To-Home altitude to 30m (98 ft). Setting new Maximum Flight Altitude to 150m (492 ft)
0.345830277665784,36.9133784185306,5395.6369439858,0,0,0.00254035769284,200,2017-11-15 06:18:27,15,17.157,5395.6369439858,0,0,0.00254035769284,211.3, 0.2, -0.3,0,0,1024,1024,1024,1024,215.8,0,99,4.307,4.306,4.305,4.302,0,0,80.51,41,Motors_Started,
0.345830276064617,36.9133784165125,5395.6369439858,0,0,0.00323391414548,300,2017-11-15 06:18:27,15,17.157,5395.6369439858,0,0,0.00323391414548,211.2, 0.2, -0.3,0,0,1024,1024,1024,1024,215.8,0,99,4.307,4.306,4.305,4.302,0,0,80.51,41,Motors_Started,
0.345830273676096,36.9133784153091,5395.6369439858,0,0,0.0041942586644,400,2017-11-15 06:18:28,15,17.157,5395.6369439858,0,0,0.0041942586644,211.3, 0.2, -0.3,0,0,1024,1024,1024,1024,215.8,0,99,4.307,4.306,4.305,4.302,0,0,80.51,41,Motors_Started,
0.3458302770999,36.913378396508,5395.6369439858,0,0,0.00859087954,500,2017-11-15 06:18:28,15,17.157,5395.6369439858,0,0,0.00859087954,211.2, 0.2, -0.3,0,0,1024,1024,1024,1024,215.8,0,99,4.307,4.306,4.305,4.302,0,0,80.51,41,Motors_Started,
0.345830277956869,36.9133783646486,5395.6369439858,0,0,0.019913386464,600,2017-11-15 06:18:28,15,17.157,5395.6369439858,0,0,0.019913386464,211.2, 0.2, -0.3,0,0,1024,1024,1024,1024,215.8,0,99,4.307,4.306,4.305,4.302,0,0,80.51,41,Motors_Started,
0.345830268414594,36.9133783284178,5395.6369439858,0,0,0.03350885934,700,2017-11-15 06:18:28,15,17.157,5395.6369439858,0,0,0.03350885934,211.2, 0.2, -0.3,0,0,1024,1024,1024,1024,215.8,0,99,4.307,4.306,4.305,4.302,0,0,80.51,41,Motors_Started,
0.345830241594935,36.9133783073448,5395.6369439858,0,0,0.04359580192,800,2017-11-15 06:18:28,15,17.157,5395.6369439858,0,0,0.04359580192,211.2, 0.2, -0.3,0,0,1024,1024,1024,1024,215.8,0,99,4.307,4.306,4.305,4.302,0,0,80.51,41,Motors_Started,
0.345830216068262,36.9133782867419,5395.6369439858,0,0,0.054292652656,900,2017-11-15 06:18:28,15,17.157,5395.6369439858,0,0,0.054292652656,211.2, 0.2, -0.3,0,0,1024,1024,1024,1024,215.8,0,99,4.307,4.306,4.305,4.302,0,0,80.51,41,Motors_Started,
0.345830200082234,36.9133782752874,5395.6369439858,0,0,0.06077592058,1000,2017-11-15 06:18:28,15,17.157,5395.6369439858,0,0,0.06077592058,211.2, 0.2, -0.4,0,0,1022,808,1024,1061,215.8,0,99,4.307,4.306,4.305,4.302,0,0,80.51,41,Motors_Started,
0.345830171634539,36.913378266671,5395.6369439858,0,0,0.069143374916,1100,2017-11-15 06:18:28,15,17.157,5395.6369439858,0,0,0.069143374916,211.2, 0.2, -0.3,0,0,1024,1024,1024,1024,214.4,0,99,4.307,4.306,4.305,4.302,0,0,80.51,41,Motors_Started,
0.345830134767788,36.9133782616209,5395.6369439858,0,0,0.079238191512,1200,2017-11-15 06:18:28,15,17.157,5395.6369439858,0,0,0.079238191512,211.2, 0.2, -0.3,0,0,1024,1024,1024,1024,213.1,0,99,4.307,4.306,4.305,4.302,0,0,80.51,41,Motors_Started,
0.345830101372066,36.9133782604411,5395.6369439858,0,0,0.088368769232,1300,2017-11-15 06:18:28,15,17.157,5395.6369439858,0,0,0.088368769232,211.2, 0.2, -0.3,0,0,1024,1024,1024,1024,212.6,0,99,4.307,4.306,4.305,4.302,0,0,80.51,41,Motors_Started,
0.345830080868734,36.9133782600525,5395.6369439858,0,0,0.094242785168,1400,2017-11-15 06:18:29,15,17.157,5395.6369439858,0,0,0.094242785168,211.2, 0.2, -0.4,0,0,1024,1024,1024,1024,212.3,0,99,4.307,4.306,4.305,4.302,0,0,80.51,41,Motors_Started,
0.345830067180441,36.9133782625395,5395.6369439858,0,0,0.097697837772,1500,2017-11-15 06:18:29,15,17.157,5395.6369439858,0,0,0.097697837772,211.2, 0.2, -0.4,0,0,1024,1024,1024,1024,212.1,0,99,4.307,4.306,4.305,4.302,0,0,80.51,41,Motors_Started,
0.345830059674943,36.9133782626434,5395.6369439858,0,0,0.099912732856,1600,2017-11-15 06:18:29,15,17.157,5395.6369439858,0,0,0.099912732856,211.2, 0.2, -0.3,0,0,1024,1024,1024,1024,211.9,0,99,4.307,4.306,4.305,4.302,0,0,80.51,10,Assisted_Takeoff,
0.345830058668564,36.9133782670479,5395.6369439858,0,0,0.099309714464,1800,2017-11-15 06:18:29,15,17.157,5395.6369439858,0,0,0.099912732856,211.2, 0.2, -0.3,0,0,1024,1024,1024,1024,211.8,0,99,4.307,4.306,4.305,4.302,0,0,80.51,10,Assisted_Takeoff,
0.345830064563532,36.9133782699128,5395.6369439858,0,0,0.096941932236,1900,2017-11-15 06:18:29,15,17.157,5395.6369439858,0,0,0.099912732856,211.2, 0.2, -0.3,0,0,1024,1024,1024,1024,211.8,0,99,4.307,4.306,4.305,4.302,0,0,80.51,10,Assisted_Takeoff,
0.345830066209889,36.9133782707137,5395.6369439858,0,0,0.096280842976,2000,2017-11-15 06:18:29,15,17.157,5395.6369439858,0,0,0.099912732856,211.2, 0.2, -0.3,0,0,1024,1024,1024,1024,211.8,0,99,4.307,4.306,4.305,4.302,0,0,80.51,10,Assisted_Takeoff,
0.345830058185731,36.9133782736793,5395.6369439858,0,0,0.098129596316,2100,2017-11-15 06:18:29,15,16.97,5395.6369439858,0,0,0.099912732856,211.2, 0.2, -0.3,0,0,1024,1024,1024,1024,211.7,0,99,4.291,4.286,4.282,4.276,0,0,80.51,10,Assisted_Takeoff,
0.345830031344903,36.9133782746942,5395.6369439858,0,0,0.106321525712,2200,2017-11-15 06:18:29,15,16.97,5395.6369439858,0,0,0.106321525712,211.2, 0.2, -0.3,0,0,1024,1024,1024,1024,211.7,0,99,4.291,4.286,4.282,4.276,0,0,80.51,10,Assisted_Takeoff,
0.34583000668049,36.9133782776845,5395.6369439858,0,0,0.113731630936,2300,2017-11-15 06:18:29,15,16.97,5395.6369439858,0,0,0.113731630936,211.2, 0.2, -0.3,0,0,1024,1024,1024,1024,211.7,0,99,4.291,4.286,4.282,4.276,0,0,80.51,10,Assisted_Takeoff,
0.345829991267267,36.9133782787808,5395.6369439858,0,0,0.118600069412,2400,2017-11-15 06:18:30,15,16.97,5395.6369439858,0,0,0.118600069412,211.2, 0.2, -0.3,0,0,1024,1024,1024,1024,211.6,0,99,4.291,4.286,4.282,4.276,0,0,80.51,10,Assisted_Takeoff,
0.345829981601638,36.9133782812935,5395.6369439858,0,0,0.121410436956,2500,2017-11-15 06:18:30,15,16.97,5395.6369439858,0,0,0.121410436956,211.2, 0.2, -0.3,0,0,1024,1024,1024,1024,211.6,0,99,4.291,4.286,4.282,4.276,0,0,80.51,10,Assisted_Takeoff,
0.345829975060178,36.9133782825461,5395.6369439858,0,0,0.123402563004,2600,2017-11-15 06:18:30,15,16.97,5395.6369439858,0,0,0.123402563004,211.2, 0.2, -0.3,0,0,1024,1024,1024,1024,211.6,0,99,4.291,4.286,4.282,4.276,0,0,80.51,10,Assisted_Takeoff,
0.345829975404594,36.9133782854122,5395.6369439858,0,0,0.122869754588,2700,2017-11-15 06:18:30,15,16.97,5395.6369439858,0,0,0.123402563004,211.2, 0.2, -0.3,0,0,1024,1024,1024,1024,211.6,0,99,4.291,4.286,4.282,4.276,0,0,80.51,10,Assisted_Takeoff,
0.34582997354654,36.9133782866295,5395.6369439858,0,0,0.123318245416,2800,2017-11-15 06:18:30,15,16.97,5395.6369439858,0,0,0.123402563004,211.2, 0.2, -0.3,0,0,1024,1024,1024,1024,211.6,0,99,4.291,4.286,4.282,4.276,0,0,80.51,10,Assisted_Takeoff,
0.345829977388853,36.9133782716301,5395.6369439858,0,0,0.124293639148,2900,2017-11-15 06:18:30,15,16.97,5395.6369439858,0,0,0.124293639148,211.2, 0.2, -0.3,0,0,1024,1024,1024,1024,211.6,0,99,4.291,4.286,4.282,4.276,0,0,80.51,10,Assisted_Takeoff,
0.345829978466883,36.9133782416079,5395.6369439858,0,0,0.129062996256,3000,2017-11-15 06:18:30,15,16.97,5395.6369439858,0,0,0.129062996256,211.2, 0.2, -0.3,0,0,1024,1024,1024,1024,211.6,0,99,4.291,4.286,4.282,4.276,0,0,80.51,10,Assisted_Takeoff,
0.345829983528901,36.9133782101917,5395.6369439858,0,0,0.133647313988,3100,2017-11-15 06:18:30,15,17.13,5395.6369439858,0,0,0.133647313988,211.2, 0.2, -0.3,0,0,1024,1024,1024,1024,211.5,0,99,4.298,4.297,4.294,4.293,0,0,80.51,10,Assisted_Takeoff,
0.345829986096143,36.9133781908188,5395.6369439858,0,0,0.137049873152,3200,2017-11-15 06:18:30,15,17.13,5395.6369439858,0,0,0.137049873152,211.2, 0.2, -0.3,0,0,1024,1024,1024,1024,211.5,0,99,4.298,4.297,4.294,4.293,0,0,80.51,10,Assisted_Takeoff,
0.34582997830241,36.913378172538,5395.6369439858,0,0,0.143402563644,3300,2017-11-15 06:18:30,15,17.13,5395.6369439858,0,0,0.143402563644,211.2, 0.2, -0.3,0,0,1024,1024,1035,1024,211.5,0,99,4.298,4.297,4.294,4.293,0,0,80.51,10,Assisted_Takeoff,
0.345829951284896,36.9133781615321,5395.6369439858,0,0,0.153630910428,3400,2017-11-15 06:18:31,15,17.13,5395.6369439858,0,0,0.153630910428,211.2, 0.2, -0.3,0,0,1024,1024,1089,1024,211.5,0,99,4.298,4.297,4.294,4.293,0,0,80.51,10,Assisted_Takeoff,
0.345829924565387,36.9133781545378,5395.6369439858,0,0,0.162955057708,3500,2017-11-15 06:18:31,15,17.13,5395.6369439858,0,0,0.162955057708,211.2, 0.2, -0.3,0,0,1024,1024,1119,1024,211.5,0,99,4.298,4.297,4.294,4.293,0,0,80.51,10,Assisted_Takeoff,
0.345829907771244,36.9133781497339,5395.6369439858,0,0,0.168946199632,3600,2017-11-15 06:18:31,15,17.13,5395.6369439858,0,0,0.168946199632,211.2, 0.2, -0.3,0,0,1024,1024,1108,1024,211.5,0,99,4.298,4.297,4.294,4.293,0,0,80.51,10,Assisted_Takeoff,
0.345829895947926,36.9133781500594,5395.6369439858,0,0,0.172407485832,3700,2017-11-15 06:18:31,15,17.13,5395.6369439858,0,0,0.172407485832,211.2, 0.2, -0.3,0,0,1024,1024,1157,1024,211.5,0,99,4.298,4.297,4.294,4.293,0,0,80.51,10,Assisted_Takeoff,
0.345829887669731,36.9133781492254,5395.6369439858,0,0,0.175070871744,3800,2017-11-15 06:18:31,15,17.13,5395.6369439858,0,0,0.175070871744,211.2, 0.2, -0.3,0,0,1024,1024,1231,1024,211.5,0,99,4.298,4.297,4.294,4.293,0,0,80.51,10,Assisted_Takeoff,
0.345829885341056,36.9133781528216,5395.6369439858,0,0,0.175043640772,3900,2017-11-15 06:18:31,15,17.13,5395.6369439858,0,0,0.175070871744,211.2, 0.2, -0.4,0,0,1024,1024,1288,1024,211.5,0,99,4.298,4.297,4.294,4.293,0,0,80.51,10,Assisted_Takeoff,
0.345829882959457,36.9133781551287,5395.6369439858,0,0,0.175304139468,4000,2017-11-15 06:18:31,15,17.13,5395.6369439858,0,0,0.175304139468,211.1, 0.2, -0.4,0,0,1024,1024,1323,1024,211.5,0,99,4.298,4.297,4.294,4.293,0,0,80.51,10,Assisted_Takeoff,
0.34582988635232,36.9133781614422,5395.6369439858,0,0,0.173009519972,4100,2017-11-15 06:18:31,15,17.157,5395.6369439858,0,0,0.175304139468,211.1, 0.3, -0.5,0,0,1024,1024,1354,1024,211.5,0,99,4.295,4.294,4.292,4.29,0,0,80.51,10,Assisted_Takeoff,
0.345829884689679,36.9133781648392,5395.6369439858,0,0,0.172851711568,4200,2017-11-15 06:18:31,15,17.157,5395.6369439858,0,0,0.175304139468,210.9, 1, -0.4,0,0,1024,1024,1420,1024,211.5,0,99,4.295,4.294,4.292,4.29,0,0,80.51,10,Assisted_Takeoff,
0.345829881081047,36.9133781762659,5395.6369439858,0,0,0.171780189224,4300,2017-11-15 06:18:31,15,17.157,5395.6369439858,0,0,0.175304139468,210.8, 2.3, -1.2,0,0,1024,1024,1449,1024,211.5,0,99,4.295,4.294,4.292,4.29,0,0,80.51,10,Assisted_Takeoff,
0.345829882151749,36.9133782210788,5395.6369439858,0,0,0.163606960616,4400,2017-11-15 06:18:32,15,17.157,5395.6369439858,0,0,0.175304139468,210.9, 1.8, -1,0,0,1024,1024,1482,1024,211.5,0,99,4.295,4.294,4.292,4.29,0,0,80.51,6,GPS_Atti,Obstacle Avoided. Revise Flight Route
0.345829892260315,36.9133783131037,5395.6369439858,0,0,0.148258206844,4500,2017-11-15 06:18:32,15,17.157,5395.6369439858,0,0,0.175304139468,210.9, 0.4, -0.1,0,0,1024,1024,1505,1024,211.5,0,99,4.295,4.294,4.292,4.29,0,0,80.51,6,GPS_Atti,
0.345829878710847,36.9133784082891,5395.9650279858,0.328084,0.223694,0.1481463302,4600,2017-11-15 06:18:32,15,17.157,5395.9650279858,0.328084,0.223694,0.175304139468,210.9, 0.1, 0,0,0,1024,1024,1511,1024,211.5,0,99,4.295,4.294,4.292,4.29,0,0,80.51,6,GPS_Atti,
0.345829815335877,36.9133784934053,5396.2931119858,0.656168,0.31540854,0.1733677877,4700,2017-11-15 06:18:32,15,17.157,5396.2931119858,0.656168,0.31540854,0.175304139468,210.9, 0.1, 0.4,0,0,1024,1024,1512,1024,211.5,0,99,4.295,4.294,4.292,4.29,0,0,80.51,6,GPS_Atti,
0.345829699532339,36.913378569068,5396.6211959858,0.984252,0.31540854,0.220395676344,4800,2017-11-15 06:18:32,15,17.157,5396.6211959858,0.984252,0.31540854,0.220395676344,210.9, 0.5, 1.5,0,0,1024,1024,1516,1024,211.5,0,99,4.295,4.294,4.292,4.29,0,0,80.51,6,GPS_Atti,
0.345829563351268,36.9133786238183,5397.2773639858,1.64042,0.223694,0.273577436576,4900,2017-11-15 06:18:32,15,17.157,5397.2773639858,1.64042,0.31540854,0.273577436576,210.8, 1.3, 3,0,0,1024,1024,1518,1024,211.5,0,99,4.295,4.294,4.292,4.29,0,0,80.51,6,GPS_Atti,
0.345829463098556,36.9133786343264,5398.2616159858,2.624672,0,0.309873369496,5000,2017-11-15 06:18:32,15,17.157,5398.2616159858,2.624672,0.31540854,0.309873369496,210.9, 2, 3.2,0,0,1024,1024,1526,1024,211.4,0,99,4.295,4.294,4.292,4.29,0,0,80.51,6,GPS_Atti,
0.34582942936371,36.9133785651217,5399.2458679858,3.608924,0,0.316572844776,5100,2017-11-15 06:18:32,15,16.729,5399.2458679858,3.608924,0.31540854,0.316572844776,211, 1.5, 1.1,0,0,1024,1024,1537,1024,211.4,0,99,4.295,4.294,4.292,4.29,0,0,80.51,6,GPS_Atti,
0.345829443891873,36.9133784509489,5400.2301199858,4.593176,0,0.306963920584,5200,2017-11-15 06:18:32,15,16.729,5400.2301199858,4.593176,0.31540854,0.316572844776,211, 0.4, -0.7,0,0,1024,1024,1537,1024,211.4,-2.9,99,4.295,4.294,4.292,4.29,0,0,80.51,6,GPS_Atti,Home Point Recorded. RTH Altitude:  30m.
0.345829388388802,36.9133782356081,5402.1986239858,6.56168,0,0.33375329152,5400,2017-11-15 06:18:33,15,16.729,5402.1986239858,6.56168,0.31540854,0.33375329152,211, 0.8, -0.1,0,0,1024,1024,1538,1024,211.4,-5.7,99,4.295,4.294,4.292,4.29,0,0,80.51,6,GPS_Atti,
0.345829303484989,36.9133781460724,5403.5109599858,7.874016,0,0.37154200664,5500,2017-11-15 06:18:33,15,16.729,5403.5109599858,7.874016,0.31540854,0.37154200664,210.9, 1.4, 0.2,0,0,1024,1024,1537,1024,211.4,-8.6,99,4.295,4.294,4.292,4.29,0,0,80.51,6,GPS_Atti,
0.34582920557805,36.9133780644838,5404.8232959858,9.186352,0,0.414370092,5600,2017-11-15 06:18:33,15,16.729,5404.8232959858,9.186352,0.31540854,0.414370092,210.9, 1.5, 0.2,0,0,1024,1024,1529,1024,211.4,-11.5,99,4.295,4.294,4.292,4.29,0,0,80.51,6,GPS_Atti,
0.345829110782254,36.9133779747736,5405.8075479858,10.170604,0.223694,0.45789371544,5700,2017-11-15 06:18:33,15,16.729,5405.8075479858,10.170604,0.31540854,0.45789371544,210.9, 1.8, -0.1,0,0,1024,1024,1527,1024,211.4,-14.2,99,4.295,4.294,4.292,4.29,0,0,80.51,6,GPS_Atti,
0.345829031638248,36.9133778734653,5407.1198839858,11.48294,0.223694,0.4985728506,5800,2017-11-15 06:18:33,15,16.729,5407.1198839858,11.48294,0.31540854,0.4985728506,210.9, 2.3, -0.9,0,0,1024,1024,1525,1024,211.4,-14.3,99,4.295,4.294,4.292,4.29,0,0,80.51,6,GPS_Atti,
0.345828964122145,36.9133777799523,5408.1041359858,12.467192,0,0.53520671004,5900,2017-11-15 06:18:33,15,16.729,5408.1041359858,12.467192,0.31540854,0.53520671004,210.9, 2.6, -1.3,0,0,1024,1024,1525,1024,211.4,-14.3,99,4.295,4.294,4.292,4.29,0,0,80.51,6,GPS_Atti,
0.345828907694932,36.9133777013828,5409.4164719858,13.779528,0,0.56647311524,6000,2017-11-15 06:18:33,15,16.729,5409.4164719858,13.779528,0.31540854,0.56647311524,210.9, 2.7, -1,0,0,1024,1024,1529,1024,211.4,-14.3,99,4.295,4.294,4.292,4.29,0,0,80.51,6,GPS_Atti,
0.345828869127679,36.913377650248,5410.4007239858,14.76378,0,0.58765749912,6100,2017-11-15 06:18:33,15,16.568,5410.4007239858,14.76378,0.31540854,0.58765749912,210.9, 2.4, -0.8,0,0,1024,1024,1538,1023,211.4,-14.3,99,4.167,4.152,4.155,4.29,0,0,82.31,6,GPS_Atti,
0.345828843408849,36.9133776167034,5411.7130599858,16.076116,0,0.60177495364,6200,2017-11-15 06:18:33,15,16.568,5411.7130599858,16.076116,0.31540854,0.60177495364,210.9, 1.6, -0.7,0,0,1024,1024,1538,1023,211.4,-14.3,99,4.167,4.152,4.155,4.29,0,0,82.31,6,GPS_Atti,
0.345828828109617,36.9133776160247,5412.6973119858,17.060368,0,0.60677823464,6300,2017-11-15 06:18:33,15,16.568,5412.6973119858,17.060368,0.31540854,0.60677823464,210.9, 1.5, -0.7,0,0,1024,1024,1539,1004,211.4,-14.3,99,4.167,4.152,4.155,4.29,0,0,82.31,6,GPS_Atti,
0.345828802690421,36.913377636284,5413.6815639858,18.04462,0,0.61143046576,6400,2017-11-15 06:18:34,15,16.568,5413.6815639858,18.04462,0.31540854,0.61143046576,210.9, 1.5, -1,0,0,1024,1024,1541,963,211.4,-14.3,99,4.167,4.152,4.155,4.29,0,0,82.31,6,GPS_Atti,
0.345828769450622,36.9133776832509,5414.9938999858,19.356956,0,0.61450789368,6500,2017-11-15 06:18:34,15,16.568,5414.9938999858,19.356956,0.31540854,0.61450789368,210.8, 1.3, -0.9,0,0,1024,1024,1539,952,211.2,-14.3,99,4.167,4.152,4.155,4.29,0,0,82.31,6,GPS_Atti,
0.345828714074569,36.9133777345645,5415.9781519858,20.341208,0,0.6250328284,6600,2017-11-15 06:18:34,15,16.568,5415.9781519858,20.341208,0.31540854,0.6250328284,210.3, 1.3, -0.5,0,0,1024,1024,1514,952,211,-14.3,99,4.167,4.152,4.155,4.29,0,0,82.31,6,GPS_Atti,
0.345828646577194,36.9133778077573,5417.2904879858,21.653544,0,0.63786747448,6700,2017-11-15 06:18:34,15,16.568,5417.2904879858,21.653544,0.31540854,0.63786747448,209.6, 1.5, -0.5,0,0,1024,1024,1498,932,210.6,-14.3,99,4.167,4.152,4.155,4.29,0,0,82.31,6,GPS_Atti,
0.345828571769734,36.9133778782499,5418.2747399858,22.637796,0,0.6553149816,6800,2017-11-15 06:18:34,15,16.568,5418.2747399858,22.637796,0.31540854,0.6553149816,208.8, 1.4, -0.5,0,0,1024,1024,1492,928,210.2,-14.3,99,4.167,4.152,4.155,4.29,0,0,82.31,6,GPS_Atti,
0.345828492118467,36.9133779468936,5419.2589919858,23.622048,0,0.6762795492,6900,2017-11-15 06:18:34,15,16.568,5419.2589919858,23.622048,0.31540854,0.6762795492,207.9, 1.5, -0.7,0,0,1024,1024,1477,1024,209.7,-14.3,99,4.167,4.152,4.155,4.29,0,0,82.31,6,GPS_Atti,
0.345828407779724,36.9133779908853,5420.5713279858,24.934384,0,0.70233926132,7000,2017-11-15 06:18:34,15,16.568,5420.5713279858,24.934384,0.31540854,0.70233926132,207.2, 1.9, -0.6,0,0,1024,1024,1487,1024,209.6,-14.3,99,4.167,4.152,4.155,4.29,0,0,82.31,6,GPS_Atti,
0.345828330172154,36.9133780465039,5421.5555799858,25.918636,0,0.7259022542,7100,2017-11-15 06:18:34,15,16.595,5421.5555799858,25.918636,0.31540854,0.7259022542,207.2, 2, -0.3,0,0,1024,1024,1513,1024,209.5,-14.3,99,4.182,4.169,4.168,4.166,0,0,82.31,6,GPS_Atti,
0.345828265645061,36.9133781030121,5422.5398319858,26.902888,0,0.74558073252,7200,2017-11-15 06:18:34,15,16.595,5422.5398319858,26.902888,0.31540854,0.74558073252,207.2, 1.5, -0.4,0,0,1024,1024,1536,1024,209.4,-14.3,99,4.182,4.169,4.168,4.166,0,0,82.31,6,GPS_Atti,
0.345828192979004,36.9133781582849,5423.5240839858,27.88714,0,0.76903217684,7300,2017-11-15 06:18:34,15,16.595,5423.5240839858,27.88714,0.31540854,0.76903217684,207.3, 1.6, -0.5,0,0,1024,1024,1534,1024,209.3,-14.3,99,4.182,4.169,4.168,4.166,0,0,82.31,6,GPS_Atti,
0.345828095391241,36.9133782081875,5424.5083359858,28.871392,0,0.8024278472,7400,2017-11-15 06:18:35,15,16.595,5424.5083359858,28.871392,0.31540854,0.8024278472,207.2, 2.2, -0.6,0,0,1024,1024,1522,1024,209.3,-14.3,99,4.182,4.169,4.168,4.166,0,0,82.31,6,GPS_Atti,
0.345827901017723,36.91337832369,5426.8049239858,31.16798,0,0.87034779688,7600,2017-11-15 06:18:35,15,16.595,5426.8049239858,31.16798,0.31540854,0.87034779688,207.3, 1.9, -0.7,0,0,1024,1024,1512,1024,209.2,-14.3,99,4.182,4.169,4.168,4.166,0,0,82.31,6,GPS_Atti,
0.345827817739097,36.9133783891143,5427.7891759858,32.152232,0,0.90010501568,7700,2017-11-15 06:18:35,15,16.595,5427.7891759858,32.152232,0.31540854,0.90010501568,207.3, 1.9, -0.9,0,0,1024,1024,1512,1024,209.2,-14.3,99,4.182,4.169,4.168,4.166,0,0,82.31,6,GPS_Atti,
0.345827742411349,36.9133784614956,5429.1015119858,33.464568,0,0.92765422916,7800,2017-11-15 06:18:35,15,16.595,5429.1015119858,33.464568,0.31540854,0.92765422916,207.3, 2, -0.7,0,0,1024,1024,1455,1024,209.1,-14.3,99,4.182,4.169,4.168,4.166,0,0,82.31,6,GPS_Atti,
0.345827662325287,36.9133785397524,5430.0857639858,34.44882,0,0.957759217,7900,2017-11-15 06:18:35,15,16.595,5430.0857639858,34.44882,0.31540854,0.957759217,207.2, 2.1, -0.5,0,0,1024,1024,1484,1024,209,-14.3,99,4.182,4.169,4.168,4.166,0,0,82.31,6,GPS_Atti,
0.345827568897384,36.9133786180048,5431.0700159858,35.433072,0,0.99349084544,8000,2017-11-15 06:18:35,15,16.595,5431.0700159858,35.433072,0.31540854,0.99349084544,207.3, 2, -0.3,0,0,1024,1024,1514,1024,209,-14.3,99,4.182,4.169,4.168,4.166,0,0,82.31,6,GPS_Atti,
0.345827475028986,36.9133787070888,5432.0542679858,36.417324,0,1.03045935056,8100,2017-11-15 06:18:35,15,16.595,5432.0542679858,36.417324,0.31540854,1.03045935056,207.3, 1.9, 0,0,0,1024,1024,1637,1024,208.9,-14.3,99,4.182,4.169,4.168,4.166,0,0,82.31,6,GPS_Atti,
0.34582729306014,36.9133789004262,5434.0227719858,38.385828,0,1.10552168892,8300,2017-11-15 06:18:35,15,16.595,5434.0227719858,38.385828,0.31540854,1.10552168892,207.2, 2.2, 0,0,0,1024,1024,1650,1024,208.8,-14.3,99,4.182,4.169,4.168,4.166,0,0,82.31,6,GPS_Atti,
0.345827210036366,36.9133789957176,5435.3351079858,39.698164,0,1.14133533836,8400,2017-11-15 06:18:36,15,16.595,5435.3351079858,39.698164,0.31540854,1.14133533836,207.3, 2.1, 0,0,0,1024,1024,1684,1024,208.8,-14.3,99,4.182,4.169,4.168,4.166,0,0,82.31,6,GPS_Atti,
0.345827153342088,36.913379076637,5436.6474439858,41.0105,0,1.16738192712,8500,2017-11-15 06:18:36,15,16.595,5436.6474439858,41.0105,0.31540854,1.16738192712,207.1, 2, -0.3,0,0,1024,1024,1684,1024,208.8,-14.3,99,4.182,4.169,4.168,4.166,0,0,82.31,6,GPS_Atti,
0.345827113045427,36.9133791415657,5437.9597799858,42.322836,0,1.1868110616,8600,2017-11-15 06:18:36,15,16.595,5437.9597799858,42.322836,0.31540854,1.1868110616,207.1, 2.2, -0.5,0,0,1024,1024,1684,1024,208.7,-14.3,99,4.182,4.169,4.168,4.166,0,0,82.31,6,GPS_Atti,
0.345827076870358,36.9133792301379,5439.6001999858,43.963256,0.223694,1.20719820136,8700,2017-11-15 06:18:36,15,16.595,5439.6001999858,43.963256,0.31540854,1.20719820136,207.2, 2, 0.3,0,0,1024,1024,1684,1024,208.7,-14.3,99,4.182,4.169,4.168,4.166,0,0,82.31,6,GPS_Atti,
0.345827038623908,36.9133793312866,5440.9125359858,45.275592,0,1.2302001706,8800,2017-11-15 06:18:36,15,16.595,5440.9125359858,45.275592,0.31540854,1.2302001706,207.3, 1.2, 0.6,0,0,1024,1024,1684,1024,208.7,-14.3,99,4.182,4.169,4.168,4.166,0,0,82.31,6,GPS_Atti,
0.345827026108502,36.9133794118934,5442.5529559858,46.916012,0,1.24285108964,8900,2017-11-15 06:18:36,15,16.595,5442.5529559858,46.916012,0.31540854,1.24285108964,207.3, 0.4, 0,0,0,1024,1024,1684,1024,208.7,-14.3,99,4.182,4.169,4.168,4.166,0,0,82.31,6,GPS_Atti,
0.345827002136178,36.9133794673321,5444.1933759858,48.556432,0,1.25722444968,9000,2017-11-15 06:18:36,15,16.595,5444.1933759858,48.556432,0.31540854,1.25722444968,207.3, 0.7, 0,0,0,1024,1024,1679,1024,208.6,-14.3,99,4.182,4.169,4.168,4.166,0,0,82.31,6,GPS_Atti,
0.345826869533611,36.9133795343292,5447.8022999858,52.165356,0,1.310777601,9200,2017-11-15 06:18:36,15,16.595,5447.8022999858,52.165356,0.31540854,1.310777601,207.2, 2.5, -0.3,0,0,1024,1024,1684,1024,208.6,-14.3,99,4.182,4.169,4.168,4.166,0,0,82.31,6,GPS_Atti,
0.34582679779414,36.9133795844727,5449.4427199858,53.805776,0,1.34136815316,9300,2017-11-15 06:18:36,15,16.595,5449.4427199858,53.805776,0.31540854,1.34136815316,207.2, 2.8, 0.2,0,0,1024,1024,1684,1024,208.5,-14.3,99,4.182,4.169,4.168,4.166,0,0,82.31,6,GPS_Atti,
0.345826744565191,36.9133796327993,5451.0831399858,55.446196,0,1.3654199912,9400,2017-11-15 06:18:37,15,16.595,5451.0831399858,55.446196,0.31540854,1.3654199912,207.2, 2.7, 0,0,0,1024,1024,1670,1024,208.5,-14.3,99,4.182,4.169,4.168,4.166,0,0,82.31,6,GPS_Atti,
0.345826726504118,36.913379672896,5452.7235599858,57.086616,0,1.37644689444,9500,2017-11-15 06:18:37,15,16.595,5452.7235599858,57.086616,0.31540854,1.37644689444,207.2, 2.5, -0.7,0,0,1024,1024,1666,1024,208.5,-14.3,99,4.182,4.169,4.168,4.166,0,0,82.31,6,GPS_Atti,
0.345826745783267,36.9133797092296,5454.3639799858,58.727036,0,1.37430122508,9600,2017-11-15 06:18:37,15,16.595,5454.3639799858,58.727036,0.31540854,1.37644689444,207.2, 2, -0.9,0,0,1024,1024,1665,1024,208.5,-14.3,99,4.182,4.169,4.168,4.166,0,0,82.31,6,GPS_Atti,
0.345826799148191,36.9133797679208,5456.0043999858,60.367456,0,1.36360568668,9700,2017-11-15 06:18:37,15,16.595,5456.0043999858,60.367456,0.31540854,1.37644689444,207.3, 1.6, -0.4,0,0,1024,1024,1666,1024,208.4,-14.3,99,4.182,4.169,4.168,4.166,0,0,82.31,6,GPS_Atti,
0.345826880066387,36.9133798345571,5457.6448199858,62.007876,0,1.34526251024,9800,2017-11-15 06:18:37,15,16.595,5457.6448199858,62.007876,0.31540854,1.37644689444,207.3, 1.4, 0.1,0,0,1024,1024,1658,1024,208.4,-14.3,99,4.182,4.169,4.168,4.166,0,0,82.31,6,GPS_Atti,
0.345826973799624,36.9133798894819,5459.2852399858,63.648296,0,1.32175857248,9900,2017-11-15 06:18:37,15,16.595,5459.2852399858,63.648296,0.31540854,1.37644689444,207.2, 1.5, -0.3,0,0,1024,1024,1662,1024,208.4,-14.3,99,4.182,4.169,4.168,4.166,0,0,82.31,6,GPS_Atti,
0.34582706105491,36.913379930902,5460.9256599858,65.288716,0,1.29907484472,10000,2017-11-15 06:18:37,15,16.595,5460.9256599858,65.288716,0.31540854,1.37644689444,207.3, 1.8, -1.2,0,0,1024,1024,1639,1024,208.4,-14.3,99,4.182,4.169,4.168,4.166,0,0,82.31,6,GPS_Atti,
0.345827179031606,36.9133799588066,5462.5660799858,66.929136,0.223694,1.26472773076,10100,2017-11-15 06:18:37,15,15.953,5462.5660799858,66.929136,0.31540854,1.37644689444,207.2, 1.4, -1.7,0,0,1024,1024,1636,1024,208.3,-14.3,99,4.187,4.17,4.163,4.157,0,0,82.31,6,GPS_Atti,
0.345827328073315,36.9133799625816,5464.2064999858,68.569556,0.223694,1.21688652188,10200,2017-11-15 06:18:37,15,15.953,5464.2064999858,68.569556,0.31540854,1.37644689444,207.2, 0.6, -2.6,0,0,1024,1024,1634,1024,208.3,-14.3,99,4.187,4.17,4.163,4.157,0,0,82.31,6,GPS_Atti,
0.345827474311657,36.9133799809062,5465.8469199858,70.209976,0.223694,1.17308402704,10300,2017-11-15 06:18:37,15,15.953,5465.8469199858,70.209976,0.31540854,1.37644689444,207.3, 0, -3,0,0,1024,1024,1628,1024,208.3,-14.3,99,4.187,4.17,4.163,4.157,0,0,82.31,6,GPS_Atti,
0.345827579085744,36.9133800253454,5467.4873399858,71.850396,0,1.1480151286,10400,2017-11-15 06:18:38,15,15.953,5467.4873399858,71.850396,0.31540854,1.37644689444,207.2, 0.1, -2.9,0,0,1024,1024,1619,1024,208.3,-14.3,99,4.187,4.17,4.163,4.157,0,0,82.31,6,GPS_Atti,
0.345827642780702,36.9133800824286,5469.1277599858,73.490816,0,1.13905515456,10500,2017-11-15 06:18:38,15,15.953,5469.1277599858,73.490816,0.31540854,1.37644689444,207.1, 0.2, -2,0,0,1024,1024,1619,1024,208.3,-14.3,99,4.187,4.17,4.163,4.157,0,0,82.31,6,GPS_Atti,
0.345827675452988,36.9133801284298,5470.4400959858,74.803152,0,1.13809714928,10600,2017-11-15 06:18:38,15,15.953,5470.4400959858,74.803152,0.31540854,1.37644689444,207.1, 1, -1.3,0,0,1024,1024,1621,1024,208.3,-14.3,99,4.187,4.17,4.163,4.157,0,0,82.31,6,GPS_Atti,
0.345827709310782,36.9133801647366,5472.0805159858,76.443572,0,1.13516407832,10700,2017-11-15 06:18:38,15,15.953,5472.0805159858,76.443572,0.31540854,1.37644689444,207.1, 1.5, -1.2,0,0,1024,1024,1629,1024,208.2,-14.3,99,4.187,4.17,4.163,4.157,0,0,82.31,6,GPS_Atti,
0.345827759293427,36.9133801956732,5473.3928519858,77.755908,0,1.1265748392,10800,2017-11-15 06:18:38,15,15.953,5473.3928519858,77.755908,0.31540854,1.37644689444,207.2, 1.5, -2.1,0,0,1024,1024,1628,1024,208.2,-14.3,99,4.187,4.17,4.163,4.157,0,0,82.31,6,GPS_Atti,
0.345827811892168,36.9133802301053,5475.0332719858,79.396328,0,1.11831040324,10900,2017-11-15 06:18:38,15,15.953,5475.0332719858,79.396328,0.31540854,1.37644689444,207.2, 1.6, -2.5,0,0,1024,1024,1630,1024,208.2,-14.3,99,4.187,4.17,4.163,4.157,0,0,82.31,6,GPS_Atti,
0.345827851815916,36.9133802939323,5476.3456079858,80.708664,0,1.12065620384,11000,2017-11-15 06:18:38,15,15.953,5476.3456079858,80.708664,0.31540854,1.37644689444,207.3, 1.3, -1.3,0,0,1024,1024,1629,1024,208.2,-14.3,99,4.187,4.17,4.163,4.157,0,0,82.31,6,GPS_Atti,
0.345827911131174,36.913380348037,5477.9860279858,82.349084,0,1.11593835592,11100,2017-11-15 06:18:38,15,16.568,5477.9860279858,82.349084,0.31540854,1.37644689444,207.3, 0.9, -1,0,0,1024,1024,1630,1024,208.2,-14.3,99,4.153,4.14,4.141,4.137,0,0,82.31,6,GPS_Atti,
0.345827975617556,36.9133803724696,5479.6264479858,83.989504,0,1.10351709568,11200,2017-11-15 06:18:38,15,16.568,5479.6264479858,83.989504,0.31540854,1.37644689444,207.2, 0.9, -1.3,0,0,1024,1024,1616,1024,208.2,-14.3,99,4.153,4.14,4.141,4.137,0,0,82.31,6,GPS_Atti,
0.345828026043139,36.9133803839263,5480.9387839858,85.30184,0,1.09227693784,11300,2017-11-15 06:18:38,15,16.568,5480.9387839858,85.30184,0.31540854,1.37644689444,207.3, 0.9, -1.3,0,0,1024,1024,1614,1024,208.2,-14.3,99,4.153,4.14,4.141,4.137,0,0,82.31,6,GPS_Atti,
0.345828044534935,36.9133803953583,5482.5792039858,86.94226,0,1.08995082228,11400,2017-11-15 06:18:39,15,16.568,5482.5792039858,86.94226,0.31540854,1.37644689444,207.2, 0.9, -1.6,0,0,1024,1024,1617,1024,208.1,-14.3,99,4.153,4.14,4.141,4.137,0,0,82.31,6,GPS_Atti,
0.345828060336541,36.9133803896134,5483.8915399858,88.254596,0,1.08424216068,11500,2017-11-15 06:18:39,15,16.568,5483.8915399858,88.254596,0.31540854,1.37644689444,207.2, 1.1, -1.8,0,0,1024,1024,1638,1024,208.1,-14.3,99,4.153,4.14,4.141,4.137,0,0,82.31,6,GPS_Atti,
0.345828068968923,36.913380388819,5485.2038759858,89.566932,0,1.08169622884,11600,2017-11-15 06:18:39,15,16.568,5485.2038759858,89.566932,0.31540854,1.37644689444,207.2, 1.2, -1.5,0,0,1024,1024,1640,1024,208.1,-14.3,99,4.153,4.14,4.141,4.137,0,0,82.31,6,GPS_Atti,
0.345828080426655,36.9133803810078,5486.8442959858,91.207352,0,1.07667654364,11700,2017-11-15 06:18:39,15,16.568,5486.8442959858,91.207352,0.31540854,1.37644689444,207.2, 1.4, -1.3,0,0,1024,1024,1640,1024,208.1,-14.3,99,4.153,4.14,4.141,4.137,0,0,82.31,6,GPS_Atti,
0.345828088896192,36.9133803753367,5488.1566319858,92.519688,0,1.07299544116,11800,2017-11-15 06:18:39,15,16.568,5488.1566319858,92.519688,0.31540854,1.37644689444,207.3, 1.5, -1.1,0,0,1024,1024,1656,1024,208.1,-14.3,99,4.153,4.14,4.141,4.137,0,0,82.31,6,GPS_Atti,
0.345828099410241,36.9133803583514,5489.7970519858,94.160108,0,1.0660105328,11900,2017-11-15 06:18:39,15,16.568,5489.7970519858,94.160108,0.31540854,1.37644689444,207.3, 1.7, -1.3,0,0,1024,1024,1667,1024,208.1,-14.3,99,4.153,4.14,4.141,4.137,0,0,82.31,6,GPS_Atti,
0.345828098686397,36.9133803491847,5491.4374719858,95.800528,0,1.06398953536,12000,2017-11-15 06:18:39,15,16.568,5491.4374719858,95.800528,0.31540854,1.37644689444,207.4, 1.7, -1.3,0,0,1024,1024,1645,1024,208.1,-14.3,99,4.153,4.14,4.141,4.137,0,0,82.31,6,GPS_Atti,
0.34582810312635,36.9133803250466,5492.7498079858,97.112864,0,1.05696197608,12100,2017-11-15 06:18:39,15,16.542,5492.7498079858,97.112864,0.31540854,1.37644689444,207.3, 1.8, -1.4,0,0,1024,1024,1645,1024,208.1,-14.3,99,4.167,4.156,4.156,4.149,0,0,82.31,6,GPS_Atti,
0.345828108246992,36.9133802996002,5494.3902279858,98.753284,0,1.04946197584,12200,2017-11-15 06:18:39,15,16.542,5494.3902279858,98.753284,0.31540854,1.37644689444,207.3, 1.5, -1.6,0,0,1024,1024,1649,1024,208.1,-14.3,99,4.167,4.156,4.156,4.149,0,0,82.31,6,GPS_Atti,
0.345828121232204,36.9133802823172,5495.7025639858,100.06562,0,1.04175528268,12300,2017-11-15 06:18:39,15,16.542,5495.7025639858,100.06562,0.31540854,1.37644689444,207.3, 0.8, -1.2,0,0,1024,1024,1649,1024,208.1,-14.3,99,4.167,4.156,4.156,4.149,0,0,82.31,6,GPS_Atti,
0.345828122536588,36.9133802822058,5497.3429839858,101.70604,0,1.04136814356,12400,2017-11-15 06:18:40,15,16.542,5497.3429839858,101.70604,0.31540854,1.37644689444,207.3, 0.1, -1,0,0,1024,1024,1657,1024,208.1,-14.3,99,4.167,4.156,4.156,4.149,0,0,82.31,6,GPS_Atti,
0.345828072473334,36.913380257299,5498.9834039858,103.34646,0,1.04943900996,12500,2017-11-15 06:18:40,15,16.542,5498.9834039858,103.34646,0.31540854,1.37644689444,207.2, 1, -0.9,0,0,1024,1024,1617,1024,208,-14.3,99,4.167,4.156,4.156,4.149,0,0,82.31,6,GPS_Atti,
0.345827980748783,36.9133802305935,5500.6238239858,104.98688,0,1.0693405854,12600,2017-11-15 06:18:40,15,16.542,5500.6238239858,104.98688,0.31540854,1.37644689444,207.1, 2.4, -1,0,0,1024,1024,1649,1024,208,-14.3,99,4.167,4.156,4.156,4.149,0,0,82.31,6,GPS_Atti,
0.345827817159371,36.913380200143,5503.5765799858,107.939636,0,1.11032811952,12800,2017-11-15 06:18:40,15,16.542,5503.5765799858,107.939636,0.31540854,1.37644689444,207.2, 3.1, -0.9,0,0,1024,1024,1649,1024,208,-14.3,99,4.167,4.156,4.156,4.149,0,0,82.31,6,GPS_Atti,
0.345827754114161,36.9133801975553,5504.8889159858,109.251972,0,1.12851381564,12900,2017-11-15 06:18:40,15,16.542,5504.8889159858,109.251972,0.31540854,1.37644689444,207.2, 2.4, -0.6,0,0,1024,1024,1675,1024,208,-14.3,99,4.167,4.156,4.156,4.149,0,0,82.31,6,GPS_Atti,
0.34582771790978,36.9133801955608,5506.5293359858,110.892392,0,1.13893376348,13000,2017-11-15 06:18:40,15,16.542,5506.5293359858,110.892392,0.31540854,1.37644689444,207.2, 1.4, -0.6,0,0,1024,1024,1684,1024,208,-14.3,99,4.167,4.156,4.156,4.149,0,0,82.31,6,GPS_Atti,
0.345827690816543,36.9133801745895,5508.1697559858,112.532812,0,1.14276906544,13100,2017-11-15 06:18:40,15,16.461,5508.1697559858,112.532812,0.31540854,1.37644689444,207.2, 1.5, -1.1,0,0,1024,1024,1684,1024,208,-14.3,99,4.167,4.156,4.156,4.149,0,0,82.31,6,GPS_Atti,
0.345827682690608,36.9133801613256,5509.4820919858,113.845148,0,1.14252300244,13200,2017-11-15 06:18:40,15,16.461,5509.4820919858,113.845148,0.31540854,1.37644689444,207.2, 1.6, -1.2,0,0,1024,1024,1684,1024,208,-14.3,99,4.167,4.156,4.156,4.149,0,0,82.31,6,GPS_Atti,
0.345827674382286,36.9133801497972,5511.1225119858,115.485568,0,1.14271329116,13300,2017-11-15 06:18:40,15,16.461,5511.1225119858,115.485568,0.31540854,1.37644689444,207.3, 1.7, -0.9,0,0,1024,1024,1684,1024,208,-14.3,99,4.167,4.156,4.156,4.149,0,0,82.31,6,GPS_Atti,
0.345827659723033,36.9133801407419,5513.0910159858,117.454072,0,1.14536092904,13400,2017-11-15 06:18:41,15,16.461,5513.0910159858,117.454072,0.31540854,1.37644689444,207.3, 1.4, -1.1,0,0,1024,1024,1684,1024,208,-14.3,99,4.167,4.156,4.156,4.149,0,0,82.31,6,GPS_Atti,
0.345827623155509,36.9133801145675,5514.7314359858,119.094492,0,1.1513779896,13500,2017-11-15 06:18:41,15,16.461,5514.7314359858,119.094492,0.31540854,1.37644689444,207.3, 1.5, -1.2,0,0,1024,1024,1684,1024,208,-14.3,99,4.167,4.156,4.156,4.149,0,0,82.31,6,GPS_Atti,
0.345827547099032,36.9133800785583,5516.3718559858,120.734912,0,1.1680118484,13600,2017-11-15 06:18:41,15,16.461,5516.3718559858,120.734912,0.31540854,1.37644689444,207.3, 2.1, -1.7,0,0,1024,1024,1684,1024,208,-14.3,99,4.167,4.156,4.156,4.149,0,0,82.31,6,GPS_Atti,
0.345827445082716,36.9133800194463,5518.0122759858,122.375332,0.223694,1.18925856824,13700,2017-11-15 06:18:41,15,16.461,5518.0122759858,122.375332,0.31540854,1.37644689444,207.3, 3, -1.9,0,0,1024,1024,1684,1024,208,-14.3,99,4.167,4.156,4.156,4.149,0,0,82.31,6,GPS_Atti,
0.345827321171969,36.9133799592669,5519.6526959858,124.015752,0.223694,1.21855975028,13800,2017-11-15 06:18:41,15,16.461,5519.6526959858,124.015752,0.31540854,1.37644689444,207.3, 3.9, -1.3,0,0,1024,1024,1675,1024,207.9,-14.3,99,4.167,4.156,4.156,4.149,0,0,82.31,6,GPS_Atti,
0.345827201627895,36.9133798733841,5521.2931159858,125.656172,0.223694,1.24373035476,13900,2017-11-15 06:18:41,15,16.461,5521.2931159858,125.656172,0.31540854,1.37644689444,207.2, 4.4, -1.4,0,0,1024,1024,1676,1024,207.9,-14.3,99,4.167,4.156,4.156,4.149,0,0,82.31,6,GPS_Atti,
0.345827101699244,36.9133797842959,5523.2616199858,127.624676,0,1.26363521104,14000,2017-11-15 06:18:41,15,16.461,5523.2616199858,127.624676,0.31540854,1.37644689444,207.2, 4.6, -1.6,0,0,1024,1024,1675,1024,207.9,-14.3,99,4.167,4.156,4.156,4.149,0,0,82.31,6,GPS_Atti,
0.345827021802896,36.9133796867798,5524.9020399858,129.265096,0,1.27716211436,14100,2017-11-15 06:18:41,15,16.488,5524.9020399858,129.265096,0.31540854,1.37644689444,207.2, 4.7, -2,0,0,1024,1024,1681,1024,207.9,-14.3,99,4.151,4.132,4.117,4.122,0,0,82.31,6,GPS_Atti,
0.345826974197778,36.9133796283487,5526.5424599858,130.905516,0,1.28589571044,14200,2017-11-15 06:18:41,15,16.488,5526.5424599858,130.905516,0.31540854,1.37644689444,207.2, 4.4, -2.3,0,0,1024,1024,1679,1024,207.9,-14.3,99,4.151,4.132,4.117,4.122,0,0,82.31,6,GPS_Atti,
0.345826938641518,36.9133795868023,5528.1828799858,132.545936,0,1.29301513324,14300,2017-11-15 06:18:41,15,16.488,5528.1828799858,132.545936,0.31540854,1.37644689444,207.1, 4.2, -2.5,0,0,1024,1024,1679,1024,207.9,-14.3,99,4.151,4.132,4.117,4.122,0,0,82.31,6,GPS_Atti,
0.345826917519785,36.913379578853,5529.8232999858,134.186356,0,1.29934715444,14400,2017-11-15 06:18:42,15,16.488,5529.8232999858,134.186356,0.31540854,1.37644689444,207.2, 3.6, -2.6,0,0,1024,1024,1684,1024,207.9,-14.3,99,4.151,4.132,4.117,4.122,0,0,82.31,6,GPS_Atti,
0.345826904620066,36.913379583826,5531.4637199858,135.826776,0,1.30438652468,14500,2017-11-15 06:18:42,15,16.488,5531.4637199858,135.826776,0.31540854,1.37644689444,207.2, 3.2, -2.1,0,0,1024,1024,1682,1024,207.9,-14.3,99,4.151,4.132,4.117,4.122,0,0,82.31,6,GPS_Atti,
0.345826901048074,36.9133796025415,5533.1041399858,137.467196,0,1.3078576534,14600,2017-11-15 06:18:42,15,16.488,5533.1041399858,137.467196,0.31540854,1.37644689444,207.2, 3.3, -1.7,0,0,1024,1024,1684,1024,207.9,-14.3,99,4.151,4.132,4.117,4.122,0,0,82.31,6,GPS_Atti,
0.34582688733169,36.9133796177871,5534.7445599858,139.107616,0,1.31442261424,14700,2017-11-15 06:18:42,15,16.488,5534.7445599858,139.107616,0.31540854,1.37644689444,207.2, 3.2, -1.5,0,0,1024,1024,1684,1024,207.9,-14.3,99,4.151,4.132,4.117,4.122,0,0,82.31,6,GPS_Atti,
0.345826857116726,36.913379638951,5536.3849799858,140.748036,0,1.32739177476,14800,2017-11-15 06:18:42,15,16.488,5536.3849799858,140.748036,0.31540854,1.37644689444,207.2, 3.3, -1.7,0,0,1024,1024,1684,1024,207.9,-14.3,99,4.151,4.132,4.117,4.122,0,0,82.31,6,GPS_Atti,
0.345826832087542,36.9133796637091,5538.0253999858,142.388456,0,1.33903547592,14900,2017-11-15 06:18:42,15,16.488,5538.0253999858,142.388456,0.31540854,1.37644689444,207.2, 3.3, -2,0,0,1024,1024,1684,1024,207.9,-14.3,99,4.151,4.132,4.117,4.122,0,0,82.31,6,GPS_Atti,
0.345826813672283,36.913379714512,5539.6658199858,144.028876,0,1.35172904588,15000,2017-11-15 06:18:42,15,16.488,5539.6658199858,144.028876,0.31540854,1.37644689444,207.1, 3.6, -1.5,0,0,1024,1024,1684,1024,207.9,-14.3,99,4.151,4.132,4.117,4.122,0,0,82.31,6,GPS_Atti,
0.345826785614193,36.9133797626598,5541.3062399858,145.669296,0,1.36752300964,15100,2017-11-15 06:18:42,15,16.408,5541.3062399858,145.669296,0.31540854,1.37644689444,207.1, 3.4, -1.1,0,0,1024,1024,1684,1024,207.9,-14.3,99,4.139,4.127,4.129,4.131,0,0,82.31,6,GPS_Atti,
0.345826756033508,36.9133797958125,5542.9466599858,147.309716,0,1.3819554248,15200,2017-11-15 06:18:42,15,16.408,5542.9466599858,147.309716,0.31540854,1.3819554248,207.1, 3.4, -1.3,0,0,1024,1024,1684,1024,207.9,-14.3,99,4.139,4.127,4.129,4.131,0,0,82.31,6,GPS_Atti,
0.34582673237873,36.9133798194721,5544.9151639858,149.27822,0,1.3931430892,15300,2017-11-15 06:18:42,15,16.408,5544.9151639858,149.27822,0.31540854,1.3931430892,207.2, 3.5, -1.3,0,0,1024,1024,1684,1024,207.9,-14.3,99,4.139,4.127,4.129,4.131,0,0,82.31,6,GPS_Atti,
0.345826725637786,36.9133798592809,5546.5555839858,150.91864,0,1.40081369312,15400,2017-11-15 06:18:43,15,16.408,5546.5555839858,150.91864,0.31540854,1.40081369312,207.2, 3, -1.3,0,0,1024,1024,1684,1024,207.9,-14.3,99,4.139,4.127,4.129,4.131,0,0,82.31,6,GPS_Atti,
0.345826710237591,36.9133799003883,5548.1960039858,152.55906,0,1.41169952024,15500,2017-11-15 06:18:43,15,16.408,5548.1960039858,152.55906,0.31540854,1.41169952024,207.2, 3, -1.5,0,0,1024,1024,1684,1024,207.9,-14.3,99,4.139,4.127,4.129,4.131,0,0,82.31,6,GPS_Atti,
0.345826677086543,36.9133799603761,5549.8364239858,154.19948,0,1.43133534764,15600,2017-11-15 06:18:43,15,16.408,5549.8364239858,154.19948,0.31540854,1.43133534764,207.1, 3.7, -1.5,0,0,1024,1024,1684,1024,207.9,-14.3,99,4.139,4.127,4.129,4.131,0,0,82.31,6,GPS_Atti,
0.345826633698281,36.9133800408341,5551.4768439858,155.8399,0,1.45757550596,15700,2017-11-15 06:18:43,15,16.408,5551.4768439858,155.8399,0.31540854,1.45757550596,207.1, 3.7, -1.5,0,0,1024,1024,1684,1024,207.8,-14.3,99,4.139,4.127,4.129,4.131,0,0,82.31,6,GPS_Atti,
0.345826577702605,36.9133801527189,5552.7891799858,157.152236,0.223694,1.49310044148,15800,2017-11-15 06:18:43,15,16.408,5552.7891799858,157.152236,0.31540854,1.49310044148,207.1, 3.6, -0.4,0,0,1024,1024,1684,1024,207.8,-14.3,99,4.139,4.127,4.129,4.131,0,0,82.31,6,GPS_Atti,
0.345826524377578,36.913380263287,5554.4295999858,158.792656,0.223694,1.52807747672,15900,2017-11-15 06:18:43,15,16.408,5554.4295999858,158.792656,0.31540854,1.52807747672,207.1, 3.7, 0.3,0,0,1024,1024,1684,1024,207.8,-14.4,99,4.139,4.127,4.129,4.131,0,0,82.31,6,GPS_Atti,
0.345826498473105,36.9133803621274,5556.0700199858,160.433076,0,1.55270018092,16000,2017-11-15 06:18:43,15,16.408,5556.0700199858,160.433076,0.31540854,1.55270018092,207.2, 3.4, 0.9,0,0,1024,1024,1684,1024,207.8,-14.4,99,4.139,4.127,4.129,4.131,0,0,82.31,6,GPS_Atti,
0.345826518293712,36.9133804319649,5557.7104399858,162.073496,0,1.55811684776,16100,2017-11-15 06:18:43,15,16.408,5557.7104399858,162.073496,0.31540854,1.55811684776,207.1, 2.8, 0.4,0,0,1024,1024,1684,1024,207.8,-14.4,99,4.127,4.121,4.124,4.124,0,0,82.31,6,GPS_Atti,
0.345826575750915,36.9133804837806,5559.3508599858,163.713916,0,1.5487697346,16200,2017-11-15 06:18:43,15,16.408,5559.3508599858,163.713916,0.31540854,1.55811684776,207.2, 2.3, -0.5,0,0,1024,1024,1684,1024,207.8,-14.4,99,4.127,4.121,4.124,4.124,0,0,82.31,6,GPS_Atti,
0.345826642591213,36.9133805224781,5560.9912799858,165.354336,0,1.53452104648,16300,2017-11-15 06:18:43,15,16.408,5560.9912799858,165.354336,0.31540854,1.55811684776,207.2, 2.7, -1,0,0,1024,1024,1684,1024,207.8,-14.4,99,4.127,4.121,4.124,4.124,0,0,82.31,6,GPS_Atti,
0.345826716323901,36.9133805768269,5562.6316999858,166.994756,0,1.52145017992,16400,2017-11-15 06:18:44,15,16.408,5562.6316999858,166.994756,0.31540854,1.55811684776,207.2, 2.2, -1.1,0,0,1024,1024,1684,1024,207.8,-14.4,99,4.127,4.121,4.124,4.124,0,0,82.31,6,GPS_Atti,
0.345826805751531,36.9133806498912,5564.2721199858,168.635176,0,1.50785109812,16500,2017-11-15 06:18:44,15,16.408,5564.2721199858,168.635176,0.31540854,1.55811684776,207.2, 1.6, -1,0,0,1024,1024,1684,1024,207.8,-14.4,99,4.127,4.121,4.124,4.124,0,0,82.31,6,GPS_Atti,
0.345826874697407,36.9133807350535,5565.9125399858,170.275596,0,1.50397314524,16600,2017-11-15 06:18:44,15,16.408,5565.9125399858,170.275596,0.31540854,1.55811684776,207.1, 1.8, -1,0,0,1024,1024,1684,1024,207.8,-14.4,99,4.127,4.121,4.124,4.124,0,0,82.31,6,GPS_Atti,
0.345826932648844,36.9133808361594,5567.5529599858,171.916016,0,1.50780516636,16700,2017-11-15 06:18:44,15,16.408,5567.5529599858,171.916016,0.31540854,1.55811684776,207.2, 2.1, -0.7,0,0,1024,1024,1684,1024,207.8,-14.4,99,4.127,4.121,4.124,4.124,0,0,82.31,6,GPS_Atti,
0.345826959497,36.9133809360073,5569.1933799858,173.556436,0,1.52157813268,16800,2017-11-15 06:18:44,15,16.408,5569.1933799858,173.556436,0.31540854,1.55811684776,207.2, 2.3, -0.4,0,0,1024,1024,1684,1024,207.8,-14.4,99,4.127,4.121,4.124,4.124,0,0,82.31,6,GPS_Atti,
0.345826990753354,36.9133810390403,5570.8337999858,175.196856,0,1.53561684704,16900,2017-11-15 06:18:44,15,16.408,5570.8337999858,175.196856,0.31540854,1.55811684776,207.2, 2.7, -0.4,0,0,1024,1024,1684,1024,207.8,-14.4,99,4.127,4.121,4.124,4.124,0,0,82.31,6,GPS_Atti,
0.345827018971032,36.9133811295691,5572.4742199858,176.837276,0,1.5484580548,17000,2017-11-15 06:18:44,15,16.408,5572.4742199858,176.837276,0.31540854,1.55811684776,207.2, 3, -0.4,0,0,1024,1024,1684,1024,207.8,-14.4,99,4.127,4.121,4.124,4.124,0,0,82.31,6,GPS_Atti,
0.345827073172162,36.9133812185711,5574.1146399858,178.477696,0,1.55443574528,17100,2017-11-15 06:18:44,15,16.461,5574.1146399858,178.477696,0.31540854,1.55811684776,207.2, 2.5, -0.3,0,0,1024,1024,1684,1024,207.8,-14.4,99,4.127,4.121,4.124,4.124,0,0,82.31,6,GPS_Atti,
0.345827135488642,36.9133812870681,5575.7550599858,180.118116,0,1.55408797624,17200,2017-11-15 06:18:44,15,16.461,5575.7550599858,180.118116,0.31540854,1.55811684776,207.2, 1.7, -0.2,0,0,1024,1024,1684,1024,207.8,-14.4,99,4.127,4.121,4.124,4.124,0,0,82.31,6,GPS_Atti,
0.345827202078974,36.9133813510231,5577.3954799858,181.758536,0,1.55220149324,17300,2017-11-15 06:18:44,15,16.461,5577.3954799858,181.758536,0.31540854,1.55811684776,207.2, 1.8, -0.3,0,0,1024,1024,1684,1024,207.8,-14.4,99,4.127,4.121,4.124,4.124,0,0,82.31,6,GPS_Atti,
0.345827254461947,36.9133814085618,5579.0358999858,183.398956,0,1.55308075836,17400,2017-11-15 06:18:45,15,16.461,5579.0358999858,183.398956,0.31540854,1.55811684776,207.2, 2.3, -0.4,0,0,1024,1024,1684,1024,207.7,-14.4,99,4.127,4.121,4.124,4.124,0,0,82.31,6,GPS_Atti,
0.345827319805705,36.9133814717909,5580.6763199858,185.039376,0,1.55266737252,17500,2017-11-15 06:18:45,15,16.461,5580.6763199858,185.039376,0.31540854,1.55811684776,207.2, 2.5, -0.7,0,0,1024,1024,1684,1024,207.7,-14.4,99,4.127,4.121,4.124,4.124,0,0,82.31,6,GPS_Atti,
0.345827463535429,36.9133816092667,5583.9571599858,188.320216,0,1.55380910484,17700,2017-11-15 06:18:45,15,16.461,5583.9571599858,188.320216,0.31540854,1.55811684776,207.2, 1.5, -0.7,0,0,1024,1024,1684,1024,207.7,-14.4,99,4.127,4.121,4.124,4.124,0,0,82.31,6,GPS_Atti,
0.345827539462444,36.9133816405041,5585.5975799858,189.960636,0,1.54425529876,17800,2017-11-15 06:18:45,15,16.461,5585.5975799858,189.960636,0.31540854,1.55811684776,207.2, 1.6, -0.4,0,0,1024,1024,1684,1024,207.7,-14.4,99,4.127,4.121,4.124,4.124,0,0,82.31,6,GPS_Atti,
0.345827617596001,36.9133816497741,5587.2379999858,191.601056,0,1.5285269518,17900,2017-11-15 06:18:45,15,16.461,5587.2379999858,191.601056,0.31540854,1.55811684776,207.2, 2.1, -0.5,0,0,1024,1024,1684,1024,207.7,-14.4,99,4.127,4.121,4.124,4.124,0,0,82.31,6,GPS_Atti,
0.34582768456169,36.9133816446597,5588.8784199858,193.241476,0,1.51163718748,18000,2017-11-15 06:18:45,15,16.461,5588.8784199858,193.241476,0.31540854,1.55811684776,207.2, 2.6, -1.3,0,0,1024,1024,1684,1024,207.7,-14.4,99,4.127,4.121,4.124,4.124,0,0,82.31,6,GPS_Atti,
0.345827768633368,36.9133816549414,5590.8469239858,195.20998,0,1.49554138644,18100,2017-11-15 06:18:45,15,16.301,5590.8469239858,195.20998,0.31540854,1.55811684776,207.2, 2.4, -1.6,0,0,1024,1024,1684,1024,207.7,-14.4,99,4.123,4.112,4.111,4.107,0,0,82.31,6,GPS_Atti,
0.345827823812379,36.9133816997264,5592.4873439858,196.8504,0,1.49630582216,18200,2017-11-15 06:18:45,15,16.301,5592.4873439858,196.8504,0.31540854,1.55811684776,207.2, 1.8, -1.3,0,0,1024,1024,1684,1024,207.7,-14.4,99,4.123,4.112,4.111,4.107,0,0,82.31,6,GPS_Atti,
0.34582788640488,36.9133817723068,5594.1277639858,198.49082,0,1.50417655732,18300,2017-11-15 06:18:45,15,16.301,5594.1277639858,198.49082,0.31540854,1.55811684776,207.2, 1.5, -0.7,0,0,1024,1024,1684,1024,207.7,-14.4,99,4.123,4.112,4.111,4.107,0,0,82.31,6,GPS_Atti,
0.345827929512236,36.9133818514292,5595.7681839858,200.13124,0,1.51879598036,18400,2017-11-15 06:18:46,15,16.301,5595.7681839858,200.13124,0.31540854,1.55811684776,207.2, 1.7, -0.2,0,0,1024,1024,1684,1024,207.7,-14.4,99,4.123,4.112,4.111,4.107,0,0,82.31,6,GPS_Atti,
0.345827950199988,36.9133819137337,5597.4086039858,201.77166,0,1.53338915668,18500,2017-11-15 06:18:46,15,16.301,5597.4086039858,201.77166,0.31540854,1.55811684776,207.2, 2, -0.3,0,0,1024,1024,1684,1024,207.7,-14.4,99,4.123,4.112,4.111,4.107,0,0,82.31,6,GPS_Atti,
0.345827988510762,36.9133819658118,5599.0490239858,203.41208,0,1.541584695,18600,2017-11-15 06:18:46,15,16.301,5599.0490239858,203.41208,0.31540854,1.55811684776,207.2, 2.5, -0.3,0,0,1024,1024,1684,1024,207.7,-14.4,99,4.123,4.112,4.111,4.107,0,0,82.31,6,GPS_Atti,
0.345828004178836,36.9133820032101,5600.6894439858,205.0525,0,1.54998036456,18700,2017-11-15 06:18:46,15,16.301,5600.6894439858,205.0525,0.31540854,1.55811684776,207.2, 2.5, -0.3,0,0,1024,1024,1684,1024,207.7,-14.4,99,4.123,4.112,4.111,4.107,0,0,82.31,6,GPS_Atti,
0.345828066807978,36.9133820344111,5602.3298639858,206.69292,0,1.54752629624,18800,2017-11-15 06:18:46,15,16.301,5602.3298639858,206.69292,0.31540854,1.55811684776,207.2, 2.2, -0.4,0,0,1024,1024,1684,1024,207.7,-14.4,99,4.123,4.112,4.111,4.107,0,0,82.31,6,GPS_Atti,
0.345828111535635,36.9133820398054,5603.9702839858,208.33334,0,1.54074151912,18900,2017-11-15 06:18:46,15,16.301,5603.9702839858,208.33334,0.31540854,1.55811684776,207.2, 2.2, -0.6,0,0,1024,1024,1532,1024,207.7,-14.4,99,4.123,4.112,4.111,4.107,0,0,82.31,6,GPS_Atti,
0.345828115044117,36.9133820158503,5605.6107039858,209.97376,0,1.5325951934,19000,2017-11-15 06:18:46,15,16.301,5605.6107039858,209.97376,0.31540854,1.55811684776,207.2, 2.7, -0.7,0,0,1024,1024,1532,1024,207.7,-14.4,99,4.123,4.112,4.111,4.107,0,0,82.31,6,GPS_Atti,
0.345828135647191,36.9133819796591,5607.2511239858,211.61418,0,1.5174049042,19100,2017-11-15 06:18:46,15,16.327,5607.2511239858,211.61418,0.31540854,1.55811684776,207.2, 3.1, -1,0,0,1024,1024,1409,1024,207.7,-14.4,99,4.115,4.105,4.105,4.104,0,0,82.31,6,GPS_Atti,
0.345828144902452,36.9133819400961,5608.8915439858,213.2546,0,1.50331041556,19200,2017-11-15 06:18:46,15,16.327,5608.8915439858,213.2546,0.31540854,1.55811684776,207.2, 3.9, -1.2,0,0,1024,1024,1386,1024,207.7,-14.4,99,4.115,4.105,4.105,4.104,0,0,82.31,6,GPS_Atti,
0.345828169856728,36.913381901465,5610.2038799858,214.566936,0,1.48653548064,19300,2017-11-15 06:18:46,15,16.327,5610.2038799858,214.566936,0.31540854,1.55811684776,207.2, 3.7, -1.6,0,0,1024,1024,1393,1024,207.7,-14.4,99,4.115,4.105,4.105,4.104,0,0,82.31,6,GPS_Atti,
0.345828168527918,36.9133818743757,5611.1881319858,215.551188,0,1.47834978484,19400,2017-11-15 06:18:47,15,16.327,5611.1881319858,215.551188,0.31540854,1.55811684776,207.2, 3.2, -1.5,0,0,1024,1024,1419,1024,207.7,-14.4,99,4.115,4.105,4.105,4.104,0,0,82.31,6,GPS_Atti,
0.345828181654805,36.9133818513076,5612.1723839858,216.53544,0,1.46867130684,19500,2017-11-15 06:18:47,15,16.327,5612.1723839858,216.53544,0.31540854,1.55811684776,207.2, 2.6, -0.9,0,0,1024,1024,1444,1024,207.7,-14.4,99,4.115,4.105,4.105,4.104,0,0,82.31,6,GPS_Atti,
0.345828190140626,36.9133818194803,5612.8285519858,217.191608,0,1.45715883928,19600,2017-11-15 06:18:47,15,16.327,5612.8285519858,217.191608,0.31540854,1.55811684776,207.2, 2.6, -0.6,0,0,1024,1024,1470,1024,207.7,-14.4,99,4.115,4.105,4.105,4.104,0,0,82.31,6,GPS_Atti,
0.345828194256519,36.9133817734464,5613.8128039858,218.17586,0,1.44208994116,19700,2017-11-15 06:18:47,15,16.327,5613.8128039858,218.17586,0.31540854,1.55811684776,207.2, 2.8, -0.5,0,0,1024,1024,1467,1024,207.7,-14.4,99,4.115,4.105,4.105,4.104,0,0,82.31,6,GPS_Atti,
0.345828160426409,36.9133817223657,5614.7970559858,219.160112,0,1.43294295924,19800,2017-11-15 06:18:47,15,16.327,5614.7970559858,219.160112,0.31540854,1.55811684776,207.2, 2.6, -0.7,0,0,1024,1024,1462,1024,207.7,-14.4,99,4.115,4.105,4.105,4.104,0,0,82.31,6,GPS_Atti,
0.345828138163137,36.9133816617441,5615.4532239858,219.81628,0,1.41885831312,19900,2017-11-15 06:18:47,15,16.327,5615.4532239858,219.81628,0.31540854,1.55811684776,207.2, 2.5, -0.9,0,0,1024,1024,1466,1024,207.7,-14.4,99,4.115,4.105,4.105,4.104,0,0,82.31,6,GPS_Atti,
0.345828105227857,36.9133816048178,5616.4374759858,220.800532,0,1.40833665924,20000,2017-11-15 06:18:47,15,16.327,5616.4374759858,220.800532,0.31540854,1.55811684776,207.3, 2.8, -0.9,0,0,1024,1024,1466,1024,207.7,-14.4,99,4.115,4.105,4.105,4.104,0,0,82.31,6,GPS_Atti,
0.34582808409961,36.9133815633351,5617.4217279858,221.784784,0,1.40027563536,20100,2017-11-15 06:18:47,15,16.327,5617.4217279858,221.784784,0.31540854,1.55811684776,207.3, 3.1, -1,0,0,1024,1024,1462,1024,207.7,-14.4,98,4.119,4.117,4.148,4.154,0,0,82.31,6,GPS_Atti,
0.345828059336676,36.9133815541685,5618.4059799858,222.769036,0,1.40274610788,20200,2017-11-15 06:18:47,15,16.327,5618.4059799858,222.769036,0.31540854,1.55811684776,207.3, 2.5, -0.7,0,0,1024,1024,1464,1024,207.7,-14.4,98,4.119,4.117,4.148,4.154,0,0,82.31,6,GPS_Atti,
0.345828053808109,36.9133815514106,5619.3902319858,223.753288,0,1.40309715776,20300,2017-11-15 06:18:47,15,16.327,5619.3902319858,223.753288,0.31540854,1.55811684776,207.3, 2, -0.3,0,0,1024,1024,1463,1024,207.7,-14.4,98,4.119,4.117,4.148,4.154,0,0,82.31,6,GPS_Atti,
0.345828025938919,36.9133815287536,5620.3744839858,224.73754,0,1.40232287952,20400,2017-11-15 06:18:48,15,16.327,5620.3744839858,224.73754,0.31540854,1.55811684776,207.3, 2, 0.1,0,0,1024,1024,1460,1024,207.7,-14.4,98,4.119,4.117,4.148,4.154,0,0,82.31,6,GPS_Atti,
0.345827996594358,36.9133814991264,5621.0306519858,225.393708,0,1.39994755136,20500,2017-11-15 06:18:48,15,16.327,5621.0306519858,225.393708,0.31540854,1.55811684776,207.3, 2.1, 0.7,0,0,1024,1024,1458,1024,207.6,-14.4,98,4.119,4.117,4.148,4.154,0,0,82.31,6,GPS_Atti,
0.345827933944046,36.9133814478931,5622.0149039858,226.37796,0,1.3988845592,20600,2017-11-15 06:18:48,15,16.327,5622.0149039858,226.37796,0.31540854,1.55811684776,207.3, 2.1, 0.4,0,0,1024,1024,1458,1024,207.6,-14.4,98,4.119,4.117,4.148,4.154,0,0,82.31,6,GPS_Atti,
0.345827892196442,36.9133813461609,5622.9991559858,227.362212,0,1.37933731448,20700,2017-11-15 06:18:48,15,16.327,5622.9991559858,227.362212,0.31540854,1.55811684776,207.3, 2.5, -0.1,0,0,1024,1024,1457,1024,207.6,-14.4,98,4.119,4.117,4.148,4.154,0,0,82.31,6,GPS_Atti,
0.345827844162229,36.9133812028394,5623.9834079858,228.346464,0,1.35074807472,20800,2017-11-15 06:18:48,15,16.327,5623.9834079858,228.346464,0.31540854,1.55811684776,207.2, 3, -0.5,0,0,1024,1024,1459,1024,207.6,-14.4,98,4.119,4.117,4.148,4.154,0,0,82.31,6,GPS_Atti,
0.345827811888912,36.9133810438811,5624.6395759858,229.002632,0,1.31574151192,20900,2017-11-15 06:18:48,15,16.327,5624.6395759858,229.002632,0.31540854,1.55811684776,207.2, 3.3, -0.3,0,0,1024,1024,1459,1024,207.6,-14.4,98,4.119,4.117,4.148,4.154,0,0,82.31,6,GPS_Atti,
0.345827766228156,36.913380889413,5625.6238279858,229.986884,0,1.28714242964,21000,2017-11-15 06:18:48,15,16.327,5625.6238279858,229.986884,0.31540854,1.55811684776,207.2, 3.6, -0.1,0,0,1024,1024,1454,1024,207.6,-14.4,98,4.119,4.117,4.148,4.154,0,0,82.31,6,GPS_Atti,
0.345827751151207,36.9133807289997,5626.6080799858,230.971136,0.223694,1.2509186752,21100,2017-11-15 06:18:48,15,16.327,5626.6080799858,230.971136,0.31540854,1.55811684776,207.2, 3.6, -0.5,0,0,1024,1024,1450,1024,207.6,-14.4,98,4.119,4.117,4.148,4.154,0,0,82.31,6,GPS_Atti,
0.345827744383394,36.9133805813481,5627.5923319858,231.955388,0.223694,1.21715226992,21200,2017-11-15 06:18:48,15,16.327,5627.5923319858,231.955388,0.31540854,1.55811684776,207.2, 3.1, -1.3,0,0,1024,1024,1450,1024,207.6,-14.4,98,4.119,4.117,4.148,4.154,0,0,82.31,6,GPS_Atti,
0.345827749140079,36.9133804192941,5628.5765839858,232.93964,0.223694,1.17832352852,21300,2017-11-15 06:18:48,15,16.327,5628.5765839858,232.93964,0.31540854,1.55811684776,207.2, 3, -2.1,0,0,1024,1024,1450,1024,207.6,-14.4,98,4.119,4.117,4.148,4.154,0,0,82.31,6,GPS_Atti,
0.345827717238861,36.9133802509117,5629.2327519858,233.595808,0,1.15074478748,21400,2017-11-15 06:18:49,15,16.327,5629.2327519858,233.595808,0.31540854,1.55811684776,207.2, 3.4, -2.1,0,0,1024,1024,1450,1024,207.6,-14.4,98,4.119,4.117,4.148,4.154,0,0,82.31,6,GPS_Atti,
0.345827693444852,36.9133801158554,5630.2170039858,234.58006,0,1.13009189968,21500,2017-11-15 06:18:49,15,16.327,5630.2170039858,234.58006,0.31540854,1.55811684776,207.3, 3.7, -1.5,0,0,1024,1024,1450,1024,207.6,-14.4,98,4.119,4.117,4.148,4.154,0,0,82.31,6,GPS_Atti,
0.345827667932834,36.9133800274428,5631.2012559858,235.564312,0,1.12066604636,21600,2017-11-15 06:18:49,15,16.327,5631.2012559858,235.564312,0.31540854,1.55811684776,207.2, 3.7, -1.4,0,0,1024,1024,1449,1024,207.6,-14.4,98,4.119,4.117,4.148,4.154,0,0,82.31,6,GPS_Atti,
0.345827664014798,36.913379946245,5631.8574239858,236.22048,0,1.10667326376,21700,2017-11-15 06:18:49,15,16.327,5631.8574239858,236.22048,0.31540854,1.55811684776,207.2, 3.5, -1.8,0,0,1024,1024,1449,1024,207.6,-14.4,98,4.119,4.117,4.148,4.154,0,0,82.31,6,GPS_Atti,
0.345827645949654,36.9133798724516,5632.8416759858,237.204732,0,1.09913389344,21800,2017-11-15 06:18:49,15,16.327,5632.8416759858,237.204732,0.31540854,1.55811684776,207.2, 3.3, -1.7,0,0,1024,1024,1449,1024,207.6,-14.4,98,4.119,4.117,4.148,4.154,0,0,82.31,6,GPS_Atti,
0.345827646671055,36.9133798136212,5633.8259279858,238.188984,0,1.08870738392,21900,2017-11-15 06:18:49,15,16.327,5633.8259279858,238.188984,0.31540854,1.55811684776,207.2, 2.8, -1.5,0,0,1024,1024,1447,1024,207.6,-14.4,98,4.119,4.117,4.148,4.154,0,0,82.31,6,GPS_Atti,
0.345827637361241,36.9133797742492,5634.8101799858,239.173236,0,1.0850886174,22000,2017-11-15 06:18:49,15,16.327,5634.8101799858,239.173236,0.31540854,1.55811684776,207.2, 2.2, -1.2,0,0,1024,1024,1446,1024,207.6,-14.4,98,4.119,4.117,4.148,4.154,0,0,82.31,6,GPS_Atti,
0.345827621400047,36.913379746502,5635.4663479858,239.829404,0,1.08572181952,22100,2017-11-15 06:18:49,15,16.381,5635.4663479858,239.829404,0.31540854,1.55811684776,207.2, 2.3, -0.8,0,0,1024,1024,1448,1024,207.6,-14.4,98,4.141,4.133,4.135,4.133,0,0,82.31,6,GPS_Atti,
0.345827574747569,36.9133797299846,5636.4505999858,240.813656,0,1.098343211,22200,2017-11-15 06:18:49,15,16.381,5636.4505999858,240.813656,0.31540854,1.55811684776,207.2, 2.4, -0.5,0,0,1024,1024,1446,1024,207.6,-14.4,98,4.141,4.133,4.135,4.133,0,0,82.31,6,GPS_Atti,
0.345827528490803,36.9133797029493,5637.1067679858,241.469824,0.223694,1.10935699088,22300,2017-11-15 06:18:49,15,16.381,5637.1067679858,241.469824,0.31540854,1.55811684776,207.2, 2.9, -0.8,0,0,1024,1024,1447,1024,207.6,-14.4,98,4.141,4.133,4.135,4.133,0,0,82.31,6,GPS_Atti,
0.345827457241493,36.9133796793979,5638.0910199858,242.454076,0.223694,1.12944885504,22400,2017-11-15 06:18:50,15,16.381,5638.0910199858,242.454076,0.31540854,1.55811684776,207.2, 3.7, -0.4,0,0,1024,1024,1446,1024,207.6,-14.4,98,4.141,4.133,4.135,4.133,0,0,82.31,6,GPS_Atti,
0.345827412136037,36.913379662889,5638.7471879858,243.110244,0.223694,1.14208993156,22500,2017-11-15 06:18:50,15,16.381,5638.7471879858,243.110244,0.31540854,1.55811684776,207.2, 4.2, 0,0,0,1024,1024,1446,1024,207.6,-14.4,98,4.141,4.133,4.135,4.133,0,0,82.31,6,GPS_Atti,
0.345827382359938,36.9133796527256,5639.7314399858,244.094496,0,1.15061355388,22600,2017-11-15 06:18:50,15,16.381,5639.7314399858,244.094496,0.31540854,1.55811684776,207.2, 4, 0,0,0,1024,1024,1445,1024,207.6,-14.4,98,4.141,4.133,4.135,4.133,0,0,82.31,6,GPS_Atti,
0.345827375433352,36.9133796351225,5640.3876079858,244.750664,0,1.15044623104,22700,2017-11-15 06:18:50,15,16.381,5640.3876079858,244.750664,0.31540854,1.55811684776,207.2, 3.5, 0.4,0,0,1024,1024,1447,1024,207.6,-14.4,98,4.141,4.133,4.135,4.133,0,0,82.31,6,GPS_Atti,
0.345827334356666,36.9133796162432,5641.3718599858,245.734916,0,1.1616798272,22800,2017-11-15 06:18:50,15,16.381,5641.3718599858,245.734916,0.31540854,1.55811684776,207.2, 3.2, 0.9,0,0,1024,1024,1446,1024,207.6,-14.4,98,4.141,4.133,4.135,4.133,0,0,82.31,6,GPS_Atti,
0.34582732102948,36.9133795831654,5642.3561119858,246.719168,0,1.16171919728,22900,2017-11-15 06:18:50,15,16.381,5642.3561119858,246.719168,0.31540854,1.55811684776,207.2, 3.6, 0.5,0,0,1024,1024,1445,1024,207.6,-14.4,98,4.141,4.133,4.135,4.133,0,0,82.31,6,GPS_Atti,
0.345827319217836,36.9133795643151,5643.3403639858,247.70342,0,1.15983927596,23000,2017-11-15 06:18:50,15,16.381,5643.3403639858,247.70342,0.31540854,1.55811684776,207.2, 4.1, 0,0,0,1024,1024,1445,1024,207.6,-14.4,98,4.141,4.133,4.135,4.133,0,0,82.31,6,GPS_Atti,
0.345827353130997,36.9133795324963,5644.3246159858,248.687672,0,1.14413061404,23100,2017-11-15 06:18:50,15,16.434,5644.3246159858,248.687672,0.31540854,1.55811684776,207.2, 4.3, -0.1,0,0,1024,1024,1424,1024,207.6,-14.4,98,4.141,4.131,4.129,4.127,0,0,82.31,6,GPS_Atti,
0.345827396327916,36.913379489587,5644.9807839858,249.34384,0,1.12387470788,23200,2017-11-15 06:18:50,15,16.434,5644.9807839858,249.34384,0.31540854,1.55811684776,207.2, 3.9, -0.5,0,0,1024,1024,1024,1024,207.6,-14.4,98,4.141,4.131,4.129,4.127,0,0,82.31,6,GPS_Atti,
0.345827469410855,36.9133794512504,5645.9650359858,250.328092,0,1.09401906388,23300,2017-11-15 06:18:50,15,16.434,5645.9650359858,250.328092,0.31540854,1.55811684776,207.2, 3.4, -1,0,0,1024,1024,1024,1024,207.6,-14.4,98,4.141,4.131,4.129,4.127,0,0,82.31,6,GPS_Atti,
