latitude,longitude,altitude(feet),ascent(feet),speed(mph),distance(feet),time(millisecond),datetime(utc),satellites,voltage(v),max_altitude(feet),max_ascent(feet),max_speed(mph),max_distance(feet),compass_heading(degrees), pitch(degrees), roll(degrees),isPhoto,isVideo,rc_elevator,rc_aileron,rc_throttle,rc_rudder,gimbal_heading(degrees),gimbal_pitch(degrees),battery_percent,voltageCell1,voltageCell2,voltageCell3,voltageCell4,voltageCell5,voltageCell6,battery_temperature(f),flycStateRaw,flycState,message
0.363357396147076,36.896733698788,5704.2950230886,0,0,0,0,2017-11-11 07:58:45,13,0,5704.2950230886,0,0,0,47.1, -0.9, 0.5,0,0,1024,1024,1024,1024,51.7,0,85,4.155,4.158,4.155,4.149,0,0,84.11,41,Motors_Started,
0.363357417300157,36.8967336875636,5704.2950230886,0,0,0.00873687692,100,2017-11-11 07:58:45,13,0,5704.2950230886,0,0,0.00873687692,47.1, -0.9, 0.5,0,0,1024,1024,1024,1024,51.7,0,85,4.155,4.158,4.155,4.149,0,0,84.11,41,Motors_Started,
0.363357437282793,36.8967336865541,5704.2950230886,0,0,0.0156580057504,200,2017-11-11 07:58:45,13,0,5704.2950230886,0,0,0.0156580057504,47.2, -0.9, 0.5,0,0,1024,1024,1024,1024,51.7,0,85,4.155,4.158,4.155,4.149,0,0,84.11,41,Motors_Started,
0.363357441863199,36.896733719175,5704.2950230886,0,0,0.01826279586,300,2017-11-11 07:58:45,13,0,5704.2950230886,0,0,0.01826279586,47.1, -0.9, 0.5,0,0,1024,1024,1024,1024,51.7,0,85,4.155,4.158,4.155,4.149,0,0,84.11,41,Motors_Started,
0.363357450292025,36.8967337473324,5704.2950230886,0,0,0.0265316937624,400,2017-11-11 07:58:45,13,0,5704.2950230886,0,0,0.0265316937624,47.2, -0.9, 0.5,0,0,1024,1024,1024,1024,51.7,0,85,4.155,4.158,4.155,4.149,0,0,84.11,41,Motors_Started,Setting new Return-To-Home altitude to 30m (98 ft). Setting new Maximum Flight Altitude to 120m (394 ft)
0.363357445810547,36.8967337627733,5704.2950230886,0,0,0.0295514773236,500,2017-11-11 07:58:45,13,0,5704.2950230886,0,0,0.0295514773236,47.1, -0.9, 0.5,0,0,1024,1024,1024,1024,51.7,0,85,4.155,4.158,4.155,4.149,0,0,84.11,41,Motors_Started,
0.363357447010303,36.8967337800157,5704.2950230886,0,0,0.034966208468,600,2017-11-11 07:58:46,13,0,5704.2950230886,0,0,0.034966208468,47.1, -0.9, 0.5,0,0,1024,1024,1024,1024,51.6,0,85,4.155,4.158,4.155,4.149,0,0,84.11,41,Motors_Started,
0.363357480105985,36.8967337842107,5704.2950230886,0,0,0.043699476464,700,2017-11-11 07:58:46,13,0,5704.2950230886,0,0,0.043699476464,47.1, -0.9, 0.5,0,0,1024,1024,1024,1024,51.7,0,85,4.155,4.158,4.155,4.149,0,0,84.11,41,Motors_Started,
0.363357507017243,36.8967337939171,5704.2950230886,0,0,0.053299542388,800,2017-11-11 07:58:46,13,0,5704.2950230886,0,0,0.053299542388,47.1, -0.9, 0.5,0,0,1024,1024,1024,1024,51.6,0,85,4.155,4.158,4.155,4.149,0,0,84.11,41,Motors_Started,
0.36335752007655,36.8967338306942,5704.2950230886,0,0,0.066033794764,900,2017-11-11 07:58:46,13,0,5704.2950230886,0,0,0.066033794764,47.1, -0.8, 0.4,0,0,1024,1024,1024,1024,51.6,0,85,4.155,4.158,4.155,4.149,0,0,84.11,41,Motors_Started,
0.36335753405552,36.8967338630344,5704.2950230886,0,0,0.078246721664,1000,2017-11-11 07:58:46,13,0,5704.2950230886,0,0,0.078246721664,47.1, -0.7, 0.4,0,0,1024,1024,1024,1024,51.6,0,85,4.155,4.158,4.155,4.149,0,0,84.11,41,Motors_Started,
0.363357535407129,36.8967338787724,5704.2950230886,0,0,0.083027561712,1100,2017-11-11 07:58:46,13,0,5704.2950230886,0,0,0.083027561712,47, -0.7, 0.4,0,0,1024,1024,1024,1024,51.6,0,85,4.155,4.158,4.155,4.149,0,0,84.11,41,Motors_Started,
0.363357540286354,36.8967339010397,5704.2950230886,0,0,0.090612207624,1200,2017-11-11 07:58:46,13,0,5704.2950230886,0,0,0.090612207624,47.1, -0.9, 0.5,0,0,1024,1024,1024,1024,51.6,0,85,4.155,4.158,4.155,4.149,0,0,84.11,41,Motors_Started,
0.363357575255968,36.8967339053348,5704.2950230886,0,0,0.099744753848,1300,2017-11-11 07:58:46,13,0,5704.2950230886,0,0,0.099744753848,47.1, -0.7, 0.4,0,0,1024,1024,1024,1024,49.2,0,85,4.155,4.158,4.155,4.149,0,0,84.11,41,Motors_Started,
0.363357604662002,36.8967339177568,5704.2950230886,0,0,0.110317260748,1400,2017-11-11 07:58:46,13,16.561,5704.2950230886,0,0,0.110317260748,47, -0.9, 0.5,0,0,1024,1024,1024,1024,48.5,0,85,4.155,4.158,4.155,4.149,0,0,84.11,41,Motors_Started,
0.363357620782784,36.896733910558,5704.2950230886,0,0,0.112635174208,1500,2017-11-11 07:58:46,13,16.561,5704.2950230886,0,0,0.112635174208,47, -0.6, 0.3,0,0,1024,1024,1024,1024,48.2,0,85,4.155,4.158,4.155,4.149,0,0,84.11,41,Motors_Started,
0.363357636724029,36.8967339144988,5704.2950230886,0,0,0.117890095636,1600,2017-11-11 07:58:46,13,16.561,5704.2950230886,0,0,0.117890095636,47, -0.8, 0.5,0,0,1024,1024,1024,1024,48,0,85,4.155,4.158,4.155,4.149,0,0,84.11,10,Assisted_Takeoff,
0.363357638970875,36.8967339524162,5704.2950230886,0,0,0.128107287564,1700,2017-11-11 07:58:47,13,16.561,5704.2950230886,0,0,0.128107287564,47, -0.9, 0.5,0,0,1024,1024,1024,1024,47.9,0,85,4.155,4.158,4.155,4.149,0,0,84.11,10,Assisted_Takeoff,
0.36335764410658,36.8967339812457,5704.2950230886,0,0,0.137128613312,1800,2017-11-11 07:58:47,13,16.561,5704.2950230886,0,0,0.137128613312,47, -0.9, 0.5,0,0,1024,1024,1024,1024,47.8,0,85,4.155,4.158,4.155,4.149,0,0,84.11,10,Assisted_Takeoff,
0.363357638830828,36.8967340004486,5704.2950230886,0,0,0.141254269612,1900,2017-11-11 07:58:47,13,16.561,5704.2950230886,0,0,0.141254269612,47, -0.9, 0.5,0,0,1024,1024,1024,1024,47.7,0,85,4.155,4.158,4.155,4.149,0,0,84.11,10,Assisted_Takeoff,
0.363357639533502,36.8967340181583,5704.2950230886,0,0,0.146499676604,2000,2017-11-11 07:58:47,13,16.561,5704.2950230886,0,0,0.146499676604,47, -0.9, 0.5,0,0,1024,1024,1024,1024,47.6,0,85,4.155,4.158,4.155,4.149,0,0,84.11,10,Assisted_Takeoff,
0.363357671385052,36.8967340234464,5704.2950230886,0,0,0.155288390796,2100,2017-11-11 07:58:47,13,16.561,5704.2950230886,0,0,0.155288390796,47, -0.9, 0.5,0,0,1024,1024,1024,1024,47.6,0,85,4.155,4.158,4.155,4.149,0,0,84.11,10,Assisted_Takeoff,
0.363357698786065,36.8967340331565,5704.2950230886,0,0,0.164542000016,2200,2017-11-11 07:58:47,13,16.561,5704.2950230886,0,0,0.164542000016,47, -0.9, 0.5,0,0,1024,1024,1024,1024,47.6,0,85,4.155,4.158,4.155,4.149,0,0,84.11,10,Assisted_Takeoff,
0.363357714670722,36.896734029873,5704.2950230886,0,0,0.167620412188,2300,2017-11-11 07:58:47,13,16.561,5704.2950230886,0,0,0.167620412188,47, -0.9, 0.5,0,0,1024,1024,1028,1024,47.5,0,85,4.155,4.158,4.155,4.149,0,0,84.11,10,Assisted_Takeoff,
0.36335772974645,36.8967340347118,5704.2950230886,0,0,0.1727280239,2400,2017-11-11 07:58:47,13,16.534,5704.2950230886,0,0,0.1727280239,47, -0.9, 0.6,0,0,1024,1024,1024,1024,47.5,0,85,4.143,4.142,4.13,4.139,0,0,84.11,10,Assisted_Takeoff,
0.363357733006595,36.8967340279366,5704.2950230886,0,0,0.171831698412,2500,2017-11-11 07:58:47,13,16.534,5704.2950230886,0,0,0.1727280239,47, -1, 0.6,0,0,1024,1024,1024,1024,47.5,0,85,4.143,4.142,4.13,4.139,0,0,84.11,10,Assisted_Takeoff,
0.363357740192511,36.8967340313346,5704.2950230886,0,0,0.174575792988,2600,2017-11-11 07:58:47,13,16.534,5704.2950230886,0,0,0.174575792988,47, -1, 0.6,0,0,1024,1024,1024,1024,47.4,0,85,4.143,4.142,4.13,4.139,0,0,84.11,10,Assisted_Takeoff,
0.363357776962776,36.8967340243841,5704.2950230886,0,0,0.182799874616,2700,2017-11-11 07:58:48,13,16.534,5704.2950230886,0,0,0.182799874616,47, -1, 0.6,0,0,1024,1024,1024,1024,47.4,0,85,4.143,4.142,4.13,4.139,0,0,84.11,10,Assisted_Takeoff,
0.363357808354698,36.8967340271733,5704.2950230886,0,0,0.192282158384,2800,2017-11-11 07:58:48,13,16.534,5704.2950230886,0,0,0.192282158384,47, -1, 0.6,0,0,1024,1024,1024,1024,47.4,0,85,4.143,4.142,4.13,4.139,0,0,84.11,10,Assisted_Takeoff,
0.363357825569387,36.8967340180677,5704.2950230886,0,0,0.195233273964,2900,2017-11-11 07:58:48,13,16.534,5704.2950230886,0,0,0.195233273964,47, -1, 0.6,0,0,1024,1024,1024,1024,47.4,0,85,4.143,4.142,4.13,4.139,0,0,84.11,10,Assisted_Takeoff,
0.363357842509276,36.8967340225796,5704.2950230886,0,0,0.2011893109,3000,2017-11-11 07:58:48,13,16.534,5704.2950230886,0,0,0.2011893109,47, -1, 0.6,0,0,1024,1024,1024,1024,47.4,0,85,4.143,4.142,4.13,4.139,0,0,84.11,10,Assisted_Takeoff,
0.363357884875282,36.8967340561043,5704.2950230886,0,0,0.220884521504,3100,2017-11-11 07:58:48,13,16.534,5704.2950230886,0,0,0.220884521504,47, -1, 0.6,0,0,1024,1024,1024,1024,47.4,0,85,4.143,4.142,4.13,4.139,0,0,84.11,10,Assisted_Takeoff,
0.363357921470897,36.8967340915555,5704.2950230886,0,0,0.239310375112,3200,2017-11-11 07:58:48,13,16.534,5704.2950230886,0,0,0.239310375112,47, -1, 0.6,0,0,1024,1024,1025,1024,47.4,0,85,4.143,4.142,4.13,4.139,0,0,84.11,10,Assisted_Takeoff,
0.363357959730374,36.8967341358337,5704.2950230886,0,0,0.260203748484,3400,2017-11-11 07:58:48,13,16.588,5704.2950230886,0,0,0.260203748484,47, -1, 0.6,0,0,1024,1024,1045,1024,47.3,0,85,4.143,4.142,4.13,4.139,0,0,84.11,10,Assisted_Takeoff,
0.363357961471181,36.8967341817917,5704.2950230886,0,0,0.271285769836,3500,2017-11-11 07:58:48,13,16.588,5704.2950230886,0,0,0.271285769836,47, -1, 0.6,0,0,1024,1024,1072,1024,47.3,0,85,4.143,4.142,4.13,4.139,0,0,84.11,10,Assisted_Takeoff,
0.36335796869333,36.896734230077,5704.2950230886,0,0,0.284971793896,3600,2017-11-11 07:58:48,13,16.588,5704.2950230886,0,0,0.284971793896,47, -1, 0.6,0,0,1024,1024,1104,1024,47.3,0,85,4.143,4.142,4.13,4.139,0,0,84.11,10,Assisted_Takeoff,
0.363358001334268,36.8967342514516,5704.2950230886,0,0,0.299015429516,3700,2017-11-11 07:58:49,13,16.588,5704.2950230886,0,0,0.299015429516,46.9, -1, 0.6,0,0,1024,1024,1129,1024,47.3,0,85,4.143,4.142,4.13,4.139,0,0,84.11,10,Assisted_Takeoff,
0.363358031365625,36.8967342831639,5704.2950230886,0,0,0.314910443148,3800,2017-11-11 07:58:49,13,16.588,5704.2950230886,0,0,0.314910443148,46.9, -1, 0.6,0,0,1024,1024,1137,1024,47.3,0,85,4.143,4.142,4.13,4.139,0,0,84.11,10,Assisted_Takeoff,
0.363358043581805,36.8967342867635,5704.2950230886,0,0,0.3190862963,3900,2017-11-11 07:58:49,13,16.588,5704.2950230886,0,0,0.3190862963,46.9, -0.9, 0.5,0,0,1024,1024,1149,1024,47.3,0,85,4.143,4.142,4.13,4.139,0,0,84.11,10,Assisted_Takeoff,
0.363358058038317,36.8967343067977,5704.2950230886,0,0,0.327910443564,4000,2017-11-11 07:58:49,13,16.588,5704.2950230886,0,0,0.327910443564,46.9, -1, 0.4,0,0,1024,1024,1183,1024,47.3,0,85,4.143,4.142,4.13,4.139,0,0,84.11,10,Assisted_Takeoff,
0.363358016839498,36.8967342996849,5704.2950230886,0,0,0.315192923472,4100,2017-11-11 07:58:49,13,16.588,5704.2950230886,0,0,0.327910443564,46.9, -0.9, 0.5,0,0,1024,1024,1206,1024,47.3,0,85,4.143,4.142,4.13,4.139,0,0,84.11,10,Assisted_Takeoff,
0.36335799157134,36.8967343133664,5704.2950230886,0,0,0.31220145356,4200,2017-11-11 07:58:49,13,16.588,5704.2950230886,0,0,0.327910443564,46.9, -0.8, 0.4,0,0,1024,1024,1211,1024,47.3,0,85,4.143,4.142,4.13,4.139,0,0,84.11,10,Assisted_Takeoff,
0.363357999127727,36.8967343016409,5704.2950230886,0,0,0.311086952212,4300,2017-11-11 07:58:49,13,16.588,5704.2950230886,0,0,0.327910443564,46.8, -0.8, 0.3,0,0,1024,1024,1219,1024,47.3,0,85,4.143,4.142,4.13,4.139,0,0,84.11,10,Assisted_Takeoff,
0.363358009527377,36.8967343107507,5704.2950230886,0,0,0.316120088856,4400,2017-11-11 07:58:49,13,16.588,5704.2950230886,0,0,0.327910443564,46.9, -0.7, 0.3,0,0,1024,1024,1226,1024,47.3,0,85,4.15,4.153,4.149,4.149,0,0,84.11,10,Assisted_Takeoff,
0.363358014727406,36.8967342930747,5704.2950230886,0,0,0.31296424886,4500,2017-11-11 07:58:49,13,16.588,5704.2950230886,0,0,0.327910443564,46.8, 0.8, 0.8,0,0,1024,1024,1233,1024,47.3,0,85,4.15,4.153,4.149,4.149,0,0,84.11,10,Assisted_Takeoff,
0.36335801089812,36.8967342870957,5704.2950230886,0,0,0.31044620416,4600,2017-11-11 07:58:49,13,16.588,5704.2950230886,0,0,0.327910443564,46.6, 3.6, 1.2,0,0,1024,1024,1241,1024,47.3,0,85,4.15,4.153,4.149,4.149,0,0,84.11,10,Assisted_Takeoff,
0.363357942064199,36.8967342170935,5704.2950230886,0,0.223694,0.274646006164,4700,2017-11-11 07:58:50,13,16.588,5704.2950230886,0,0.223694,0.327910443564,46.5, 3.3, 1,0,0,1024,1024,1245,1024,47.3,0,85,4.15,4.153,4.149,4.149,0,0,84.11,6,GPS_Atti,Obstacle Avoided. Revise Flight Route
0.363357795513196,36.8967340998085,5704.2950230886,0,0.31540854,0.206488195584,4800,2017-11-11 07:58:50,13,16.588,5704.2950230886,0,0.31540854,0.327910443564,46.5, 0.6, -0.2,0,0,1024,1024,1246,1024,47.3,0,85,4.15,4.153,4.149,4.149,0,0,84.11,6,GPS_Atti,
0.363357604759302,36.8967338993864,5704.2950230886,0,0.31540854,0.10559055456,4900,2017-11-11 07:58:50,13,16.588,5704.2950230886,0,0.31540854,0.327910443564,46.5, -0.1, -0.8,0,0,1024,1024,1250,1024,47.3,0,85,4.15,4.153,4.149,4.149,0,0,84.11,6,GPS_Atti,
0.363357430565462,36.8967336871812,5704.6231070886,0.328084,0.63305402,0.013252297012,5000,2017-11-11 07:58:50,13,16.588,5704.6231070886,0.328084,0.63305402,0.327910443564,46.5, -1, -0.4,0,0,1024,1024,1250,1024,47.3,0,85,4.15,4.153,4.149,4.149,0,0,84.11,6,GPS_Atti,
0.363357266325893,36.8967333886786,5704.9511910886,0.656168,0.63305402,0.122655515736,5100,2017-11-11 07:58:50,13,16.588,5704.9511910886,0.656168,0.63305402,0.327910443564,46.5, -2, 0.2,0,0,1024,1024,1251,1024,47.2,0,85,4.15,4.153,4.149,4.149,0,0,84.11,6,GPS_Atti,
0.363357089540791,36.8967331088773,5705.2792750886,0.984252,0.63305402,0.242559719048,5200,2017-11-11 07:58:50,13,16.588,5705.2792750886,0.984252,0.63305402,0.327910443564,46.6, -2.7, -0.1,0,0,1024,1024,1254,1024,47.2,0,85,4.15,4.153,4.149,4.149,0,0,84.11,6,GPS_Atti,
0.363356899982582,36.8967327645334,5705.2792750886,0.984252,0.63305402,0.38594489424,5300,2017-11-11 07:58:50,13,16.588,5705.2792750886,0.984252,0.63305402,0.38594489424,46.7, -4, -0.7,0,0,1024,1024,1263,1024,47.2,0,85,4.15,4.153,4.149,4.149,0,0,84.11,6,GPS_Atti,
0.363356732758889,36.8967324406939,5705.6073590886,1.312336,0.50107456,0.51891077776,5400,2017-11-11 07:58:50,13,16.133,5705.6073590886,1.312336,0.63305402,0.51891077776,46.9, -4.5, 1,0,0,1024,1024,1270,1024,47.2,0,85,4.101,4.109,4.09,4.092,0,0,84.11,6,GPS_Atti,
0.36335657609016,36.8967321309309,5705.9354430886,1.64042,0.31540854,0.64554464008,5500,2017-11-11 07:58:50,13,16.133,5705.9354430886,1.64042,0.63305402,0.64554464008,46.8, -4.8, 1.1,0,0,1024,1024,1272,1024,47.2,0,85,4.101,4.109,4.09,4.092,0,0,84.11,6,GPS_Atti,Home Point Recorded. RTH Altitude:  30m.
0.363356399357372,36.8967318862849,5706.2635270886,1.968504,0.31540854,0.75468506352,5600,2017-11-11 07:58:51,13,16.133,5706.2635270886,1.968504,0.63305402,0.75468506352,46.8, -4.7, 0,0,0,1024,1024,1274,1024,47.2,0,85,4.101,4.109,4.09,4.092,0,0,84.11,6,GPS_Atti,
0.363356072696391,36.8967314292432,5706.9196950886,2.624672,0.31540854,0.9585302144,5800,2017-11-11 07:58:51,12,16.133,5706.9196950886,2.624672,0.63305402,0.9585302144,46.8, -4.1, 1.6,0,0,1024,1024,1278,1024,47.2,0,85,4.101,4.109,4.09,4.092,0,0,84.11,6,GPS_Atti,
0.363355897682426,36.8967311453386,5707.2477790886,2.952756,0.50107456,1.08017719992,5900,2017-11-11 07:58:51,12,16.133,5707.2477790886,2.952756,0.63305402,1.08017719992,46.7, -3.6, -0.1,0,0,1024,1024,1279,1024,47.2,0,85,4.101,4.109,4.09,4.092,0,0,84.11,6,GPS_Atti,
0.363355722366588,36.8967309014605,5707.9039470886,3.608924,0.50107456,1.18933402756,6000,2017-11-11 07:58:51,12,16.133,5707.9039470886,3.608924,0.63305402,1.18933402756,46.7, -4.1, -1.2,0,0,1024,1024,1286,1024,47.2,0,85,4.101,4.109,4.09,4.092,0,0,84.11,6,GPS_Atti,
0.363355581610301,36.8967306572751,5708.2320310886,3.937008,0.50107456,1.29215227232,6100,2017-11-11 07:58:51,13,16.133,5708.2320310886,3.937008,0.63305402,1.29215227232,46.6, -4.6, -0.5,0,0,1024,1024,1287,1024,47.2,0,85,4.101,4.109,4.09,4.092,0,0,84.11,6,GPS_Atti,
0.363355460795735,36.8967304253659,5708.5601150886,4.265092,0.50107456,1.38740818088,6200,2017-11-11 07:58:51,13,16.133,5708.5601150886,4.265092,0.63305402,1.38740818088,46.6, -4.6, 0.2,0,0,1024,1024,1289,1024,47.2,0,85,4.101,4.109,4.09,4.092,0,0,84.11,6,GPS_Atti,
0.36335535372422,36.8967301228121,5708.8881990886,4.593176,0.50107456,1.50248036304,6300,2017-11-11 07:58:51,13,16.133,5708.8881990886,4.593176,0.63305402,1.50248036304,46.5, -4.9, 0.2,0,0,1024,1024,1291,1024,47.2,0,85,4.101,4.109,4.09,4.092,0,0,84.11,6,GPS_Atti,
0.363355248104767,36.8967298639659,5709.5443670886,5.249344,0.50107456,1.60365162612,6400,2017-11-11 07:58:51,13,16.133,5709.5443670886,5.249344,0.63305402,1.60365162612,46.6, -5.3, 0.1,0,0,1024,1024,1294,1024,47.2,0,85,4.057,4.071,4.048,4.055,0,0,84.11,6,GPS_Atti,
0.363355219851263,36.8967296349489,5709.8724510886,5.577428,0.50107456,1.68188653676,6500,2017-11-11 07:58:51,13,16.133,5709.8724510886,5.577428,0.63305402,1.68188653676,46.6, -5.3, 0.5,0,0,1024,1024,1298,1024,47.2,0,85,4.057,4.071,4.048,4.055,0,0,84.11,6,GPS_Atti,
0.363355193823232,36.8967294422887,5710.2005350886,5.905512,0.223694,1.74851055464,6600,2017-11-11 07:58:51,13,16.133,5710.2005350886,5.905512,0.63305402,1.74851055464,46.6, -4.8, 0.7,0,0,1024,1024,1299,1024,47.2,0,85,4.057,4.071,4.048,4.055,0,0,84.11,6,GPS_Atti,
0.363355128236938,36.8967292198421,5710.5286190886,6.233596,0.31540854,1.8316601636,6700,2017-11-11 07:58:52,13,16.133,5710.5286190886,6.233596,0.63305402,1.8316601636,46.5, -4.8, 1.3,0,0,1024,1024,1301,1024,47.2,0,85,4.057,4.071,4.048,4.055,0,0,84.11,6,GPS_Atti,
0.36335504494162,36.896729033977,5711.1847870886,6.889764,0.31540854,1.9058891686,6800,2017-11-11 07:58:52,13,16.133,5711.1847870886,6.889764,0.63305402,1.9058891686,46.4, -5.4, -0.4,0,0,1024,1024,1303,1024,47.2,0,85,4.057,4.071,4.048,4.055,0,0,84.11,6,GPS_Atti,
0.363354949042553,36.8967288653517,5711.5128710886,7.217848,0.223694,1.97657814724,6900,2017-11-11 07:58:52,13,16.133,5711.5128710886,7.217848,0.63305402,1.97657814724,46.5, -6.3, 0,0,0,1024,1024,1312,1024,47.2,0,85,4.057,4.071,4.048,4.055,0,0,84.11,6,GPS_Atti,
0.363354920592823,36.8967287071383,5711.8409550886,7.545932,0.223694,2.03283471072,7000,2017-11-11 07:58:52,13,16.133,5711.8409550886,7.545932,0.63305402,2.03283471072,46.4, -5.9, 2.9,0,0,1024,1024,1324,1024,47.2,0,85,4.057,4.071,4.048,4.055,0,0,84.11,6,GPS_Atti,
0.363354949545743,36.8967285014822,5712.4971230886,8.2021,0,2.09579731116,7100,2017-11-11 07:58:52,13,16.133,5712.4971230886,8.2021,0.63305402,2.09579731116,46.5, -5.6, 1.9,0,0,1024,1024,1333,1024,47.2,0,85,4.057,4.071,4.048,4.055,0,0,84.11,6,GPS_Atti,
0.363354958778206,36.8967283764299,5712.8252070886,8.530184,0,2.1357612232,7200,2017-11-11 07:58:52,13,16.133,5712.8252070886,8.530184,0.63305402,2.1357612232,46.6, -5.3, 1.2,0,0,1024,1024,1336,1024,47.2,0,85,4.057,4.071,4.048,4.055,0,0,84.11,6,GPS_Atti,
0.363354966013179,36.8967283261603,5713.4813750886,9.186352,0,2.15135833656,7300,2017-11-11 07:58:52,13,16.133,5713.4813750886,9.186352,0.63305402,2.15135833656,46.6, -4.5, 1.1,0,0,1024,1024,1343,1024,47.2,0,85,4.057,4.071,4.048,4.055,0,0,84.11,6,GPS_Atti,
0.363354966059081,36.8967282954038,5713.8094590886,9.514436,0,2.161581434,7400,2017-11-11 07:58:52,13,16.186,5713.8094590886,9.514436,0.63305402,2.161581434,46.4, -3.5, -0.1,0,0,1024,1024,1351,1024,47.1,0,85,4.057,4.071,4.048,4.055,0,0,84.11,6,GPS_Atti,
0.36335495732543,36.8967281262976,5714.4656270886,10.170604,0,2.21926844372,7500,2017-11-11 07:58:52,13,16.186,5714.4656270886,10.170604,0.63305402,2.21926844372,46.5, -4, 0.3,0,0,1024,1024,1359,1024,47.1,0,85,4.057,4.071,4.048,4.055,0,0,84.11,6,GPS_Atti,
0.363354925786134,36.8967279370568,5715.1217950886,10.826772,0.223694,2.28719823592,7600,2017-11-11 07:58:52,13,16.186,5715.1217950886,10.826772,0.63305402,2.28719823592,46.5, -5.1, 2.6,0,0,1024,1024,1377,1024,47.1,0,85,4.057,4.071,4.048,4.055,0,0,84.11,6,GPS_Atti,
0.363354884707515,36.8967276800672,5715.4498790886,11.154856,0.223694,2.37938983992,7700,2017-11-11 07:58:53,13,16.186,5715.4498790886,11.154856,0.63305402,2.37938983992,46.5, -7.4, 1.4,0,0,1024,1024,1395,1024,47.1,0,85,4.057,4.071,4.048,4.055,0,0,84.11,6,GPS_Atti,
0.363354814170954,36.8967274820201,5716.1060470886,11.811024,0.223694,2.4559876114,7800,2017-11-11 07:58:53,13,16.186,5716.1060470886,11.811024,0.63305402,2.4559876114,46.6, -7.7, -0.2,0,0,1024,1024,1395,1024,47.1,0,85,4.057,4.071,4.048,4.055,0,0,84.11,6,GPS_Atti,
0.363354731929189,36.8967273029228,5716.7622150886,12.467192,0,2.52784456908,7900,2017-11-11 07:58:53,13,16.186,5716.7622150886,12.467192,0.63305402,2.52784456908,46.7, -7.1, -0.5,0,0,1024,1024,1396,1024,47.1,0,85,4.057,4.071,4.048,4.055,0,0,84.11,6,GPS_Atti,
0.363354698474792,36.8967271080624,5717.4183830886,13.12336,0.223694,2.5982120254,8000,2017-11-11 07:58:53,13,16.186,5717.4183830886,13.12336,0.63305402,2.5982120254,46.7, -7.5, 1.2,0,0,1024,1024,1399,1024,47.1,0,85,4.057,4.071,4.048,4.055,0,0,84.11,6,GPS_Atti,
0.363354666179796,36.8967268065207,5718.0745510886,13.779528,0.223694,2.70466872172,8100,2017-11-11 07:58:53,13,16.186,5718.0745510886,13.779528,0.63305402,2.70466872172,46.7, -8.2, 2.6,0,0,1024,1024,1402,1024,47.1,0,85,4.057,4.071,4.048,4.055,0,0,84.11,6,GPS_Atti,
0.363354581866853,36.8967262383846,5719.3868870886,15.091864,0.223694,2.90910114296,8300,2017-11-11 07:58:53,13,16.186,5719.3868870886,15.091864,0.63305402,2.90910114296,46.7, -9, 1.8,0,0,1024,1024,1402,1024,47.1,0,85,4.057,4.071,4.048,4.055,0,0,84.11,6,GPS_Atti,
0.363354524739409,36.8967259834436,5720.3711390886,16.076116,0.223694,3.00351387564,8400,2017-11-11 07:58:53,13,16.079,5720.3711390886,16.076116,0.63305402,3.00351387564,46.7, -9.3, 0.9,0,0,1024,1024,1404,1024,47.1,0,85,4.047,4.059,4.038,4.045,0,0,84.11,6,GPS_Atti,
0.363354492078522,36.8967256533029,5721.0273070886,16.732284,0.223694,3.12070548044,8500,2017-11-11 07:58:53,13,16.079,5721.0273070886,16.732284,0.63305402,3.12070548044,46.7, -9.5, 1.2,0,0,1024,1024,1405,1024,47.1,0,85,4.047,4.059,4.038,4.045,0,0,84.11,6,GPS_Atti,
0.363354461229432,36.8967253909785,5721.6834750886,17.388452,0.223694,3.21462608712,8600,2017-11-11 07:58:53,13,16.079,5721.6834750886,17.388452,0.63305402,3.21462608712,46.6, -10, 1.1,0,0,1024,1024,1408,1024,47.1,0,85,4.047,4.059,4.038,4.045,0,0,84.11,6,GPS_Atti,
0.363354402230652,36.8967251076328,5722.6677270886,18.372704,0,3.3192914448,8700,2017-11-11 07:58:54,13,16.079,5722.6677270886,18.372704,0.63305402,3.3192914448,46.7, -9.9, 0.8,0,0,1024,1024,1418,1024,47.1,0,85,4.047,4.059,4.038,4.045,0,0,84.11,6,GPS_Atti,
0.363354372707522,36.8967248692128,5723.3238950886,19.028872,0,3.405019794,8800,2017-11-11 07:58:54,13,16.079,5723.3238950886,19.028872,0.63305402,3.405019794,46.7, -9.4, 1.4,0,0,1024,1024,1421,1024,47.1,0,85,4.047,4.059,4.038,4.045,0,0,84.11,6,GPS_Atti,
0.363354392609601,36.8967246072802,5723.9800630886,19.68504,0,3.4933071984,8900,2017-11-11 07:58:54,13,16.079,5723.9800630886,19.68504,0.63305402,3.4933071984,46.6, -9.3, 1.6,0,0,1024,1024,1422,1024,47.1,0,85,4.047,4.059,4.038,4.045,0,0,84.11,6,GPS_Atti,
0.363354409380284,36.8967244087723,5724.9643150886,20.669292,0,3.5602691428,9000,2017-11-11 07:58:54,13,16.079,5724.9643150886,20.669292,0.63305402,3.5602691428,46.6, -9.6, 0.9,0,0,1024,1024,1436,1024,47.1,0,85,4.047,4.059,4.038,4.045,0,0,84.11,6,GPS_Atti,
0.363354458617713,36.8967241726755,5725.6204830886,21.32546,0,3.6370079904,9100,2017-11-11 07:58:54,13,16.079,5725.6204830886,21.32546,0.63305402,3.6370079904,46.6, -9.6, 0.9,0,0,1024,1024,1450,1024,47.1,0,85,4.047,4.059,4.038,4.045,0,0,84.11,6,GPS_Atti,
0.363354523989867,36.8967239772113,5726.6047350886,22.309712,0,3.6983925068,9200,2017-11-11 07:58:54,13,16.079,5726.6047350886,22.309712,0.63305402,3.6983925068,46.6, -8.7, 1.1,0,0,1024,1024,1452,1024,47.1,0,85,4.047,4.059,4.038,4.045,0,0,84.11,6,GPS_Atti,
0.363354591405311,36.8967237996941,5727.5889870886,23.293964,0,3.753773086,9300,2017-11-11 07:58:54,13,16.079,5727.5889870886,23.293964,0.63305402,3.753773086,46.6, -8.2, 0.6,0,0,1024,1024,1458,1024,47.1,0,85,4.047,4.059,4.038,4.045,0,0,84.11,6,GPS_Atti,
0.363354669315568,36.8967236221309,5728.2451550886,23.950132,0.223694,3.8086287308,9400,2017-11-11 07:58:54,13,16.079,5728.2451550886,23.950132,0.63305402,3.8086287308,46.6, -9.6, 1.2,0,0,1024,1024,1465,1024,47.1,0,85,4.038,4.055,4.033,4.04,0,0,84.11,6,GPS_Atti,
0.363354790458672,36.8967233541436,5729.2294070886,24.934384,0.223694,3.892060492,9500,2017-11-11 07:58:54,13,16.079,5729.2294070886,24.934384,0.63305402,3.892060492,46.6, -9.8, 2.7,0,0,1024,1024,1469,1024,47.1,0,85,4.038,4.055,4.033,4.04,0,0,84.11,6,GPS_Atti,
0.36335493800211,36.8967231481709,5730.2136590886,25.918636,0.223694,3.9523951396,9600,2017-11-11 07:58:54,13,16.079,5730.2136590886,25.918636,0.63305402,3.9523951396,46.6, -9.3, 3.8,0,0,1024,1024,1479,1024,47.1,0,85,4.038,4.055,4.033,4.04,0,0,84.11,6,GPS_Atti,
0.363355099500805,36.8967229532099,5731.1979110886,26.902888,0,4.0089896296,9700,2017-11-11 07:58:55,13,16.079,5731.1979110886,26.902888,0.63305402,4.0089896296,46.6, -9, 4,0,0,1024,1024,1497,1024,47.1,0,85,4.038,4.055,4.033,4.04,0,0,84.11,6,GPS_Atti,
0.363355243185034,36.8967228285243,5732.1821630886,27.88714,0,4.042979132,9800,2017-11-11 07:58:55,13,16.079,5732.1821630886,27.88714,0.63305402,4.042979132,46.6, -8.6, 3.6,0,0,1024,1024,1507,1024,47.1,0,85,4.038,4.055,4.033,4.04,0,0,84.11,6,GPS_Atti,
0.36335538196093,36.8967227419596,5733.1664150886,28.871392,0,4.0645014424,9900,2017-11-11 07:58:55,13,16.079,5733.1664150886,28.871392,0.63305402,4.0645014424,46.6, -7.9, 4,0,0,1024,1024,1517,1024,47.1,0,85,4.038,4.055,4.033,4.04,0,0,84.11,6,GPS_Atti,
0.36335547158723,36.8967226994417,5734.1506670886,29.855644,0,4.07398307,10000,2017-11-11 07:58:55,13,16.079,5734.1506670886,29.855644,0.63305402,4.07398307,46.5, -7.9, 3.2,0,0,1024,1024,1537,1024,47.1,0,85,4.038,4.055,4.033,4.04,0,0,84.11,6,GPS_Atti,
0.363355488656682,36.8967226205019,5735.1349190886,30.839896,0,4.1013124672,10100,2017-11-11 07:58:55,13,16.079,5735.1349190886,30.839896,0.63305402,4.1013124672,46.5, -8.7, 2.6,0,0,1024,1024,1544,1024,47.1,0,85,4.038,4.055,4.033,4.04,0,0,84.11,6,GPS_Atti,
0.363355487596361,36.8967225783105,5736.4472550886,32.152232,0,4.1165355648,10200,2017-11-11 07:58:55,13,16.079,5736.4472550886,32.152232,0.63305402,4.1165355648,46.5, -9.2, 1.9,0,0,1024,1024,1555,1024,47.1,0,85,4.038,4.055,4.033,4.04,0,0,84.11,6,GPS_Atti,
0.363355428404051,36.8967225067161,5737.7595910886,33.464568,0,4.1459646996,10300,2017-11-11 07:58:55,13,16.079,5737.7595910886,33.464568,0.63305402,4.1459646996,46.5, -8.9, 1.7,0,0,1024,1024,1568,1024,47.1,0,85,4.038,4.055,4.033,4.04,0,0,84.11,6,GPS_Atti,
0.36335539755552,36.896722476236,5739.0719270886,34.776904,0,4.1588912092,10400,2017-11-11 07:58:55,13,16.053,5739.0719270886,34.776904,0.63305402,4.1588912092,46.4, -8.7, 1.8,0,0,1024,1024,1575,1024,47.1,0,85,4.029,4.04,4.017,4.026,0,0,84.11,6,GPS_Atti,
0.363355369328886,36.8967223446386,5740.3842630886,36.08924,0,4.2079725756,10500,2017-11-11 07:58:55,13,16.053,5740.3842630886,36.08924,0.63305402,4.2079725756,46.5, -8.9, 2.9,0,0,1024,1024,1587,1024,47.1,0,85,4.029,4.04,4.017,4.026,0,0,84.11,6,GPS_Atti,
0.363355343086918,36.8967222702789,5741.6965990886,37.401576,0,4.2363518416,10600,2017-11-11 07:58:55,13,16.053,5741.6965990886,37.401576,0.63305402,4.2363518416,46.5, -9.3, 3.2,0,0,1024,1024,1599,1024,47.1,0,85,4.029,4.04,4.017,4.026,0,0,84.11,6,GPS_Atti,
0.363355291255072,36.8967221544097,5743.3370190886,39.041996,0,4.281332158,10700,2017-11-11 07:58:56,13,16.053,5743.3370190886,39.041996,0.63305402,4.281332158,46.5, -9.6, 2.5,0,0,1024,1024,1608,1024,47.1,0,85,4.029,4.04,4.017,4.026,0,0,84.11,6,GPS_Atti,
0.363355235054518,36.8967220880441,5744.6493550886,40.354332,0,4.3088584056,10800,2017-11-11 07:58:56,13,16.053,5744.6493550886,40.354332,0.63305402,4.3088584056,46.5, -9.2, 1.9,0,0,1024,1024,1610,1024,47.1,0,85,4.029,4.04,4.017,4.026,0,0,84.11,6,GPS_Atti,
0.363355063714832,36.8967218477516,5747.6021110886,43.307088,0,4.4066930544,11000,2017-11-11 07:58:56,13,16.053,5747.6021110886,43.307088,0.63305402,4.4066930544,46.5, -10.8, 1.8,0,0,1024,1024,1610,1024,47.1,0,85,4.029,4.04,4.017,4.026,0,0,84.11,6,GPS_Atti,
0.363355000531713,36.896721679985,5749.2425310886,44.947508,0,4.4712271772,11100,2017-11-11 07:58:56,13,16.053,5749.2425310886,44.947508,0.63305402,4.4712271772,46.4, -11.3, 2.2,0,0,1024,1024,1613,1024,47.1,0,85,4.029,4.04,4.017,4.026,0,0,84.11,6,GPS_Atti,
0.36335496953815,36.8967215890854,5750.8829510886,46.587928,0,4.5059712728,11200,2017-11-11 07:58:56,13,16.053,5750.8829510886,46.587928,0.63305402,4.5059712728,46.4, -10.5, 2.5,0,0,1024,1024,1613,1024,47.1,0,85,4.029,4.04,4.017,4.026,0,0,84.11,6,GPS_Atti,
0.363355000066691,36.8967213941608,5753.8357070886,49.540684,0,4.5735565768,11400,2017-11-11 07:58:56,13,15.865,5753.8357070886,49.540684,0.63305402,4.5735565768,46.4, -9.8, 2.3,0,0,1024,1024,1614,1024,47.1,0,85,4.029,4.04,4.017,4.026,0,0,84.11,6,GPS_Atti,
0.36335497606078,36.8967212317311,5755.1480430886,50.85302,0,4.6334319068,11500,2017-11-11 07:58:56,13,15.865,5755.1480430886,50.85302,0.63305402,4.6334319068,46.4, -10.2, 1.8,0,0,1024,1024,1617,1024,47.1,0,85,4.029,4.04,4.017,4.026,0,0,84.11,6,GPS_Atti,
0.363354964306671,36.8967211276857,5756.7884630886,52.49344,0,4.6714896508,11600,2017-11-11 07:58:56,13,15.865,5756.7884630886,52.49344,0.63305402,4.6714896508,46.4, -10.4, 1.8,0,0,1024,1024,1616,1024,47.1,0,85,4.029,4.04,4.017,4.026,0,0,84.11,6,GPS_Atti,
0.363354972359022,36.8967209790743,5758.1007990886,53.805776,0,4.7241799412,11700,2017-11-11 07:58:57,13,15.865,5758.1007990886,53.805776,0.63305402,4.7241799412,46.4, -10.3, 2,0,0,1024,1024,1618,1024,47.1,0,85,4.029,4.04,4.017,4.026,0,0,84.11,6,GPS_Atti,
0.363354988223628,36.8967208932622,5759.7412190886,55.446196,0,4.7538715432,11800,2017-11-11 07:58:57,13,15.865,5759.7412190886,55.446196,0.63305402,4.7538715432,46.4, -10.1, 2,0,0,1024,1024,1618,1024,47.1,0,85,4.029,4.04,4.017,4.026,0,0,84.11,6,GPS_Atti,
0.363355009348924,36.8967207723805,5761.3816390886,57.086616,0,4.7958334868,11900,2017-11-11 07:58:57,13,15.865,5761.3816390886,57.086616,0.63305402,4.7958334868,46.4, -9.9, 1.6,0,0,1024,1024,1617,1024,47.1,0,85,4.029,4.04,4.017,4.026,0,0,84.11,6,GPS_Atti,
0.363355035437309,36.8967206976214,5762.6939750886,58.398952,0,4.8209319128,12000,2017-11-11 07:58:57,13,15.865,5762.6939750886,58.398952,0.63305402,4.8209319128,46.4, -10, 1.4,0,0,1024,1024,1620,1024,47.1,0,85,4.029,4.04,4.017,4.026,0,0,84.11,6,GPS_Atti,
0.363355040923842,36.8967204750688,5765.6467310886,61.351708,0,4.9004922828,12200,2017-11-11 07:58:57,13,15.865,5765.6467310886,61.351708,0.63305402,4.9004922828,46.5, -10, 2.5,0,0,1024,1024,1623,1024,47.1,0,85,4.029,4.04,4.017,4.026,0,0,84.11,6,GPS_Atti,
0.363355090288595,36.8967203365371,5767.2871510886,62.992128,0,4.947178636,12300,2017-11-11 07:58:57,13,15.865,5767.2871510886,62.992128,0.63305402,4.947178636,46.4, -10, 2.7,0,0,1024,1024,1627,1024,47.1,0,85,4.029,4.04,4.017,4.026,0,0,84.11,6,GPS_Atti,
0.363355140244066,36.8967202474137,5768.5994870886,64.304464,0,4.9761812616,12400,2017-11-11 07:58:57,13,15.972,5768.5994870886,64.304464,0.63305402,4.9761812616,46.4, -10.1, 2.8,0,0,1024,1024,1630,1024,47.1,0,85,4.009,4.026,3.998,4.008,0,0,84.11,6,GPS_Atti,
0.363355160754624,36.896720121089,5770.2399070886,65.944884,0,5.0204069848,12500,2017-11-11 07:58:57,13,15.972,5770.2399070886,65.944884,0.63305402,5.0204069848,46.4, -9.7, 2.7,0,0,1024,1024,1632,1024,47.1,0,85,4.009,4.026,3.998,4.008,0,0,84.11,6,GPS_Atti,
0.363355191496491,36.8967200419876,5771.5522430886,67.25722,0,5.047080214,12600,2017-11-11 07:58:57,13,15.972,5771.5522430886,67.25722,0.63305402,5.047080214,46.4, -9.6, 2.7,0,0,1024,1024,1633,1024,47.1,0,85,4.009,4.026,3.998,4.008,0,0,84.11,6,GPS_Atti,
0.363355230077586,36.8967199153428,5773.1926630886,68.89764,0,5.0904857272,12700,2017-11-11 07:58:58,13,15.972,5773.1926630886,68.89764,0.63305402,5.0904857272,46.4, -9.7, 3.1,0,0,1024,1024,1633,1024,47.1,0,85,4.009,4.026,3.998,4.008,0,0,84.11,6,GPS_Atti,
0.36335527499455,36.8967198302877,5774.8330830886,70.53806,0,5.1186681428,12800,2017-11-11 07:58:58,13,15.972,5774.8330830886,70.53806,0.63305402,5.1186681428,46.4, -9.9, 3.3,0,0,1024,1024,1638,1024,47.1,0,85,4.009,4.026,3.998,4.008,0,0,84.11,6,GPS_Atti,
0.363355320781612,36.896719660444,5776.4735030886,72.17848,0,5.1774607956,12900,2017-11-11 07:58:58,13,15.972,5776.4735030886,72.17848,0.63305402,5.1774607956,46.4, -10, 3.3,0,0,1024,1024,1648,1024,47.1,0,85,4.009,4.026,3.998,4.008,0,0,84.11,6,GPS_Atti,
0.3633553705205,36.8967195498283,5777.7858390886,73.490816,0,5.2147639464,13000,2017-11-11 07:58:58,13,15.972,5777.7858390886,73.490816,0.63305402,5.2147639464,46.4, -9.8, 3.2,0,0,1024,1024,1658,1024,47.1,0,85,4.009,4.026,3.998,4.008,0,0,84.11,6,GPS_Atti,
0.363355386487902,36.8967194083525,5779.4262590886,75.131236,0,5.2650592236,13100,2017-11-11 07:58:58,13,15.972,5779.4262590886,75.131236,0.63305402,5.2650592236,46.4, -9.7, 3.2,0,0,1024,1024,1663,1024,47.1,0,85,4.009,4.026,3.998,4.008,0,0,84.11,6,GPS_Atti,
0.363355431581959,36.896719320092,5781.0666790886,76.771656,0,5.2946852088,13200,2017-11-11 07:58:58,13,15.972,5781.0666790886,76.771656,0.63305402,5.2946852088,46.4, -9.3, 3.9,0,0,1024,1024,1668,1024,47.1,0,85,4.009,4.026,3.998,4.008,0,0,84.11,6,GPS_Atti,
0.363355474026639,36.8967191663641,5782.7070990886,78.412076,0,5.3482285176,13300,2017-11-11 07:58:58,13,15.972,5782.7070990886,78.412076,0.63305402,5.3482285176,46.4, -9, 4,0,0,1024,1024,1676,1024,47.1,0,85,4.009,4.026,3.998,4.008,0,0,84.11,6,GPS_Atti,
0.363355510393356,36.8967190775908,5784.3475190886,80.052496,0,5.378609096,13400,2017-11-11 07:58:58,13,15.919,5784.3475190886,80.052496,0.63305402,5.378609096,46.4, -9.7, 3.6,0,0,1024,1024,1680,1024,47.1,0,85,4.003,4.019,3.991,4.003,0,0,84.11,6,GPS_Atti,
0.363355540470004,36.8967189511634,5785.9879390886,81.692916,0,5.4229988612,13500,2017-11-11 07:58:58,13,15.919,5785.9879390886,81.692916,0.63305402,5.4229988612,46.4, -10.1, 3.8,0,0,1024,1024,1684,1024,47.1,0,85,4.003,4.019,3.991,4.003,0,0,84.11,6,GPS_Atti,
0.363355618766813,36.8967187612181,5789.2687790886,84.973756,0.223694,5.4882875772,13700,2017-11-11 07:58:59,13,15.919,5789.2687790886,84.973756,0.63305402,5.4882875772,46.4, -9.1, 4.3,0,0,1024,1024,1684,1024,47.1,0,85,4.003,4.019,3.991,4.003,0,0,84.11,6,GPS_Atti,
0.363355630774755,36.8967187204078,5790.9091990886,86.614176,0.223694,5.5025592312,13800,2017-11-11 07:58:59,13,15.919,5790.9091990886,86.614176,0.63305402,5.5025592312,46.4, -8.9, 3.6,0,0,1024,1024,1684,1024,47.1,0,85,4.003,4.019,3.991,4.003,0,0,84.11,6,GPS_Atti,
0.363355624366828,36.8967186364115,5792.5496190886,88.254596,0.223694,5.5332678936,13900,2017-11-11 07:58:59,13,15.919,5792.5496190886,88.254596,0.63305402,5.5332678936,46.4, -9.1, 3.2,0,0,1024,1024,1684,1024,47.1,0,85,4.003,4.019,3.991,4.003,0,0,84.11,6,GPS_Atti,
0.363355611042492,36.8967186033085,5794.1900390886,89.895016,0.223694,5.5458335108,14000,2017-11-11 07:58:59,13,15.919,5794.1900390886,89.895016,0.63305402,5.5458335108,46.4, -9.6, 2.7,0,0,1024,1024,1684,1024,47.1,0,85,4.003,4.019,3.991,4.003,0,0,84.11,6,GPS_Atti,
0.363355590930598,36.8967185189258,5796.1585430886,91.86352,0,5.577263958,14100,2017-11-11 07:58:59,13,15.919,5796.1585430886,91.86352,0.63305402,5.577263958,46.4, -9.8, 2.5,0,0,1024,1024,1684,1024,47.1,0,85,4.003,4.019,3.991,4.003,0,0,84.11,6,GPS_Atti,
0.363355599317594,36.8967184720997,5797.7989630886,93.50394,0,5.5938978168,14200,2017-11-11 07:58:59,13,15.919,5797.7989630886,93.50394,0.63305402,5.5938978168,46.3, -9.9, 3.1,0,0,1024,1024,1684,1024,47.1,0,85,4.003,4.019,3.991,4.003,0,0,84.11,6,GPS_Atti,
0.363355630951034,36.8967183250032,5799.4393830886,95.14436,0,5.6458663224,14300,2017-11-11 07:58:59,13,15.919,5799.4393830886,95.14436,0.63305402,5.6458663224,46.3, -9.6, 3.8,0,0,1024,1024,1684,1024,47.1,0,85,4.003,4.019,3.991,4.003,0,0,84.11,6,GPS_Atti,
0.363355669604799,36.8967182384782,5801.0798030886,96.78478,0,5.6756235412,14400,2017-11-11 07:58:59,13,15.865,5801.0798030886,96.78478,0.63305402,5.6756235412,46.3, -9.6, 4.3,0,0,1024,1024,1684,1024,47.1,0,85,3.994,4.01,3.982,3.992,0,0,85.91,6,GPS_Atti,
0.363355690109352,36.8967180851208,5803.0483070886,98.753284,0,5.7304135692,14500,2017-11-11 07:58:59,13,15.865,5803.0483070886,98.753284,0.63305402,5.7304135692,46.2, -9.6, 4.8,0,0,1024,1024,1684,1024,47.1,0,85,3.994,4.01,3.982,3.992,0,0,85.91,6,GPS_Atti,
0.363355698581739,36.8967180097397,5804.6887270886,100.393704,0,5.7574476908,14600,2017-11-11 07:58:59,13,15.865,5804.6887270886,100.393704,0.63305402,5.7574476908,46.3, -9.7, 4.8,0,0,1024,1024,1684,1024,47.1,0,85,3.994,4.01,3.982,3.992,0,0,85.91,6,GPS_Atti,
0.363355655305025,36.8967178962183,5806.3291470886,102.034124,0.223694,5.8003282696,14700,2017-11-11 07:59:00,13,15.865,5806.3291470886,102.034124,0.63305402,5.8003282696,46.3, -9.8, 4.1,0,0,1024,1024,1684,1024,47.1,0,85,3.994,4.01,3.982,3.992,0,0,85.91,6,GPS_Atti,
0.363355613146238,36.8967178549798,5807.9695670886,103.674544,0.223694,5.8169621284,14800,2017-11-11 07:59:00,13,15.865,5807.9695670886,103.674544,0.63305402,5.8169621284,46.3, -9.8, 3.7,0,0,1024,1024,1684,1024,47.1,0,85,3.994,4.01,3.982,3.992,0,0,85.91,6,GPS_Atti,
0.363355469135913,36.8967177214242,5811.2504070886,106.955384,0.223694,5.8714568808,15000,2017-11-11 07:59:00,13,15.865,5811.2504070886,106.955384,0.63305402,5.8714568808,46.3, -9.8, 3.5,0,0,1024,1024,1684,1024,47.1,0,85,3.994,4.01,3.982,3.992,0,0,85.91,6,GPS_Atti,
0.363355400546259,36.8967176103567,5813.2189110886,108.923888,0.223694,5.9147311604,15100,2017-11-11 07:59:00,13,15.865,5813.2189110886,108.923888,0.63305402,5.9147311604,46.3, -9.8, 3.7,0,0,1024,1024,1684,1024,47.1,0,85,3.994,4.01,3.982,3.992,0,0,85.91,6,GPS_Atti,
0.363355351687749,36.8967175740108,5814.8593310886,110.564308,0.223694,5.9300854916,15200,2017-11-11 07:59:00,13,15.865,5814.8593310886,110.564308,0.63305402,5.9300854916,46.3, -9.6, 3.5,0,0,1024,1024,1684,1024,47.1,0,85,3.994,4.01,3.982,3.992,0,0,85.91,6,GPS_Atti,
0.363355251876548,36.8967174701013,5818.1401710886,113.845148,0.223694,5.9723755192,15400,2017-11-11 07:59:00,13,15.865,5818.1401710886,113.845148,0.63305402,5.9723755192,46.3, -9.4, 3.7,0,0,1024,1024,1684,1024,47.1,0,85,3.994,4.01,3.982,3.992,0,0,85.91,6,GPS_Atti,
0.363355188403364,36.8967173831909,5820.1086750886,115.813652,0.223694,6.0068571476,15500,2017-11-11 07:59:00,13,15.865,5820.1086750886,115.813652,0.63305402,6.0068571476,46.3, -9.7, 3.9,0,0,1024,1024,1684,1024,47.1,0,85,3.994,4.01,3.982,3.992,0,0,85.91,6,GPS_Atti,
0.363355134352967,36.8967173619512,5821.7490950886,117.454072,0.223694,6.017224602,15600,2017-11-11 07:59:00,13,15.865,5821.7490950886,117.454072,0.63305402,6.017224602,46.3, -10.2, 3.8,0,0,1024,1024,1684,1024,47.1,0,85,3.994,4.01,3.982,3.992,0,0,85.91,6,GPS_Atti,
0.363355065610544,36.8967172897219,5823.3895150886,119.094492,0.223694,6.0467849704,15700,2017-11-11 07:59:01,13,15.865,5823.3895150886,119.094492,0.63305402,6.0467849704,46.3, -10.2, 3.3,0,0,1024,1024,1684,1024,47.1,0,85,3.994,4.01,3.982,3.992,0,0,85.91,6,GPS_Atti,
0.363355024703217,36.8967172685432,5825.0299350886,120.734912,0.223694,6.0565618736,15800,2017-11-11 07:59:01,13,15.865,5825.0299350886,120.734912,0.63305402,6.0565618736,46.3, -9.7, 3.5,0,0,1024,1024,1684,1024,47.1,0,85,3.994,4.01,3.982,3.992,0,0,85.91,6,GPS_Atti,
0.363354943199391,36.8967171322502,5828.3107750886,124.015752,0,6.110072374,16000,2017-11-11 07:59:01,13,15.865,5828.3107750886,124.015752,0.63305402,6.110072374,46.3, -10, 4.5,0,0,1024,1024,1684,1024,47.1,0,85,3.994,4.01,3.982,3.992,0,0,85.91,6,GPS_Atti,
0.363354872356683,36.8967170334978,5829.9511950886,125.656172,0.223694,6.1495408792,16100,2017-11-11 07:59:01,13,15.865,5829.9511950886,125.656172,0.63305402,6.1495408792,46.4, -10.4, 4.3,0,0,1024,1024,1684,1024,47.1,0,85,3.994,4.01,3.982,3.992,0,0,85.91,6,GPS_Atti,
0.363354802741618,36.8967170093321,5831.5916150886,127.296592,0.223694,6.1621064964,16200,2017-11-11 07:59:01,13,15.865,5831.5916150886,127.296592,0.63305402,6.1621064964,46.3, -10.5, 3.7,0,0,1024,1024,1684,1024,47.1,0,85,3.994,4.01,3.982,3.992,0,0,85.91,6,GPS_Atti,
0.363354645952893,36.8967169307777,5834.8724550886,130.577432,0.223694,6.1994096472,16400,2017-11-11 07:59:01,13,15.838,5834.8724550886,130.577432,0.63305402,6.1994096472,46.3, -10.8, 3.2,0,0,1024,1024,1684,1024,47.1,0,85,3.994,4.01,3.982,3.992,0,0,85.91,6,GPS_Atti,
0.363354561424232,36.8967169052749,5836.5128750886,132.217852,0.223694,6.2136484928,16500,2017-11-11 07:59:02,13,15.838,5836.5128750886,132.217852,0.63305402,6.2136484928,46.3, -11, 3.3,0,0,1024,1024,1684,1024,47.1,0,85,3.994,4.01,3.982,3.992,0,0,85.91,6,GPS_Atti,
0.363354381322601,36.8967168892394,5841.7622190886,137.467196,0.223694,6.2306760524,16800,2017-11-11 07:59:02,13,15.838,5841.7622190886,137.467196,0.63305402,6.2306760524,46.3, -10.8, 3.9,0,0,1024,1024,1684,1024,47.1,0,85,3.994,4.01,3.982,3.992,0,0,85.91,6,GPS_Atti,
0.363354291973543,36.8967168338283,5843.4026390886,139.107616,0.223694,6.256397838,16900,2017-11-11 07:59:02,13,15.838,5843.4026390886,139.107616,0.63305402,6.256397838,46.3, -10.6, 4,0,0,1024,1024,1684,1024,47.1,0,85,3.994,4.01,3.982,3.992,0,0,85.91,6,GPS_Atti,
0.36335423381135,36.8967168436521,5845.0430590886,140.748036,0.223694,6.2567587304,17000,2017-11-11 07:59:02,13,15.838,5845.0430590886,140.748036,0.63305402,6.2567587304,46.3, -10.5, 3.7,0,0,1024,1024,1684,1024,47.1,0,85,3.994,4.01,3.982,3.992,0,0,85.91,6,GPS_Atti,
0.363354164731178,36.8967168188302,5846.6834790886,142.388456,0.223694,6.270341408,17100,2017-11-11 07:59:02,13,15.838,5846.6834790886,142.388456,0.63305402,6.270341408,46.3, -10.5, 3.6,0,0,1024,1024,1684,1024,47.1,0,85,3.994,4.01,3.982,3.992,0,0,85.91,6,GPS_Atti,
0.363354108030209,36.8967167832551,5849.9643190886,145.669296,0.223694,6.2870080752,17300,2017-11-11 07:59:02,13,15.838,5849.9643190886,145.669296,0.63305402,6.2870080752,46.3, -10.2, 4,0,0,1024,1024,1684,1024,47.1,0,85,3.994,4.01,3.982,3.992,0,0,85.91,6,GPS_Atti,
0.363354090399834,36.8967167777265,5851.6047390886,147.309716,0.223694,6.2902232984,17400,2017-11-11 07:59:02,13,15.919,5851.6047390886,147.309716,0.63305402,6.2902232984,46.3, -10.3, 3.9,0,0,1024,1024,1684,1024,47.1,0,85,3.993,4.011,3.984,3.995,0,0,85.91,6,GPS_Atti,
0.363353992057312,36.8967167721337,5853.2451590886,148.950136,0.223694,6.2992128,17500,2017-11-11 07:59:02,13,15.919,5853.2451590886,148.950136,0.63305402,6.2992128,46.3, -10.3, 3.6,0,0,1024,1024,1684,1024,47.1,0,85,3.993,4.011,3.984,3.995,0,0,85.91,6,GPS_Atti,
0.363353812580565,36.8967168098468,5856.5259990886,152.230976,0.223694,6.2989831412,17700,2017-11-11 07:59:03,13,15.919,5856.5259990886,152.230976,0.63305402,6.2992128,46.3, -10.4, 3,0,0,1024,1024,1684,1024,47.1,0,85,3.993,4.011,3.984,3.995,0,0,85.91,6,GPS_Atti,
0.363353745134644,36.8967168415537,5858.1664190886,153.871396,0.223694,6.292815162,17800,2017-11-11 07:59:03,13,15.919,5858.1664190886,153.871396,0.63305402,6.2992128,46.3, -10.6, 3.1,0,0,1024,1024,1684,1024,47.1,0,85,3.993,4.011,3.984,3.995,0,0,85.91,6,GPS_Atti,
0.363353682959635,36.8967168096958,5859.8068390886,155.511816,0.223694,6.3090225116,17900,2017-11-11 07:59:03,13,15.919,5859.8068390886,155.511816,0.63305402,6.3090225116,46.3, -10.8, 3.4,0,0,1024,1024,1684,1024,47.1,0,85,3.993,4.011,3.984,3.995,0,0,85.91,6,GPS_Atti,
0.363353542951745,36.8967167945939,5863.0876790886,158.792656,0.223694,6.3255579452,18100,2017-11-11 07:59:03,13,15.919,5863.0876790886,158.792656,0.63305402,6.3255579452,46.3, -10.9, 3.2,0,0,1024,1024,1684,1024,47.1,0,85,3.993,4.011,3.984,3.995,0,0,85.91,6,GPS_Atti,
0.363353474976269,36.8967168145906,5864.7280990886,160.433076,0.223694,6.3240159504,18200,2017-11-11 07:59:03,13,15.919,5864.7280990886,160.433076,0.63305402,6.3255579452,46.3, -11, 3,0,0,1024,1024,1684,1024,47.1,0,85,3.993,4.011,3.984,3.995,0,0,85.91,6,GPS_Atti,
0.363353409476689,36.8967167782822,5866.3685190886,162.073496,0.223694,6.342355846,18300,2017-11-11 07:59:03,13,15.919,5866.3685190886,162.073496,0.63305402,6.342355846,46.4, -11.1, 3.6,0,0,1024,1024,1684,1024,47.1,0,85,3.993,4.011,3.984,3.995,0,0,85.91,6,GPS_Atti,
0.363353368359547,36.8967167914784,5868.0089390886,163.713916,0.223694,6.3411419352,18400,2017-11-11 07:59:03,13,15.812,5868.0089390886,163.713916,0.63305402,6.342355846,46.3, -10.8, 3.5,0,0,1024,1024,1684,1024,47.1,0,85,3.989,4.005,3.976,3.988,0,0,85.91,6,GPS_Atti,
0.363353241013496,36.8967166884661,5872.9301990886,168.635176,0,6.3885500732,18700,2017-11-11 07:59:04,13,15.812,5872.9301990886,168.635176,0.63305402,6.3885500732,46.3, -11, 3.6,0,0,1024,1024,1684,1024,47.1,0,85,3.989,4.005,3.976,3.988,0,0,85.91,6,GPS_Atti,
0.363353211279075,36.8967166548802,5874.5706190886,170.275596,0,6.403051386,18800,2017-11-11 07:59:04,13,15.812,5874.5706190886,170.275596,0.63305402,6.403051386,46.3, -11.1, 4,0,0,1024,1024,1589,1024,47.1,0,85,3.989,4.005,3.976,3.988,0,0,85.91,6,GPS_Atti,
0.363353096652088,36.8967165199575,5878.1795430886,173.88452,0.223694,6.4608925952,19000,2017-11-11 07:59:04,13,15.812,5878.1795430886,173.88452,0.63305402,6.4608925952,46.3, -11.8, 3.8,0,0,1024,1024,1601,1024,47.1,0,85,3.989,4.005,3.976,3.988,0,0,85.91,6,GPS_Atti,
0.363353019088385,36.8967164353371,5879.8199630886,175.52494,0,6.4977364284,19100,2017-11-11 07:59:04,13,15.812,5879.8199630886,175.52494,0.63305402,6.4977364284,46, -14.5, 4.4,0,0,1024,1024,1627,1024,47.1,0,85,3.989,4.005,3.976,3.988,0,0,85.91,6,GPS_Atti,
0.363352953458224,36.8967163803574,5881.1322990886,176.837276,0.223694,6.5230973216,19200,2017-11-11 07:59:04,13,15.812,5881.1322990886,176.837276,0.63305402,6.5230973216,45.9, -15.6, 4.9,0,0,1024,1024,1666,1024,47.1,0,85,3.989,4.005,3.976,3.988,0,0,85.91,6,GPS_Atti,
0.363352920668385,36.8967164273515,5884.0850550886,179.790032,0.223694,6.5094818356,19400,2017-11-11 07:59:04,13,15.838,5884.0850550886,179.790032,0.63305402,6.5230973216,46.5, -9.5, 2.5,0,0,1024,1024,1684,1024,47.1,0,84,3.982,3.999,3.97,3.979,0,0,85.91,6,GPS_Atti,
0.363352829987768,36.8967163905153,5885.3973910886,181.102368,0.223694,6.530840104,19500,2017-11-11 07:59:04,13,15.838,5885.3973910886,181.102368,0.63305402,6.530840104,46.5, -10.8, 2.7,0,0,1024,1024,1684,1024,47.1,0,84,3.982,3.999,3.97,3.979,0,0,85.91,6,GPS_Atti,
0.36335276700271,36.8967163903879,5887.0378110886,182.742788,0.223694,6.5367784244,19600,2017-11-11 07:59:04,13,15.838,5887.0378110886,182.742788,0.63305402,6.5367784244,46.5, -10.3, 2.8,0,0,1024,1024,1684,1024,47.1,0,84,3.982,3.999,3.97,3.979,0,0,85.91,6,GPS_Atti,
0.363352695513916,36.896716297011,5888.6782310886,184.383208,0,6.5764765884,19700,2017-11-11 07:59:05,13,15.838,5888.6782310886,184.383208,0.63305402,6.5764765884,46.4, -11.1, 3,0,0,1024,1024,1684,1024,47.1,0,84,3.982,3.999,3.97,3.979,0,0,85.91,6,GPS_Atti,
0.363352644275537,36.8967162543828,5889.9905670886,185.695544,0,6.5963584788,19800,2017-11-11 07:59:05,13,15.838,5889.9905670886,185.695544,0.63305402,6.5963584788,46.3, -12.2, 3.3,0,0,1024,1024,1684,1024,47.1,0,84,3.982,3.999,3.97,3.979,0,0,85.91,6,GPS_Atti,
0.363352579117523,36.8967161517452,5893.5994910886,189.304468,0.223694,6.6387469316,20000,2017-11-11 07:59:05,13,15.838,5893.5994910886,189.304468,0.63305402,6.6387469316,46.3, -12.3, 3.3,0,0,1024,1024,1684,1024,47.1,0,84,3.982,3.999,3.97,3.979,0,0,85.91,6,GPS_Atti,
0.363352596336792,36.8967160636763,5895.2399110886,190.944888,0.223694,6.6680776412,20100,2017-11-11 07:59:05,13,15.838,5895.2399110886,190.944888,0.63305402,6.6680776412,46.3, -12.1, 3.4,0,0,1024,1024,1684,1024,47.1,0,84,3.982,3.999,3.97,3.979,0,0,85.91,6,GPS_Atti,
0.363352627371779,36.896716041183,5896.8803310886,192.585308,0.223694,6.673064518,20200,2017-11-11 07:59:05,13,15.838,5896.8803310886,192.585308,0.63305402,6.673064518,46.2, -12, 3.5,0,0,1024,1024,1678,1024,47.1,0,84,3.982,3.999,3.97,3.979,0,0,85.91,6,GPS_Atti,
0.363352718996282,36.8967159606223,5900.1611710886,195.866148,0.223694,6.6928151748,20400,2017-11-11 07:59:05,13,15.812,5900.1611710886,195.866148,0.63305402,6.6928151748,46.2, -11.4, 3.5,0,0,1024,1024,1682,1024,47.1,0,84,3.982,3.999,3.97,3.979,0,0,85.91,6,GPS_Atti,
0.363352756507999,36.8967158874466,5901.8015910886,197.506568,0.223694,6.7151905036,20500,2017-11-11 07:59:05,13,15.812,5901.8015910886,197.506568,0.63305402,6.7151905036,46.3, -11, 3.4,0,0,1024,1024,1684,1024,47.1,0,84,3.982,3.999,3.97,3.979,0,0,85.91,6,GPS_Atti,
0.363352805969135,36.896715871289,5903.4420110886,199.146988,0.223694,6.716371606,20600,2017-11-11 07:59:06,13,15.812,5903.4420110886,199.146988,0.63305402,6.716371606,46.3, -11.4, 3.6,0,0,1024,1024,1577,1024,47.1,0,84,3.982,3.999,3.97,3.979,0,0,85.91,6,GPS_Atti,
0.363352868839999,36.8967157404828,5906.7228510886,202.427828,0.223694,6.7569555968,20800,2017-11-11 07:59:06,13,15.812,5906.7228510886,202.427828,0.63305402,6.7569555968,46.3, -10.9, 4.2,0,0,1024,1024,1557,1024,47.1,0,84,3.982,3.999,3.97,3.979,0,0,85.91,6,GPS_Atti,
0.363352888068055,36.8967156198045,5908.3632710886,204.068248,0.223694,6.7979660968,20900,2017-11-11 07:59:06,13,15.812,5908.3632710886,204.068248,0.63305402,6.7979660968,46, -13.2, 4.6,0,0,1024,1024,1540,1024,47.1,0,84,3.982,3.999,3.97,3.979,0,0,85.91,6,GPS_Atti,
0.363352895330203,36.8967155477604,5909.6756070886,205.380584,0.223694,6.822834864,21000,2017-11-11 07:59:06,13,15.812,5909.6756070886,205.380584,0.63305402,6.822834864,45.7, -15.8, 5,0,0,1024,1024,1220,1024,47.1,0,84,3.982,3.999,3.97,3.979,0,0,85.91,6,GPS_Atti,
0.363352865313807,36.8967153943559,5910.9879430886,206.69292,0.223694,6.8797902464,21100,2017-11-11 07:59:06,13,15.812,5910.9879430886,206.69292,0.63305402,6.8797902464,45.9, -13.4, 4.6,0,0,1024,1024,1025,1024,47.1,0,84,3.982,3.999,3.97,3.979,0,0,85.91,6,GPS_Atti,
0.36335279340284,36.8967151855766,5913.2845310886,208.989508,0,6.9600395928,21300,2017-11-11 07:59:06,13,15.812,5913.2845310886,208.989508,0.63305402,6.9600395928,45.6, -16.6, 4.9,0,0,1024,1024,1024,1024,47.1,0,84,3.982,3.999,3.97,3.979,0,0,85.91,6,GPS_Atti,
0.363352744902078,36.8967150770164,5913.9406990886,209.645676,0,7.0027233212,21400,2017-11-11 07:59:06,13,15.785,5913.9406990886,209.645676,0.63305402,7.0027233212,45.6, -16.6, 5.1,0,0,1024,1024,1024,1024,47.1,0,84,3.982,3.988,3.949,3.96,0,0,85.91,6,GPS_Atti,
0.363352681813003,36.896714854784,5914.5968670886,210.301844,0,7.0869752924,21500,2017-11-11 07:59:06,13,15.785,5914.5968670886,210.301844,0.63305402,7.0869752924,45.6, -16.7, 4.8,0,0,1024,1024,1024,1024,47.1,0,84,3.982,3.988,3.949,3.96,0,0,85.91,6,GPS_Atti,
0.363352632418836,36.896714663979,5914.5968670886,210.301844,0,7.1588913052,21600,2017-11-11 07:59:06,13,15.785,5914.5968670886,210.301844,0.63305402,7.1588913052,45.7, -15.5, 5,0,0,1024,1024,1024,1024,47.1,0,84,3.982,3.988,3.949,3.96,0,0,85.91,6,GPS_Atti,
0.363352576102357,36.8967143599493,5914.5968670886,210.301844,0,7.271489734,21700,2017-11-11 07:59:06,13,15.785,5914.5968670886,210.301844,0.63305402,7.271489734,45.9, -13.8, 4.9,0,0,1024,1024,1024,1024,47.1,0,84,3.982,3.988,3.949,3.96,0,0,85.91,6,GPS_Atti,
0.363352541982181,36.8967141442699,5914.5968670886,210.301844,0,7.3508532536,21800,2017-11-11 07:59:07,13,15.785,5914.5968670886,210.301844,0.63305402,7.3508532536,46, -13.5, 4.8,0,0,1024,1024,1024,1024,47.1,0,84,3.982,3.988,3.949,3.96,0,0,85.91,6,GPS_Atti,
0.36335247343568,36.8967139426209,5914.2687830886,209.97376,0,7.4282810776,21900,2017-11-11 07:59:07,13,15.785,5914.5968670886,210.301844,0.63305402,7.4282810776,46.1, -13.2, 4.6,0,0,1024,1024,1024,1024,47.1,0,84,3.982,3.988,3.949,3.96,0,0,85.91,6,GPS_Atti,
0.363352447173764,36.8967138363914,5913.9406990886,209.645676,0,7.4682089004,22000,2017-11-11 07:59:07,13,15.785,5914.5968670886,210.301844,0.63305402,7.4682089004,46.2, -12.9, 4.2,0,0,1024,1024,1024,1024,47.1,0,84,3.982,3.988,3.949,3.96,0,0,85.91,6,GPS_Atti,
0.363352466107479,36.8967137150696,5913.9406990886,209.645676,0,7.509514676,22100,2017-11-11 07:59:07,13,15.785,5914.5968670886,210.301844,0.63305402,7.509514676,46.2, -12.8, 3.9,0,0,1024,1024,1024,1024,47.1,0,84,3.982,3.988,3.949,3.96,0,0,85.91,6,GPS_Atti,
0.363352520640913,36.8967136872661,5913.6126150886,209.317592,0.223694,7.5146327864,22200,2017-11-11 07:59:07,13,15.785,5914.5968670886,210.301844,0.63305402,7.5146327864,46.3, -12.5, 3.5,0,0,1024,1024,1024,1024,47.1,0,84,3.982,3.988,3.949,3.96,0,0,85.91,6,GPS_Atti,
0.363352600103179,36.8967136776414,5913.6126150886,209.317592,0.223694,7.5112207128,22300,2017-11-11 07:59:07,13,15.785,5914.5968670886,210.301844,0.63305402,7.5146327864,46.4, -12.1, 3.2,0,0,1024,1024,1024,1024,47.1,0,84,3.982,3.988,3.949,3.96,0,0,85.91,6,GPS_Atti,
0.363352719364616,36.8967137438324,5913.2845310886,208.989508,0.447388,7.477690528,22400,2017-11-11 07:59:07,13,15.705,5914.5968670886,210.301844,0.63305402,7.5146327864,46.4, -11.9, 3,0,0,1024,1024,1024,1024,47.1,0,84,3.992,4.023,3.993,3.977,0,0,85.91,6,GPS_Atti,
0.363352861227634,36.8967138259776,5913.2845310886,208.989508,0.447388,7.43684407,22500,2017-11-11 07:59:07,13,15.705,5914.5968670886,210.301844,0.63305402,7.5146327864,46.4, -12.1, 2.8,0,0,1024,1024,1024,1024,47.1,0,84,3.992,4.023,3.993,3.977,0,0,85.91,6,GPS_Atti,
0.363353042108578,36.8967139700733,5913.2845310886,208.989508,0.447388,7.3710960364,22600,2017-11-11 07:59:07,13,15.705,5914.5968670886,210.301844,0.63305402,7.5146327864,46.4, -11.7, 2.7,0,0,1024,1024,1024,1024,47.1,0,84,3.992,4.023,3.993,3.977,0,0,85.91,6,GPS_Atti,
0.363353278678897,36.896714138872,5913.2845310886,208.989508,0.70687304,7.2926839604,22700,2017-11-11 07:59:08,13,15.705,5914.5968670886,210.301844,0.70687304,7.5146327864,46.4, -10.9, 2.5,0,0,1024,1024,1024,1024,47.1,0,84,3.992,4.023,3.993,3.977,0,0,85.91,6,GPS_Atti,
0.36335353597572,36.896714333424,5913.2845310886,208.989508,0.70687304,7.2042981308,22800,2017-11-11 07:59:08,13,15.705,5914.5968670886,210.301844,0.70687304,7.5146327864,46.4, -10.7, 2.5,0,0,1024,1024,1024,1024,47.1,0,84,3.992,4.023,3.993,3.977,0,0,85.91,6,GPS_Atti,
0.363354310307914,36.8967146540203,5913.6126150886,209.317592,0.80753534,7.0389437948,23100,2017-11-11 07:59:08,13,15.705,5914.5968670886,210.301844,0.80753534,7.5146327864,46.3, -9.6, 3.6,0,0,1024,1024,1024,1024,47.1,0,84,3.992,4.023,3.993,3.977,0,0,85.91,6,GPS_Atti,
0.363354577299679,36.8967147855031,5913.6126150886,209.317592,0.63305402,6.9765750264,23200,2017-11-11 07:59:08,13,15.705,5914.5968670886,210.301844,0.80753534,7.5146327864,46.3, -9.3, 3.9,0,0,1024,1024,1024,1024,47.1,0,84,3.992,4.023,3.993,3.977,0,0,85.91,6,GPS_Atti,
0.363354849862986,36.8967148162562,5913.6126150886,209.317592,0.63305402,6.9515094088,23300,2017-11-11 07:59:08,13,15.705,5914.5968670886,210.301844,0.80753534,7.5146327864,46.3, -9, 3.7,0,0,1024,1024,1024,1024,47.1,0,84,3.992,4.023,3.993,3.977,0,0,85.91,6,GPS_Atti,
0.363355113390109,36.8967149127389,5913.6126150886,209.317592,0.63305402,6.904363738,23400,2017-11-11 07:59:08,13,15.999,5914.5968670886,210.301844,0.80753534,7.5146327864,46.3, -8.7, 3.4,0,0,1024,1024,1024,1024,47.1,0,84,3.992,4.023,3.993,3.977,0,0,85.91,6,GPS_Atti,
0.363355295014641,36.8967149484831,5913.6126150886,209.317592,0.63305402,6.8837272544,23500,2017-11-11 07:59:08,13,15.999,5914.5968670886,210.301844,0.80753534,7.5146327864,46.3, -8.5, 3.5,0,0,1024,1024,1024,1024,47.1,0,84,3.992,4.023,3.993,3.977,0,0,85.91,6,GPS_Atti,
0.363355482457196,36.8967150315319,5913.6126150886,209.317592,0.50107456,6.84629287,23600,2017-11-11 07:59:08,13,15.999,5914.5968670886,210.301844,0.80753534,7.5146327864,46.3, -8.8, 3.6,0,0,1024,1024,1024,1024,47.1,0,84,3.992,4.023,3.993,3.977,0,0,85.91,6,GPS_Atti,
0.363355678438293,36.8967150672568,5913.6126150886,209.317592,0.50107456,6.8264109796,23700,2017-11-11 07:59:09,15,15.999,5914.5968670886,210.301844,0.80753534,7.5146327864,46.3, -8.7, 3.6,0,0,1024,1024,1024,1024,47.1,0,84,3.992,4.023,3.993,3.977,0,0,85.91,6,GPS_Atti,
0.363355868015433,36.8967151437696,5913.6126150886,209.317592,0.50107456,6.7925855192,23800,2017-11-11 07:59:09,15,15.999,5914.5968670886,210.301844,0.80753534,7.5146327864,46.3, -8.7, 3.7,0,0,1024,1024,1024,1024,47.1,0,84,3.992,4.023,3.993,3.977,0,0,85.91,6,GPS_Atti,
0.363356259159336,36.896715163974,5913.6126150886,209.317592,0.50107456,6.7750002168,24000,2017-11-11 07:59:09,15,15.999,5914.5968670886,210.301844,0.80753534,7.5146327864,46.3, -8, 3.7,0,0,1024,1024,1024,1024,47.1,0,84,3.992,4.023,3.993,3.977,0,0,85.91,6,GPS_Atti,
0.363356422313343,36.8967151939477,5913.6126150886,209.317592,0.50107456,6.7606957544,24100,2017-11-11 07:59:09,15,15.999,5914.5968670886,210.301844,0.80753534,7.5146327864,46.3, -8.2, 3.6,0,0,1024,1024,1024,1024,47.1,0,84,3.992,4.023,3.993,3.977,0,0,85.91,6,GPS_Atti,
0.363356570332999,36.8967152760832,5913.2845310886,208.989508,0.50107456,6.7281170132,24200,2017-11-11 07:59:09,15,15.999,5914.5968670886,210.301844,0.80753534,7.5146327864,46.3, -8.1, 3.8,0,0,1024,1024,1024,1024,47.1,0,84,3.992,4.023,3.993,3.977,0,0,85.91,6,GPS_Atti,
0.363356911534356,36.8967153710489,5913.2845310886,208.989508,0.50107456,6.6890750172,24400,2017-11-11 07:59:09,15,16.026,5914.5968670886,210.301844,0.80753534,7.5146327864,46.3, -8.4, 3.9,0,0,1024,1024,1024,1024,47,0,84,4.021,4.036,4.013,4.02,0,0,85.91,6,GPS_Atti,
0.363357046502034,36.896715389687,5913.2845310886,208.989508,0.50107456,6.6811353844,24500,2017-11-11 07:59:09,15,16.026,5914.5968670886,210.301844,0.80753534,7.5146327864,46.3, -8.6, 4,0,0,1024,1024,1024,1024,47.1,0,84,4.021,4.036,4.013,4.02,0,0,85.91,6,GPS_Atti,
0.363357153029955,36.8967154679374,5913.2845310886,208.989508,0.447388,6.6519687168,24600,2017-11-11 07:59:10,15,16.026,5914.5968670886,210.301844,0.80753534,7.5146327864,46.3, -8.6, 3.6,0,0,1024,1024,1024,1024,47.1,-0.3,84,4.021,4.036,4.013,4.02,0,0,85.91,6,GPS_Atti,
0.363357258705385,36.8967154951307,5913.2845310886,208.989508,0.447388,6.6416340708,24700,2017-11-11 07:59:10,15,16.026,5914.5968670886,210.301844,0.80753534,7.5146327864,46.3, -8.5, 3.4,0,0,1024,1024,1024,1024,47.1,-1.6,84,4.021,4.036,4.013,4.02,0,0,85.91,6,GPS_Atti,
0.363357349647672,36.8967155654875,5913.2845310886,208.989508,0.447388,6.61581386,24800,2017-11-11 07:59:10,15,16.026,5914.5968670886,210.301844,0.80753534,7.5146327864,46.3, -8.6, 3.6,0,0,1024,1024,1024,1024,47,-4.3,84,4.021,4.036,4.013,4.02,0,0,85.91,6,GPS_Atti,
0.36335746944904,36.8967155814448,5913.6126150886,209.317592,0.447388,6.6100067732,24900,2017-11-11 07:59:10,15,16.026,5914.5968670886,210.301844,0.80753534,7.5146327864,46.3, -8.5, 3.6,0,0,1024,1024,1024,1024,47,-7.6,84,4.021,4.036,4.013,4.02,0,0,85.91,6,GPS_Atti,
0.363357567665383,36.8967156467719,5913.2845310886,208.989508,0.223694,6.5864175336,25000,2017-11-11 07:59:10,15,16.026,5914.5968670886,210.301844,0.80753534,7.5146327864,46.4, -8.3, 3.7,0,0,1024,1024,1024,1024,47,-11,84,4.021,4.036,4.013,4.02,0,0,85.91,6,GPS_Atti,
0.363357703052996,36.8967156234595,5913.2845310886,208.989508,0.223694,6.5956038856,25100,2017-11-11 07:59:10,15,16.026,5914.5968670886,210.301844,0.80753534,7.5146327864,46.4, -8.3, 3.6,0,0,1024,1024,1024,1024,47,-14.5,84,4.021,4.036,4.013,4.02,0,0,85.91,6,GPS_Atti,
0.363357813414681,36.8967156548057,5913.2845310886,208.989508,0.223694,6.584973964,25200,2017-11-11 07:59:10,15,16.026,5914.5968670886,210.301844,0.80753534,7.5146327864,46.4, -8.2, 3.8,0,0,1024,1024,1024,1024,47.1,-17.5,84,4.021,4.036,4.013,4.02,0,0,85.91,6,GPS_Atti,
0.363357891533582,36.8967156475395,5913.2845310886,208.989508,0.223694,6.5883204208,25300,2017-11-11 07:59:10,15,16.026,5914.5968670886,210.301844,0.80753534,7.5146327864,46.4, -8.4, 3.8,0,0,1024,1024,1024,1024,47.1,-17.5,84,4.021,4.036,4.013,4.02,0,0,85.91,6,GPS_Atti,
0.363357945802293,36.89671570344,5913.2845310886,208.989508,0.223694,6.5685369556,25400,2017-11-11 07:59:10,15,16.026,5914.5968670886,210.301844,0.80753534,7.5146327864,46.4, -8.4, 3.8,0,0,1024,1024,1024,1024,47,-19.7,84,4.025,4.037,4.017,4.024,0,0,85.91,6,GPS_Atti,
0.3633579756419,36.8967156589457,5913.2845310886,208.989508,0.223694,6.5850723892,25500,2017-11-11 07:59:10,15,16.026,5914.5968670886,210.301844,0.80753534,7.5146327864,46.4, -8.2, 3.6,0,0,1024,1024,1024,1024,47,-20.2,84,4.025,4.037,4.017,4.024,0,0,85.91,6,GPS_Atti,
0.363357993963931,36.8967156736922,5913.2845310886,208.989508,0.223694,6.5799214704,25600,2017-11-11 07:59:10,15,16.026,5914.5968670886,210.301844,0.80753534,7.5146327864,46.4, -8.1, 3.6,0,0,1024,1024,1024,1024,47,-20.2,84,4.025,4.037,4.017,4.024,0,0,85.91,6,GPS_Atti,
0.363358005704198,36.8967156532094,5913.2845310886,208.989508,0.223694,6.5875330192,25700,2017-11-11 07:59:11,15,16.026,5914.5968670886,210.301844,0.80753534,7.5146327864,46.4, -8.6, 3.5,0,0,1024,1024,1024,1024,47,-20.2,84,4.025,4.037,4.017,4.024,0,0,85.91,6,GPS_Atti,
