latitude,longitude,altitude(feet),ascent(feet),speed(mph),distance(feet),time(millisecond),datetime(utc),satellites,voltage(v),max_altitude(feet),max_ascent(feet),max_speed(mph),max_distance(feet),compass_heading(degrees), pitch(degrees), roll(degrees),isPhoto,isVideo,rc_elevator,rc_aileron,rc_throttle,rc_rudder,gimbal_heading(degrees),gimbal_pitch(degrees),battery_percent,voltageCell1,voltageCell2,voltageCell3,voltageCell4,voltageCell5,voltageCell6,battery_temperature(f),flycStateRaw,flycState,message
0,0,5888.5242816086,0,0,0,100,2017-11-02 06:01:40,0,0,5888.5242816086,0,0,0,124.1, 1.1, 3.2,0,0,1024,1024,1024,1024,128.6,0,98,4.273,4.273,4.273,4.26,0,0,75.11,41,Motors_Started,
0,0,5888.5242816086,0,0,0,200,2017-11-02 06:01:40,0,0,5888.5242816086,0,0,0,124.2, 1.1, 3.2,0,0,1024,1024,1024,1024,128.6,0,98,4.273,4.273,4.273,4.26,0,0,75.11,41,Motors_Started,
0,0,5888.5242816086,0,0,0,300,2017-11-02 06:01:40,0,0,5888.5242816086,0,0,0,124.1, 1.1, 3.1,0,0,1024,1024,1024,1024,128.6,0,98,4.273,4.273,4.273,4.26,0,0,75.11,41,Motors_Started,
0,0,5888.5242816086,0,0,0,400,2017-11-02 06:01:40,0,17.023,5888.5242816086,0,0,0,124.1, 1.1, 3.2,0,0,1024,1024,1024,1024,128.6,0,98,4.273,4.273,4.273,4.26,0,0,75.11,41,Motors_Started,Setting new Return-To-Home altitude to 30m (98 ft). Setting new Maximum Flight Altitude to 8m (26 ft)
0,0,5888.5242816086,0,0,0,500,2017-11-02 06:01:40,0,17.023,5888.5242816086,0,0,0,124.1, 1.2, 3.2,0,0,1024,1024,1024,1024,128.6,0,98,4.273,4.273,4.273,4.26,0,0,75.11,41,Motors_Started,
0,0,5888.5242816086,0,0,0,600,2017-11-02 06:01:40,0,17.023,5888.5242816086,0,0,0,124.1, 1.2, 3.2,0,0,1024,1024,1024,1024,128.5,0,98,4.273,4.273,4.273,4.26,0,0,75.11,41,Motors_Started,
0,0,5888.5242816086,0,0,0,700,2017-11-02 06:01:40,0,17.023,5888.5242816086,0,0,0,124, 1.2, 3.2,0,0,1024,1024,1024,1024,128.5,0,98,4.273,4.273,4.273,4.26,0,0,75.11,41,Motors_Started,
0,0,5888.5242816086,0,0,0,800,2017-11-02 06:01:40,0,17.023,5888.5242816086,0,0,0,124, 1.2, 3.2,0,0,1024,1024,1024,1024,128.5,0,98,4.273,4.273,4.273,4.26,0,0,75.11,41,Motors_Started,
0,0,5888.5242816086,0,0,0,900,2017-11-02 06:01:40,0,17.023,5888.5242816086,0,0,0,124, 1.3, 3.1,0,0,1024,1024,1024,1024,128.5,0,98,4.273,4.273,4.273,4.26,0,0,75.11,41,Motors_Started,
0,0,5888.5242816086,0,0,0,1000,2017-11-02 06:01:40,0,17.023,5888.5242816086,0,0,0,124, 1.4, 3.1,0,0,1024,1024,1024,1024,128.5,0,98,4.273,4.273,4.273,4.26,0,0,75.11,41,Motors_Started,
0,0,5888.5242816086,0,0,0,1100,2017-11-02 06:01:40,0,17.023,5888.5242816086,0,0,0,123.9, 1.4, 3.1,0,0,364,364,364,1678,128.4,0,98,4.273,4.273,4.273,4.26,0,0,75.11,41,Motors_Started,
0,0,5888.5242816086,0,0.50107456,0,1200,2017-11-02 06:01:40,0,17.023,5888.5242816086,0,0,0,123.9, 1.3, 3.1,0,0,451,451,364,1678,128.4,0,98,4.273,4.273,4.273,4.26,0,0,75.11,41,Motors_Started,
0,0,5888.5242816086,0,0.63305402,0,1300,2017-11-02 06:01:41,0,17.023,5888.5242816086,0,0,0,123.9, 1.3, 3.2,0,0,581,570,525,1527,128.4,0,98,4.273,4.273,4.273,4.26,0,0,75.11,41,Motors_Started,
0,0,5888.5242816086,0,0.50107456,0,1400,2017-11-02 06:01:41,5,17.05,5888.5242816086,0,0.50107456,0,123.9, 1.5, 3.1,0,0,759,771,914,1078,128.2,0,98,4.273,4.273,4.272,4.252,0,0,75.11,41,Motors_Started,
0,0,5888.5242816086,0,0.31540854,0,1500,2017-11-02 06:01:41,5,17.05,5888.5242816086,0,0.50107456,0,124, 1.9, 3.1,0,0,1024,1024,1024,1024,127,0,98,4.273,4.273,4.272,4.252,0,0,75.11,10,Assisted_Takeoff,
0,0,5888.5242816086,0,0,0,1600,2017-11-02 06:01:41,5,17.05,5888.5242816086,0,0.50107456,0,123.9, 1.1, 3.3,0,0,1024,1024,1024,1024,125.8,0,98,4.273,4.273,4.272,4.252,0,0,75.11,10,Assisted_Takeoff,
0,0,5888.5242816086,0,0,0,1700,2017-11-02 06:01:41,5,17.05,5888.5242816086,0,0.50107456,0,123.8, 1.5, 3.2,0,0,1024,1024,1024,1024,125.2,0,98,4.273,4.273,4.272,4.252,0,0,75.11,10,Assisted_Takeoff,
0,0,5888.5242816086,0,0,0,1800,2017-11-02 06:01:41,5,17.05,5888.5242816086,0,0.50107456,0,123.9, 1.3, 3.2,0,0,1024,1024,1024,1024,124.9,0,98,4.273,4.273,4.272,4.252,0,0,75.11,10,Assisted_Takeoff,
0,0,5888.5242816086,0,0,0,1900,2017-11-02 06:01:41,5,17.05,5888.5242816086,0,0.50107456,0,123.8, 1.2, 3.2,0,0,1024,1024,1024,1024,124.9,0,98,4.273,4.273,4.272,4.252,0,0,75.11,10,Assisted_Takeoff,
0,0,5888.5242816086,0,0,0,2000,2017-11-02 06:01:41,5,17.05,5888.5242816086,0,0.50107456,0,123.8, 1.4, 3.1,0,0,1024,1024,1024,1024,124.7,0,98,4.273,4.273,4.272,4.252,0,0,75.11,10,Assisted_Takeoff,
0,0,5888.5242816086,0,0,0,2100,2017-11-02 06:01:41,5,17.05,5888.5242816086,0,0.50107456,0,123.8, 1.3, 3.1,0,0,1024,1024,1024,1024,124.6,0,98,4.273,4.273,4.272,4.252,0,0,75.11,10,Assisted_Takeoff,
0,0,5888.5242816086,0,0,0,2200,2017-11-02 06:01:41,5,17.05,5888.5242816086,0,0.50107456,0,123.8, 1.2, 3.2,0,0,1024,1024,1024,1024,124.5,0,98,4.273,4.273,4.272,4.252,0,0,75.11,10,Assisted_Takeoff,
0,0,5888.5242816086,0,0,0,2300,2017-11-02 06:01:42,5,17.05,5888.5242816086,0,0.50107456,0,123.8, 1.2, 3.2,0,0,1024,1024,1024,1024,124.4,0,98,4.273,4.273,4.272,4.252,0,0,75.11,10,Assisted_Takeoff,
0,0,5888.5242816086,0,0.223694,0,2500,2017-11-02 06:01:42,5,17.05,5888.5242816086,0,0.50107456,0,123.7, 1.3, 3.1,0,0,1024,1024,1024,1024,124.3,0,98,4.273,4.273,4.272,4.252,0,0,75.11,10,Assisted_Takeoff,
0,0,5888.5242816086,0,0,0,2600,2017-11-02 06:01:42,5,17.05,5888.5242816086,0,0.50107456,0,123.7, 1.3, 3.2,0,0,1024,1024,1024,1024,124.3,0,98,4.273,4.273,4.272,4.252,0,0,75.11,10,Assisted_Takeoff,
0,0,5888.5242816086,0,0,0,2700,2017-11-02 06:01:42,5,17.05,5888.5242816086,0,0.50107456,0,123.7, 1.3, 3.2,0,0,1024,1024,1024,1024,124.2,0,98,4.273,4.273,4.272,4.252,0,0,75.11,10,Assisted_Takeoff,
0,0,5888.5242816086,0,0,0,2800,2017-11-02 06:01:42,5,17.05,5888.5242816086,0,0.50107456,0,123.7, 1.3, 3.2,0,0,1024,1024,1024,1024,124.2,0,98,4.273,4.273,4.272,4.252,0,0,75.11,10,Assisted_Takeoff,
0,0,5888.5242816086,0,0,0,2900,2017-11-02 06:01:42,5,17.05,5888.5242816086,0,0.50107456,0,123.7, 1.4, 3.2,0,0,1024,1024,1024,1024,124.1,0,98,4.273,4.273,4.272,4.252,0,0,75.11,10,Assisted_Takeoff,
0,0,5888.5242816086,0,0,0,3000,2017-11-02 06:01:42,5,17.05,5888.5242816086,0,0.50107456,0,123.6, 1.4, 3.2,0,0,1024,1024,1024,1024,124.1,0,98,4.273,4.273,4.272,4.252,0,0,75.11,10,Assisted_Takeoff,
0,0,5888.5242816086,0,0,0,3100,2017-11-02 06:01:42,5,17.05,5888.5242816086,0,0.50107456,0,123.6, 1.4, 3.2,0,0,1024,1024,1024,1024,124.1,0,98,4.273,4.273,4.272,4.252,0,0,75.11,10,Assisted_Takeoff,
0,0,5888.5242816086,0,0,0,3200,2017-11-02 06:01:42,5,17.05,5888.5242816086,0,0.50107456,0,123.6, 1.4, 3.2,0,0,1024,1024,1024,1024,124.1,0,98,4.273,4.273,4.272,4.252,0,0,75.11,10,Assisted_Takeoff,
0,0,5888.5242816086,0,0,0,3300,2017-11-02 06:01:43,5,17.05,5888.5242816086,0,0.50107456,0,123.6, 1.4, 3.2,0,0,1024,1024,1024,1024,124.1,0,98,4.273,4.273,4.272,4.252,0,0,75.11,10,Assisted_Takeoff,
0,0,5888.5242816086,0,0,0,3400,2017-11-02 06:01:43,5,17.13,5888.5242816086,0,0.50107456,0,123.6, 1.4, 3.2,0,0,1024,1024,1024,1024,124.1,0,98,4.262,4.273,4.272,4.252,0,0,75.11,10,Assisted_Takeoff,
0,0,5888.5242816086,0,0,0,3500,2017-11-02 06:01:43,5,17.13,5888.5242816086,0,0.50107456,0,123.6, 1.4, 3.2,0,0,1024,1024,1024,1024,124,0,98,4.262,4.273,4.272,4.252,0,0,75.11,10,Assisted_Takeoff,
0,0,5888.5242816086,0,0,0,3600,2017-11-02 06:01:43,5,17.13,5888.5242816086,0,0.50107456,0,123.6, 1.4, 3.2,0,0,1024,1024,1024,1024,124,0,98,4.262,4.273,4.272,4.252,0,0,75.11,10,Assisted_Takeoff,
0,0,5888.5242816086,0,0,0,3700,2017-11-02 06:01:43,5,17.13,5888.5242816086,0,0.50107456,0,123.5, 1.4, 3.2,0,0,1024,1024,1024,1024,124,0,98,4.262,4.273,4.272,4.252,0,0,75.11,10,Assisted_Takeoff,
0,0,5888.5242816086,0,0,0,3800,2017-11-02 06:01:43,5,17.13,5888.5242816086,0,0.50107456,0,123.5, 1.4, 3.2,0,0,1024,1024,1024,1024,124,0,98,4.262,4.273,4.272,4.252,0,0,75.11,10,Assisted_Takeoff,
0,0,5888.5242816086,0,0,0,3900,2017-11-02 06:01:43,5,17.13,5888.5242816086,0,0.50107456,0,123.5, 1.4, 3.2,0,0,1024,1024,1024,1024,124,0,98,4.262,4.273,4.272,4.252,0,0,75.11,10,Assisted_Takeoff,
0,0,5888.5242816086,0,0,0,4000,2017-11-02 06:01:43,5,17.13,5888.5242816086,0,0.50107456,0,123.5, 1.4, 3.2,0,0,1024,1024,1024,1024,124,0,98,4.262,4.273,4.272,4.252,0,0,75.11,10,Assisted_Takeoff,
0,0,5888.5242816086,0,0,0,4100,2017-11-02 06:01:43,5,17.13,5888.5242816086,0,0.50107456,0,123.5, 1.4, 3.2,0,0,1024,1024,1024,1024,123.9,0,98,4.262,4.273,4.272,4.252,0,0,75.11,10,Assisted_Takeoff,
0,0,5888.5242816086,0,0,0,4200,2017-11-02 06:01:43,5,17.13,5888.5242816086,0,0.50107456,0,123.5, 1.4, 3.2,0,0,1024,1024,1024,1024,123.9,0,98,4.262,4.273,4.272,4.252,0,0,75.11,10,Assisted_Takeoff,
0,0,5888.5242816086,0,0,0,4300,2017-11-02 06:01:44,5,17.13,5888.5242816086,0,0.50107456,0,123.4, 1.4, 3.2,0,0,1024,1024,1024,1024,123.9,0,98,4.262,4.273,4.272,4.252,0,0,75.11,10,Assisted_Takeoff,
0,0,5888.5242816086,0,0,0,4400,2017-11-02 06:01:44,5,16.997,5888.5242816086,0,0.50107456,0,123.4, 1.4, 3.2,0,0,1024,1024,1024,1024,123.9,0,98,4.266,4.265,4.265,4.252,0,0,75.11,10,Assisted_Takeoff,
0,0,5888.5242816086,0,0,0,4500,2017-11-02 06:01:44,5,16.997,5888.5242816086,0,0.50107456,0,123.4, 1.4, 3.2,0,0,1024,1024,1024,1024,123.9,0,98,4.266,4.265,4.265,4.252,0,0,75.11,10,Assisted_Takeoff,
0,0,5888.5242816086,0,0,0,4600,2017-11-02 06:01:44,5,16.997,5888.5242816086,0,0.50107456,0,123.4, 1.4, 3.2,0,0,1024,1024,1024,1024,123.9,0,98,4.266,4.265,4.265,4.252,0,0,75.11,10,Assisted_Takeoff,
0,0,5888.5242816086,0,0,0,4700,2017-11-02 06:01:44,5,16.997,5888.5242816086,0,0.50107456,0,123.4, 1.4, 3.2,0,0,1024,1024,1024,1024,123.9,0,98,4.266,4.265,4.265,4.252,0,0,75.11,10,Assisted_Takeoff,
0,0,5888.5242816086,0,0,0,4800,2017-11-02 06:01:44,5,16.997,5888.5242816086,0,0.50107456,0,123.3, 1.4, 3.2,0,0,1024,1024,1024,1024,123.9,0,98,4.266,4.265,4.265,4.252,0,0,75.11,10,Assisted_Takeoff,
0,0,5888.5242816086,0,0,0,4900,2017-11-02 06:01:44,5,16.997,5888.5242816086,0,0.50107456,0,123.3, 1.4, 3.2,0,0,1024,1024,1024,1024,123.9,0,98,4.266,4.265,4.265,4.252,0,0,75.11,10,Assisted_Takeoff,
0,0,5888.5242816086,0,0,0,5000,2017-11-02 06:01:44,5,16.997,5888.5242816086,0,0.50107456,0,123.3, 1.4, 3.2,0,0,1024,1024,1024,1024,123.9,0,98,4.266,4.265,4.265,4.252,0,0,75.11,10,Assisted_Takeoff,
0,0,5888.5242816086,0,0,0,5100,2017-11-02 06:01:44,5,16.997,5888.5242816086,0,0.50107456,0,123.3, 1.4, 3.2,0,0,1024,1024,1024,1024,123.9,0,98,4.266,4.265,4.265,4.252,0,0,75.11,10,Assisted_Takeoff,
0,0,5888.5242816086,0,0,0,5200,2017-11-02 06:01:44,5,16.997,5888.5242816086,0,0.50107456,0,123.3, 1.4, 3.2,0,0,1024,1024,1024,1024,123.9,0,98,4.266,4.265,4.265,4.252,0,0,75.11,10,Assisted_Takeoff,
0,0,5888.5242816086,0,0,0,5300,2017-11-02 06:01:45,5,16.997,5888.5242816086,0,0.50107456,0,123.3, 1.4, 3.2,0,0,1024,1024,1024,1024,123.9,0,98,4.266,4.265,4.265,4.252,0,0,75.11,10,Assisted_Takeoff,
0,0,5888.5242816086,0,0,0,5400,2017-11-02 06:01:45,5,16.997,5888.5242816086,0,0.50107456,0,123.3, 1.4, 3.2,0,0,1024,1024,1024,1024,123.9,0,98,4.266,4.265,4.265,4.252,0,0,75.11,10,Assisted_Takeoff,
0,0,5888.5242816086,0,0,0,5500,2017-11-02 06:01:45,5,16.997,5888.5242816086,0,0.50107456,0,123.3, 1.5, 3.2,0,0,1024,1024,1024,1024,123.8,0,98,4.266,4.265,4.265,4.252,0,0,75.11,10,Assisted_Takeoff,
0,0,5888.5242816086,0,0,0,5600,2017-11-02 06:01:45,5,16.997,5888.5242816086,0,0.50107456,0,123.2, 1.4, 3.2,0,0,1024,1024,1024,1024,123.8,0,98,4.266,4.265,4.265,4.252,0,0,75.11,10,Assisted_Takeoff,
0,0,5888.5242816086,0,0,0,5700,2017-11-02 06:01:45,5,16.997,5888.5242816086,0,0.50107456,0,123.2, 1.5, 3.2,0,0,1024,1024,1024,1024,123.8,0,98,4.266,4.265,4.265,4.252,0,0,75.11,10,Assisted_Takeoff,
0,0,5888.5242816086,0,0,0,5800,2017-11-02 06:01:45,5,16.997,5888.5242816086,0,0.50107456,0,123.2, 1.4, 3.2,0,0,1024,1024,1024,1024,123.8,0,98,4.266,4.265,4.265,4.252,0,0,75.11,10,Assisted_Takeoff,
0,0,5888.5242816086,0,0,0,5900,2017-11-02 06:01:45,5,16.997,5888.5242816086,0,0.50107456,0,123.2, 1.4, 3.2,0,0,1024,1024,1024,1024,123.8,0,98,4.266,4.265,4.265,4.252,0,0,75.11,10,Assisted_Takeoff,
0,0,5888.5242816086,0,0,0,6000,2017-11-02 06:01:45,5,16.997,5888.5242816086,0,0.50107456,0,123.2, 1.5, 3.2,0,0,1024,1024,1024,1024,123.8,0,98,4.266,4.265,4.265,4.252,0,0,75.11,10,Assisted_Takeoff,
0,0,5888.5242816086,0,0,0,6200,2017-11-02 06:01:45,5,16.997,5888.5242816086,0,0.50107456,0,123.1, 1.5, 3.2,0,0,1024,1024,1024,1024,123.8,0,98,4.266,4.265,4.265,4.252,0,0,75.11,10,Assisted_Takeoff,
0,0,5888.5242816086,0,0,0,6300,2017-11-02 06:01:46,5,16.997,5888.5242816086,0,0.50107456,0,123.1, 1.5, 3.2,0,0,1024,1024,1024,1024,123.8,0,98,4.266,4.265,4.265,4.252,0,0,75.11,10,Assisted_Takeoff,
0,0,5888.5242816086,0,0,0,6400,2017-11-02 06:01:46,5,16.997,5888.5242816086,0,0.50107456,0,123.1, 1.5, 3.2,0,0,1024,1024,1024,1024,123.8,0,98,4.266,4.265,4.265,4.252,0,0,75.11,10,Assisted_Takeoff,
0,0,5888.5242816086,0,0,0,6500,2017-11-02 06:01:46,5,16.997,5888.5242816086,0,0.50107456,0,123.1, 1.5, 3.2,0,0,1024,1024,1024,1024,123.8,0,98,4.266,4.265,4.265,4.252,0,0,75.11,10,Assisted_Takeoff,
0,0,5888.5242816086,0,0,0,6600,2017-11-02 06:01:46,5,16.997,5888.5242816086,0,0.50107456,0,123.1, 1.5, 3.2,0,0,1024,1024,1024,1024,123.8,0,98,4.266,4.265,4.265,4.252,0,0,75.11,10,Assisted_Takeoff,
0,0,5888.5242816086,0,0,0,6700,2017-11-02 06:01:46,5,16.997,5888.5242816086,0,0.50107456,0,123, 1.5, 3.2,0,0,1024,1024,1024,1024,123.7,0,98,4.266,4.265,4.265,4.252,0,0,75.11,10,Assisted_Takeoff,
0,0,5888.5242816086,0,0,0,6800,2017-11-02 06:01:46,5,16.997,5888.5242816086,0,0.50107456,0,123, 1.5, 3.2,0,0,1024,1024,1024,1024,123.7,0,98,4.266,4.265,4.265,4.252,0,0,75.11,10,Assisted_Takeoff,
0,0,5888.5242816086,0,0,0,6900,2017-11-02 06:01:46,5,16.997,5888.5242816086,0,0.50107456,0,123, 1.5, 3.2,0,0,1024,1024,1024,1024,123.7,0,98,4.266,4.265,4.265,4.252,0,0,75.11,10,Assisted_Takeoff,
0,0,5888.5242816086,0,0,0,7000,2017-11-02 06:01:46,5,16.997,5888.5242816086,0,0.50107456,0,123, 1.5, 3.2,0,0,1024,1024,1024,1024,123.7,0,98,4.266,4.265,4.265,4.252,0,0,75.11,10,Assisted_Takeoff,
0,0,5888.5242816086,0,0,0,7100,2017-11-02 06:01:46,5,16.997,5888.5242816086,0,0.50107456,0,123, 1.5, 3.1,0,0,1024,1024,1024,1024,123.7,0,98,4.266,4.265,4.265,4.252,0,0,75.11,10,Assisted_Takeoff,
0,0,5888.5242816086,0,0.223694,0,7200,2017-11-02 06:01:46,5,16.997,5888.5242816086,0,0.50107456,0,123, 1.5, 3.1,0,0,1024,1024,1024,1024,123.7,0,98,4.266,4.265,4.265,4.252,0,0,75.11,10,Assisted_Takeoff,
0,0,5888.5242816086,0,0.223694,0,7300,2017-11-02 06:01:47,5,16.997,5888.5242816086,0,0.50107456,0,123, 1.5, 3.1,0,0,1024,1024,1024,1024,123.7,0,98,4.266,4.265,4.265,4.252,0,0,75.11,10,Assisted_Takeoff,
0,0,5888.5242816086,0,0.223694,0,7400,2017-11-02 06:01:47,5,16.997,5888.5242816086,0,0.50107456,0,122.9, 1.6, 3.1,0,0,1024,1024,1024,1024,123.7,0,98,4.266,4.265,4.265,4.252,0,0,75.11,10,Assisted_Takeoff,
0,0,5888.5242816086,0,0.223694,0,7500,2017-11-02 06:01:47,5,16.997,5888.5242816086,0,0.50107456,0,122.9, 1.6, 3.1,0,0,1024,1024,1024,1024,123.7,0,98,4.266,4.265,4.265,4.252,0,0,75.11,10,Assisted_Takeoff,
0,0,5888.5242816086,0,0.223694,0,7600,2017-11-02 06:01:47,5,16.997,5888.5242816086,0,0.50107456,0,122.9, 1.5, 3.1,0,0,1024,1024,1024,1024,123.7,0,98,4.266,4.265,4.265,4.252,0,0,75.11,10,Assisted_Takeoff,
0,0,5888.5242816086,0,0.223694,0,7700,2017-11-02 06:01:47,5,16.997,5888.5242816086,0,0.50107456,0,122.9, 1.5, 3.1,0,0,1024,1024,1024,1024,123.7,0,98,4.266,4.265,4.265,4.252,0,0,75.11,10,Assisted_Takeoff,
0,0,5888.5242816086,0,0,0,7800,2017-11-02 06:01:47,5,16.997,5888.5242816086,0,0.50107456,0,122.9, 1.5, 3.1,0,0,1024,1024,1024,1024,123.6,0,98,4.266,4.265,4.265,4.252,0,0,75.11,10,Assisted_Takeoff,
0,0,5888.5242816086,0,0,0,7900,2017-11-02 06:01:47,5,16.997,5888.5242816086,0,0.50107456,0,122.8, 1.5, 3.1,0,0,1024,1024,1024,1024,123.6,0,98,4.266,4.265,4.265,4.252,0,0,75.11,10,Assisted_Takeoff,
0,0,5888.5242816086,0,0,0,8000,2017-11-02 06:01:47,5,16.997,5888.5242816086,0,0.50107456,0,122.8, 1.4, 3,0,0,1024,1024,1024,1024,123.6,0,98,4.266,4.265,4.265,4.252,0,0,75.11,10,Assisted_Takeoff,
0,0,5888.5242816086,0,0,0,8100,2017-11-02 06:01:47,5,16.997,5888.5242816086,0,0.50107456,0,122.8, 1.4, 3,0,0,1024,1024,1024,1024,123.6,0,98,4.266,4.265,4.265,4.252,0,0,75.11,10,Assisted_Takeoff,
0,0,5888.5242816086,0,0.223694,0,8200,2017-11-02 06:01:47,5,16.997,5888.5242816086,0,0.50107456,0,122.8, 1.4, 3,0,0,1024,1024,1024,1024,123.6,0,98,4.266,4.265,4.265,4.252,0,0,75.11,10,Assisted_Takeoff,
0,0,5888.5242816086,0,0.223694,0,8300,2017-11-02 06:01:48,5,16.997,5888.5242816086,0,0.50107456,0,122.8, 1.4, 3,0,0,1024,1024,1024,1024,123.6,0,98,4.266,4.265,4.265,4.252,0,0,75.11,10,Assisted_Takeoff,
0,0,5888.5242816086,0,0.223694,0,8400,2017-11-02 06:01:48,5,17.023,5888.5242816086,0,0.50107456,0,122.8, 1.4, 3,0,0,1024,1024,1024,1024,123.6,0,98,4.266,4.265,4.265,4.252,0,0,75.11,10,Assisted_Takeoff,
0,0,5888.5242816086,0,0.223694,0,8500,2017-11-02 06:01:48,5,17.023,5888.5242816086,0,0.50107456,0,122.7, 1.4, 3,0,0,1024,1024,1024,1024,123.5,0,98,4.266,4.265,4.265,4.252,0,0,75.11,10,Assisted_Takeoff,
0,0,5888.5242816086,0,0.223694,0,8600,2017-11-02 06:01:48,5,17.023,5888.5242816086,0,0.50107456,0,122.7, 1.4, 3,0,0,1024,1024,1024,1024,123.5,0,98,4.266,4.265,4.265,4.252,0,0,75.11,10,Assisted_Takeoff,
0,0,5888.5242816086,0,0.223694,0,8700,2017-11-02 06:01:48,5,17.023,5888.5242816086,0,0.50107456,0,122.7, 1.3, 3,0,0,1024,1024,1024,1024,123.5,0,98,4.266,4.265,4.265,4.252,0,0,75.11,10,Assisted_Takeoff,
0,0,5888.5242816086,0,0,0,8800,2017-11-02 06:01:48,5,17.023,5888.5242816086,0,0.50107456,0,122.7, 1.4, 3,0,0,1024,1024,1024,1024,123.5,0,98,4.266,4.265,4.265,4.252,0,0,75.11,10,Assisted_Takeoff,
0,0,5888.5242816086,0,0,0,8900,2017-11-02 06:01:48,5,17.023,5888.5242816086,0,0.50107456,0,122.7, 1.3, 2.9,0,0,1024,1024,1024,1024,123.5,0,98,4.266,4.265,4.265,4.252,0,0,75.11,10,Assisted_Takeoff,
0,0,5888.5242816086,0,0,0,9000,2017-11-02 06:01:48,5,17.023,5888.5242816086,0,0.50107456,0,122.7, 1.3, 2.9,0,0,1024,1024,1024,1024,123.5,0,98,4.266,4.265,4.265,4.252,0,0,75.11,10,Assisted_Takeoff,
0,0,5888.5242816086,0,0,0,9100,2017-11-02 06:01:48,5,17.023,5888.5242816086,0,0.50107456,0,122.7, 1.3, 2.9,0,0,1024,1024,1024,1024,123.5,0,98,4.266,4.265,4.265,4.252,0,0,75.11,10,Assisted_Takeoff,
0,0,5888.5242816086,0,0.223694,0,9300,2017-11-02 06:01:49,5,17.023,5888.5242816086,0,0.50107456,0,122.6, 1.4, 2.9,0,0,1024,1024,1024,1024,123.5,0,98,4.266,4.265,4.265,4.252,0,0,75.11,10,Assisted_Takeoff,
0,0,5888.5242816086,0,0.223694,0,9400,2017-11-02 06:01:49,13,17.023,5888.5242816086,0,0.50107456,0,122.6, 1.4, 2.9,0,0,1024,1024,1024,1024,123.4,0,98,4.265,4.265,4.265,4.252,0,0,75.11,10,Assisted_Takeoff,
0,0,5888.5242816086,0,0.223694,0,9500,2017-11-02 06:01:49,13,17.023,5888.5242816086,0,0.50107456,0,122.6, 1.4, 2.9,0,0,1024,1024,1024,1024,123.4,0,98,4.265,4.265,4.265,4.252,0,0,75.11,10,Assisted_Takeoff,
0,0,5888.5242816086,0,0,0,9600,2017-11-02 06:01:49,13,17.023,5888.5242816086,0,0.50107456,0,122.6, 1.4, 2.9,0,0,1024,1024,1024,1024,123.4,0,98,4.265,4.265,4.265,4.252,0,0,75.11,10,Assisted_Takeoff,
0,0,5888.5242816086,0,0,0,9700,2017-11-02 06:01:49,13,17.023,5888.5242816086,0,0.50107456,0,122.5, 1.4, 2.9,0,0,1024,1024,1024,1024,123.4,0,98,4.265,4.265,4.265,4.252,0,0,75.11,10,Assisted_Takeoff,
0,0,5888.5242816086,0,0,0,9800,2017-11-02 06:01:49,13,17.023,5888.5242816086,0,0.50107456,0,122.6, 1.4, 2.9,0,0,1024,1024,1024,1024,123.4,0,98,4.265,4.265,4.265,4.252,0,0,75.11,10,Assisted_Takeoff,
0,0,5888.5242816086,0,0.223694,0,9900,2017-11-02 06:01:49,13,17.023,5888.5242816086,0,0.50107456,0,122.5, 1.4, 2.9,0,0,1024,1024,1024,1024,123.4,0,98,4.265,4.265,4.265,4.252,0,0,75.11,10,Assisted_Takeoff,
0,0,5888.5242816086,0,0.223694,0,10000,2017-11-02 06:01:49,13,17.023,5888.5242816086,0,0.50107456,0,122.5, 1.4, 2.9,0,0,1024,1024,1024,1024,123.4,0,98,4.265,4.265,4.265,4.252,0,0,75.11,10,Assisted_Takeoff,
0,0,5888.5242816086,0,0.223694,0,10100,2017-11-02 06:01:49,13,17.023,5888.5242816086,0,0.50107456,0,122.5, 1.4, 2.9,0,0,1024,1024,1024,1024,123.3,0,98,4.265,4.265,4.265,4.252,0,0,75.11,10,Assisted_Takeoff,
0,0,5888.5242816086,0,0,0,10200,2017-11-02 06:01:49,13,17.023,5888.5242816086,0,0.50107456,0,122.4, 1.4, 2.9,0,0,1024,1024,1024,1024,123.3,0,98,4.265,4.265,4.265,4.252,0,0,75.11,10,Assisted_Takeoff,
0,0,5888.5242816086,0,0,0,10300,2017-11-02 06:01:50,13,17.023,5888.5242816086,0,0.50107456,0,122.4, 1.4, 2.9,0,0,1024,1024,1024,1024,123.3,0,98,4.265,4.265,4.265,4.252,0,0,75.11,10,Assisted_Takeoff,
0,0,5888.5242816086,0,0,0,10400,2017-11-02 06:01:50,13,16.997,5888.5242816086,0,0.50107456,0,122.4, 1.4, 2.9,0,0,1024,1024,1024,1024,123.3,0,98,4.265,4.265,4.265,4.252,0,0,75.11,10,Assisted_Takeoff,Setting new Maximum Flight Altitude to 30m (98 ft)
0,0,5888.5242816086,0,0,0,10500,2017-11-02 06:01:50,13,16.997,5888.5242816086,0,0.50107456,0,122.4, 1.4, 2.9,0,0,1024,1024,1024,1024,123.3,0,98,4.265,4.265,4.265,4.252,0,0,75.11,10,Assisted_Takeoff,
0,0,5888.5242816086,0,0,0,10600,2017-11-02 06:01:50,13,16.997,5888.5242816086,0,0.50107456,0,122.4, 1.4, 2.9,0,0,1024,1024,1024,1024,123.3,0,98,4.265,4.265,4.265,4.252,0,0,75.11,10,Assisted_Takeoff,
0,0,5888.5242816086,0,0,0,10700,2017-11-02 06:01:50,13,16.997,5888.5242816086,0,0.50107456,0,122.4, 1.4, 2.9,0,0,1024,1024,1024,1024,123.3,0,98,4.265,4.265,4.265,4.252,0,0,75.11,10,Assisted_Takeoff,
0,0,5888.5242816086,0,0,0,10800,2017-11-02 06:01:50,13,16.997,5888.5242816086,0,0.50107456,0,122.4, 1.4, 2.9,0,0,1024,1024,1024,1024,123.2,0,98,4.265,4.265,4.265,4.252,0,0,75.11,10,Assisted_Takeoff,
0,0,5888.5242816086,0,0,0,11100,2017-11-02 06:01:50,13,16.997,5888.5242816086,0,0.50107456,0,122.3, 1.4, 2.9,0,0,1024,1024,1024,1024,123.2,0,98,4.265,4.265,4.265,4.252,0,0,75.11,10,Assisted_Takeoff,
0,0,5888.5242816086,0,0,0,11200,2017-11-02 06:01:50,13,16.997,5888.5242816086,0,0.50107456,0,122.3, 1.4, 2.9,0,0,1024,1024,1024,1024,123.2,0,98,4.265,4.265,4.265,4.252,0,0,75.11,10,Assisted_Takeoff,
0,0,5888.5242816086,0,0,0,11300,2017-11-02 06:01:51,13,16.997,5888.5242816086,0,0.50107456,0,122.3, 1.4, 2.9,0,0,1024,1024,1024,1024,123.2,-0.3,98,4.265,4.265,4.265,4.252,0,0,75.11,10,Assisted_Takeoff,
0,0,5888.5242816086,0,0.223694,0,11400,2017-11-02 06:01:51,13,17.023,5888.5242816086,0,0.50107456,0,122.3, 1.4, 2.9,0,0,1024,1024,1024,1024,123.2,-1,98,4.265,4.264,4.264,4.251,0,0,75.11,10,Assisted_Takeoff,
0,0,5888.5242816086,0,0.223694,0,11500,2017-11-02 06:01:51,13,17.023,5888.5242816086,0,0.50107456,0,122.2, 1.5, 2.9,0,0,1024,1024,1024,1024,123.1,-1.7,98,4.265,4.264,4.264,4.251,0,0,75.11,10,Assisted_Takeoff,
0,0,5888.5242816086,0,0.223694,0,11600,2017-11-02 06:01:51,13,17.023,5888.5242816086,0,0.50107456,0,122.2, 1.5, 2.9,0,0,1024,1024,1024,1024,123.1,-1.7,98,4.265,4.264,4.264,4.251,0,0,75.11,10,Assisted_Takeoff,
0.0607091997939794,36.9426066537212,5888.5242816086,0,0,0,11700,2017-11-02 06:01:51,14,17.023,5888.5242816086,0,0.50107456,0,122.2, 1.6, 2.9,0,0,1024,1024,1024,1024,123.1,-1.7,98,4.265,4.264,4.264,4.251,0,0,75.11,10,Assisted_Takeoff,
0.0607092416124212,36.9426064517805,5888.5242816086,0,0,0.07524114414,11800,2017-11-02 06:01:51,14,17.023,5888.5242816086,0,0.50107456,0.07524114414,122.2, 1.5, 2.9,0,0,1024,1024,1024,1024,123.1,-1.7,98,4.265,4.264,4.264,4.251,0,0,75.11,10,Assisted_Takeoff,
0.0607092572663099,36.9426063919728,5888.5242816086,0,0,0.097773625176,11900,2017-11-02 06:01:51,14,17.023,5888.5242816086,0,0.50107456,0.097773625176,122.2, 1.5, 2.9,0,0,1024,1024,1024,1024,123.1,-1.9,98,4.265,4.264,4.264,4.251,0,0,75.11,10,Assisted_Takeoff,
0.0607092495950791,36.9426064511744,5888.5242816086,0,0,0.076100068052,12000,2017-11-02 06:01:51,14,17.023,5888.5242816086,0,0.50107456,0.097773625176,122.1, 1.4, 2.9,0,0,1024,1024,1024,1024,123.1,-5.6,98,4.265,4.264,4.264,4.251,0,0,75.11,10,Assisted_Takeoff,
0.0607092158219076,36.9426066630803,5888.5242816086,0,0,0.0067717193768,12100,2017-11-02 06:01:51,14,17.023,5888.5242816086,0,0.50107456,0.097773625176,122.1, 1.5, 2.9,0,0,1024,1024,1024,1024,123.1,-11.3,98,4.265,4.264,4.264,4.251,0,0,75.11,10,Assisted_Takeoff,
0.0607091937695763,36.9426067896339,5888.5242816086,0,0,0.049636156444,12200,2017-11-02 06:01:51,14,17.023,5888.5242816086,0,0.50107456,0.097773625176,122.1, 1.4, 2.9,0,0,1024,1024,1024,1024,123,-16.9,98,4.265,4.264,4.264,4.251,0,0,75.11,10,Assisted_Takeoff,
0.060709148420248,36.9426072198375,5888.5242816086,0,0,0.207395675928,12300,2017-11-02 06:01:52,14,17.023,5888.5242816086,0,0.50107456,0.207395675928,122.1, 1.5, 2.9,0,0,1024,1024,1024,1024,123,-22.6,98,4.265,4.264,4.264,4.251,0,0,75.11,10,Assisted_Takeoff,
0.0607091228652163,36.9426075232769,5888.5242816086,0,0,0.3184957451,12400,2017-11-02 06:01:52,14,16.997,5888.5242816086,0,0.50107456,0.3184957451,122.1, 1.5, 2.9,0,0,1024,1024,1024,1024,123,-28,98,4.265,4.264,4.263,4.251,0,0,75.11,10,Assisted_Takeoff,
0.0607090487210416,36.9426081725338,5888.5242816086,0,0,0.5568733774,12500,2017-11-02 06:01:52,14,16.997,5888.5242816086,0,0.50107456,0.5568733774,122.1, 1.5, 2.9,0,0,1024,1024,1024,1024,123,-28.1,98,4.265,4.264,4.263,4.251,0,0,75.11,10,Assisted_Takeoff,
0.0607089904738389,36.942608632568,5888.5242816086,0,0,0.72600724108,12600,2017-11-02 06:01:52,14,16.997,5888.5242816086,0,0.50107456,0.72600724108,122.1, 1.5, 2.9,0,0,1024,1024,1024,1024,123,-28.1,98,4.265,4.264,4.263,4.251,0,0,75.11,10,Assisted_Takeoff,
0.0607089182455031,36.9426093714688,5888.5242816086,0,0,0.99687339148,12700,2017-11-02 06:01:52,14,16.997,5888.5242816086,0,0.50107456,0.99687339148,122, 1.5, 2.9,0,0,1024,1024,1024,1024,123,-28.1,98,4.265,4.264,4.263,4.251,0,0,75.11,10,Assisted_Takeoff,
0.0607088708236109,36.9426098978335,5888.5242816086,0,0,1.1896817966,12800,2017-11-02 06:01:52,14,16.997,5888.5242816086,0,0.50107456,1.1896817966,122, 1.5, 2.9,0,0,1024,1024,1024,1024,122.9,-28.6,98,4.265,4.264,4.263,4.251,0,0,75.11,10,Assisted_Takeoff,
0.0607088257334215,36.9426105744338,5888.5242816086,0,0,1.43696526908,12900,2017-11-02 06:01:52,14,16.997,5888.5242816086,0,0.50107456,1.43696526908,122, 1.5, 2.9,0,0,1024,1024,1024,1024,122.9,-33.3,98,4.265,4.264,4.263,4.251,0,0,75.11,10,Assisted_Takeoff,
0.060708796697349,36.9426110497266,5888.5242816086,0,0,1.61060700692,13000,2017-11-02 06:01:52,14,16.997,5888.5242816086,0,0.50107456,1.61060700692,122, 1.5, 2.8,0,0,1024,1024,1024,1024,122.9,-33.3,98,4.265,4.264,4.263,4.251,0,0,75.11,10,Assisted_Takeoff,
0.0607087751125783,36.9426116107352,5888.5242816086,0,0,1.81518706596,13100,2017-11-02 06:01:52,14,16.997,5888.5242816086,0,0.50107456,1.81518706596,122, 1.4, 2.8,0,0,1024,1024,1024,1024,122.9,-39,98,4.265,4.264,4.263,4.251,0,0,75.11,10,Assisted_Takeoff,
0.0607087602827968,36.9426120168167,5888.5242816086,0,0,1.96328090272,13200,2017-11-02 06:01:52,14,16.997,5888.5242816086,0,0.50107456,1.96328090272,122, 1.4, 2.8,0,0,1024,1024,1024,1024,122.9,-44.6,98,4.265,4.264,4.263,4.251,0,0,75.11,10,Assisted_Takeoff,
0.0607087538638268,36.9426124495566,5888.5242816086,0,0,2.12085636708,13300,2017-11-02 06:01:53,14,16.997,5888.5242816086,0,0.50107456,2.12085636708,122, 1.4, 2.8,0,0,1024,1024,1024,1024,122.9,-50.3,98,4.265,4.264,4.263,4.251,0,0,75.11,10,Assisted_Takeoff,
0.0607087488596693,36.9426127657431,5888.5242816086,0,0,2.23602697444,13400,2017-11-02 06:01:53,14,17.023,5888.5242816086,0,0.50107456,2.23602697444,121.9, 1.5, 2.8,0,0,1024,1024,1024,1024,122.9,-55.6,98,4.265,4.264,4.263,4.251,0,0,75.11,10,Assisted_Takeoff,
0.0607087524289641,36.9426130976553,5888.5242816086,0,0,2.35672251636,13500,2017-11-02 06:01:53,14,17.023,5888.5242816086,0,0.50107456,2.35672251636,121.9, 1.5, 2.8,0,0,1024,1024,1024,1024,122.9,-55.6,98,4.265,4.264,4.263,4.251,0,0,75.11,10,Assisted_Takeoff,
0.0607087548804848,36.9426133517871,5888.5242816086,0,0,2.44917002588,13600,2017-11-02 06:01:53,14,17.023,5888.5242816086,0,0.50107456,2.44917002588,121.9, 1.5, 2.8,0,0,1024,1024,1024,1024,122.8,-55.6,98,4.265,4.264,4.263,4.251,0,0,75.11,10,Assisted_Takeoff,
0.0607087618646266,36.9426136180902,5888.5242816086,0,0,2.5459646484,13700,2017-11-02 06:01:53,14,17.023,5888.5242816086,0,0.50107456,2.5459646484,121.9, 1.5, 2.8,0,0,1024,1024,1024,1024,122.8,-55.6,98,4.265,4.264,4.263,4.251,0,0,75.11,10,Assisted_Takeoff,
0.0607087669211488,36.9426138318415,5888.5242816086,0,0,2.623687748,13800,2017-11-02 06:01:53,14,17.023,5888.5242816086,0,0.50107456,2.623687748,121.9, 1.5, 2.8,0,0,1024,1024,1024,1024,122.8,-55.6,98,4.265,4.264,4.263,4.251,0,0,75.11,10,Assisted_Takeoff,
0.0607087761972747,36.942614076746,5888.5242816086,0,0,2.71269037552,13900,2017-11-02 06:01:53,14,17.023,5888.5242816086,0,0.50107456,2.71269037552,121.9, 1.5, 2.8,0,0,1024,1024,1024,1024,122.8,-57,98,4.265,4.264,4.263,4.251,0,0,75.11,10,Assisted_Takeoff,
0.0607087830926663,36.9426142707896,5888.5242816086,0,0,2.78323827804,14000,2017-11-02 06:01:53,14,17.023,5888.5242816086,0,0.50107456,2.78323827804,121.8, 1.5, 2.8,0,0,1024,1024,1024,1024,122.8,-62.1,98,4.265,4.264,4.263,4.251,0,0,75.11,10,Assisted_Takeoff,
0.0607087653530081,36.9426144819272,5888.5242816086,0,0,2.86050862172,14100,2017-11-02 06:01:53,14,17.023,5888.5242816086,0,0.50107456,2.86050862172,121.8, 1.4, 2.8,0,0,1024,1024,1024,1024,122.7,-67.9,98,4.265,4.264,4.263,4.251,0,0,75.11,10,Assisted_Takeoff,
0.0607087425660386,36.9426146406537,5888.5242816086,0,0,2.91879602516,14200,2017-11-02 06:01:53,14,17.023,5888.5242816086,0,0.50107456,2.91879602516,121.8, 1.5, 2.8,0,0,1024,1024,1024,1024,122.7,-73.5,98,4.265,4.264,4.263,4.251,0,0,75.11,10,Assisted_Takeoff,
0.0607087220643867,36.9426148172004,5888.5242816086,0,0,2.98353356004,14300,2017-11-02 06:01:54,14,17.023,5888.5242816086,0,0.50107456,2.98353356004,121.8, 1.5, 2.8,0,0,1024,1024,1024,1024,122.7,-73.5,98,4.265,4.264,4.263,4.251,0,0,75.11,10,Assisted_Takeoff,
0.0607087084716628,36.94261495454,5888.5242816086,0,0,3.03384852228,14400,2017-11-02 06:01:54,14,16.997,5888.5242816086,0,0.50107456,3.03384852228,121.8, 1.5, 2.8,0,0,1024,1024,1024,1024,122.7,-79.1,98,4.264,4.264,4.264,4.251,0,0,75.11,10,Assisted_Takeoff,Setting new Maximum Flight Altitude to 100m (328 ft)
0.0607086986848162,36.9426151153756,5888.5242816086,0,0,3.09263789424,14500,2017-11-02 06:01:54,14,16.997,5888.5242816086,0,0.50107456,3.09263789424,121.8, 1.4, 2.8,0,0,1024,1024,1024,1024,122.7,-84.9,98,4.264,4.264,4.264,4.251,0,0,75.11,10,Assisted_Takeoff,Home Point Recorded. RTH Altitude:  30m.
0.0607086923871144,36.9426152443123,5888.5242816086,0,0,3.13973435244,14600,2017-11-02 06:01:54,14,16.997,5888.5242816086,0,0.50107456,3.13973435244,121.7, 1.5, 2.8,0,0,1024,1024,1024,1024,122.7,-84.9,98,4.264,4.264,4.264,4.251,0,0,75.11,10,Assisted_Takeoff,
0.060708689219231,36.9426154223755,5888.5242816086,0,0,3.20465561436,14700,2017-11-02 06:01:54,14,16.997,5888.5242816086,0,0.50107456,3.20465561436,121.7, 1.5, 2.8,0,0,1024,1024,1024,1024,122.7,-84.9,98,4.264,4.264,4.264,4.251,0,0,75.11,10,Assisted_Takeoff,
0.0607086874639211,36.9426155536225,5888.5242816086,0,0,3.25249682324,14800,2017-11-02 06:01:54,14,16.997,5888.5242816086,0,0.50107456,3.25249682324,121.7, 1.5, 2.8,0,0,1024,1024,1024,1024,122.6,-84.9,98,4.264,4.264,4.264,4.251,0,0,75.11,10,Assisted_Takeoff,
0.0607086898262844,36.9426157257858,5888.5242816086,0,0,3.3151575864,14900,2017-11-02 06:01:54,14,16.997,5888.5242816086,0,0.50107456,3.3151575864,121.8, 1.5, 2.8,0,0,1024,1024,1024,1024,122.6,-84.9,98,4.264,4.264,4.264,4.251,0,0,75.11,10,Assisted_Takeoff,
0.0607086933980219,36.942615862709,5888.5242816086,0,0,3.3649607376,15000,2017-11-02 06:01:54,14,16.997,5888.5242816086,0,0.50107456,3.3649607376,121.7, 1.5, 2.7,0,0,1024,1024,1024,1024,122.6,-84.9,98,4.264,4.264,4.264,4.251,0,0,75.11,10,Assisted_Takeoff,
0.0607086762937621,36.942616064677,5888.5242816086,0,0,3.4388780628,15100,2017-11-02 06:01:54,14,16.997,5888.5242816086,0,0.50107456,3.4388780628,121.7, 1.5, 2.7,0,0,1024,1024,1024,1024,122.6,-84.9,98,4.264,4.264,4.264,4.251,0,0,75.11,10,Assisted_Takeoff,
0.0607086523683576,36.9426162085761,5888.5242816086,0,0,3.491798012,15200,2017-11-02 06:01:54,14,16.997,5888.5242816086,0,0.50107456,3.491798012,121.7, 1.5, 2.7,0,0,1024,1024,1024,1024,122.6,-84.9,98,4.264,4.264,4.264,4.251,0,0,75.11,10,Assisted_Takeoff,
0.060708603529541,36.9426164266359,5888.5242816086,0,0,3.5722770172,15300,2017-11-02 06:01:55,15,16.997,5888.5242816086,0,0.50107456,3.5722770172,121.7, 1.5, 2.7,0,0,1024,1024,1024,1024,122.6,-85.1,98,4.264,4.264,4.264,4.251,0,0,75.11,10,Assisted_Takeoff,
0.0607085614084121,36.9426165783512,5888.5242816086,0,0,3.6284778064,15400,2017-11-02 06:01:55,15,16.997,5888.5242816086,0,0.50107456,3.6284778064,121.7, 1.5, 2.8,0,0,1024,1024,1024,1024,122.6,-87.3,98,4.263,4.263,4.263,4.25,0,0,75.11,10,Assisted_Takeoff,
0.0607084973474609,36.9426168015584,5888.5242816086,0,0,3.711286208,15500,2017-11-02 06:01:55,15,16.997,5888.5242816086,0,0.50107456,3.711286208,121.7, 1.5, 2.7,0,0,1024,1024,1024,1024,122.5,-89.9,98,4.263,4.263,4.263,4.25,0,0,75.11,10,Assisted_Takeoff,
0.0607084439820789,36.9426169613672,5888.5242816086,0,0,3.770833454,15600,2017-11-02 06:01:55,15,16.997,5888.5242816086,0,0.50107456,3.770833454,121.6, 1.4, 2.7,0,0,1024,1024,1024,1024,122.5,-89.9,98,4.263,4.263,4.263,4.25,0,0,75.11,10,Assisted_Takeoff,
0.060708370732327,36.9426171745345,5888.5242816086,0,0,3.850393824,15700,2017-11-02 06:01:55,15,16.997,5888.5242816086,0,0.50107456,3.850393824,121.6, 1.4, 2.7,0,0,1024,1024,1024,1024,122.5,-89.9,98,4.263,4.263,4.263,4.25,0,0,75.11,10,Assisted_Takeoff,
0.0607082657342274,36.9426174862643,5888.5242816086,0,0,3.9668964524,15900,2017-11-02 06:01:55,15,16.997,5888.5242816086,0,0.50107456,3.9668964524,121.6, 1.4, 2.7,0,0,1024,1024,1024,1024,122.5,-89.9,98,4.263,4.263,4.263,4.25,0,0,75.11,10,Assisted_Takeoff,
0.0607082350204505,36.9426176064983,5888.5242816086,0,0,4.0115814932,16000,2017-11-02 06:01:55,15,16.997,5888.5242816086,0,0.50107456,4.0115814932,121.6, 1.4, 2.7,0,0,1024,1024,1024,1024,122.5,-89.9,98,4.263,4.263,4.263,4.25,0,0,75.11,10,Assisted_Takeoff,
0.060708192874895,36.942617782476,5888.5242816086,0,0,4.0769030176,16100,2017-11-02 06:01:55,15,16.997,5888.5242816086,0,0.50107456,4.0769030176,121.6, 1.4, 2.7,0,0,1024,1024,1024,1024,122.5,-89.9,98,4.263,4.263,4.263,4.25,0,0,75.11,10,Assisted_Takeoff,
0.0607081520029862,36.9426178938553,5888.5242816086,0,0,4.1187337276,16200,2017-11-02 06:01:55,15,16.997,5888.5242816086,0,0.50107456,4.1187337276,121.6, 1.4, 2.7,0,0,1024,1024,1024,1024,122.5,-90,98,4.263,4.263,4.263,4.25,0,0,75.11,10,Assisted_Takeoff,
0.0607081000996925,36.9426180599538,5888.5242816086,0,0,4.1808400288,16300,2017-11-02 06:01:56,15,16.997,5888.5242816086,0,0.50107456,4.1808400288,121.6, 1.4, 2.7,0,0,1024,1024,1024,1024,122.4,-90,98,4.263,4.263,4.263,4.25,0,0,75.11,10,Assisted_Takeoff,
0.0607080528843837,36.942618167373,5888.5242816086,0,0,4.2215224448,16400,2017-11-02 06:01:56,15,16.997,5888.5242816086,0,0.50107456,4.2215224448,121.6, 1.4, 2.7,0,0,1024,1024,1024,1024,122.4,-90,98,4.264,4.263,4.263,4.25,0,0,76.91,10,Assisted_Takeoff,
0.0607079954991368,36.9426183064063,5888.5242816086,0,0,4.27411431,16500,2017-11-02 06:01:56,15,16.997,5888.5242816086,0,0.50107456,4.27411431,121.5, 1.4, 2.7,0,0,1024,1024,1024,1024,122.4,-90,98,4.264,4.263,4.263,4.25,0,0,76.91,10,Assisted_Takeoff,
0.0607079434496902,36.9426183840454,5888.5242816086,0,0,4.3042652296,16600,2017-11-02 06:01:56,15,16.997,5888.5242816086,0,0.50107456,4.3042652296,121.6, 1.4, 2.7,0,0,1024,1024,1024,1024,122.4,-90,98,4.264,4.263,4.263,4.25,0,0,76.91,10,Assisted_Takeoff,
0.060707881859292,36.9426185289326,5888.5242816086,0,0,4.359252108,16700,2017-11-02 06:01:56,15,16.997,5888.5242816086,0,0.50107456,4.359252108,121.6, 1.4, 2.7,0,0,1024,1024,1024,1024,122.4,-90,98,4.264,4.263,4.263,4.25,0,0,76.91,10,Assisted_Takeoff,
0.0607078275252403,36.942618616725,5888.5242816086,0,0,4.3933072272,16800,2017-11-02 06:01:56,15,16.997,5888.5242816086,0,0.50107456,4.3933072272,121.6, 1.4, 2.7,0,0,1024,1024,1024,1024,122.4,-90,98,4.264,4.263,4.263,4.25,0,0,76.91,10,Assisted_Takeoff,
0.0607077682924219,36.9426187673601,5888.5242816086,0,0,4.4503938432,16900,2017-11-02 06:01:56,15,16.997,5888.5242816086,0,0.50107456,4.4503938432,121.6, 1.4, 2.7,0,0,1024,1024,1024,1024,122.4,-90,98,4.264,4.263,4.263,4.25,0,0,76.91,10,Assisted_Takeoff,
0.060707714950805,36.9426188663443,5888.5242816086,0,0,4.4885828208,17000,2017-11-02 06:01:56,15,16.997,5888.5242816086,0,0.50107456,4.4885828208,121.6, 1.4, 2.7,0,0,1024,1024,1024,1024,122.4,-90,98,4.264,4.263,4.263,4.25,0,0,76.91,10,Assisted_Takeoff,
0.060707684251277,36.9426190355153,5888.5242816086,0,0,4.5512140564,17100,2017-11-02 06:01:56,15,16.997,5888.5242816086,0,0.50107456,4.5512140564,121.6, 1.4, 2.7,0,0,1024,1024,1024,1024,122.4,-90,98,4.264,4.263,4.263,4.25,0,0,76.91,10,Assisted_Takeoff,
0.0607076619744684,36.942619142168,5888.5242816086,0,0,4.5908137952,17200,2017-11-02 06:01:56,15,16.997,5888.5242816086,0,0.50107456,4.5908137952,121.6, 1.4, 2.7,0,0,1024,1024,1024,1024,122.3,-89.9,98,4.264,4.263,4.263,4.25,0,0,76.91,10,Assisted_Takeoff,
0.0607076357200837,36.9426193206616,5888.5242816086,0,0,4.6566274456,17300,2017-11-02 06:01:57,15,16.997,5888.5242816086,0,0.50107456,4.6566274456,121.5, 1.4, 2.7,0,0,1024,1024,1024,1024,122.3,-89.9,98,4.264,4.263,4.263,4.25,0,0,76.91,10,Assisted_Takeoff,
0.0607076037961693,36.9426194334701,5888.5242816086,0,0,4.6988846648,17400,2017-11-02 06:01:57,15,16.97,5888.5242816086,0,0.50107456,4.6988846648,121.5, 1.4, 2.7,0,0,1024,1024,1024,1024,122.3,-89.9,98,4.264,4.263,4.263,4.25,0,0,76.91,10,Assisted_Takeoff,
0.0607075660733659,36.9426195843975,5888.5242816086,0,0,4.755249496,17500,2017-11-02 06:01:57,15,16.97,5888.5242816086,0,0.50107456,4.755249496,121.6, 1.4, 2.7,0,0,1024,1024,1024,1024,122.3,-89.9,98,4.264,4.263,4.263,4.25,0,0,76.91,10,Assisted_Takeoff,
0.0607075280730146,36.9426196717445,5888.5242816086,0,0,4.7886156388,17600,2017-11-02 06:01:57,15,16.97,5888.5242816086,0,0.50107456,4.7886156388,121.6, 1.4, 2.7,0,0,1024,1024,1024,1024,122.3,-89.9,98,4.264,4.263,4.263,4.25,0,0,76.91,10,Assisted_Takeoff,
0.0607074820985801,36.9426198351045,5888.5242816086,0,0,4.8498689216,17700,2017-11-02 06:01:57,15,16.97,5888.5242816086,0,0.50107456,4.8498689216,121.6, 1.5, 2.7,0,0,1024,1024,1024,1024,122.3,-89.9,98,4.264,4.263,4.263,4.25,0,0,76.91,10,Assisted_Takeoff,
0.0607074393954861,36.9426199323511,5888.5242816086,0,0,4.8870736472,17800,2017-11-02 06:01:57,15,16.97,5888.5242816086,0,0.50107456,4.8870736472,121.6, 1.5, 2.7,0,0,1024,1024,1024,1024,122.3,-89.9,98,4.264,4.263,4.263,4.25,0,0,76.91,10,Assisted_Takeoff,
0.0607074156267175,36.9426200769321,5888.5242816086,0,0,4.9405185308,17900,2017-11-02 06:01:57,15,16.97,5888.5242816086,0,0.50107456,4.9405185308,121.6, 1.5, 2.6,0,0,1024,1024,1024,1024,122.3,-89.9,98,4.264,4.263,4.263,4.25,0,0,76.91,10,Assisted_Takeoff,
0.0607074010081757,36.9426201525671,5888.5242816086,0,0,4.9685697128,18000,2017-11-02 06:01:57,15,16.97,5888.5242816086,0,0.50107456,4.9685697128,121.6, 1.5, 2.7,0,0,1024,1024,1024,1024,122.3,-89.9,98,4.264,4.263,4.263,4.25,0,0,76.91,10,Assisted_Takeoff,
0.0607073505207123,36.9426203362947,5888.5242816086,0,0,5.0374673528,18200,2017-11-02 06:01:57,15,16.97,5888.5242816086,0,0.50107456,5.0374673528,121.6, 1.5, 2.6,0,0,1024,1024,1024,1024,122.2,-89.9,98,4.264,4.263,4.263,4.25,0,0,76.91,10,Assisted_Takeoff,
0.0607073377921833,36.9426204580029,5888.5242816086,0,0,5.0820867768,18300,2017-11-02 06:01:58,15,16.97,5888.5242816086,0,0.50107456,5.0820867768,121.6, 1.5, 2.6,0,0,1024,1024,1024,1024,122.2,-89.9,98,4.264,4.263,4.263,4.25,0,0,76.91,10,Assisted_Takeoff,
0.060707331370618,36.9426205136845,5888.5242816086,0,0,5.10252641,18400,2017-11-02 06:01:58,15,16.997,5888.5242816086,0,0.50107456,5.10252641,121.5, 1.5, 2.6,0,0,1024,1024,1024,1024,122.2,-89.9,98,4.264,4.263,4.263,4.25,0,0,76.91,10,Assisted_Takeoff,
0.0607073129671653,36.9426206258186,5888.5242816086,0,0,5.1439962276,18500,2017-11-02 06:01:58,15,16.997,5888.5242816086,0,0.50107456,5.1439962276,121.5, 1.5, 2.6,0,0,1024,1024,1024,1024,122.2,-89.9,98,4.264,4.263,4.263,4.25,0,0,76.91,10,Assisted_Takeoff,
0.0607072912441294,36.9426206789405,5888.5242816086,0,0,5.1642390104,18600,2017-11-02 06:01:58,15,16.997,5888.5242816086,0,0.50107456,5.1642390104,121.6, 1.5, 2.6,0,0,1024,1024,1024,1024,122.2,-90,98,4.264,4.263,4.263,4.25,0,0,76.91,10,Assisted_Takeoff,
0.0607072544376311,36.942620786926,5888.5242816086,0,0,5.2051182768,18700,2017-11-02 06:01:58,15,16.997,5888.5242816086,0,0.50107456,5.2051182768,121.6, 1.5, 2.6,0,0,1024,1024,1024,1024,122.2,-90,98,4.264,4.263,4.263,4.25,0,0,76.91,10,Assisted_Takeoff,
0.060707220489052,36.94262084281,5888.5242816086,0,0,5.2270014796,18800,2017-11-02 06:01:58,15,16.997,5888.5242816086,0,0.50107456,5.2270014796,121.5, 1.5, 2.6,0,0,1024,1024,1024,1024,122.2,-90,98,4.264,4.263,4.263,4.25,0,0,76.91,10,Assisted_Takeoff,
0.0607071962559733,36.9426209347916,5888.5242816086,0,0,5.2614502996,18900,2017-11-02 06:01:58,15,16.997,5888.5242816086,0,0.50107456,5.2614502996,121.6, 1.5, 2.6,0,0,1024,1024,1024,1024,122.2,-90,98,4.264,4.263,4.263,4.25,0,0,76.91,10,Assisted_Takeoff,
0.0607071856379078,36.9426209603408,5888.5242816086,0,0,5.2712272028,19000,2017-11-02 06:01:58,15,16.997,5888.5242816086,0,0.50107456,5.2712272028,121.6, 1.5, 2.6,0,0,1024,1024,1024,1024,122.2,-89.9,98,4.264,4.263,4.263,4.25,0,0,76.91,10,Assisted_Takeoff,
0.0607071590940671,36.9426210511212,5888.5242816086,0,0,5.3053807472,19100,2017-11-02 06:01:58,15,16.997,5888.5242816086,0,0.50107456,5.3053807472,121.6, 1.5, 2.6,0,0,1024,1024,1024,1024,122.2,-89.9,98,4.264,4.263,4.263,4.25,0,0,76.91,10,Assisted_Takeoff,
0.0607071320065296,36.9426210907335,5888.5242816086,0,0,5.3210959708,19200,2017-11-02 06:01:58,15,16.997,5888.5242816086,0,0.50107456,5.3210959708,121.6, 1.5, 2.6,0,0,1024,1024,1024,1024,122.2,-89.9,98,4.264,4.263,4.263,4.25,0,0,76.91,10,Assisted_Takeoff,
0.0607071127900763,36.9426212133999,5888.5242816086,0,0,5.3663715628,19300,2017-11-02 06:01:59,15,16.997,5888.5242816086,0,0.50107456,5.3663715628,121.6, 1.5, 2.6,0,0,1024,1024,1024,1024,122.2,-89.9,98,4.264,4.263,4.263,4.25,0,0,76.91,10,Assisted_Takeoff,
0.0607071056574916,36.942621259335,5888.5242816086,0,0,5.3833335056,19400,2017-11-02 06:01:59,15,16.97,5888.5242816086,0,0.50107456,5.3833335056,121.6, 1.4, 2.6,0,0,1024,1024,1024,1024,122.2,-89.9,98,4.263,4.263,4.263,4.25,0,0,76.91,10,Assisted_Takeoff,
0.0607070826343468,36.9426213398389,5888.5242816086,0,0,5.4136156588,19500,2017-11-02 06:01:59,15,16.97,5888.5242816086,0,0.50107456,5.4136156588,121.6, 1.4, 2.6,0,0,1024,1024,1024,1024,122.2,-89.9,98,4.263,4.263,4.263,4.25,0,0,76.91,10,Assisted_Takeoff,
0.0607070571070622,36.9426213749077,5888.5242816086,0,0,5.4275920372,19600,2017-11-02 06:01:59,15,16.97,5888.5242816086,0,0.50107456,5.4275920372,121.6, 1.4, 2.6,0,0,1024,1024,1024,1024,122.2,-90,98,4.263,4.263,4.263,4.25,0,0,76.91,10,Assisted_Takeoff,
0.0607070358998361,36.9426214882858,5888.5242816086,0,0,5.469652406,19700,2017-11-02 06:01:59,15,16.97,5888.5242816086,0,0.50107456,5.469652406,121.6, 1.4, 2.6,0,0,1024,1024,1024,1024,122.1,-90,98,4.263,4.263,4.263,4.25,0,0,76.91,10,Assisted_Takeoff,
0.0607070275198633,36.9426215371478,5888.5242816086,0,0,5.4877298344,19800,2017-11-02 06:01:59,15,16.97,5888.5242816086,0,0.50107456,5.4877298344,121.5, 1.5, 2.6,0,0,1024,1024,1024,1024,122.1,-90,98,4.263,4.263,4.263,4.25,0,0,76.91,10,Assisted_Takeoff,
0.0607069993581634,36.9426216615325,5888.5242816086,0,0,5.534120912,19900,2017-11-02 06:01:59,15,16.97,5888.5242816086,0,0.50107456,5.534120912,121.5, 1.5, 2.6,0,0,1024,1024,1024,1024,122.1,-90,98,4.263,4.263,4.263,4.25,0,0,76.91,10,Assisted_Takeoff,
0.0607069729728925,36.9426217219182,5888.5242816086,0,0,5.5573164508,20000,2017-11-02 06:01:59,15,16.97,5888.5242816086,0,0.50107456,5.5573164508,121.5, 1.4, 2.6,0,0,1024,1024,1024,1024,122.1,-90,98,4.263,4.263,4.263,4.25,0,0,76.91,10,Assisted_Takeoff,
0.060706949938145,36.9426218332429,5888.5242816086,0,0,5.59875346,20100,2017-11-02 06:01:59,15,16.97,5888.5242816086,0,0.50107456,5.59875346,121.5, 1.4, 2.6,0,0,1024,1024,1024,1024,122.1,-89.9,98,4.263,4.263,4.263,4.25,0,0,76.91,10,Assisted_Takeoff,
0.0607069408935635,36.9426218728605,5888.5242816086,0,0,5.61351724,20200,2017-11-02 06:01:59,15,16.97,5888.5242816086,0,0.50107456,5.61351724,121.5, 1.4, 2.5,0,0,1024,1024,1024,1024,122.1,-90,98,4.263,4.263,4.263,4.25,0,0,76.91,10,Assisted_Takeoff,
0.0607069095869312,36.9426219927841,5888.5242816086,0,0,5.658464748,20300,2017-11-02 06:02:00,15,16.97,5888.5242816086,0,0.50107456,5.658464748,121.5, 1.5, 2.5,0,0,1024,1024,1024,1024,122.1,-89.9,98,4.263,4.263,4.263,4.25,0,0,76.91,10,Assisted_Takeoff,
0.0607068767267634,36.9426220545273,5888.5242816086,0,0,5.6825461136,20400,2017-11-02 06:02:00,15,16.997,5888.5242816086,0,0.50107456,5.6825461136,121.5, 1.4, 2.5,0,0,1024,1024,1024,1024,122.1,-89.9,98,4.263,4.262,4.262,4.249,0,0,76.91,10,Assisted_Takeoff,
0.0607068350750335,36.9426221416645,5888.5242816086,0,0,5.7162403404,20500,2017-11-02 06:02:00,15,16.997,5888.5242816086,0,0.50107456,5.7162403404,121.5, 1.4, 2.5,0,0,1024,1024,1024,1024,122.1,-89.9,98,4.263,4.262,4.262,4.249,0,0,76.91,10,Assisted_Takeoff,
0.0607067959899349,36.9426221778542,5888.5242816086,0,0,5.731463438,20600,2017-11-02 06:02:00,15,16.997,5888.5242816086,0,0.50107456,5.731463438,121.5, 1.4, 2.5,0,0,1024,1024,1024,1024,122.1,-89.9,98,4.263,4.262,4.262,4.249,0,0,76.91,10,Assisted_Takeoff,
0.0607067357894137,36.9426222879809,5888.5242816086,0,0,5.7745408672,20700,2017-11-02 06:02:00,15,16.997,5888.5242816086,0,0.50107456,5.7745408672,121.5, 1.4, 2.5,0,0,1024,1024,1024,1024,122.1,-89.9,98,4.263,4.262,4.262,4.249,0,0,76.91,10,Assisted_Takeoff,
0.0607066903446306,36.94262234062,5888.5242816086,0,0,5.7961287944,20800,2017-11-02 06:02:00,15,16.997,5888.5242816086,0,0.50107456,5.7961287944,121.5, 1.4, 2.5,0,0,1024,1024,1024,1024,122.1,-90,98,4.263,4.262,4.262,4.249,0,0,76.91,10,Assisted_Takeoff,
0.0607066504902958,36.9426224426874,5888.5242816086,0,0,5.8352035988,20900,2017-11-02 06:02:00,15,16.997,5888.5242816086,0,0.50107456,5.8352035988,121.4, 1.4, 2.5,0,0,1024,1024,1024,1024,122,-89.9,98,4.263,4.262,4.262,4.249,0,0,76.91,10,Assisted_Takeoff,
0.0607066316931667,36.9426224766664,5888.5242816086,0,0.223694,5.8485238092,21000,2017-11-02 06:02:00,15,16.997,5888.5242816086,0,0.50107456,5.8485238092,121.4, 1.5, 2.5,0,0,1024,1024,1024,1024,122,-89.9,98,4.263,4.262,4.262,4.249,0,0,76.91,10,Assisted_Takeoff,
0.0607066205647875,36.9426225542691,5888.5242816086,0,0.223694,5.877132734,21100,2017-11-02 06:02:00,15,16.997,5888.5242816086,0,0.50107456,5.877132734,121.4, 1.5, 2.5,0,0,1024,1024,1024,1024,122,-90,98,4.263,4.262,4.262,4.249,0,0,76.91,10,Assisted_Takeoff,
0.060706620005417,36.942622578008,5888.5242816086,0,0,5.8856957264,21200,2017-11-02 06:02:00,15,16.997,5888.5242816086,0,0.50107456,5.8856957264,121.4, 1.4, 2.5,0,0,1024,1024,1024,1024,122,-90,98,4.263,4.262,4.262,4.249,0,0,76.91,10,Assisted_Takeoff,
0.0607065998544403,36.9426226811856,5888.5242816086,0,0,5.924048746,21300,2017-11-02 06:02:01,15,16.997,5888.5242816086,0,0.50107456,5.924048746,121.4, 1.4, 2.5,0,0,1024,1024,1024,1024,122,-90,98,4.263,4.262,4.262,4.249,0,0,76.91,10,Assisted_Takeoff,
0.0607065801643133,36.9426227247376,5888.5242816086,0,0,5.9408794552,21400,2017-11-02 06:02:01,15,16.97,5888.5242816086,0,0.50107456,5.9408794552,121.4, 1.4, 2.5,0,0,1024,1024,1024,1024,122,-90,98,4.263,4.262,4.262,4.249,0,0,76.91,10,Assisted_Takeoff,
0.0607065631480913,36.9426228221652,5888.5242816086,0,0,5.9769686952,21500,2017-11-02 06:02:01,15,16.97,5888.5242816086,0,0.50107456,5.9769686952,121.4, 1.4, 2.5,0,0,1024,1024,1024,1024,122,-90,98,4.263,4.262,4.262,4.249,0,0,76.91,10,Assisted_Takeoff,
0.0607065593725439,36.942622853609,5888.5242816086,0,0,5.988517252,21600,2017-11-02 06:02:01,15,16.97,5888.5242816086,0,0.50107456,5.988517252,121.4, 1.4, 2.5,0,0,1024,1024,1024,1024,122,-90,98,4.263,4.262,4.262,4.249,0,0,76.91,10,Assisted_Takeoff,
0.0607065320256768,36.9426229392432,5888.5242816086,0,0,6.0209647596,21700,2017-11-02 06:02:01,15,16.97,5888.5242816086,0,0.50107456,6.0209647596,121.4, 1.3, 2.5,0,0,1024,1024,1024,1024,122,-90,98,4.263,4.262,4.262,4.249,0,0,76.91,10,Assisted_Takeoff,
0.0607065077105652,36.9426229641104,5888.5242816086,0,0,6.031332214,21800,2017-11-02 06:02:01,15,16.97,5888.5242816086,0,0.50107456,6.031332214,121.4, 1.4, 2.5,0,0,1024,1024,1024,1024,122,-90,98,4.263,4.262,4.262,4.249,0,0,76.91,10,Assisted_Takeoff,
0.0607064822201242,36.9426230539284,5888.5242816086,0,0,6.0651904828,21900,2017-11-02 06:02:01,15,16.97,5888.5242816086,0,0.50107456,6.0651904828,121.3, 1.4, 2.5,0,0,1024,1024,1024,1024,122,-89.9,98,4.263,4.262,4.262,4.249,0,0,76.91,10,Assisted_Takeoff,
0.0607064737809168,36.942623071565,5888.5242816086,0,0,6.0720474384,22000,2017-11-02 06:02:01,15,16.97,5888.5242816086,0,0.50107456,6.0720474384,121.3, 1.4, 2.5,0,0,1024,1024,1024,1024,122,-89.9,98,4.263,4.262,4.262,4.249,0,0,76.91,10,Assisted_Takeoff,
0.0607064672105523,36.942623138341,5888.5242816086,0,0,6.096456888,22100,2017-11-02 06:02:01,15,16.97,5888.5242816086,0,0.50107456,6.096456888,121.3, 1.3, 2.5,0,0,1024,1024,1024,1024,122,-90,98,4.263,4.262,4.262,4.249,0,0,76.91,10,Assisted_Takeoff,
0.060706469160614,36.9426231617234,5888.5242816086,0,0,6.1047574132,22200,2017-11-02 06:02:01,15,16.97,5888.5242816086,0,0.50107456,6.1047574132,121.3, 1.3, 2.5,0,0,1024,1024,1024,1024,121.9,-89.9,98,4.263,4.262,4.262,4.249,0,0,76.91,10,Assisted_Takeoff,
0.0607064443579871,36.9426232458405,5888.5242816086,0,0,6.1365159444,22300,2017-11-02 06:02:02,15,16.97,5888.5242816086,0,0.50107456,6.1365159444,121.3, 1.3, 2.5,0,0,1024,1024,1024,1024,121.9,-89.9,98,4.263,4.262,4.262,4.249,0,0,76.91,10,Assisted_Takeoff,
0.0607064238919065,36.9426232657339,5888.5242816086,0,0,6.1449148948,22400,2017-11-02 06:02:02,15,16.997,5888.5242816086,0,0.50107456,6.1449148948,121.3, 1.3, 2.5,0,0,1024,1024,1024,1024,121.9,-90,98,4.262,4.262,4.262,4.249,0,0,76.91,10,Assisted_Takeoff,
0.0607064014981553,36.942623343115,5888.5242816086,0,0,6.1741143708,22500,2017-11-02 06:02:02,15,16.997,5888.5242816086,0,0.50107456,6.1741143708,121.3, 1.4, 2.5,0,0,1024,1024,1024,1024,121.9,-90,98,4.262,4.262,4.262,4.249,0,0,76.91,10,Assisted_Takeoff,
0.0607063941170293,36.9426233631519,5888.5242816086,0,0,6.181758728,22600,2017-11-02 06:02:02,15,16.997,5888.5242816086,0,0.50107456,6.181758728,121.3, 1.4, 2.5,0,0,1024,1024,1024,1024,121.9,-90,98,4.262,4.262,4.262,4.249,0,0,76.91,10,Assisted_Takeoff,
0.0607063598057143,36.9426234403638,5888.5242816086,0,0,6.211614372,22700,2017-11-02 06:02:02,15,16.997,5888.5242816086,0,0.50107456,6.211614372,121.3, 1.4, 2.5,0,0,1024,1024,1024,1024,121.9,-90,98,4.262,4.262,4.262,4.249,0,0,76.91,10,Assisted_Takeoff,
0.0607063323546267,36.942623459344,5888.5242816086,0,0,6.220144556,22800,2017-11-02 06:02:02,15,16.997,5888.5242816086,0,0.50107456,6.220144556,121.3, 1.4, 2.5,0,0,1024,1024,1024,1024,121.9,-90,98,4.262,4.262,4.262,4.249,0,0,76.91,10,Assisted_Takeoff,
0.0607063047325526,36.94262353551,5888.5242816086,0,0,6.2492127984,22900,2017-11-02 06:02:02,15,16.997,5888.5242816086,0,0.50107456,6.2492127984,121.2, 1.4, 2.4,0,0,1024,1024,1024,1024,121.9,-90,98,4.262,4.262,4.262,4.249,0,0,76.91,10,Assisted_Takeoff,
0.0607062934653485,36.9426235546337,5888.5242816086,0,0,6.2567915388,23000,2017-11-02 06:02:02,15,16.997,5888.5242816086,0,0.50107456,6.2567915388,121.2, 1.4, 2.4,0,0,1024,1024,1024,1024,121.9,-89.9,98,4.262,4.262,4.262,4.249,0,0,76.91,10,Assisted_Takeoff,
0.0607062555690141,36.9426236319066,5888.5242816086,0,0,6.2869424584,23100,2017-11-02 06:02:02,15,16.997,5888.5242816086,0,0.50107456,6.2869424584,121.2, 1.3, 2.4,0,0,1024,1024,1024,1024,121.9,-89.9,98,4.262,4.262,4.262,4.249,0,0,76.91,10,Assisted_Takeoff,
0.0607062259451751,36.942623651224,5888.5242816086,0,0,6.2957351096,23200,2017-11-02 06:02:02,15,16.997,5888.5242816086,0,0.50107456,6.2957351096,121.2, 1.4, 2.4,0,0,1024,1024,1024,1024,121.9,-90,98,4.262,4.262,4.262,4.249,0,0,76.91,10,Assisted_Takeoff,
0.0607061970476222,36.9426237243443,5888.5242816086,0,0,6.3238191,23300,2017-11-02 06:02:03,15,16.997,5888.5242816086,0,0.50107456,6.3238191,121.2, 1.4, 2.4,0,0,1024,1024,1024,1024,121.9,-90,98,4.262,4.262,4.262,4.249,0,0,76.91,10,Assisted_Takeoff,
0.0607061852334645,36.9426237470832,5888.5242816086,0,0,6.3327429848,23400,2017-11-02 06:02:03,15,16.997,5888.5242816086,0,0.50107456,6.3327429848,121.2, 1.3, 2.4,0,0,1024,1024,1024,1024,121.9,-89.9,98,4.263,4.262,4.261,4.249,0,0,76.91,10,Assisted_Takeoff,
0.060706174423039,36.9426238276782,5888.5242816086,0,0,6.36236897,23500,2017-11-02 06:02:03,15,16.997,5888.5242816086,0,0.50107456,6.36236897,121.2, 1.3, 2.4,0,0,1024,1024,1024,1024,121.9,-90,98,4.263,4.262,4.261,4.249,0,0,76.91,10,Assisted_Takeoff,
0.0607061743019235,36.942623851673,5888.5242816086,0,0,6.3710303876,23600,2017-11-02 06:02:03,15,16.997,5888.5242816086,0,0.50107456,6.3710303876,121.2, 1.3, 2.4,0,0,1024,1024,1162,1024,121.9,-90,98,4.263,4.262,4.261,4.249,0,0,76.91,10,Assisted_Takeoff,
0.0607061491852104,36.9426239323953,5888.5242816086,0,0,6.4016078164,23700,2017-11-02 06:02:03,15,16.997,5888.5242816086,0,0.50107456,6.4016078164,121.2, 1.3, 2.4,0,0,1024,1024,1471,1024,121.8,-90,98,4.263,4.262,4.261,4.249,0,0,76.91,10,Assisted_Takeoff,
0.0607061272828422,36.94262395598,5888.5242816086,0,0,6.4114831448,23800,2017-11-02 06:02:03,15,16.997,5888.5242816086,0,0.50107456,6.4114831448,121.2, 1.4, 2.4,0,0,1024,1024,1471,1024,121.8,-90,98,4.263,4.262,4.261,4.249,0,0,76.91,10,Assisted_Takeoff,
0.0607061071961891,36.9426240096822,5888.5242816086,0,0,6.4320540116,23900,2017-11-02 06:02:03,15,16.997,5888.5242816086,0,0.50107456,6.4320540116,121.1, 1.5, 2.2,0,0,1024,1024,1684,1118,121.2,-89.9,98,4.263,4.262,4.261,4.249,0,0,76.91,10,Assisted_Takeoff,
0.0607061046661978,36.9426240018381,5888.5242816086,0,0,6.4293965312,24000,2017-11-02 06:02:03,15,16.997,5888.5242816086,0,0.50107456,6.4320540116,121.1, 2, 2.1,0,0,1024,1024,1684,1139,121.4,-89.9,98,4.263,4.262,4.261,4.249,0,0,76.91,10,Assisted_Takeoff,
0.0607060827410313,36.9426240347914,5888.5242816086,0,0,6.4426511248,24100,2017-11-02 06:02:03,15,16.997,5888.5242816086,0,0.50107456,6.4426511248,121.7, 4, 1.6,0,0,1024,1024,1684,1135,122,-89.9,98,4.263,4.262,4.261,4.249,0,0,76.91,10,Assisted_Takeoff,
0.0607061092272658,36.9426239773712,5888.5242816086,0,0.31540854,6.4203086044,24200,2017-11-02 06:02:03,15,16.997,5888.5242816086,0,0.50107456,6.4426511248,123.1, 8.4, -0.4,0,0,1024,1024,1684,1118,122.7,-89.9,98,4.263,4.262,4.261,4.249,0,0,76.91,10,Assisted_Takeoff,
0.0607062496716041,36.942623872061,5888.5242816086,0,0.80753534,6.3736550596,24300,2017-11-02 06:02:04,15,16.997,5888.5242816086,0,0.80753534,6.4426511248,124.7, 11.1, -2,0,0,1024,1024,1684,1113,122.7,-89.9,98,4.263,4.262,4.261,4.249,0,0,76.91,6,GPS_Atti,
0.0607066651692935,36.9426235420116,5888.5242816086,0,1.4316416,6.2306760524,24400,2017-11-02 06:02:04,15,16.97,5888.5242816086,0,1.4316416,6.4426511248,126.7, 4.9, -1.1,0,0,1024,1024,1684,1104,124.1,-90,98,4.236,4.231,4.231,4.216,0,0,76.91,6,GPS_Atti,
0.0607073709501529,36.9426231324464,5888.8523656086,0.328084,1.80297364,6.0491471752,24500,2017-11-02 06:02:04,15,16.97,5888.8523656086,0.328084,1.80297364,6.4426511248,128.2, -3, -0.9,0,0,1024,1024,1684,1093,124.1,-90,98,4.236,4.231,4.231,4.216,0,0,76.91,6,GPS_Atti,Home Point Recorded. RTH Altitude:  30m.
0.0607082218446084,36.9426227297276,5889.1804496086,0.656168,1.8454755,5.876148482,24600,2017-11-02 06:02:04,15,16.97,5889.1804496086,0.656168,1.8454755,6.4426511248,129.4, -6.9, -0.1,0,0,1024,1024,1684,1090,124.9,-90,98,4.236,4.231,4.231,4.216,0,0,76.91,6,GPS_Atti,Obstacle Avoided. Revise Flight Route
0.0607091788510573,36.9426225928922,5889.5085336086,0.984252,2.02666764,5.8153873252,24700,2017-11-02 06:02:04,15,16.97,5889.5085336086,0.984252,2.02666764,6.4426511248,130.4, -7.6, 2.7,0,0,1024,1024,1684,1090,125.8,-90,98,4.236,4.231,4.231,4.216,0,0,76.91,6,GPS_Atti,
0.0607101381161835,36.9426225582098,5890.1647016086,1.64042,2.013246,5.81282827,24800,2017-11-02 06:02:04,15,16.97,5890.1647016086,1.64042,2.02666764,6.4426511248,131.3, -8.4, 5.1,0,0,1024,1024,1684,1090,126.8,-90,98,4.236,4.231,4.231,4.216,0,0,76.91,6,GPS_Atti,
0.0607110379261451,36.942622767021,5890.8208696086,2.296588,1.789552,5.9170605568,24900,2017-11-02 06:02:04,15,16.97,5890.8208696086,2.296588,2.02666764,6.4426511248,132, -9.7, 7.3,0,0,1024,1024,1684,1093,128,-89.9,98,4.236,4.231,4.231,4.216,0,0,76.91,6,GPS_Atti,
0.0607117997128575,36.942623047233,5891.8051216086,3.28084,1.58151658,6.0559057056,25000,2017-11-02 06:02:04,15,16.97,5891.8051216086,3.28084,2.02666764,6.4426511248,133.1, -8.5, 7.4,0,0,1024,1024,1684,1099,129.1,-90,98,4.236,4.231,4.231,4.216,0,0,76.91,6,GPS_Atti,
0.0607124916818656,36.9426235443112,5892.7893736086,4.265092,1.58151658,6.2784778912,25100,2017-11-02 06:02:04,15,16.97,5892.7893736086,4.265092,2.02666764,6.4426511248,134.4, -4.1, 8.2,0,0,1024,1024,1684,1099,130.3,-89.9,98,4.236,4.231,4.231,4.216,0,0,76.91,6,GPS_Atti,
0.0607131860017361,36.9426238782221,5894.1017096086,5.577428,1.565858,6.4504267156,25200,2017-11-02 06:02:04,15,16.97,5894.1017096086,5.577428,2.02666764,6.4504267156,135.9, -3.3, 9,0,0,1024,1024,1684,1097,131.5,-90,98,4.236,4.231,4.231,4.216,0,0,76.91,6,GPS_Atti,
0.0607139214041953,36.9426241496287,5895.4140456086,6.889764,1.565858,6.6117456184,25300,2017-11-02 06:02:05,15,16.97,5895.4140456086,6.889764,2.02666764,6.6117456184,136.4, -7.3, 8.7,0,0,1024,1024,1684,1094,132.8,-90,98,4.236,4.231,4.231,4.216,0,0,76.91,6,GPS_Atti,
0.0607146530266289,36.9426242843732,5897.0544656086,8.530184,1.565858,6.7332023152,25400,2017-11-02 06:02:05,15,16.381,5897.0544656086,8.530184,2.02666764,6.7332023152,136.9, -12.6, 6.9,0,0,1024,1024,1684,1093,133.8,-89.9,98,4.236,4.231,4.231,4.216,0,0,76.91,6,GPS_Atti,
0.0607153334361273,36.9426245905574,5898.6948856086,10.170604,1.41374608,6.9163059956,25500,2017-11-02 06:02:05,15,16.381,5898.6948856086,10.170604,2.02666764,6.9163059956,137.8, -12.6, 7.4,0,0,1024,1024,1684,1094,133.8,-89.9,98,4.236,4.231,4.231,4.216,0,0,76.91,6,GPS_Atti,
0.0607159665808528,36.9426249924401,5900.3353056086,11.811024,1.50098674,7.1318243752,25600,2017-11-02 06:02:05,15,16.381,5900.3353056086,11.811024,2.02666764,7.1318243752,139.2, -8.7, 9.8,0,0,1024,1024,1684,1089,134.9,-90,98,4.236,4.231,4.231,4.216,0,0,76.91,6,GPS_Atti,
0.0607166050265707,36.9426255505153,5902.3038096086,13.779528,1.41374608,7.4049543052,25700,2017-11-02 06:02:05,15,16.381,5902.3038096086,13.779528,2.02666764,7.4049543052,140.6, -7, 13.1,0,0,1024,1024,1684,1090,136.1,-90,98,4.236,4.231,4.231,4.216,0,0,76.91,6,GPS_Atti,
0.0607172765765195,36.9426259716705,5903.9442296086,15.419948,1.565858,7.6393703232,25800,2017-11-02 06:02:05,15,16.381,5903.9442296086,15.419948,2.02666764,7.6393703232,141.2, -8.3, 13.3,0,0,1024,1024,1684,1094,137.4,-90,98,4.236,4.231,4.231,4.216,0,0,76.91,6,GPS_Atti,
0.0607180089683928,36.9426263624835,5905.9127336086,17.388452,1.565858,7.876312588,25900,2017-11-02 06:02:05,15,16.381,5905.9127336086,17.388452,2.02666764,7.876312588,141.7, -9.1, 12.1,0,0,1024,1024,1684,1094,138.6,-90,98,4.236,4.231,4.231,4.216,0,0,76.91,6,GPS_Atti,
0.0607187477445809,36.9426265794332,5907.5531536086,19.028872,1.565858,8.0614175808,26000,2017-11-02 06:02:05,15,16.381,5907.5531536086,19.028872,2.02666764,8.0614175808,141.9, -11.2, 8,0,0,1024,1024,1684,1096,139.6,-90,98,4.236,4.231,4.231,4.216,0,0,76.91,6,GPS_Atti,
0.0607194751200326,36.9426268189912,5909.5216576086,20.997376,1.565858,8.257382154,26100,2017-11-02 06:02:05,15,16.381,5909.5216576086,20.997376,2.02666764,8.257382154,142.4, -12.9, 5,0,0,1024,1024,1684,1092,140.3,-90,98,4.236,4.231,4.231,4.216,0,0,76.91,6,GPS_Atti,
0.0607202396101656,36.9426271071105,5911.4901616086,22.96588,1.8454755,8.4800527648,26200,2017-11-02 06:02:05,15,16.381,5911.4901616086,22.96588,2.02666764,8.4800527648,143.2, -13.7, 7.1,0,0,1024,1024,1684,1090,141,-90,98,4.236,4.231,4.231,4.216,0,0,76.91,6,GPS_Atti,
0.0607210681144321,36.9426275608668,5913.4586656086,24.934384,2.06245868,8.77132574,26300,2017-11-02 06:02:06,15,16.381,5913.4586656086,24.934384,2.06245868,8.77132574,144, -14.1, 10.8,0,0,1024,1024,1684,1088,141.9,-89.9,98,4.236,4.231,4.231,4.216,0,0,76.91,6,GPS_Atti,
