latitude,longitude,altitude(feet),ascent(feet),speed(mph),distance(feet),time(millisecond),datetime(utc),satellites,gpslevel,voltage(v),max_altitude(feet),max_ascent(feet),max_speed(mph),max_distance(feet), xSpeed(mph), ySpeed(mph), zSpeed(mph), compass_heading(degrees), pitch(degrees), roll(degrees),isPhoto,isVideo,rc_elevator,rc_aileron,rc_throttle,rc_rudder,gimbal_heading(degrees),gimbal_pitch(degrees),battery_percent,voltageCell1,voltageCell2,voltageCell3,voltageCell4,voltageCell5,voltageCell6,current(A),battery_temperature(f),flycStateRaw,flycState,message
0.37413203805587,36.9266630685594,5355.8507514397,0,0,0,0,2018-04-18 05:16:20,13,0,0,5355.8507514397,0,0,0,0,0,0,140.6, 0.2, -2.5,0,0,364,364,364,1684,0,0,99,4.26,4.259,4.259,4.259,0,0,0,75.11,6,P-GPS,
0.37413206425672,36.9266630911137,5355.8507514397,0,0,0.0126132221884,100,2018-04-18 05:16:20,13,0,0,5355.8507514397,0,0,0.0126132221884,0,0,0,140.6, 0.2, -2.5,0,0,364,364,364,1684,145.1,0,99,4.26,4.259,4.259,4.259,0,0,0,75.11,41,Motors_Started,
0.374132088862102,36.926663112803,5355.8507514397,0,0,0.0245797908128,200,2018-04-18 05:16:20,13,0,0,5355.8507514397,0,0,0.0245797908128,0,0,0,140.6, 0.2, -2.5,0,0,364,364,364,1684,145.1,0,99,4.26,4.259,4.259,4.259,0,0,0,75.11,41,Motors_Started,
0.37413210890499,36.926663097917,5355.8507514397,0,0,0.027980479898,300,2018-04-18 05:16:21,13,0,0,5355.8507514397,0,0,0.027980479898,0,0,0,140.6, 0.2, -2.5,0,0,364,364,364,1684,145.1,0,99,4.26,4.259,4.259,4.259,0,0,0,75.11,41,Motors_Started,
0.374132123675792,36.9266630873237,5355.8507514397,0,0,0.0319797582412,400,2018-04-18 05:16:21,13,0,0,5355.8507514397,0,0,0.0319797582412,0,0,0,140.5, 0.2, -2.5,0,0,364,364,364,1684,145.1,0,99,4.26,4.259,4.259,4.259,0,0,0,75.11,41,Motors_Started,
0.374132090322409,36.9266630816944,5355.8507514397,0,0,0.0196623365872,500,2018-04-18 05:16:21,13,0,0,5355.8507514397,0,0,0.0319797582412,0,0,0,140.6, 0.2, -2.5,0,0,364,364,364,1684,145.1,0,99,4.26,4.259,4.259,4.259,0,0,0,75.11,41,Motors_Started,
0.374132074618102,36.9266630783225,5355.8507514397,0,0,0.013807087056,600,2018-04-18 05:16:21,13,0,16.97,5355.8507514397,0,0,0.0319797582412,0,0,0,140.6, 0.2, -2.5,0,0,364,364,364,1684,145.1,0,99,4.26,4.259,4.259,4.259,0,0,1.532,75.11,41,Motors_Started,Setting new Return-To-Home altitude to 30m (98 ft). Setting new Maximum Flight Altitude to 150m (492 ft)
0.374132088755439,36.9266630776009,5355.8507514397,0,0,0.018789534722,700,2018-04-18 05:16:21,13,0,16.97,5355.8507514397,0,0,0.0319797582412,0,0,0,140.5, 0.2, -2.5,0,0,364,364,364,1684,145.1,0,99,4.26,4.259,4.259,4.259,0,0,1.532,75.11,41,Motors_Started,
0.374132101981661,36.9266630772963,5355.8507514397,0,0,0.0235400926168,800,2018-04-18 05:16:21,13,0,16.97,5355.8507514397,0,0,0.0319797582412,0,0,0,140.6, 0.2, -2.5,0,0,364,364,364,1684,145.1,0,99,4.26,4.259,4.259,4.259,0,0,1.532,75.11,41,Motors_Started,
0.374132112814885,36.926663080316,5355.8507514397,0,0,0.0276109916972,900,2018-04-18 05:16:21,13,0,16.97,5355.8507514397,0,0,0.0319797582412,0,0,0,140.6, 0.2, -2.5,0,0,364,364,364,1684,145.1,0,99,4.26,4.259,4.259,4.259,0,0,1.532,75.11,41,Motors_Started,
0.374132120893595,36.9266630824941,5355.8507514397,0,0,0.0306479012432,1000,2018-04-18 05:16:21,13,0,16.97,5355.8507514397,0,0,0.0319797582412,0,0,0,140.5, 0.2, -2.4,0,0,364,364,364,1684,145.1,0,99,4.26,4.259,4.259,4.259,0,0,1.532,75.11,41,Motors_Started,
0.374132125487029,36.9266630858693,5355.8507514397,0,0,0.0325183409356,1100,2018-04-18 05:16:21,13,0,16.97,5355.8507514397,0,0,0.0325183409356,0,0,0,140.5, 0.2, -2.4,0,0,364,364,413,1654,145.1,0,99,4.26,4.259,4.259,4.259,0,0,1.532,75.11,41,Motors_Started,
0.374132131153199,36.9266630892931,5355.8507514397,0,0,0.034798557544,1200,2018-04-18 05:16:22,13,0,16.97,5355.8507514397,0,0,0.034798557544,0,0,0,140.5, 0.2, -2.5,0,0,398,372,481,1613,145.1,0,99,4.26,4.259,4.259,4.259,0,0,1.532,75.11,41,Motors_Started,
0.374132131888849,36.9266630916737,5355.8507514397,0,0,0.035258203228,1300,2018-04-18 05:16:22,13,0,16.97,5355.8507514397,0,0,0.035258203228,0,0,0,140.6, 0.2, -2.5,0,0,635,565,669,1451,145,0,99,4.26,4.259,4.259,4.259,0,0,1.532,75.11,41,Motors_Started,
0.374132134233401,36.9266630933947,5355.8507514397,0,0,0.036241142892,1400,2018-04-18 05:16:22,13,0,16.97,5355.8507514397,0,0,0.036241142892,0,0,0,140.5, 0.2, -2.5,0,0,767,712,850,1258,145,0,99,4.26,4.259,4.259,4.259,0,0,1.532,75.11,41,Motors_Started,
0.374132133197711,36.9266630538041,5355.8507514397,0,0,0.035127297712,1500,2018-04-18 05:16:22,13,0,16.97,5355.8507514397,0,0,0.036241142892,0,0,0,140.5, 0.2, -2.4,0,0,867,811,1003,1055,144.6,0,99,4.26,4.259,4.259,4.259,0,0,1.532,75.11,41,Motors_Started,
0.374132131456904,36.9266630256296,5355.8507514397,0,0,0.037504266292,1600,2018-04-18 05:16:22,13,0,16.997,5355.8507514397,0,0,0.037504266292,0,0,0,140.6, 0.2, -2.5,0,0,980,956,1024,1024,143.9,0,99,4.26,4.259,4.259,4.259,0,0,2.112,75.11,10,Assisted_Takeoff,
0.374132130305187,36.9266630433388,5355.8507514397,0,0,0.034892389568,1700,2018-04-18 05:16:22,13,0,16.997,5355.8507514397,0,0,0.037504266292,0,0,0,140.6, 0.2, -2.5,0,0,980,956,1024,1024,142.8,0,99,4.26,4.259,4.259,4.259,0,0,2.112,75.11,10,Assisted_Takeoff,
0.374132129698999,36.9266630572847,5355.8507514397,0,0,0.033687993204,1800,2018-04-18 05:16:22,13,0,16.997,5355.8507514397,0,0,0.037504266292,0,0,0,140.6, 0.2, -2.5,0,0,1024,1024,1024,1024,142.2,0,99,4.26,4.259,4.259,4.259,0,0,2.112,75.11,10,Assisted_Takeoff,
0.374132126583786,36.9266630728168,5355.8507514397,0,0,0.0323366808248,1900,2018-04-18 05:16:22,13,0,16.997,5355.8507514397,0,0,0.037504266292,0,0,0,140.5, 0.2, -2.5,0,0,1024,1024,1024,1024,141.8,0,99,4.26,4.259,4.259,4.259,0,0,2.112,75.11,10,Assisted_Takeoff,
0.374132125174774,36.9266630838555,5355.8507514397,0,0,0.0322714577256,2000,2018-04-18 05:16:22,13,0,16.997,5355.8507514397,0,0,0.037504266292,0,0,0,140.5, 0.2, -2.5,0,0,1024,1024,1024,1024,141.6,0,99,4.26,4.259,4.259,4.259,0,0,2.112,75.11,10,Assisted_Takeoff,
0.374132122875412,36.9266630921426,5355.8507514397,0,0,0.0321202110016,2100,2018-04-18 05:16:22,13,0,16.997,5355.8507514397,0,0,0.037504266292,0,0,0,140.6, 0.2, -2.5,0,0,1024,1024,1024,1024,141.5,0,99,4.26,4.259,4.259,4.259,0,0,2.112,75.11,10,Assisted_Takeoff,
0.374132120731972,36.9266630989609,5355.8507514397,0,0,0.032138944598,2200,2018-04-18 05:16:22,13,0,16.997,5355.8507514397,0,0,0.037504266292,0,0,0,140.5, 0.2, -2.5,0,0,1024,1024,1024,1024,141.4,0,99,4.26,4.259,4.259,4.259,0,0,2.112,75.11,10,Assisted_Takeoff,
0.374132118687054,36.9266631024816,5355.8507514397,0,0,0.0319155850108,2300,2018-04-18 05:16:23,13,0,16.997,5355.8507514397,0,0,0.037504266292,0,0,0,140.5, 0.2, -2.5,0,0,1024,1024,1024,1024,141.3,0,99,4.26,4.259,4.259,4.259,0,0,2.112,75.11,10,Assisted_Takeoff,
0.374132117362721,36.926663106513,5355.8507514397,0,0,0.0320776913152,2400,2018-04-18 05:16:23,13,0,16.997,5355.8507514397,0,0,0.037504266292,0,0,0,140.6, 0.2, -2.5,0,0,1024,1024,1024,1024,141.2,0,99,4.26,4.259,4.259,4.259,0,0,2.112,75.11,10,Assisted_Takeoff,
0.374132075396498,36.9266631082689,5355.8507514397,0,0,0.0198871069356,2500,2018-04-18 05:16:23,13,0,16.997,5355.8507514397,0,0,0.037504266292,0,0,0,140.5, 0.2, -2.5,0,0,1024,1024,1024,1024,141.2,0,99,4.26,4.259,4.259,4.259,0,0,2.112,75.11,10,Assisted_Takeoff,
0.374132045929804,36.9266631114277,5355.8507514397,0,0,0.0159017721624,2600,2018-04-18 05:16:23,13,0,16.703,5355.8507514397,0,0,0.037504266292,0,0,0,140.5, 0.2, -2.5,0,0,1024,1024,1024,1024,141.1,0,99,4.254,4.254,4.254,4.254,0,0,2.112,75.11,10,Assisted_Takeoff,
0.37413202247614,36.9266631114749,5355.8507514397,0,0,0.0166572183808,2700,2018-04-18 05:16:23,13,0,16.703,5355.8507514397,0,0,0.037504266292,0,0,0,140.5, 0.2, -2.5,0,0,1024,1024,1024,1024,141.1,0,99,4.254,4.254,4.254,4.254,0,0,2.112,75.11,10,Assisted_Takeoff,
0.374132003522273,36.9266631134753,5355.8507514397,0,0,0.0206709652284,2800,2018-04-18 05:16:23,13,0,16.703,5355.8507514397,0,0,0.037504266292,0,0,0,140.6, 0.2, -2.5,0,0,1024,1024,1024,1024,141.1,0,99,4.254,4.254,4.254,4.254,0,0,2.112,75.11,10,Assisted_Takeoff,
0.374131992536382,36.926663070501,5355.8507514397,0,0,0.016622867986,2900,2018-04-18 05:16:23,13,0,16.703,5355.8507514397,0,0,0.037504266292,0,0,0,140.5, 0.2, -2.5,0,0,1024,1024,1024,1024,141.1,0,99,4.254,4.254,4.254,4.254,0,0,2.112,75.11,10,Assisted_Takeoff,
0.374131981641685,36.9266630415391,5355.8507514397,0,0,0.022821687082,3000,2018-04-18 05:16:23,13,0,16.703,5355.8507514397,0,0,0.037504266292,0,0,0,140.5, 0.2, -2.5,0,0,1024,1024,1026,1024,141.1,0,99,4.254,4.254,4.254,4.254,0,0,2.112,75.11,10,Assisted_Takeoff,
0.374131979332551,36.9266630163521,5355.8507514397,0,0,0.0286677830696,3100,2018-04-18 05:16:23,13,0,16.703,5355.8507514397,0,0,0.037504266292,0,0,0,140.5, 0.2, -2.5,0,0,1024,1024,1081,1024,141,0,99,4.254,4.254,4.254,4.254,0,0,2.112,75.11,10,Assisted_Takeoff,
0.374131975040787,36.9266629985669,5355.8507514397,0,0,0.034361221572,3200,2018-04-18 05:16:24,13,0,16.703,5355.8507514397,0,0,0.037504266292,0,0,0,140.6, 0.2, -2.5,0,0,1024,1024,1171,1024,141,0,99,4.254,4.254,4.254,4.254,0,0,2.112,75.11,10,Assisted_Takeoff,
0.374131978004962,36.9266629876653,5355.8507514397,0,0,0.03675689094,3300,2018-04-18 05:16:24,13,0,16.703,5355.8507514397,0,0,0.037504266292,0,0,0,140.5, 0.2, -2.5,0,0,1024,1024,1193,1024,141,0,99,4.254,4.254,4.254,4.254,0,0,2.112,75.11,10,Assisted_Takeoff,
0.374131977214353,36.9266629790966,5355.8507514397,0,0,0.039472770292,3400,2018-04-18 05:16:24,13,0,16.703,5355.8507514397,0,0,0.039472770292,0,0,0,140.5, 0.2, -2.5,0,0,1024,1024,1217,1024,141,0,99,4.254,4.254,4.254,4.254,0,0,2.112,75.11,10,Assisted_Takeoff,
0.374131981350601,36.926662976685,5355.8507514397,0,0,0.039390421208,3500,2018-04-18 05:16:24,13,0,16.703,5355.8507514397,0,0,0.039472770292,0,0,0,140.5, 0.2, -2.4,0,0,1024,1024,1277,1024,141,0,99,4.254,4.254,4.254,4.254,0,0,2.112,75.11,10,Assisted_Takeoff,
0.374131982572748,36.926662974404,5355.8507514397,0,0,0.039872704688,3600,2018-04-18 05:16:24,13,0,16.943,5355.8507514397,0,0,0.039872704688,0,0,0,140.5, 0.2, -2.4,0,0,1024,1024,1284,1024,141,0,99,4.248,4.254,4.254,4.254,0,0,2.856,75.11,10,Assisted_Takeoff,
0.374131984627437,36.9266629749731,5355.8507514397,0,0,0.039316930392,3700,2018-04-18 05:16:24,13,0,16.943,5355.8507514397,0,0,0.039872704688,0,0,0,140.4, 0.1, -2.4,0,0,1024,1024,1300,1024,141,0,99,4.248,4.254,4.254,4.254,0,0,2.856,75.11,10,Assisted_Takeoff,
0.374131987047712,36.9266629803444,5355.8507514397,0,0,0.037177822712,3800,2018-04-18 05:16:24,13,0,16.943,5355.8507514397,0,0,0.039872704688,0,0,0,140.1, 0.5, -2.1,0,0,1024,1024,1314,1024,140.9,0,99,4.248,4.254,4.254,4.254,0,0,2.856,75.11,10,Assisted_Takeoff,
0.374132011497984,36.9266629787845,5355.8507514397,0,0,0.03415682524,3900,2018-04-18 05:16:24,13,0,16.943,5355.8507514397,0,0,0.039872704688,0,0,-0.223694,140, 1.3, -1.2,0,0,1024,1024,1345,1024,140.9,0,99,4.248,4.254,4.254,4.254,0,0,2.856,75.11,10,Assisted_Takeoff,
0.37413206090009,36.9266630039955,5355.8507514397,0,0,0.0249866805896,4000,2018-04-18 05:16:24,13,0,16.943,5355.8507514397,0,0,0.039872704688,0,0,-0.671082,139.9, 1.7, -0.6,0,0,1024,1024,1357,1024,140.9,0,99,4.248,4.254,4.254,4.254,0,0,2.856,75.11,6,P-GPS,Obstacle Avoided. Revise Flight Route
0.374132142697646,36.9266630701938,5355.8507514397,0,0,0.038183072088,4100,2018-04-18 05:16:24,13,0,16.943,5355.8507514397,0,0,0.039872704688,0,0,-1.11847,139.9, 1.1, 0,0,0,1024,1024,1362,1024,140.9,0,99,4.248,4.254,4.254,4.254,0,0,2.856,75.11,6,P-GPS,
0.374132238317028,36.9266631317048,5355.8507514397,0,0,0.076611222924,4200,2018-04-18 05:16:24,13,0,16.943,5355.8507514397,0,0,0.076611222924,0.223694,0,-1.565858,140, 0.6, 0.2,0,0,1024,1024,1364,1024,140.9,0,99,4.248,4.254,4.254,4.254,0,0,2.856,75.11,6,P-GPS,
0.374132382690394,36.926663204785,5356.1788354397,0.328084,0.223694,0.135206041072,4300,2018-04-18 05:16:25,13,0,16.943,5356.1788354397,0.328084,0.223694,0.135206041072,0.223694,0,-2.23694,140, 0, 0.6,0,0,1024,1024,1394,1024,140.8,0,99,4.248,4.254,4.254,4.254,0,0,2.856,75.11,6,P-GPS,
0.374132506656101,36.9266632755564,5356.8350034397,0.984252,0,0.186905517792,4400,2018-04-18 05:16:25,13,0,16.943,5356.8350034397,0.984252,0.223694,0.186905517792,0,0,-2.684328,140, -0.4, 1.1,0,0,1024,1024,1411,1024,140.8,0,99,4.248,4.254,4.254,4.254,0,0,2.856,75.11,6,P-GPS,
0.374132573907988,36.9266633895077,5357.1630874397,1.312336,0,0.227889442988,4500,2018-04-18 05:16:25,13,0,16.943,5357.1630874397,1.312336,0.223694,0.227889442988,0,0,-3.131716,139.9, 0, 0.8,0,0,1024,1024,1407,1024,140.8,0,99,4.248,4.254,4.254,4.254,0,0,2.856,75.11,6,P-GPS,
0.374132628617396,36.9266634871421,5357.4911714397,1.64042,0,0.264098433648,4600,2018-04-18 05:16:25,13,0,16.943,5357.4911714397,1.64042,0.223694,0.264098433648,0,0,-3.579104,139.9, 0.3, 0.8,0,0,1024,1024,1401,1024,140.8,0,99,4.222,4.221,4.218,4.21,0,0,3.692,75.11,6,P-GPS,
0.374132693810319,36.9266635646226,5358.1473394397,2.296588,0,0.299994432172,4700,2018-04-18 05:16:25,13,0,16.943,5358.1473394397,2.296588,0.223694,0.299994432172,0,0,-4.026492,139.9, 0.1, 1.5,0,0,1024,1024,1398,1024,140.8,0,99,4.222,4.221,4.218,4.21,0,0,3.692,75.11,6,P-GPS,Home Point Recorded. RTH Altitude:  30m.
0.374132754349964,36.9266636235304,5358.8035074397,2.952756,0,0.33059712344,4800,2018-04-18 05:16:25,13,0,16.943,5358.8035074397,2.952756,0.223694,0.33059712344,0,0,-4.47388,139.9, -0.1, 1.7,0,0,1024,1024,1390,1024,140.8,0,99,4.222,4.221,4.218,4.21,0,0,3.692,75.11,6,P-GPS,
0.3741328704511,36.9266637332859,5359.4596754397,3.608924,0,0.38865158724,4900,2018-04-18 05:16:25,13,0,16.943,5359.4596754397,3.608924,0.223694,0.38865158724,0,0,-4.697574,139.9, -0.1, 1.2,0,0,1024,1024,1387,1024,140.8,0,99,4.222,4.221,4.218,4.21,0,0,3.692,75.11,6,P-GPS,
0.374132955684673,36.9266638081246,5360.1158434397,4.265092,0,0.42999345208,5000,2018-04-18 05:16:25,13,0,16.943,5360.1158434397,4.265092,0.223694,0.42999345208,0,0,-5.144962,139.9, 0, 0.7,0,0,1024,1024,1387,1024,140.7,0,99,4.222,4.221,4.218,4.21,0,0,3.692,75.11,6,P-GPS,
0.374133068566986,36.9266639046289,5361.1000954397,5.249344,0,0.48415683964,5100,2018-04-18 05:16:25,13,0,16.943,5361.1000954397,5.249344,0.223694,0.48415683964,0,0,-5.144962,139.9, -0.1, 0.6,0,0,1024,1024,1387,1024,140.7,0,99,4.222,4.221,4.218,4.21,0,0,3.692,75.11,6,P-GPS,
0.374133176470128,36.9266639906562,5361.7562634397,5.905512,0,0.53450132944,5200,2018-04-18 05:16:26,13,0,16.943,5361.7562634397,5.905512,0.223694,0.53450132944,0,0,-5.144962,139.9, -0.6, 0.7,0,0,1024,1024,1390,1024,140.7,0,99,4.222,4.221,4.218,4.21,0,0,3.692,75.11,6,P-GPS,
0.374133256685651,36.9266640568277,5362.4124314397,6.56168,0,0.5724409632,5300,2018-04-18 05:16:26,13,0,16.943,5362.4124314397,6.56168,0.223694,0.5724409632,0,0,-5.144962,139.9, -0.7, 0.8,0,0,1024,1024,1390,1024,140.7,0,99,4.222,4.221,4.218,4.21,0,0,3.692,75.11,6,P-GPS,
0.37413332740816,36.9266641246998,5363.3966834397,7.545932,0,0.6080872898,5400,2018-04-18 05:16:26,13,0,16.943,5363.3966834397,7.545932,0.223694,0.6080872898,0,0,-4.921268,140, -0.7, 0.8,0,0,1024,1024,1390,1024,140.7,0,99,4.222,4.221,4.218,4.21,0,0,3.692,75.11,6,P-GPS,
0.374133416156933,36.9266642409294,5364.0528514397,8.2021,0,0.6601214122,5500,2018-04-18 05:16:26,13,0,16.943,5364.0528514397,8.2021,0.223694,0.6601214122,0,0,-4.921268,140, -0.6, 0.7,0,0,1024,1024,1390,1024,140.7,0,99,4.222,4.221,4.218,4.21,0,0,3.692,75.11,6,P-GPS,
0.374133486135649,36.9266643401617,5364.7090194397,8.858268,0,0.70311353956,5600,2018-04-18 05:16:26,13,0,15.794,5364.7090194397,8.858268,0.223694,0.70311353956,0,0,-4.697574,140, -0.6, 0.6,0,0,1024,1024,1391,1024,140.7,0,99,4.222,4.221,4.218,4.21,0,0,3.692,75.11,6,P-GPS,
0.374133493847146,36.9266643497679,5365.3651874397,9.514436,0,0.70753939272,5700,2018-04-18 05:16:26,13,0,15.794,5365.3651874397,9.514436,0.223694,0.70753939272,0,0,-4.697574,140, -0.5, 0.6,0,0,1024,1024,1405,1024,140.7,0,99,4.222,4.221,4.218,4.21,0,0,3.692,75.11,6,P-GPS,
0.374133505805014,36.926664374867,5366.0213554397,10.170604,0,0.71687666336,5800,2018-04-18 05:16:26,13,0,15.794,5366.0213554397,10.170604,0.223694,0.71687666336,0,0,-4.697574,139.9, -0.4, 0.6,0,0,1024,1024,1424,1024,140.7,0,99,4.222,4.221,4.218,4.21,0,0,3.692,75.11,6,P-GPS,
0.374133479189521,36.9266643547361,5367.0056074397,11.154856,0,0.7047408362,5900,2018-04-18 05:16:26,13,0,15.794,5367.0056074397,11.154856,0.223694,0.71687666336,0,0,-4.697574,139.9, -0.4, 0.4,0,0,1024,1024,1424,1024,140.7,0,99,4.222,4.221,4.218,4.21,0,0,3.692,75.11,6,P-GPS,
0.374133466918178,36.9266643589083,5367.6617754397,11.811024,0,0.70242456316,6000,2018-04-18 05:16:26,13,0,15.794,5367.6617754397,11.811024,0.223694,0.71687666336,0,0,-4.697574,139.9, -0.3, 0.5,0,0,1024,1024,1468,1024,140.7,0,99,4.222,4.221,4.218,4.21,0,0,3.692,75.11,6,P-GPS,
0.374133437174852,36.926664366598,5368.3179434397,12.467192,0,0.69631563908,6100,2018-04-18 05:16:26,13,0,15.794,5368.3179434397,12.467192,0.223694,0.71687666336,0,0,-4.921268,140, -0.4, 0.5,0,0,1024,1024,1489,1024,140.7,0,99,4.222,4.221,4.218,4.21,0,0,3.692,75.11,6,P-GPS,
0.374133422522113,36.9266643762856,5368.9741114397,13.12336,0,0.69482613772,6200,2018-04-18 05:16:26,13,0,15.794,5368.9741114397,13.12336,0.223694,0.71687666336,0,0,-5.144962,140, -0.5, 0.3,0,0,1024,1024,1522,1024,140.6,0,99,4.222,4.221,4.218,4.21,0,0,3.692,75.11,6,P-GPS,
0.374133400297516,36.9266643537024,5369.9583634397,14.107612,0,0.68327430008,6300,2018-04-18 05:16:27,13,0,15.794,5369.9583634397,14.107612,0.223694,0.71687666336,0,0,-5.59235,139.9, -0.6, 0,0,0,1024,1024,1538,1024,140.6,0,99,4.222,4.221,4.218,4.21,0,0,3.692,75.11,6,P-GPS,
0.374133389395898,36.9266643502732,5370.6145314397,14.76378,0,0.67952429996,6400,2018-04-18 05:16:27,13,0,15.794,5370.6145314397,14.76378,0.223694,0.71687666336,0,0,-6.039738,139.9, -0.7, 0,0,0,1024,1024,1538,1024,140.6,0,99,4.222,4.221,4.218,4.21,0,0,3.692,75.11,6,P-GPS,
0.374133376041436,36.9266643370863,5371.5987834397,15.748032,0,0.67268046772,6500,2018-04-18 05:16:27,13,0,15.794,5371.5987834397,15.748032,0.223694,0.71687666336,0,0,-6.487126,139.9, -0.4, 0.1,0,0,1024,1024,1550,1024,140.6,0,99,4.222,4.221,4.218,4.21,0,0,3.692,75.11,6,P-GPS,
0.374133377358847,36.9266643401933,5372.5830354397,16.732284,0,0.67380907668,6600,2018-04-18 05:16:27,13,0,16.035,5372.5830354397,16.732284,0.223694,0.71687666336,0,0,-6.934514,139.9, -0.6, 0.3,0,0,1024,1024,1615,1024,140.6,0,99,4.016,4.013,4.013,4.01,0,0,16.954,75.11,6,P-GPS,
0.374133384891418,36.92666432368,5373.5672874397,17.716536,0,0.67168309236,6700,2018-04-18 05:16:27,13,0,16.035,5373.5672874397,17.716536,0.223694,0.71687666336,0,0,-7.381902,139.9, -0.9, 0.4,0,0,1024,1024,1615,1024,140.6,0,99,4.016,4.013,4.013,4.01,0,0,16.954,75.11,6,P-GPS,
0.374133393423447,36.9266643160459,5374.8796234397,19.028872,0,0.67207351232,6800,2018-04-18 05:16:27,13,0,16.035,5374.8796234397,19.028872,0.223694,0.71687666336,0,0,-8.052984,139.9, -0.7, 0.4,0,0,1024,1024,1662,1024,140.6,0,99,4.016,4.013,4.013,4.01,0,0,16.954,75.11,6,P-GPS,
0.374133431666233,36.9266642895506,5376.1919594397,20.341208,0,0.67599739696,6900,2018-04-18 05:16:27,13,0,16.035,5376.1919594397,20.341208,0.223694,0.71687666336,0,0,-8.724066,139.9, -0.7, 0.3,0,0,1024,1024,1684,1024,140.6,0,99,4.016,4.013,4.013,4.01,0,0,16.954,75.11,6,P-GPS,
0.374133462945589,36.9266642705958,5377.5042954397,21.653544,0,0.68014109788,7000,2018-04-18 05:16:27,13,0,16.035,5377.5042954397,21.653544,0.223694,0.71687666336,0,0,-9.395148,140, -0.6, 0,0,0,1024,1024,1684,1024,140.6,0,99,4.016,4.013,4.013,4.01,0,0,16.954,75.11,6,P-GPS,
0.374133525065435,36.9266642845016,5378.8166314397,22.96588,0,0.7008202324,7100,2018-04-18 05:16:27,13,0,16.035,5378.8166314397,22.96588,0.223694,0.71687666336,0,0,-10.06623,140.1, -1.5, 0,0,0,1024,1024,1684,1024,140.6,0,99,4.016,4.013,4.013,4.01,0,0,16.954,75.11,6,P-GPS,
0.37413357169715,36.9266642982901,5380.4570514397,24.6063,0,0.7172080282,7200,2018-04-18 05:16:28,13,0,16.035,5380.4570514397,24.6063,0.223694,0.7172080282,0,0,-10.513618,139.9, -2.2, 0,0,0,1024,1024,1684,1024,140.6,0,99,4.016,4.013,4.013,4.01,0,0,16.954,75.11,6,P-GPS,
0.374133609830627,36.9266643206266,5382.0974714397,26.24672,0,0.73316275312,7300,2018-04-18 05:16:28,13,0,16.035,5382.0974714397,26.24672,0.223694,0.73316275312,0,0,-10.961006,139.9, -1.9, -0.1,0,0,1024,1024,1684,1024,140.6,0,99,4.016,4.013,4.013,4.01,0,0,16.954,75.11,6,P-GPS,
0.374133621105159,36.926664353044,5383.7378914397,27.88714,0,0.74377955136,7400,2018-04-18 05:16:28,13,0,16.035,5383.7378914397,27.88714,0.223694,0.74377955136,0,0,-11.1847,139.9, -1.4, -0.2,0,0,1024,1024,1684,1024,140.6,0,99,4.016,4.013,4.013,4.01,0,0,16.954,75.11,6,P-GPS,
0.374133608420598,36.9266643776897,5385.3783114397,29.52756,0,0.74591865904,7500,2018-04-18 05:16:28,13,0,16.035,5385.3783114397,29.52756,0.223694,0.74591865904,0,0,-11.1847,140, -1.5, -0.1,0,0,1024,1024,1684,1024,140.6,0,99,4.016,4.013,4.013,4.01,0,0,16.954,75.11,6,P-GPS,
0.374133597763857,36.9266643996305,5387.0187314397,31.16798,0,0.74810697932,7600,2018-04-18 05:16:28,13,0,15.821,5387.0187314397,31.16798,0.223694,0.74810697932,0,0,-11.408394,140, -2, -0.3,0,0,1024,1024,1684,1024,140.5,0,99,4.007,3.994,3.988,3.984,0,0,15.53,75.11,6,P-GPS,
0.374133585509612,36.9266644458627,5388.6591514397,32.8084,0,0.75582023416,7700,2018-04-18 05:16:28,13,0,15.821,5388.6591514397,32.8084,0.223694,0.75582023416,0,0,-11.1847,140, -2.1, -0.6,0,0,1024,1024,1684,1024,140.5,0,99,4.007,3.994,3.988,3.984,0,0,15.53,75.11,6,P-GPS,
0.374133567369153,36.9266644995587,5390.2995714397,34.44882,0,0.76413716356,7800,2018-04-18 05:16:28,13,0,15.821,5390.2995714397,34.44882,0.223694,0.76413716356,0,0,-11.1847,140, -1.8, -0.8,0,0,1024,1024,1684,1024,140.5,0,99,4.007,3.994,3.988,3.984,0,0,15.53,75.11,6,P-GPS,
0.37413352034193,36.9266645388704,5391.9399914397,36.08924,0,0.76173230784,7900,2018-04-18 05:16:28,13,0,15.821,5391.9399914397,36.08924,0.223694,0.76413716356,0,0,-11.1847,140, -1.7, -0.7,0,0,1024,1024,1684,1024,140.5,0,99,4.007,3.994,3.988,3.984,0,0,15.53,75.11,6,P-GPS,
0.374133487099892,36.9266645892748,5393.5804114397,37.72966,0,0.76637469644,8000,2018-04-18 05:16:28,13,0,15.821,5393.5804114397,37.72966,0.223694,0.76637469644,0,0,-11.1847,140, -1.9, -0.6,0,0,1024,1024,1684,1024,140.5,-0.2,99,4.007,3.994,3.988,3.984,0,0,15.53,75.11,6,P-GPS,
0.374133431945104,36.9266646129715,5395.2208314397,39.37008,0,0.75902889568,8100,2018-04-18 05:16:28,13,0,15.821,5395.2208314397,39.37008,0.223694,0.76637469644,0,0,-11.1847,140, -2.1, -0.6,0,0,1024,1024,1684,1024,140.5,-0.7,99,4.007,3.994,3.988,3.984,0,0,15.53,75.11,6,P-GPS,
0.374133378375403,36.9266646570678,5396.8612514397,41.0105,0,0.7583005492,8200,2018-04-18 05:16:28,13,0,15.821,5396.8612514397,41.0105,0.223694,0.76637469644,0,0,-10.961006,140, -1.9, -0.8,0,0,1024,1024,1684,1024,140.5,-1.6,99,4.007,3.994,3.988,3.984,0,0,15.53,75.11,6,P-GPS,
0.374133341081593,36.9266647119511,5398.5016714397,42.65092,0,0.76518375152,8300,2018-04-18 05:16:29,13,0,15.821,5398.5016714397,42.65092,0.223694,0.76637469644,0,0,-10.961006,140, -1.7, -1,0,0,1024,1024,1684,1024,140.5,-2.9,99,4.007,3.994,3.988,3.984,0,0,15.53,75.11,6,P-GPS,
0.374133311256234,36.9266647898625,5400.1420914397,44.29134,0,0.7811351956,8400,2018-04-18 05:16:29,13,0,15.821,5400.1420914397,44.29134,0.223694,0.7811351956,0,0,-10.961006,140, -1.7, -0.8,0,0,1024,1024,1684,1024,140.5,-2.9,99,4.007,3.994,3.988,3.984,0,0,15.53,75.11,6,P-GPS,
0.374133273739938,36.9266648715018,5401.7825114397,45.93176,0,0.79746065544,8500,2018-04-18 05:16:29,13,0,15.821,5401.7825114397,45.93176,0.223694,0.79746065544,0,0,-10.961006,139.9, -1.7, -0.5,0,0,1024,1024,1684,1024,140.5,-4.7,99,4.007,3.994,3.988,3.984,0,0,15.53,75.11,6,P-GPS,
0.37413323842713,36.92666497309,5403.4229314397,47.57218,0,0.82135501316,8600,2018-04-18 05:16:29,13,0,15.634,5403.4229314397,47.57218,0.223694,0.82135501316,0,0,-10.961006,140, -1.6, -0.5,0,0,1024,1024,1684,1024,140.5,-7.1,98,3.96,3.958,3.958,3.948,0,0,19.766,75.11,6,P-GPS,
0.374133191887015,36.9266650997539,5405.0633514397,49.2126,0,0.85229005352,8700,2018-04-18 05:16:29,13,0,15.634,5405.0633514397,49.2126,0.223694,0.85229005352,0,0,-10.961006,140, -1.5, -0.2,0,0,1024,1024,1684,1024,140.5,-9.8,98,3.96,3.958,3.958,3.948,0,0,19.766,75.11,6,P-GPS,
0.374133153215134,36.9266652386699,5406.7037714397,50.85302,0,0.89017063216,8800,2018-04-18 05:16:29,13,0,15.634,5406.7037714397,50.85302,0.223694,0.89017063216,0,0,-10.961006,140, -1.3, 0.1,0,0,1024,1024,1684,1024,140.5,-12.4,98,3.96,3.958,3.958,3.948,0,0,19.766,75.11,6,P-GPS,
0.374133098924846,36.926665366327,5408.3441914397,52.49344,0,0.9233596096,8900,2018-04-18 05:16:29,13,0,15.634,5408.3441914397,52.49344,0.223694,0.9233596096,0,0,-11.1847,140, -1.1, 0.1,0,0,1024,1024,1684,1024,140.5,-15.1,98,3.96,3.958,3.958,3.948,0,0,19.766,75.11,6,P-GPS,
0.374133051383238,36.9266654926852,5409.9846114397,54.13386,0,0.95858598868,9000,2018-04-18 05:16:29,13,0,15.634,5409.9846114397,54.13386,0.223694,0.95858598868,0,0,-11.1847,140, -1, 0.1,0,0,1024,1024,1684,1024,140.5,-17.8,98,3.96,3.958,3.958,3.948,0,0,19.766,75.11,6,P-GPS,
0.374132989001009,36.9266655925856,5411.6250314397,55.77428,0,0.98406171128,9100,2018-04-18 05:16:29,13,0,15.634,5411.6250314397,55.77428,0.223694,0.98406171128,0,0,-10.961006,140, -0.9, 0.1,0,0,1024,1024,1684,1024,140.5,-20.5,98,3.96,3.958,3.958,3.948,0,0,19.766,75.11,6,P-GPS,
0.374132940068506,36.9266656959885,5413.2654514397,57.4147,0,1.01351381196,9200,2018-04-18 05:16:30,13,0,15.634,5413.2654514397,57.4147,0.223694,1.01351381196,0,0,-10.961006,140, -1, 0.1,0,0,1024,1024,1684,1024,140.5,-23.1,98,3.96,3.958,3.958,3.948,0,0,19.766,75.11,6,P-GPS,
0.374132883529948,36.9266658137911,5414.9058714397,59.05512,0,1.04800200204,9300,2018-04-18 05:16:30,13,0,15.634,5414.9058714397,59.05512,0.223694,1.04800200204,0,0,-10.961006,140, -1.1, 0.1,0,0,1024,1024,1684,1024,140.5,-25.3,98,3.96,3.958,3.958,3.948,0,0,19.766,75.11,6,P-GPS,
0.374132833560534,36.9266659318374,5416.5462914397,60.69554,0,1.08421263312,9400,2018-04-18 05:16:30,13,0,15.634,5416.5462914397,60.69554,0.223694,1.08421263312,0,0,-11.1847,140, -0.9, 0.1,0,0,1024,1024,1684,1024,140.5,-25.3,98,3.96,3.958,3.958,3.948,0,0,19.766,75.11,6,P-GPS,
0.374132811877395,36.926666069738,5418.1867114397,62.33596,0,1.13076775272,9500,2018-04-18 05:16:30,13,0,15.634,5418.1867114397,62.33596,0.223694,1.13076775272,0,0,-11.1847,140, -0.7, 0,0,0,1024,1024,1684,1024,140.5,-25.3,98,3.96,3.958,3.958,3.948,0,0,19.766,75.11,6,P-GPS,
0.374132792883427,36.9266662009324,5419.8271314397,63.97638,0,1.17553481452,9600,2018-04-18 05:16:30,13,0,15.687,5419.8271314397,63.97638,0.223694,1.17553481452,0,0,-10.961006,140, -0.6, 0,0,0,1024,1024,1684,1024,140.5,-25.3,98,3.96,3.958,3.958,3.948,0,0,19.766,75.11,6,P-GPS,
0.374132766855193,36.9266663536769,5421.4675514397,65.6168,0,1.227690328,9700,2018-04-18 05:16:30,13,0,15.687,5421.4675514397,65.6168,0.223694,1.227690328,0,0,-10.961006,140, -0.7, 0.4,0,0,1024,1024,1684,1024,140.5,-25.3,98,3.96,3.958,3.958,3.948,0,0,19.766,75.11,6,P-GPS,
0.37413274224859,36.9266664927741,5423.1079714397,67.25722,0,1.2754429542,9800,2018-04-18 05:16:30,13,0,15.687,5423.1079714397,67.25722,0.223694,1.2754429542,0,0,-10.961006,140, -0.5, 0.5,0,0,1024,1024,1684,1024,140.5,-25.3,98,3.96,3.958,3.958,3.948,0,0,19.766,75.11,6,P-GPS,
0.374132737336592,36.9266666043117,5424.7483914397,68.89764,0,1.3149770762,9900,2018-04-18 05:16:30,13,0,15.687,5424.7483914397,68.89764,0.223694,1.3149770762,0,0,-10.961006,140, -0.1, 0.1,0,0,1024,1024,1684,1024,140.5,-25.3,98,3.96,3.958,3.958,3.948,0,0,19.766,75.11,6,P-GPS,
0.374132740198582,36.9266667077534,5426.3888114397,70.53806,0,1.35221789104,10000,2018-04-18 05:16:30,13,0,15.687,5426.3888114397,70.53806,0.223694,1.35221789104,0,0,-10.961006,140, -0.1, 0.3,0,0,1024,1024,1684,1024,140.5,-25.3,98,3.96,3.958,3.958,3.948,0,0,19.766,75.11,6,P-GPS,
0.374132767198998,36.9266668190833,5428.0292314397,72.17848,0,1.39396658004,10100,2018-04-18 05:16:30,13,0,15.687,5428.0292314397,72.17848,0.223694,1.39396658004,0,0,-11.1847,140, -0.3, 0.5,0,0,1024,1024,1684,1024,140.5,-25.3,98,3.96,3.958,3.958,3.948,0,0,19.766,75.11,6,P-GPS,
0.37413279492916,36.9266669182537,5429.6696514397,73.8189,0,1.43141736864,10200,2018-04-18 05:16:30,13,0,15.687,5429.6696514397,73.8189,0.223694,1.43141736864,0,0,-11.1847,140, -0.4, 0.6,0,0,1024,1024,1684,1024,140.5,-25.3,98,3.96,3.958,3.958,3.948,0,0,19.766,75.11,6,P-GPS,
0.374132866233837,36.9266670480858,5431.3100714397,75.45932,0,1.4830052968,10300,2018-04-18 05:16:31,13,0,15.687,5431.3100714397,75.45932,0.223694,1.4830052968,0,0,-11.1847,140, -0.5, 0.8,0,0,1024,1024,1684,1024,140.5,-25.3,98,3.96,3.958,3.958,3.948,0,0,19.766,75.11,6,P-GPS,
0.374132920730326,36.9266671615812,5432.9504914397,77.09974,0,1.52763456332,10400,2018-04-18 05:16:31,13,0,15.687,5432.9504914397,77.09974,0.223694,1.52763456332,0,0,-10.961006,140, -0.3, 0.8,0,0,1024,1024,1684,1024,140.5,-25.3,98,3.96,3.958,3.958,3.948,0,0,19.766,75.11,6,P-GPS,
0.374132959157941,36.926667316452,5434.9189954397,79.068244,0,1.5858268224,10500,2018-04-18 05:16:31,13,0,15.687,5434.9189954397,79.068244,0.223694,1.5858268224,0,0,-11.1847,140, -0.2, 0.9,0,0,1024,1024,1684,1024,140.4,-25.3,98,3.96,3.958,3.958,3.948,0,0,19.766,75.11,6,P-GPS,
0.374132989836808,36.9266674383467,5436.2313314397,80.38058,0,1.6316601572,10600,2018-04-18 05:16:31,13,0,15.714,5436.2313314397,80.38058,0.223694,1.6316601572,0,0,-10.961006,140, -0.2, 1,0,0,1024,1024,1684,1024,140.4,-25.3,98,3.968,3.965,3.967,3.952,0,0,17.01,75.11,6,P-GPS,
0.374132997711352,36.9266675873623,5437.8717514397,82.021,0,1.6854167206,10700,2018-04-18 05:16:31,13,0,15.714,5437.8717514397,82.021,0.223694,1.6854167206,0,0,-10.961006,140, 0, 1,0,0,1024,1024,1684,1024,140.4,-25.3,98,3.968,3.965,3.967,3.952,0,0,17.01,75.11,6,P-GPS,
0.374133005057263,36.9266677029209,5439.5121714397,83.66142,0,1.72722446472,10800,2018-04-18 05:16:31,13,0,15.714,5439.5121714397,83.66142,0.223694,1.72722446472,0,0,-10.961006,140, 0, 0.9,0,0,1024,1024,1684,1024,140.4,-25.3,98,3.968,3.965,3.967,3.952,0,0,17.01,75.11,6,P-GPS,
0.37413303466095,36.9266678094441,5441.1525914397,85.30184,0,1.76747709068,10900,2018-04-18 05:16:31,13,0,15.714,5441.1525914397,85.30184,0.223694,1.76747709068,0,0,-10.961006,140, 0, 0.8,0,0,1024,1024,1684,1024,140.4,-25.3,98,3.968,3.965,3.967,3.952,0,0,17.01,75.11,6,P-GPS,
0.374133062516706,36.9266678918326,5442.7930114397,86.94226,0,1.79898955888,11000,2018-04-18 05:16:31,13,0,15.714,5442.7930114397,86.94226,0.223694,1.79898955888,0,0,-11.1847,140, 0, 0.7,0,0,1024,1024,1684,1024,140.4,-25.3,98,3.968,3.965,3.967,3.952,0,0,17.01,75.11,6,P-GPS,
0.374133082129889,36.9266679813355,5444.7615154397,88.910764,0,1.83241803764,11100,2018-04-18 05:16:31,13,0,15.714,5444.7615154397,88.910764,0.223694,1.83241803764,0,0,-11.1847,140, 0, 0.8,0,0,1024,1024,1684,1024,140.4,-25.3,98,3.968,3.965,3.967,3.952,0,0,17.01,75.11,6,P-GPS,
0.374133104799255,36.9266680482354,5446.4019354397,90.551184,0,1.85801515132,11200,2018-04-18 05:16:31,13,0,15.714,5446.4019354397,90.551184,0.223694,1.85801515132,0,0,-11.1847,140, -0.1, 0.9,0,0,1024,1024,1684,1024,140.4,-25.3,98,3.968,3.965,3.967,3.952,0,0,17.01,75.11,6,P-GPS,
0.374133149335366,36.9266680910166,5448.0423554397,92.191604,0,1.876722501,11300,2018-04-18 05:16:32,13,0,15.714,5448.0423554397,92.191604,0.223694,1.876722501,0,0,-11.1847,140, -0.3, 0.8,0,0,1024,1024,1684,1024,140.4,-25.3,98,3.968,3.965,3.967,3.952,0,0,17.01,75.11,6,P-GPS,
0.37413318500806,36.9266681248202,5449.6827754397,93.832024,0,1.8916011104,11400,2018-04-18 05:16:32,13,0,15.714,5449.6827754397,93.832024,0.223694,1.8916011104,0,0,-11.1847,140, -0.2, 0.9,0,0,1024,1024,1684,1024,140.4,-25.3,98,3.968,3.965,3.967,3.952,0,0,17.01,75.11,6,P-GPS,
0.374133194260268,36.926668156124,5451.3231954397,95.472444,0,1.90348759372,11500,2018-04-18 05:16:32,13,0,15.714,5451.3231954397,95.472444,0.223694,1.90348759372,0,0,-11.1847,140, 0, 0.7,0,0,1024,1024,1684,1024,140.4,-25.3,98,3.968,3.965,3.967,3.952,0,0,17.01,75.11,6,P-GPS,
0.374133203356146,36.9266681781559,5452.9636154397,97.112864,0,1.91206042864,11600,2018-04-18 05:16:32,13,0,15.767,5452.9636154397,97.112864,0.223694,1.91206042864,0,0,-11.1847,140, 0, 0.5,0,0,1024,1024,1684,1024,140.4,-25.3,98,3.962,3.961,3.959,3.945,0,0,17.022,75.11,6,P-GPS,
0.374133240226764,36.9266681726137,5454.6040354397,98.753284,0,1.91312998248,11700,2018-04-18 05:16:32,13,0,15.767,5454.6040354397,98.753284,0.223694,1.91312998248,0,0,-11.1847,140, -0.1, 0.5,0,0,1024,1024,1684,1024,140.4,-25.3,98,3.962,3.961,3.959,3.945,0,0,17.022,75.11,6,P-GPS,
0.374133275836763,36.9266681715426,5456.2444554397,100.393704,0,1.91577105868,11800,2018-04-18 05:16:32,13,0,15.767,5456.2444554397,100.393704,0.223694,1.91577105868,0,0,-11.1847,140.1, -0.1, 0.5,0,0,1024,1024,1684,1024,140.4,-25.3,98,3.962,3.961,3.959,3.945,0,0,17.022,75.11,6,P-GPS,
0.374133296786899,36.9266681621011,5457.8848754397,102.034124,0,1.91424218724,11900,2018-04-18 05:16:32,13,0,15.767,5457.8848754397,102.034124,0.223694,1.91577105868,0,0,-11.1847,140.1, 0.1, 0.7,0,0,1024,1024,1684,1024,140.4,-25.3,98,3.962,3.961,3.959,3.945,0,0,17.022,75.11,6,P-GPS,
0.374133323717698,36.9266681486252,5459.5252954397,103.674544,0,1.91185701656,12000,2018-04-18 05:16:32,13,0,15.767,5459.5252954397,103.674544,0.223694,1.91577105868,0,0,-10.961006,140.1, 0, 0.6,0,0,1024,1024,1684,1024,140.4,-25.3,98,3.962,3.961,3.959,3.945,0,0,17.022,75.11,6,P-GPS,
0.37413337742256,36.9266681619629,5461.1657154397,105.314964,0,1.92146331608,12100,2018-04-18 05:16:32,13,0,15.767,5461.1657154397,105.314964,0.223694,1.92146331608,0,0,-11.1847,140.1, -0.1, 0.5,0,0,1024,1024,1684,1024,140.4,-25.3,98,3.962,3.961,3.959,3.945,0,0,17.022,75.11,6,P-GPS,
0.374133436420679,36.9266681746166,5462.8061354397,106.955384,0,1.93150268648,12200,2018-04-18 05:16:32,13,0,15.767,5462.8061354397,106.955384,0.223694,1.93150268648,0,0,-11.1847,140.1, -0.4, 0.9,0,0,1024,1024,1684,1024,140.4,-25.3,98,3.962,3.961,3.959,3.945,0,0,17.022,75.11,6,P-GPS,
0.37413351353422,36.9266681852663,5464.4465554397,108.595804,0,1.94285767372,12300,2018-04-18 05:16:33,13,0,15.767,5464.4465554397,108.595804,0.223694,1.94285767372,0,0,-11.1847,140, -0.6, 1.5,0,0,1024,1024,1684,1024,140.4,-25.3,98,3.962,3.961,3.959,3.945,0,0,17.022,75.11,6,P-GPS,
0.374133573610165,36.926668183616,5466.4150594397,110.564308,0,1.94846791012,12400,2018-04-18 05:16:33,13,0,15.767,5466.4150594397,110.564308,0.223694,1.94846791012,0,0,-11.1847,139.9, -0.7, 1.6,0,0,1024,1024,1684,1024,140.4,-25.3,98,3.962,3.961,3.959,3.945,0,0,17.022,75.11,6,P-GPS,
0.374133613458393,36.9266681314722,5467.7273954397,111.876644,0,1.93452434012,12500,2018-04-18 05:16:33,13,0,15.767,5467.7273954397,111.876644,0.223694,1.94846791012,0,0,-10.961006,140, -0.6, 1,0,0,1024,1024,1684,1024,140.4,-25.3,98,3.962,3.961,3.959,3.945,0,0,17.022,75.11,6,P-GPS,
0.374133636788092,36.9266680825937,5469.3678154397,113.517064,0,1.92007223992,12600,2018-04-18 05:16:33,13,0,15.687,5469.3678154397,113.517064,0.223694,1.94846791012,0,0,-11.1847,140, -0.4, 0.6,0,0,1024,1024,1684,1024,140.4,-25.3,98,3.96,3.959,3.958,3.945,0,0,16.656,75.11,6,P-GPS,
0.374133661715499,36.9266680449998,5471.3363194397,115.485568,0,1.9098097724,12700,2018-04-18 05:16:33,13,0,15.687,5471.3363194397,115.485568,0.223694,1.94846791012,0,0,-11.1847,140, -0.3, 0.4,0,0,1024,1024,1684,1024,140.4,-25.3,98,3.96,3.959,3.958,3.945,0,0,16.656,75.11,6,P-GPS,
0.374133691962828,36.9266680131741,5472.9767394397,117.125988,0,1.9022474362,12800,2018-04-18 05:16:33,13,0,15.687,5472.9767394397,117.125988,0.223694,1.94846791012,0,0,-10.961006,140, -0.3, 0.6,0,0,1024,1024,1684,1024,140.4,-25.3,98,3.96,3.959,3.958,3.945,0,0,16.656,75.11,6,P-GPS,
0.374133708975183,36.9266679635407,5474.6171594397,118.766408,0,1.88708011288,12900,2018-04-18 05:16:33,13,0,15.687,5474.6171594397,118.766408,0.223694,1.94846791012,0,0,-11.1847,140, -0.4, 0.8,0,0,1024,1024,1684,1024,140.4,-25.3,98,3.96,3.959,3.958,3.945,0,0,16.656,75.11,6,P-GPS,
0.374133730585042,36.9266679128773,5476.2575794397,120.406828,0,1.87218181844,13000,2018-04-18 05:16:33,13,0,15.687,5476.2575794397,120.406828,0.223694,1.94846791012,0,0,-11.1847,140, -0.7, 0.7,0,0,1024,1024,1684,1024,140.4,-25.3,98,3.96,3.959,3.958,3.945,0,0,16.656,75.11,6,P-GPS,
0.374133774643001,36.9266678412851,5477.8979994397,122.047248,0,1.85297906192,13100,2018-04-18 05:16:33,13,0,15.687,5477.8979994397,122.047248,0.223694,1.94846791012,0,0,-10.961006,140, -0.9, 0.5,0,0,1024,1024,1684,1024,140.4,-25.3,98,3.96,3.959,3.958,3.945,0,0,16.656,75.11,6,P-GPS,
0.374133818182505,36.9266677780353,5479.5384194397,123.687668,0,1.83686685668,13200,2018-04-18 05:16:34,13,0,15.687,5479.5384194397,123.687668,0.223694,1.94846791012,0,0,-10.961006,139.9, -1.2, 0.3,0,0,1024,1024,1684,1024,140.4,-25.3,98,3.96,3.959,3.958,3.945,0,0,16.656,75.11,6,P-GPS,
0.374133881363689,36.9266676778026,5481.1788394397,125.328088,0,1.8111385094,13300,2018-04-18 05:16:34,13,0,15.687,5481.1788394397,125.328088,0.223694,1.94846791012,0,0,-10.961006,139.9, -1.7, 0.6,0,0,1024,1024,1684,1024,140.4,-25.3,98,3.96,3.959,3.958,3.945,0,0,16.656,75.11,6,P-GPS,
0.374133928089243,36.9266676079548,5482.8192594397,126.968508,0,1.79398627788,13400,2018-04-18 05:16:34,13,0,15.687,5482.8192594397,126.968508,0.223694,1.94846791012,0,0,-10.961006,139.9, -1.7, 0.9,0,0,1024,1024,1684,1024,140.4,-25.3,98,3.96,3.959,3.958,3.945,0,0,16.656,75.11,6,P-GPS,
0.374133995814601,36.926667555436,5484.1315954397,128.280844,0,1.78604992592,13500,2018-04-18 05:16:34,13,0,15.687,5484.1315954397,128.280844,0.223694,1.94846791012,0,0,-10.961006,139.9, -1.4, 0.8,0,0,1024,1024,1684,1024,140.4,-25.3,98,3.96,3.959,3.958,3.945,0,0,16.656,75.11,6,P-GPS,
0.37413403480586,36.9266675212206,5485.7720154397,129.921264,0,1.78038719608,13600,2018-04-18 05:16:34,13,0,15.741,5485.7720154397,129.921264,0.223694,1.94846791012,0,0,-10.961006,139.9, -1.1, 0.9,0,0,1024,1024,1684,1024,140.4,-25.3,98,3.96,3.959,3.958,3.945,0,0,16.656,75.11,6,P-GPS,
0.374134064846988,36.9266674823212,5487.4124354397,131.561684,0,1.77199480736,13700,2018-04-18 05:16:34,13,0,15.741,5487.4124354397,131.561684,0.223694,1.94846791012,0,0,-10.961006,140, -0.7, 0.7,0,0,1024,1024,1684,1024,140.4,-25.3,98,3.96,3.959,3.958,3.945,0,0,16.656,75.11,6,P-GPS,
0.37413407023612,36.9266674542637,5489.0528554397,133.202104,0,1.76352367848,13800,2018-04-18 05:16:34,13,0,15.741,5489.0528554397,133.202104,0.223694,1.94846791012,0,0,-10.961006,140, -0.5, 0.5,0,0,1024,1024,1684,1024,140.4,-25.3,98,3.96,3.959,3.958,3.945,0,0,16.656,75.11,6,P-GPS,
0.374134062682582,36.92666740874,5490.6932754397,134.842524,0,1.74729992468,13900,2018-04-18 05:16:34,13,0,15.741,5490.6932754397,134.842524,0.223694,1.94846791012,0,0,-10.961006,140, -0.4, 0.2,0,0,1024,1024,1684,1024,140.4,-25.3,98,3.96,3.959,3.958,3.945,0,0,16.656,75.11,6,P-GPS,
0.374134049204766,36.9266673795829,5492.3336954397,136.482944,0,1.7355807642,14000,2018-04-18 05:16:34,13,0,15.741,5492.3336954397,136.482944,0.223694,1.94846791012,0,0,-11.1847,140, -0.4, 0.1,0,0,1024,1024,1684,1024,140.4,-25.3,98,3.96,3.959,3.958,3.945,0,0,16.656,75.11,6,P-GPS,
0.374134044423451,36.9266672988946,5493.9741154397,138.123364,0,1.70819887356,14100,2018-04-18 05:16:34,13,0,15.741,5493.9741154397,138.123364,0.223694,1.94846791012,0,0,-11.1847,140, -0.5, 0.3,0,0,1024,1024,1684,1024,140.4,-25.3,98,3.96,3.959,3.958,3.945,0,0,16.656,75.11,6,P-GPS,
0.374134036974744,36.9266672438407,5495.6145354397,139.763784,0,1.68889769184,14200,2018-04-18 05:16:34,13,0,15.741,5495.6145354397,139.763784,0.223694,1.94846791012,0,0,-11.1847,140, -0.5, 0.4,0,0,1024,1024,1684,1024,140.4,-25.3,98,3.96,3.959,3.958,3.945,0,0,16.656,75.11,6,P-GPS,
0.374134044875751,36.9266671683015,5497.5830394397,141.732288,0,1.66534782232,14300,2018-04-18 05:16:35,13,0,15.741,5497.5830394397,141.732288,0.223694,1.94846791012,0,0,-10.961006,140.1, -0.6, 0.5,0,0,1024,1024,1684,1024,140.4,-25.3,98,3.96,3.959,3.958,3.945,0,0,16.656,75.11,6,P-GPS,
0.374134047927658,36.9266671083493,5498.8953754397,143.044624,0,1.6462270868,14400,2018-04-18 05:16:35,13,0,15.741,5498.8953754397,143.044624,0.223694,1.94846791012,0,0,-10.961006,140.1, -0.7, 0.6,0,0,1024,1024,1684,1024,140.4,-25.3,98,3.96,3.959,3.958,3.945,0,0,16.656,75.11,6,P-GPS,
0.374134095104902,36.9266670213981,5500.5357954397,144.685044,0,1.62576120688,14500,2018-04-18 05:16:35,13,0,15.741,5500.5357954397,144.685044,0.223694,1.94846791012,0,0,-10.961006,140.1, -1, 0.3,0,0,1024,1024,1684,1024,140.4,-25.3,98,3.96,3.959,3.958,3.945,0,0,16.656,75.11,6,P-GPS,
0.374134116690945,36.926666954247,5502.1762154397,146.325464,0,1.60776579948,14600,2018-04-18 05:16:35,13,0,15.553,5502.1762154397,146.325464,0.223694,1.94846791012,0,0,-10.961006,140.1, -1.1, 0,0,0,1024,1024,1684,1024,140.4,-25.3,98,3.948,3.947,3.948,3.933,0,0,16.824,76.91,6,P-GPS,
0.374134129282685,36.9266668867148,5503.8166354397,147.965884,0,1.5882874524,14700,2018-04-18 05:16:35,13,0,15.553,5503.8166354397,147.965884,0.223694,1.94846791012,0,0,-10.961006,140.1, -1, 0,0,0,1024,1024,1684,1024,140.4,-25.3,98,3.948,3.947,3.948,3.933,0,0,16.824,76.91,6,P-GPS,
0.374134120123095,36.9266668446746,5505.4570554397,149.606304,0,1.57323495848,14800,2018-04-18 05:16:35,13,0,15.553,5505.4570554397,149.606304,0.223694,1.94846791012,0,0,-11.1847,140.1, -0.8, -0.3,0,0,1024,1024,1684,1024,140.4,-25.3,98,3.948,3.947,3.948,3.933,0,0,16.824,76.91,6,P-GPS,
0.374134114547506,36.926666769943,5507.0974754397,151.246724,0,1.54841868472,14900,2018-04-18 05:16:35,13,0,15.553,5507.0974754397,151.246724,0.223694,1.94846791012,0,0,-11.1847,140, -0.5, -0.4,0,0,1024,1024,1684,1024,140.4,-25.3,98,3.948,3.947,3.948,3.933,0,0,16.824,76.91,6,P-GPS,
0.374134113622346,36.9266667246719,5508.7378954397,152.887144,0,1.53386815932,15000,2018-04-18 05:16:35,13,0,15.553,5508.7378954397,152.887144,0.223694,1.94846791012,0,0,-11.1847,140, -0.6, -0.3,0,0,1024,1024,1684,1024,140.4,-25.3,98,3.948,3.947,3.948,3.933,0,0,16.824,76.91,6,P-GPS,
0.374134134200382,36.9266666390743,5510.3783154397,154.527564,0,1.51057747616,15100,2018-04-18 05:16:35,13,0,15.553,5510.3783154397,154.527564,0.223694,1.94846791012,0,0,-10.961006,140, -0.4, 0,0,0,1024,1024,1684,1024,140.4,-25.3,98,3.948,3.947,3.948,3.933,0,0,16.824,76.91,6,P-GPS,
0.374134152010471,36.926666586022,5512.0187354397,156.167984,0,1.49725398492,15200,2018-04-18 05:16:35,13,0,15.553,5512.0187354397,156.167984,0.223694,1.94846791012,0,0,-11.1847,140, -0.4, 0.3,0,0,1024,1024,1684,1024,140.3,-25.3,98,3.948,3.947,3.948,3.933,0,0,16.824,76.91,6,P-GPS,
0.374134183074058,36.9266665054621,5513.6591554397,157.808404,0,1.47810700268,15300,2018-04-18 05:16:36,13,0,15.553,5513.6591554397,157.808404,0.223694,1.94846791012,0,0,-11.1847,140.1, -0.9, 0.3,0,0,1024,1024,1684,1024,140.3,-25.3,98,3.948,3.947,3.948,3.933,0,0,16.824,76.91,6,P-GPS,
0.374134201763302,36.9266664451531,5515.2995754397,159.448824,0,1.4631562148,15400,2018-04-18 05:16:36,13,0,15.553,5515.2995754397,159.448824,0.223694,1.94846791012,0,0,-11.1847,140, -1.3, 0,0,0,1024,1024,1684,1024,140.3,-25.3,98,3.948,3.947,3.948,3.933,0,0,16.824,76.91,6,P-GPS,
0.374134205678082,36.926666371532,5516.9399954397,161.089244,0,1.44139768392,15500,2018-04-18 05:16:36,13,0,15.553,5516.9399954397,161.089244,0.223694,1.94846791012,0,0,-10.961006,140, -0.7, 0,0,0,1024,1024,1684,1024,140.3,-25.3,98,3.948,3.947,3.948,3.933,0,0,16.824,76.91,6,P-GPS,
0.374134206655555,36.9266663265583,5518.5804154397,162.729664,0,1.42790686984,15600,2018-04-18 05:16:36,13,0,15.66,5518.5804154397,162.729664,0.223694,1.94846791012,0,0,-10.961006,140, -0.5, 0,0,0,1024,1024,1684,1024,140.3,-25.3,98,3.948,3.947,3.95,3.936,0,0,16.686,76.91,6,P-GPS,
0.374134215511441,36.9266662607693,5520.2208354397,164.370084,0,1.40980647556,15700,2018-04-18 05:16:36,13,0,15.66,5520.2208354397,164.370084,0.223694,1.94846791012,0,0,-10.961006,140, -0.8, 0.2,0,0,1024,1024,1684,1024,140.3,-25.3,98,3.948,3.947,3.95,3.936,0,0,16.686,76.91,6,P-GPS,
0.374134226427715,36.9266662101593,5521.8612554397,166.010504,0,1.39686356176,15800,2018-04-18 05:16:36,13,0,15.66,5521.8612554397,166.010504,0.223694,1.94846791012,0,0,-10.961006,140, -1.2, -0.1,0,0,1024,1024,1684,1024,140.3,-25.3,98,3.948,3.947,3.95,3.936,0,0,16.686,76.91,6,P-GPS,
0.374134238156583,36.9266661772909,5523.5016754397,167.650924,0,1.38950791848,15900,2018-04-18 05:16:36,13,0,15.66,5523.5016754397,167.650924,0.223694,1.94846791012,0,0,-10.961006,140, -1.1, -0.5,0,0,1024,1024,1684,1024,140.3,-25.3,98,3.948,3.947,3.95,3.936,0,0,16.686,76.91,6,P-GPS,
0.374134264645057,36.9266661622476,5525.1420954397,169.291344,0,1.39065621248,16000,2018-04-18 05:16:36,13,0,15.66,5525.1420954397,169.291344,0.223694,1.94846791012,0,0,-10.961006,140, -0.9, -0.4,0,0,1024,1024,1684,1024,140.3,-25.3,98,3.948,3.947,3.95,3.936,0,0,16.686,76.91,6,P-GPS,
0.374134306923738,36.9266661006555,5526.7825154397,170.931764,0,1.38166671088,16100,2018-04-18 05:16:36,13,0,15.66,5526.7825154397,170.931764,0.223694,1.94846791012,0,0,-11.1847,140, -1.3, 0,0,0,1024,1024,1684,1024,140.3,-25.3,98,3.948,3.947,3.95,3.936,0,0,16.686,76.91,6,P-GPS,
0.374134364209853,36.9266660512127,5528.4229354397,172.572184,0,1.3800197292,16200,2018-04-18 05:16:36,13,0,15.66,5528.4229354397,172.572184,0.223694,1.94846791012,0,0,-10.961006,140, -1.9, 0.3,0,0,1024,1024,1684,1024,140.3,-25.3,98,3.948,3.947,3.95,3.936,0,0,16.686,76.91,6,P-GPS,
0.374134441914417,36.926666019291,5530.0633554397,174.212604,0,1.38858600244,16300,2018-04-18 05:16:37,13,0,15.66,5530.0633554397,174.212604,0.223694,1.94846791012,0,0,-10.961006,139.9, -2.5, 0.6,0,0,1024,1024,1684,1024,140.3,-25.3,98,3.948,3.947,3.95,3.936,0,0,16.686,76.91,6,P-GPS,
0.374134502735477,36.9266660132345,5531.7037754397,175.853024,0,1.40101054352,16400,2018-04-18 05:16:37,13,0,15.66,5531.7037754397,175.853024,0.223694,1.94846791012,0,0,-10.961006,139.9, -2.5, 0.6,0,0,1024,1024,1684,1024,140.3,-25.3,98,3.948,3.947,3.95,3.936,0,0,16.686,76.91,6,P-GPS,
0.374134539275623,36.9266659931087,5533.3441954397,177.493444,0,1.40401579296,16500,2018-04-18 05:16:37,13,0,15.66,5533.3441954397,177.493444,0.223694,1.94846791012,0,0,-10.961006,139.9, -2.2, 0.6,0,0,1024,1024,1684,1024,140.3,-25.3,98,3.948,3.947,3.95,3.936,0,0,16.686,76.91,6,P-GPS,
0.37413456097871,36.9266659959977,5534.9846154397,179.133864,0,1.4099737984,16600,2018-04-18 05:16:37,13,0,15.714,5534.9846154397,179.133864,0.223694,1.94846791012,0,0,-11.1847,139.9, -1.9, 0.7,0,0,1024,1024,1684,1024,140.3,-25.3,98,3.944,3.943,3.945,3.931,0,0,16.626,76.91,6,P-GPS,
0.374134572407945,36.926665969559,5536.6250354397,180.774284,0,1.40542327332,16700,2018-04-18 05:16:37,13,0,15.714,5536.6250354397,180.774284,0.223694,1.94846791012,0,0,-10.961006,139.9, -1.6, 0.7,0,0,1024,1024,1684,1024,140.3,-25.3,98,3.944,3.943,3.945,3.931,0,0,16.626,76.91,6,P-GPS,
0.374134579022989,36.9266659618312,5538.2654554397,182.414704,0,1.40489177724,16800,2018-04-18 05:16:37,13,0,15.714,5538.2654554397,182.414704,0.223694,1.94846791012,0,0,-10.961006,139.9, -1.6, 0.7,0,0,1024,1024,1684,1024,140.3,-25.3,98,3.944,3.943,3.945,3.931,0,0,16.626,76.91,6,P-GPS,
0.374134599741581,36.926665941362,5539.9058754397,184.055124,0,1.40430778772,16900,2018-04-18 05:16:37,13,0,15.714,5539.9058754397,184.055124,0.223694,1.94846791012,0,0,-10.961006,139.9, -1.5, 0.6,0,0,1024,1024,1684,1024,140.3,-25.3,98,3.944,3.943,3.945,3.931,0,0,16.626,76.91,6,P-GPS,
0.374134612121012,36.9266659406629,5541.5462954397,185.695544,0,1.40712931012,17000,2018-04-18 05:16:37,13,0,15.714,5541.5462954397,185.695544,0.223694,1.94846791012,0,0,-11.1847,139.9, -1.4, 0.6,0,0,1024,1024,1684,1024,140.3,-25.3,98,3.944,3.943,3.945,3.931,0,0,16.626,76.91,6,P-GPS,
0.374134656165638,36.9266659260767,5543.1867154397,187.335964,0,1.4139764232,17100,2018-04-18 05:16:37,13,0,15.714,5543.1867154397,187.335964,0.223694,1.94846791012,0,0,-11.1847,139.9, -1.6, 0.7,0,0,1024,1024,1684,1024,140.3,-25.3,98,3.944,3.943,3.945,3.931,0,0,16.626,76.91,6,P-GPS,
0.374134690463926,36.9266659258353,5544.8271354397,188.976384,0,1.42239505864,17200,2018-04-18 05:16:38,13,0,15.714,5544.8271354397,188.976384,0.223694,1.94846791012,0,0,-11.1847,139.9, -1.7, 0.8,0,0,1024,1024,1684,1024,140.3,-25.3,98,3.944,3.943,3.945,3.931,0,0,16.626,76.91,6,P-GPS,
0.374134711547696,36.9266659143528,5546.4675554397,190.616804,0,1.42458337892,17300,2018-04-18 05:16:38,13,0,15.714,5546.4675554397,190.616804,0.223694,1.94846791012,0,0,-11.1847,139.9, -1.7, 0.7,0,0,1024,1024,1684,1024,140.3,-25.3,98,3.944,3.943,3.945,3.931,0,0,16.626,76.91,6,P-GPS,
0.374134723525003,36.9266659182427,5548.1079754397,192.257224,0,1.42861225044,17400,2018-04-18 05:16:38,13,0,15.714,5548.1079754397,192.257224,0.223694,1.94846791012,0,0,-10.961006,139.9, -1.7, 0.6,0,0,1024,1024,1684,1024,140.3,-25.3,98,3.944,3.943,3.945,3.931,0,0,16.626,76.91,6,P-GPS,
0.374134765437386,36.9266659168401,5549.7483954397,193.897644,0,1.43877301192,17500,2018-04-18 05:16:38,13,0,15.714,5549.7483954397,193.897644,0.223694,1.94846791012,0,0,-11.1847,139.9, -1.8, 0.7,0,0,1024,1024,1684,1024,140.3,-25.3,98,3.944,3.943,3.945,3.931,0,0,16.626,76.91,6,P-GPS,
0.374134795572454,36.926665930879,5551.3888154397,195.538064,0,1.4500820674,17600,2018-04-18 05:16:38,13,0,15.58,5551.3888154397,195.538064,0.223694,1.94846791012,0,0,-11.1847,139.9, -1.7, 0.9,0,0,1024,1024,1684,1024,140.3,-25.3,98,3.944,3.943,3.945,3.931,0,0,16.626,76.91,6,P-GPS,
0.374134815280291,36.9266659333633,5553.0292354397,197.178484,0,1.45573167388,17700,2018-04-18 05:16:38,13,0,15.58,5553.0292354397,197.178484,0.223694,1.94846791012,0,0,-11.1847,139.9, -1.7, 0.8,0,0,1024,1024,1684,1024,140.3,-25.3,98,3.944,3.943,3.945,3.931,0,0,16.626,76.91,6,P-GPS,
0.374134829053059,36.9266659460558,5554.9977394397,199.146988,0,1.46255582108,17800,2018-04-18 05:16:38,13,0,15.58,5554.9977394397,199.146988,0.223694,1.94846791012,0,0,-11.1847,139.9, -1.7, 0.8,0,0,1024,1024,1684,1024,140.3,-25.3,98,3.944,3.943,3.945,3.931,0,0,16.626,76.91,6,P-GPS,
0.374134838669734,36.9266659437818,5556.6381594397,200.787408,0,1.46440621484,17900,2018-04-18 05:16:38,13,0,15.58,5556.6381594397,200.787408,0.223694,1.94846791012,0,0,-10.961006,139.9, -1.8, 1.2,0,0,1024,1024,1684,1024,140.3,-25.3,98,3.944,3.943,3.945,3.931,0,0,16.626,76.91,6,P-GPS,
0.374134843923399,36.9266659514534,5558.2785794397,202.427828,0,1.4677493908,18000,2018-04-18 05:16:38,13,0,15.58,5558.2785794397,202.427828,0.223694,1.94846791012,0,0,-10.961006,139.9, -1.8, 1.3,0,0,1024,1024,1684,1024,140.3,-25.3,98,3.944,3.943,3.945,3.931,0,0,16.626,76.91,6,P-GPS,
0.374134871392094,36.9266659357243,5559.5909154397,203.740164,0,1.4706693384,18100,2018-04-18 05:16:38,13,0,15.58,5559.5909154397,203.740164,0.223694,1.94846791012,0,0,-10.961006,140, -1.9, 1.1,0,0,1024,1024,1684,1024,140.3,-25.3,98,3.944,3.943,3.945,3.931,0,0,16.626,76.91,6,P-GPS,
0.374134888615638,36.9266659268411,5561.2313354397,205.380584,0,1.47279532272,18200,2018-04-18 05:16:38,13,0,15.58,5561.2313354397,205.380584,0.223694,1.94846791012,0,0,-10.961006,140, -2, 1,0,0,1024,1024,1684,1024,140.3,-25.3,98,3.944,3.943,3.945,3.931,0,0,16.626,76.91,6,P-GPS,
0.374134926385157,36.9266659056492,5562.8717554397,207.021004,0,1.47712931236,18300,2018-04-18 05:16:39,14,0,15.58,5562.8717554397,207.021004,0.223694,1.94846791012,0,0,-10.961006,139.9, -2.1, 0.9,0,0,1024,1024,1684,1024,140.3,-25.3,98,3.944,3.943,3.945,3.931,0,0,16.626,76.91,6,P-GPS,
0.374134948721811,36.9266658961958,5564.5121754397,208.661424,0,1.48055122848,18400,2018-04-18 05:16:39,14,0,15.58,5564.5121754397,208.661424,0.223694,1.94846791012,0,0,-10.961006,139.9, -2.2, 1,0,0,1024,1024,1684,1024,140.3,-25.3,98,3.944,3.943,3.945,3.931,0,0,16.626,76.91,6,P-GPS,
0.374134959366848,36.926665885469,5566.1525954397,210.301844,0,1.48062012612,18500,2018-04-18 05:16:39,14,0,15.58,5566.1525954397,210.301844,0.223694,1.94846791012,0,0,-10.961006,139.9, -2.2, 0.9,0,0,1024,1024,1684,1024,140.3,-25.3,98,3.944,3.943,3.945,3.931,0,0,16.626,76.91,6,P-GPS,
0.374134943582747,36.9266658928576,5567.7930154397,211.942264,0,1.47835634652,18600,2018-04-18 05:16:39,14,0,15.553,5567.7930154397,211.942264,0.223694,1.94846791012,0,0,-10.961006,140, -1.9, 0.7,0,0,1024,1024,1684,1024,140.3,-25.3,98,3.931,3.93,3.932,3.917,0,0,17.41,76.91,6,P-GPS,
0.374134924523337,36.926665901516,5569.4334354397,213.582684,0,1.4755905984,18700,2018-04-18 05:16:39,14,0,15.553,5569.4334354397,213.582684,0.223694,1.94846791012,0,0,-10.961006,140, -1.6, 0.7,0,0,1024,1024,1684,1024,140.3,-25.3,98,3.931,3.93,3.932,3.917,0,0,17.41,76.91,6,P-GPS,
0.374134901410831,36.9266659223531,5571.0738554397,215.223104,0,1.47493771124,18800,2018-04-18 05:16:39,14,0,15.553,5571.0738554397,215.223104,0.223694,1.94846791012,0,0,-10.961006,140, -1.5, 0.8,0,0,1024,1024,1684,1024,140.3,-25.3,98,3.931,3.93,3.932,3.917,0,0,17.41,76.91,6,P-GPS,
0.374134898567059,36.9266659666787,5572.7142754397,216.863524,0,1.48566933888,18900,2018-04-18 05:16:39,14,0,15.553,5572.7142754397,216.863524,0.223694,1.94846791012,0,0,-11.1847,140, -1.5, 1,0,0,1024,1024,1684,1024,140.3,-25.3,98,3.931,3.93,3.932,3.917,0,0,17.41,76.91,6,P-GPS,
0.374134893608142,36.9266660149397,5574.3546954397,218.503944,0,1.49699151772,19000,2018-04-18 05:16:39,14,0,15.553,5574.3546954397,218.503944,0.223694,1.94846791012,0,0,-10.961006,140, -1.7, 1.4,0,0,1024,1024,1684,1024,140.3,-25.3,98,3.931,3.93,3.932,3.917,0,0,17.41,76.91,6,P-GPS,
0.374134899840706,36.9266660356204,5575.9951154397,220.144364,0,1.50399939196,19100,2018-04-18 05:16:39,14,0,15.553,5575.9951154397,220.144364,0.223694,1.94846791012,0,0,-10.961006,140, -1.7, 1.3,0,0,1024,1024,1684,1024,140.3,-25.3,98,3.931,3.93,3.932,3.917,0,0,17.41,76.91,6,P-GPS,
0.374134891172498,36.9266660556879,5577.6355354397,221.784784,0,1.50708994324,19200,2018-04-18 05:16:40,14,0,15.553,5577.6355354397,221.784784,0.223694,1.94846791012,0,0,-10.961006,140, -1.6, 1.1,0,0,1024,1024,1684,1024,140.3,-25.3,98,3.931,3.93,3.932,3.917,0,0,17.41,76.91,6,P-GPS,
0.374134895539171,36.9266660481192,5579.2759554397,223.425204,0,1.50619755476,19300,2018-04-18 05:16:40,14,0,15.553,5579.2759554397,223.425204,0.223694,1.94846791012,0,0,-10.961006,140, -1.6, 0.9,0,0,1024,1024,1684,1024,140.3,-25.3,98,3.931,3.93,3.932,3.917,0,0,17.41,76.91,6,P-GPS,
0.374134907455004,36.9266660504036,5582.5567954397,226.706044,0,1.5098097596,19500,2018-04-18 05:16:40,14,0,15.553,5582.5567954397,226.706044,0.223694,1.94846791012,0,0,-11.1847,140, -1.7, 1.3,0,0,1024,1024,1684,1024,140.3,-25.3,98,3.931,3.93,3.932,3.917,0,0,17.41,76.91,6,P-GPS,
0.374134911879996,36.9266660570567,5584.1972154397,228.346464,0,1.51267721376,19600,2018-04-18 05:16:40,14,0,15.607,5584.1972154397,228.346464,0.223694,1.94846791012,0,0,-10.961006,140, -1.7, 1.4,0,0,1024,1024,1684,1024,140.3,-25.3,97,3.926,3.923,3.925,3.912,0,0,17.506,76.91,6,P-GPS,
0.374134929040437,36.9266660815515,5585.8376354397,229.986884,0,1.52346133484,19700,2018-04-18 05:16:40,14,0,15.607,5585.8376354397,229.986884,0.223694,1.94846791012,0,0,-10.961006,140, -1.9, 1.4,0,0,1024,1024,1684,1024,140.3,-25.3,97,3.926,3.923,3.925,3.912,0,0,17.506,76.91,6,P-GPS,
0.374134931877492,36.926666110396,5587.4780554397,231.627304,0,1.53178482592,19800,2018-04-18 05:16:40,14,0,15.607,5587.4780554397,231.627304,0.223694,1.94846791012,0,0,-10.961006,139.9, -1.9, 1.3,0,0,1024,1024,1684,1024,140.3,-25.3,97,3.926,3.923,3.925,3.912,0,0,17.506,76.91,6,P-GPS,
0.374134937942529,36.9266661209368,5589.1184754397,233.267724,0,1.53609584968,19900,2018-04-18 05:16:40,14,0,15.607,5589.1184754397,233.267724,0.223694,1.94846791012,0,0,-10.961006,140, -1.8, 1.2,0,0,1024,1024,1684,1024,140.3,-25.3,97,3.926,3.923,3.925,3.912,0,0,17.506,76.91,6,P-GPS,
0.374134932133768,36.926666140557,5591.0869794397,235.236228,0,1.53983928812,20000,2018-04-18 05:16:40,14,0,15.607,5591.0869794397,235.236228,0.223694,1.94846791012,0,0,-11.1847,140, -1.7, 1.2,0,0,1024,1024,1684,1023,140.3,-25.3,97,3.926,3.923,3.925,3.912,0,0,17.506,76.91,6,P-GPS,
0.374134932815577,36.9266661396992,5592.7273994397,236.876648,0,1.53978351384,20100,2018-04-18 05:16:40,14,0,15.607,5592.7273994397,236.876648,0.223694,1.94846791012,0,0,-11.1847,140, -1.8, 1.2,0,0,1024,1024,1684,1024,140.3,-25.3,97,3.926,3.923,3.925,3.912,0,0,17.506,76.91,6,P-GPS,
0.374134926558993,36.9266661522343,5594.3678194397,238.517068,0,1.5415518866,20200,2018-04-18 05:16:40,14,0,15.607,5594.3678194397,238.517068,0.223694,1.94846791012,0,0,-11.1847,140, -1.9, 1.2,0,0,1024,1024,1684,1024,140.3,-25.3,97,3.926,3.923,3.925,3.912,0,0,17.506,76.91,6,P-GPS,
0.374134928944257,36.9266661482358,5596.0082394397,240.157488,0,1.54108272648,20300,2018-04-18 05:16:41,14,0,15.607,5596.0082394397,240.157488,0.223694,1.94846791012,0,0,-10.961006,140, -1.7, 1.3,0,0,1024,1024,1684,1024,140.3,-25.3,97,3.926,3.923,3.925,3.912,0,0,17.506,76.91,6,P-GPS,
0.374134924608219,36.9266661586677,5597.6486594397,241.797908,0,1.54277892076,20400,2018-04-18 05:16:41,14,0,15.607,5597.6486594397,241.797908,0.223694,1.94846791012,0,0,-10.961006,140, -1.6, 1.4,0,0,1024,1024,1684,1024,140.3,-25.3,97,3.926,3.923,3.925,3.912,0,0,17.506,76.91,6,P-GPS,
0.374134893898005,36.9266661472846,5599.2890794397,243.438328,0,1.53210634824,20500,2018-04-18 05:16:41,14,0,15.607,5599.2890794397,243.438328,0.223694,1.94846791012,0,0,-10.961006,140, -1.7, 1.4,0,0,1024,1024,1684,1022,140.3,-25.3,97,3.926,3.923,3.925,3.912,0,0,17.506,76.91,6,P-GPS,
0.374134865309754,36.9266661456706,5600.9294994397,245.078748,0,1.52459650548,20600,2018-04-18 05:16:41,14,0,15.553,5600.9294994397,245.078748,0.223694,1.94846791012,0,0,-10.961006,140, -1.8, 1.3,0,0,1024,1024,1684,1024,140.3,-25.3,97,3.926,3.923,3.925,3.912,0,0,17.458,76.91,6,P-GPS,
0.37413488928849,36.9266661629101,5602.5699194397,246.719168,0,1.53515096776,20700,2018-04-18 05:16:41,14,0,15.553,5602.5699194397,246.719168,0.223694,1.94846791012,0,0,-10.961006,140, -2, 1.3,0,0,1024,1024,1482,1024,140.3,-25.3,97,3.926,3.923,3.925,3.912,0,0,17.458,76.91,6,P-GPS,
0.374134900997613,36.926666185865,5604.2103394397,248.359588,0,1.54420608616,20800,2018-04-18 05:16:41,14,0,15.553,5604.2103394397,248.359588,0.223694,1.94846791012,0,0,-10.961006,140, -2.4, 1.3,0,0,1024,1024,1024,1024,140.3,-25.3,97,3.926,3.923,3.925,3.912,0,0,17.458,76.91,6,P-GPS,
0.374134889368488,36.926666159407,5605.5226754397,249.671924,0,1.53422905172,20900,2018-04-18 05:16:41,14,0,15.553,5605.5226754397,249.671924,0.223694,1.94846791012,0,0,-10.06623,140.1, -3.4, 2.3,0,0,1024,1024,1024,1024,140.3,-25.3,97,3.926,3.923,3.925,3.912,0,0,17.458,76.91,6,P-GPS,
0.374134872300563,36.9266661528505,5607.1630954397,251.312344,0,1.52825136124,21000,2018-04-18 05:16:41,14,0,15.553,5607.1630954397,251.312344,0.223694,1.94846791012,0,0,-8.724066,140, -3.7, 2.8,0,0,1024,1024,1024,1024,140.3,-25.3,97,3.926,3.923,3.925,3.912,0,0,17.458,76.91,6,P-GPS,
0.374134853852837,36.926666172024,5608.1473474397,252.296596,0,1.52888128252,21100,2018-04-18 05:16:41,14,0,15.553,5608.1473474397,252.296596,0.223694,1.94846791012,0,0,-7.381902,140, -3, 2,0,0,1024,1024,1024,1024,140.3,-25.3,97,3.926,3.923,3.925,3.912,0,0,17.458,76.91,6,P-GPS,
0.374134831450638,36.9266661926289,5609.1315994397,253.280848,0,1.52899611192,21200,2018-04-18 05:16:42,14,0,15.553,5609.1315994397,253.280848,0.223694,1.94846791012,0,0,-5.816044,140.2, -2.7, 1.6,0,0,1024,1024,1024,1024,140.3,-25.3,97,3.926,3.923,3.925,3.912,0,0,17.458,76.91,6,P-GPS,
0.374134834077725,36.9266661944308,5609.7877674397,253.937016,0,1.53012472088,21300,2018-04-18 05:16:42,14,0,15.553,5609.7877674397,253.937016,0.223694,1.94846791012,0,0,-4.250186,140.1, -2.9, 1.7,0,0,1024,1024,1024,1024,140.3,-25.3,97,3.926,3.923,3.925,3.912,0,0,17.458,76.91,6,P-GPS,
0.374134837585801,36.9266662019214,5610.4439354397,254.593184,0,1.53301514092,21400,2018-04-18 05:16:42,14,0,15.553,5610.4439354397,254.593184,0.223694,1.94846791012,0,0,-2.684328,140.1, -2.4, 1.6,0,0,1024,1024,1024,1024,140.3,-25.3,97,3.926,3.923,3.925,3.912,0,0,17.458,76.91,6,P-GPS,
0.37413489416395,36.9266661945992,5610.4439354397,254.593184,0,1.54487209668,21500,2018-04-18 05:16:42,14,0,15.553,5610.4439354397,254.593184,0.223694,1.94846791012,0,0,-1.565858,140.2, -1.4, 1.2,0,0,1024,1024,1024,1024,140.3,-25.3,97,3.926,3.923,3.925,3.912,0,0,17.458,76.91,6,P-GPS,
