latitude,longitude,altitude(feet),ascent(feet),speed(mph),distance(feet),time(millisecond),datetime(utc),satellites,gpslevel,voltage(v),max_altitude(feet),max_ascent(feet),max_speed(mph),max_distance(feet), xSpeed(mph), ySpeed(mph), zSpeed(mph), compass_heading(degrees), pitch(degrees), roll(degrees),isPhoto,isVideo,rc_elevator,rc_aileron,rc_throttle,rc_rudder,gimbal_heading(degrees),gimbal_pitch(degrees),battery_percent,voltageCell1,voltageCell2,voltageCell3,voltageCell4,voltageCell5,voltageCell6,current(A),battery_temperature(f),flycStateRaw,flycState,message
0.371722298812767,36.9135353453913,5411.5128933128,0,0,0,0,2018-04-18 06:33:56,8,0,0,5411.5128933128,0,0,0,0,0,0,22.9, -0.6, 0.4,0,0,364,369,364,1684,27.5,0,99,4.289,4.291,4.289,4.287,0,0,0,82.31,41,Motors_Started,
0.37172226672784,36.9135353645291,5411.5128933128,0,0,0.0136303482052,100,2018-04-18 06:33:56,8,0,0,5411.5128933128,0,0,0.0136303482052,0,0,0,22.9, -0.6, 0.4,0,0,364,374,364,1684,27.5,0,99,4.289,4.291,4.289,4.287,0,0,0,82.31,41,Motors_Started,
0.371722258936652,36.913535372941,5411.5128933128,0,0,0.0176832026656,200,2018-04-18 06:33:56,8,0,0,5411.5128933128,0,0,0.0176832026656,0,0,0,23, -0.6, 0.4,0,0,364,372,364,1684,27.5,0,99,4.289,4.291,4.289,4.287,0,0,0,82.31,41,Motors_Started,
0.371722267905714,36.9135353798922,5411.5128933128,0,0,0.0168997052652,300,2018-04-18 06:33:56,8,0,17.103,5411.5128933128,0,0,0.0176832026656,0,0,0,22.8, -0.5, 0.4,0,0,364,371,364,1684,27.5,0,99,4.289,4.291,4.289,4.287,0,0,1.508,82.31,41,Motors_Started,Setting new Return-To-Home altitude to 30m (98 ft). Setting new Maximum Flight Altitude to 150m (492 ft)
0.37172227905567,36.9135354018493,5411.5128933128,0,0,0.0218230978112,400,2018-04-18 06:33:57,8,0,17.103,5411.5128933128,0,0,0.0218230978112,0,0,0,22.9, -0.6, 0.4,0,0,364,370,364,1684,27.4,0,99,4.289,4.291,4.289,4.287,0,0,1.508,82.31,41,Motors_Started,
0.371722287050414,36.9135354319487,5411.5128933128,0,0,0.0318700141432,500,2018-04-18 06:33:57,8,0,17.103,5411.5128933128,0,0,0.0318700141432,0,0,0,23, -0.7, 0.4,0,0,364,382,364,1669,27.4,0,99,4.289,4.291,4.289,4.287,0,0,1.508,82.31,41,Motors_Started,
0.371722295888692,36.9135354542679,5411.5128933128,0,0,0.039737205996,600,2018-04-18 06:33:57,8,0,17.103,5411.5128933128,0,0,0.039737205996,0,0,0,22.9, -0.7, 0.5,0,0,364,406,364,1623,27.4,0,99,4.289,4.291,4.289,4.287,0,0,1.508,82.31,41,Motors_Started,
0.371722300816669,36.9135354695909,5411.5128933128,0,0,0.045319227172,700,2018-04-18 06:33:57,8,0,17.103,5411.5128933128,0,0,0.045319227172,0,0,0,22.9, -0.8, 0.5,0,0,364,406,364,1623,27.4,0,99,4.289,4.291,4.289,4.287,0,0,1.508,82.31,41,Motors_Started,
0.371722305438702,36.9135354982321,5411.5128933128,0,0,0.055814962416,800,2018-04-18 06:33:57,8,0,17.103,5411.5128933128,0,0,0.055814962416,0,0,0,22.9, -0.8, 0.5,0,0,1024,1024,711,1201,26.9,0,99,4.289,4.291,4.289,4.287,0,0,1.508,82.31,41,Motors_Started,
0.371722308028437,36.9135355304778,5411.5128933128,0,0,0.067610894552,900,2018-04-18 06:33:57,8,0,17.103,5411.5128933128,0,0,0.067610894552,0,0,0,22.9, -0.7, 0.5,0,0,1024,1024,928,1024,25.7,0,99,4.289,4.291,4.289,4.287,0,0,1.508,82.31,41,Motors_Started,
0.371722308677779,36.9135355508345,5411.5128933128,0,0,0.075040684816,1000,2018-04-18 06:33:57,8,0,17.103,5411.5128933128,0,0,0.075040684816,0,0,0,22.9, -0.5, 0.3,0,0,1024,1024,1024,1024,25.7,0,99,4.289,4.291,4.289,4.287,0,0,1.508,82.31,41,Motors_Started,
0.371722307111216,36.9135355621245,5411.5128933128,0,0,0.079131236128,1100,2018-04-18 06:33:57,8,0,17.103,5411.5128933128,0,0,0.079131236128,0,0,0,22.9, -0.3, 0.2,0,0,1024,1024,1024,1024,24.7,0,99,4.289,4.291,4.289,4.287,0,0,1.508,82.31,41,Motors_Started,
0.371722304570945,36.9135355852384,5411.5128933128,0,0,0.087531498864,1200,2018-04-18 06:33:57,8,0,17.103,5411.5128933128,0,0,0.087531498864,0,0,0,22.9, -0.1, 0,0,0,1024,1024,1024,1024,24.3,0,99,4.289,4.291,4.289,4.287,0,0,1.508,82.31,41,Motors_Started,
0.371722305500176,36.9135356197029,5411.5128933128,0,0,0.100110239424,1300,2018-04-18 06:33:57,8,0,17.103,5411.5128933128,0,0,0.100110239424,0,0,0,22.9, -0.3, 0.2,0,0,1024,1024,1024,1024,24,0,99,4.289,4.29,4.289,4.283,0,0,1.51,82.31,41,Motors_Started,
0.371722309269209,36.9135356503791,5411.5128933128,0,0,0.111337601988,1400,2018-04-18 06:33:58,8,0,17.103,5411.5128933128,0,0,0.111337601988,0,0,0,22.9, -0.5, 0.3,0,0,1024,1024,1024,1024,23.8,0,99,4.289,4.29,4.289,4.283,0,0,1.51,82.31,41,Motors_Started,
0.371722312583297,36.9135356703625,5411.5128933128,0,0,0.11866962322,1500,2018-04-18 06:33:58,8,0,17.103,5411.5128933128,0,0,0.11866962322,0,0,0,22.9, -0.5, 0.3,0,0,1024,1024,1024,1024,23.7,0,99,4.289,4.29,4.289,4.283,0,0,1.51,82.31,41,Motors_Started,
0.371722313191724,36.913535699012,5411.5128933128,0,0,0.12912237946,1600,2018-04-18 06:33:58,8,0,17.103,5411.5128933128,0,0,0.12912237946,0,0,0,22.9, -0.3, 0.2,0,0,1024,1024,1024,1024,23.6,0,99,4.289,4.29,4.289,4.283,0,0,1.51,82.31,10,Assisted_Takeoff,
0.371722311040346,36.9135357278882,5411.5128933128,0,0,0.139622051712,1700,2018-04-18 06:33:58,8,0,17.103,5411.5128933128,0,0,0.139622051712,0,0,0,22.9, -0.1, 0,0,0,1024,1024,1024,1024,23.6,0,99,4.289,4.29,4.289,4.283,0,0,1.51,82.31,10,Assisted_Takeoff,
0.371722312036546,36.9135357536323,5411.5128933128,0,0,0.149021658312,1800,2018-04-18 06:33:58,8,0,17.103,5411.5128933128,0,0,0.149021658312,0,0,0,22.9, -0.4, 0.2,0,0,1024,1024,1026,1024,23.5,0,99,4.289,4.29,4.289,4.283,0,0,1.51,82.31,10,Assisted_Takeoff,
0.371722315633169,36.9135357738055,5411.5128933128,0,0,0.15642388952,1900,2018-04-18 06:33:58,8,0,17.103,5411.5128933128,0,0,0.15642388952,0,0,0,22.9, -0.6, 0.4,0,0,1024,1024,1044,1024,23.5,0,99,4.289,4.29,4.289,4.283,0,0,1.51,82.31,10,Assisted_Takeoff,
0.371722342443972,36.9135357827403,5411.5128933128,0,0,0.160355320092,2000,2018-04-18 06:33:58,8,0,17.103,5411.5128933128,0,0,0.160355320092,0,0,0,22.9, -0.7, 0.5,0,0,1024,1024,1044,1024,23.4,0,99,4.289,4.29,4.289,4.283,0,0,1.51,82.31,10,Assisted_Takeoff,
0.371722374991479,36.9135357883105,5411.5128933128,0,0,0.1639681811,2100,2018-04-18 06:33:58,8,0,17.103,5411.5128933128,0,0,0.1639681811,0,0,0,22.9, -0.6, 0.4,0,0,1024,1024,1042,1024,23.4,0,99,4.289,4.29,4.289,4.283,0,0,1.51,82.31,10,Assisted_Takeoff,
0.371722378722753,36.9135358043917,5411.5128933128,0,0,0.169981632736,2200,2018-04-18 06:33:58,8,0,17.103,5411.5128933128,0,0,0.169981632736,0,0,0,22.9, -0.5, 0.3,0,0,1024,1024,1046,1024,23.4,0,99,4.289,4.29,4.289,4.283,0,0,1.51,82.31,10,Assisted_Takeoff,
0.371722366118088,36.9135358258376,5411.5128933128,0,0,0.176998693328,2300,2018-04-18 06:33:58,8,0,17.077,5411.5128933128,0,0,0.176998693328,0,0,0,22.9, -0.3, 0.2,0,0,1024,1024,1055,1024,23.4,0,99,4.272,4.266,4.259,4.251,0,0,4.038,82.31,10,Assisted_Takeoff,
0.371722349599661,36.9135358380656,5411.5128933128,0,0,0.180700793184,2400,2018-04-18 06:33:59,8,0,17.077,5411.5128933128,0,0,0.180700793184,0,0,0,22.9, -0.2, 0.1,0,0,1024,1024,1062,1024,23.3,0,99,4.272,4.266,4.259,4.251,0,0,4.038,82.31,10,Assisted_Takeoff,
0.371722338412149,36.9135358456933,5411.5128933128,0,0,0.18310203998,2500,2018-04-18 06:33:59,8,0,17.077,5411.5128933128,0,0,0.18310203998,0,0,0,22.9, -0.2, 0.1,0,0,1024,1024,1072,1024,23.3,0,99,4.272,4.266,4.259,4.251,0,0,4.038,82.31,10,Assisted_Takeoff,
0.371722326788112,36.9135358494209,5411.5128933128,0,0,0.184174218492,2600,2018-04-18 06:33:59,8,0,17.077,5411.5128933128,0,0,0.184174218492,0,0,0,22.9, -0.3, 0.2,0,0,1024,1024,1072,1024,23.3,0,99,4.272,4.266,4.259,4.251,0,0,4.038,82.31,10,Assisted_Takeoff,
0.371722320787703,36.913535854493,5411.5128933128,0,0,0.185914376028,2700,2018-04-18 06:33:59,8,0,17.077,5411.5128933128,0,0,0.185914376028,0,0,0,22.9, -0.4, 0.3,0,0,1024,1024,1101,1024,23.3,0,99,4.272,4.266,4.259,4.251,0,0,4.038,82.31,10,Assisted_Takeoff,
0.37172231412299,36.9135358751064,5411.5128933128,0,0,0.193342853956,2800,2018-04-18 06:33:59,8,0,17.077,5411.5128933128,0,0,0.193342853956,0,0,0,22.9, -0.4, 0.2,0,0,1024,1024,1105,1024,23.3,0,99,4.272,4.266,4.259,4.251,0,0,4.038,82.31,10,Assisted_Takeoff,
0.371722309091302,36.9135359002833,5411.5128933128,0,0,0.202482618028,2900,2018-04-18 06:33:59,8,0,17.077,5411.5128933128,0,0,0.202482618028,0,0,0,22.9, -0.3, 0.1,0,0,1024,1024,1115,1024,23.3,0,99,4.272,4.266,4.259,4.251,0,0,4.038,82.31,10,Assisted_Takeoff,
0.37172230327796,36.9135359181402,5411.5128933128,0,0,0.208969166792,3000,2018-04-18 06:33:59,8,0,17.077,5411.5128933128,0,0,0.208969166792,0,0,0,22.8, -0.1, 0,0,0,1024,1024,1132,1024,23.3,0,99,4.272,4.266,4.259,4.251,0,0,4.038,82.31,10,Assisted_Takeoff,
0.371722300274906,36.9135359294599,5411.5128933128,0,0,0.213093182672,3100,2018-04-18 06:33:59,8,0,17.077,5411.5128933128,0,0,0.213093182672,0,0,0,22.9, -0.1, 0,0,0,1024,1024,1147,1024,23.3,0,99,4.272,4.266,4.259,4.251,0,0,4.038,82.31,10,Assisted_Takeoff,
0.371722275182416,36.9135359370257,5411.5128933128,0,0,0.216024941296,3200,2018-04-18 06:33:59,8,0,17.077,5411.5128933128,0,0,0.216024941296,0,0,0,22.8, -0.1, 0.1,0,0,1024,1024,1147,1024,23.3,0,99,4.272,4.266,4.259,4.251,0,0,4.038,82.31,10,Assisted_Takeoff,
0.371722243626632,36.9135359408127,5411.5128933128,0,0,0.218165689396,3300,2018-04-18 06:33:59,8,0,17.077,5411.5128933128,0,0,0.218165689396,0,0,0,22.8, 0, 0,0,0,1024,1024,1174,1024,23.3,0,99,4.272,4.266,4.259,4.251,0,0,4.038,82.31,10,Assisted_Takeoff,
0.371722212694949,36.9135359402884,5411.5128933128,0,0,0.219305781296,3400,2018-04-18 06:34:00,8,0,17.077,5411.5128933128,0,0,0.219305781296,0,0,0,22.8, 0, 0,0,0,1024,1024,1174,1024,23.2,0,99,4.272,4.266,4.259,4.251,0,0,4.038,82.31,10,Assisted_Takeoff,
0.371722191953865,36.913535938626,5411.5128933128,0,0,0.219920282628,3500,2018-04-18 06:34:00,8,0,17.077,5411.5128933128,0,0,0.219920282628,0,0,0,22.9, 0, 0,0,0,1024,1024,1193,1024,23.3,0,99,4.272,4.266,4.259,4.251,0,0,4.038,82.31,10,Assisted_Takeoff,
0.371722175367247,36.9135359597803,5411.5128933128,0,0,0.228634849836,3600,2018-04-18 06:34:00,8,0,17.077,5411.5128933128,0,0,0.228634849836,0,0,0,22.8, 0.2, -0.3,0,0,1024,1024,1193,1024,23.2,0,99,4.272,4.266,4.259,4.251,0,0,4.038,82.31,10,Assisted_Takeoff,
0.371722174574398,36.9135359791366,5411.5128933128,0,0,0.235618117776,3700,2018-04-18 06:34:00,8,0,17.077,5411.5128933128,0,0,0.235618117776,0,0,0,22.9, 1.1, -1.2,0,0,1024,1024,1215,1024,23.2,0,99,4.272,4.266,4.259,4.251,0,0,4.038,82.31,10,Assisted_Takeoff,
0.371722163156665,36.9135359687875,5411.5128933128,0,0,0.232763786976,3800,2018-04-18 06:34:00,8,0,17.077,5411.5128933128,0,0,0.235618117776,0,0,-0.447388,22.8, 1.5, -1.7,0,0,1024,1024,1222,1024,23.2,0,99,4.272,4.266,4.259,4.251,0,0,4.038,82.31,6,P-GPS,Obstacle Avoided. Revise Flight Route
0.371722150796368,36.9135359005732,5411.5128933128,0,0,0.209628943716,3900,2018-04-18 06:34:00,8,0,17.077,5411.5128933128,0,0,0.235618117776,0,-0.223694,-0.671082,22.9, 0.8, -0.6,0,0,1024,1024,1238,1024,23.2,0,99,4.272,4.266,4.259,4.251,0,0,4.038,82.31,6,P-GPS,
0.371722175788098,36.9135357837585,5411.5128933128,0,0.223694,0.16611385046,4000,2018-04-18 06:34:00,8,0,17.077,5411.5128933128,0,0.223694,0.235618117776,0,-0.223694,-0.894776,22.9, 0.2, 0.2,0,0,1024,1024,1245,1024,23.2,0,99,4.272,4.266,4.259,4.251,0,0,4.038,82.31,6,P-GPS,
0.371722224155734,36.9135356633432,5411.5128933128,0,0.223694,0.119157156044,4100,2018-04-18 06:34:00,8,0,17.077,5411.5128933128,0,0.223694,0.235618117776,0,-0.223694,-1.11847,22.9, 0.2, 0.7,0,0,1024,1024,1250,1024,23.2,0,99,4.272,4.266,4.259,4.251,0,0,4.038,82.31,6,P-GPS,
0.371722304830885,36.9135355373236,5411.8409773128,0.328084,0.223694,0.070059385444,4200,2018-04-18 06:34:00,8,0,17.077,5411.8409773128,0.328084,0.223694,0.235618117776,0,-0.223694,-1.342164,23, 0.3, 1.4,0,0,1024,1024,1251,1024,23.2,0,99,4.272,4.266,4.259,4.251,0,0,4.038,82.31,6,P-GPS,
0.371722388802109,36.9135354326253,5412.1690613128,0.656168,0,0.045726379416,4300,2018-04-18 06:34:01,8,0,16.998,5412.1690613128,0.656168,0.223694,0.235618117776,0,0,-1.565858,23.1, 0.6, 2,0,0,1024,1024,1258,1024,23.2,0,99,4.277,4.276,4.267,4.27,0,0,2.738,82.31,6,P-GPS,
0.371722444333067,36.913535358046,5412.4971453128,0.984252,0,0.053293308792,4400,2018-04-18 06:34:01,7,0,16.998,5412.4971453128,0.984252,0.223694,0.235618117776,0,0,-1.789552,23.1, 0.7, 1.9,0,0,1024,1024,1266,1024,23.2,0,99,4.277,4.276,4.267,4.27,0,0,2.738,82.31,6,P-GPS,Home Point Recorded. RTH Altitude:  30m.
0.371722470382573,36.9135353183485,5412.4971453128,0.984252,0,0.063370080768,4500,2018-04-18 06:34:01,7,0,16.998,5412.4971453128,0.984252,0.223694,0.235618117776,0,0,-1.789552,23.1, 0.7, 1.5,0,0,1024,1024,1269,1024,23.2,0,99,4.277,4.276,4.267,4.27,0,0,2.738,82.31,6,P-GPS,
0.371722507196807,36.9135353369031,5412.8252293128,1.312336,0,0.076091865952,4600,2018-04-18 06:34:01,9,0,16.998,5412.8252293128,1.312336,0.223694,0.235618117776,0,0,-2.013246,23, 0.9, 0.8,0,0,1024,1024,1268,1024,23.2,0,99,4.277,4.276,4.267,4.27,0,0,2.738,82.31,6,P-GPS,
0.371722542976775,36.9135353754561,5413.1533133128,1.64042,0,0.089755908384,4700,2018-04-18 06:34:01,9,0,16.998,5413.1533133128,1.64042,0.223694,0.235618117776,0,0,-2.23694,22.8, 1, 0.3,0,0,1024,1024,1274,1024,23.2,0,99,4.277,4.276,4.267,4.27,0,0,2.738,82.31,6,P-GPS,
0.371722578471459,36.913535424059,5413.4813973128,1.968504,0,0.105993113628,4800,2018-04-18 06:34:01,9,0,16.998,5413.4813973128,1.968504,0.223694,0.235618117776,0,0,-2.23694,22.7, 0.7, 0,0,0,1024,1024,1284,1024,23.2,0,99,4.277,4.276,4.267,4.27,0,0,2.738,82.31,6,P-GPS,
0.371722601966751,36.9135354477585,5413.8094813128,2.296588,0,0.116740817384,4900,2018-04-18 06:34:01,9,0,16.998,5413.8094813128,2.296588,0.223694,0.235618117776,0,0,-2.460634,22.7, 0.4, 0.3,0,0,1024,1024,1282,1024,23.2,0,99,4.277,4.276,4.267,4.27,0,0,2.738,82.31,6,P-GPS,
0.371722658640877,36.9135354676699,5414.4656493128,2.952756,0,0.138656172416,5000,2018-04-18 06:34:01,10,0,16.998,5414.4656493128,2.952756,0.223694,0.235618117776,0,0,-2.460634,22.7, 0, 0.1,0,0,1024,1024,1282,1024,23.2,0,99,4.277,4.276,4.267,4.27,0,0,2.738,82.31,6,P-GPS,
0.371722722736433,36.9135354746479,5414.7937333128,3.28084,0,0.16169783982,5100,2018-04-18 06:34:01,10,0,16.998,5414.7937333128,3.28084,0.223694,0.235618117776,0,0,-2.684328,22.8, 0, 0.5,0,0,1024,1024,1282,1024,23.2,0,99,4.277,4.276,4.267,4.27,0,0,2.738,82.31,6,P-GPS,
0.371722714964938,36.9135355051627,5415.1218173128,3.608924,0,0.16263780048,5200,2018-04-18 06:34:01,10,0,16.998,5415.1218173128,3.608924,0.223694,0.235618117776,0,0,-2.684328,22.8, 0.2, 0.4,0,0,1024,1024,1284,1024,23.2,0,99,4.277,4.276,4.267,4.27,0,0,2.738,82.31,6,P-GPS,
0.3717226469659,36.9135355411883,5415.4499013128,3.937008,0,0.145732288128,5300,2018-04-18 06:34:01,10,0,16.577,5415.4499013128,3.937008,0.223694,0.235618117776,0,0,-2.684328,22.8, 0.2, 0.2,0,0,1024,1024,1287,1024,23.2,0,99,4.177,4.173,4.165,4.161,0,0,12.732,82.31,6,P-GPS,
0.371722604626102,36.9135355728521,5416.1060693128,4.593176,0,0.139054138308,5400,2018-04-18 06:34:02,8,0,16.577,5416.1060693128,4.593176,0.223694,0.235618117776,0,0,-2.684328,22.7, 0, 0.4,0,0,1024,1024,1287,1024,23.2,0,99,4.177,4.173,4.165,4.161,0,0,12.732,82.31,6,P-GPS,
0.37172259419032,36.9135355871069,5416.4341533128,4.92126,0,0.13925197296,5500,2018-04-18 06:34:02,8,0,16.577,5416.4341533128,4.92126,0.223694,0.235618117776,0,0,-2.908022,22.7, -0.2, 0.5,0,0,1024,1024,1289,1024,23.2,0,99,4.177,4.173,4.165,4.161,0,0,12.732,82.31,6,P-GPS,
0.371722464644344,36.9135356036495,5417.0903213128,5.577428,0,0.111976381536,5700,2018-04-18 06:34:02,9,0,16.577,5417.0903213128,5.577428,0.223694,0.235618117776,0,0,-2.908022,22.7, -0.1, 0.2,0,0,1024,1024,1292,1024,23.2,0,99,4.177,4.173,4.165,4.161,0,0,12.732,82.31,6,P-GPS,
0.371722326624453,36.913535621611,5417.7464893128,6.233596,0,0.10128609248,5800,2018-04-18 06:34:02,8,0,16.577,5417.7464893128,6.233596,0.223694,0.235618117776,0,0,-2.908022,22.7, -0.3, 0.1,0,0,1024,1024,1295,1024,23.2,0,99,4.177,4.173,4.165,4.161,0,0,12.732,82.31,6,P-GPS,
0.371722176052211,36.9135356426447,5418.0745733128,6.56168,0,0.117335305592,5900,2018-04-18 06:34:02,8,0,16.577,5418.0745733128,6.56168,0.223694,0.235618117776,0,0,-2.908022,22.7, -0.7, 0,0,0,1024,1024,1298,1024,23.2,0,99,4.177,4.173,4.165,4.161,0,0,12.732,82.31,6,P-GPS,
0.371721962370334,36.913535638018,5418.4026573128,6.889764,0,0.16268373224,6000,2018-04-18 06:34:02,8,0,16.577,5418.4026573128,6.889764,0.223694,0.235618117776,0,0,-2.908022,22.8, -1.2, -0.1,0,0,1024,1024,1296,1024,23.2,0,99,4.177,4.173,4.165,4.161,0,0,12.732,82.31,6,P-GPS,
0.371721618373957,36.9135355471297,5419.3869093128,7.874016,0,0.25893865658,6200,2018-04-18 06:34:02,9,0,16.577,5419.3869093128,7.874016,0.223694,0.25893865658,0,0,-2.908022,22.9, -1.2, 0.4,0,0,1024,1024,1294,1024,23.2,0,99,4.177,4.173,4.165,4.161,0,0,12.732,82.31,6,P-GPS,
0.371721539823111,36.9135354896425,5419.7149933128,8.2021,0,0.281873696684,6300,2018-04-18 06:34:02,9,0,16.524,5419.7149933128,8.2021,0.223694,0.281873696684,0,0,-2.908022,22.9, -1, 1,0,0,1024,1024,1295,1024,23.2,0,99,4.177,4.173,4.165,4.161,0,0,13.286,82.31,6,P-GPS,Obstacle Avoided. Revise Flight Route
0.371721403854754,36.9135354508901,5420.3711613128,8.858268,0,0.32878609976,6400,2018-04-18 06:34:02,11,0,16.524,5420.3711613128,8.858268,0.223694,0.32878609976,0,0,-2.908022,22.9, -0.8, 0.9,0,0,1024,1024,1299,1024,23.2,0,99,4.177,4.173,4.165,4.161,0,0,13.286,82.31,6,P-GPS,
0.371721256086896,36.9135354404534,5420.6992453128,9.186352,0,0.38201444792,6500,2018-04-18 06:34:03,11,0,16.524,5420.6992453128,9.186352,0.223694,0.38201444792,0,0,-2.908022,22.8, -0.6, 0.6,0,0,1024,1024,1300,1024,23.2,0,99,4.177,4.173,4.165,4.161,0,0,13.286,82.31,6,P-GPS,
0.371721129205461,36.9135354424338,5421.3554133128,9.84252,0,0.42819555176,6600,2018-04-18 06:34:03,11,0,16.524,5421.3554133128,9.84252,0.223694,0.42819555176,0,0,-2.908022,22.8, -0.2, 0.5,0,0,1024,1024,1301,1024,23.2,0,99,4.177,4.173,4.165,4.161,0,0,13.286,82.31,6,P-GPS,
0.371721053943868,36.9135354426841,5421.6834973128,10.170604,0,0.45557416156,6700,2018-04-18 06:34:03,11,0,16.524,5421.6834973128,10.170604,0.223694,0.45557416156,0,0,-2.908022,22.8, -0.2, 0.6,0,0,1024,1024,1302,1024,23.2,0,99,4.177,4.173,4.165,4.161,0,0,13.286,82.31,6,P-GPS,
0.371720894189441,36.9135354619523,5422.0115813128,10.498688,0,0.5142388616,6800,2018-04-18 06:34:03,11,0,16.524,5422.0115813128,10.498688,0.223694,0.5142388616,0,0,-2.908022,22.8, -0.4, 0.6,0,0,1024,1024,1307,1024,23.2,0,99,4.177,4.173,4.165,4.161,0,0,13.286,82.31,6,P-GPS,
0.371720700547501,36.9135354820266,5422.6677493128,11.154856,0,0.5852526434,6900,2018-04-18 06:34:03,11,0,16.524,5422.6677493128,11.154856,0.223694,0.5852526434,0,0,-2.908022,22.8, -0.8, 0.8,0,0,1024,1024,1314,1024,23.2,0,99,4.177,4.173,4.165,4.161,0,0,13.286,82.31,6,P-GPS,
0.371720417521492,36.9135354866887,5422.9958333128,11.48294,0,0.688320232,7000,2018-04-18 06:34:03,11,0,16.524,5422.9958333128,11.48294,0.223694,0.688320232,0,0,-3.131716,22.8, -1, 0.9,0,0,1024,1024,1322,1024,23.2,0,99,4.177,4.173,4.165,4.161,0,0,13.286,82.31,6,P-GPS,
0.371720163379397,36.913535472743,5423.6520013128,12.139108,0,0.7804954318,7100,2018-04-18 06:34:03,11,0,16.524,5423.6520013128,12.139108,0.223694,0.7804954318,0,0,-3.131716,22.8, -1.1, 0.7,0,0,1024,1024,1334,1024,23.2,0,99,4.177,4.173,4.165,4.161,0,0,13.286,82.31,6,P-GPS,
0.371719827193648,36.9135354891714,5423.9800853128,12.467192,0,0.90329399216,7200,2018-04-18 06:34:03,11,0,16.524,5423.9800853128,12.467192,0.223694,0.90329399216,0,0,-3.131716,22.9, -0.8, 0.7,0,0,1024,1024,1346,1024,23.2,0,99,4.177,4.173,4.165,4.161,0,0,13.286,82.31,6,P-GPS,
0.371719530140222,36.9135355161379,5424.3081693128,12.795276,0,1.01206696152,7300,2018-04-18 06:34:03,11,0,16.55,5424.3081693128,12.795276,0.223694,1.01206696152,0,0,-3.35541,22.9, -0.5, 1.1,0,0,1024,1024,1348,1024,23.2,0,99,4.163,4.163,4.157,4.156,0,0,13.286,82.31,6,P-GPS,
0.371719209349782,36.9135355521677,5424.9643373128,13.451444,0,1.12971132224,7400,2018-04-18 06:34:04,11,0,16.55,5424.9643373128,13.451444,0.223694,1.12971132224,0,0,-3.35541,22.8, -0.7, 1.1,0,0,1024,1024,1349,1024,23.2,0,99,4.163,4.163,4.157,4.156,0,0,13.286,82.31,6,P-GPS,
0.371718956794403,36.9135355827888,5425.6205053128,14.107612,0,1.22240489476,7500,2018-04-18 06:34:04,11,0,16.55,5425.6205053128,14.107612,0.223694,1.22240489476,0,0,-3.579104,22.8, -0.8, 0.8,0,0,1024,1024,1355,1024,23.2,0,99,4.163,4.163,4.157,4.156,0,0,13.286,82.31,6,P-GPS,
0.371718645990396,36.9135356140088,5425.9485893128,14.435696,0,1.33632878292,7600,2018-04-18 06:34:04,11,0,16.55,5425.9485893128,14.435696,0.223694,1.33632878292,0,0,-3.802798,22.8, -1, 0.6,0,0,1024,1024,1357,1024,23.2,0,99,4.163,4.163,4.157,4.156,0,0,13.286,82.31,6,P-GPS,
0.371718349937649,36.9135356364354,5426.6047573128,15.091864,0,1.4446522772,7700,2018-04-18 06:34:04,11,0,16.55,5426.6047573128,15.091864,0.223694,1.4446522772,0,0,-3.802798,22.8, -1.1, 0.6,0,0,1024,1024,1356,1024,23.2,0,99,4.163,4.163,4.157,4.156,0,0,13.286,82.31,6,P-GPS,
0.371718003770352,36.9135356985267,5427.2609253128,15.748032,0,1.57233272748,7800,2018-04-18 06:34:04,11,0,16.55,5427.2609253128,15.748032,0.223694,1.57233272748,0,0,-4.026492,22.8, -1, 0.5,0,0,1024,1024,1356,1024,23.2,0,99,4.163,4.163,4.157,4.156,0,0,13.286,82.31,6,P-GPS,
0.371717688083048,36.9135357684272,5427.9170933128,16.4042,0,1.6892881118,7900,2018-04-18 06:34:04,11,0,16.55,5427.9170933128,16.4042,0.223694,1.6892881118,0,0,-4.026492,22.8, -1.2, 0.6,0,0,1024,1024,1357,1024,23.2,0,99,4.163,4.163,4.157,4.156,0,0,13.286,82.31,6,P-GPS,
0.371717331581239,36.9135358284882,5428.5732613128,17.060368,0,1.82084323412,8000,2018-04-18 06:34:04,11,0,16.55,5428.5732613128,17.060368,0.223694,1.82084323412,0,0,-4.026492,22.9, -1, 0.6,0,0,1024,1024,1358,1024,23.2,0,99,4.163,4.163,4.157,4.156,0,0,13.286,82.31,6,P-GPS,
0.371717010008739,36.9135358634316,5428.9013453128,17.388452,0,1.93885176808,8100,2018-04-18 06:34:04,11,0,16.55,5428.9013453128,17.388452,0.223694,1.93885176808,0,0,-4.026492,22.9, -1, 0.9,0,0,1024,1024,1359,1024,23.2,0,99,4.163,4.163,4.157,4.156,0,0,13.286,82.31,6,P-GPS,
0.371716675294288,36.9135359322036,5429.5575133128,18.04462,0,2.0628773626,8200,2018-04-18 06:34:04,11,0,16.55,5429.5575133128,18.04462,0.223694,2.0628773626,0,0,-4.026492,22.8, -1.2, 0.9,0,0,1024,1024,1358,1024,23.1,0,99,4.163,4.163,4.157,4.156,0,0,13.286,82.31,6,P-GPS,
0.371716378113844,36.9135360152331,5430.2136813128,18.700788,0,2.17394363912,8300,2018-04-18 06:34:04,11,0,16.471,5430.2136813128,18.700788,0.223694,2.17394363912,0,0,-4.026492,22.9, -1.3, 0.6,0,0,1024,1024,1360,1024,23.2,0,99,4.152,4.151,4.143,4.14,0,0,13.362,82.31,6,P-GPS,
0.371716088929874,36.9135360881024,5430.8698493128,19.356956,0,2.28181765832,8400,2018-04-18 06:34:05,11,0,16.471,5430.8698493128,19.356956,0.223694,2.28181765832,0,0,-4.026492,22.9, -1.1, 0.4,0,0,1024,1024,1361,1024,23.1,0,99,4.152,4.151,4.143,4.14,0,0,13.362,82.31,6,P-GPS,
0.371715824874423,36.9135361339447,5431.5260173128,20.013124,0,2.37946858008,8500,2018-04-18 06:34:05,11,0,16.471,5431.5260173128,20.013124,0.223694,2.37946858008,0,0,-4.026492,22.9, -0.9, 0.5,0,0,1024,1024,1361,1024,23.1,0,99,4.152,4.151,4.143,4.14,0,0,13.362,82.31,6,P-GPS,
0.37171551715876,36.9135361950891,5432.1821853128,20.669292,0,2.49362868872,8600,2018-04-18 06:34:05,11,0,16.471,5432.1821853128,20.669292,0.223694,2.49362868872,0,0,-4.026492,22.9, -0.8, 0.6,0,0,1024,1024,1364,1024,23.1,0,99,4.152,4.151,4.143,4.14,0,0,13.362,82.31,6,P-GPS,
0.371715202000293,36.9135362608484,5432.8383533128,21.32546,0,2.61072186832,8700,2018-04-18 06:34:05,11,0,16.471,5432.8383533128,21.32546,0.223694,2.61072186832,0,0,-4.026492,22.9, -0.7, 0.5,0,0,1024,1024,1368,1024,23.1,0,99,4.152,4.151,4.143,4.14,0,0,13.362,82.31,6,P-GPS,
0.371714928179878,36.9135363238897,5433.4945213128,21.981628,0,2.712762554,8800,2018-04-18 06:34:05,11,0,16.471,5433.4945213128,21.981628,0.223694,2.712762554,0,0,-4.026492,22.9, -0.8, 0.7,0,0,1024,1024,1369,1024,23.1,0,99,4.152,4.151,4.143,4.14,0,0,13.362,82.31,6,P-GPS,
0.371714694376031,36.9135363686119,5433.8226053128,22.309712,0,2.7994751552,8900,2018-04-18 06:34:05,11,0,16.471,5433.8226053128,22.309712,0.223694,2.7994751552,0,0,-4.026492,22.9, -1.2, 0.9,0,0,1024,1024,1373,1024,23.1,0,99,4.152,4.151,4.143,4.14,0,0,13.362,82.31,6,P-GPS,
0.371714493525377,36.9135364209518,5434.4787733128,22.96588,0,2.87466216548,9000,2018-04-18 06:34:05,11,0,16.471,5434.4787733128,22.96588,0.223694,2.87466216548,0,0,-4.250186,22.9, -1.2, 0.9,0,0,1024,1024,1381,1024,23.1,0,99,4.152,4.151,4.143,4.14,0,0,13.362,82.31,6,P-GPS,
0.371714298151994,36.9135364712023,5435.1349413128,23.622048,0,2.94779208908,9100,2018-04-18 06:34:05,11,0,16.471,5435.1349413128,23.622048,0.223694,2.94779208908,0,0,-4.250186,22.8, -1.1, 0.7,0,0,1024,1024,1384,1024,23.1,0,99,4.152,4.151,4.143,4.14,0,0,13.362,82.31,6,P-GPS,
0.371714178657588,36.9135365036295,5435.7911093128,24.278216,0,2.992618206,9200,2018-04-18 06:34:05,11,0,16.471,5435.7911093128,24.278216,0.223694,2.992618206,0,0,-4.250186,22.8, -0.8, 0.7,0,0,1024,1024,1415,1024,23.1,0,99,4.152,4.151,4.143,4.14,0,0,13.362,82.31,6,P-GPS,
0.371714055872096,36.9135365177968,5436.4472773128,24.934384,0,3.0376969476,9300,2018-04-18 06:34:05,11,0,16.524,5436.4472773128,24.934384,0.223694,3.0376969476,0,0,-4.47388,22.8, -1, 0.9,0,0,1024,1024,1415,1024,23.1,0,99,4.148,4.146,4.141,4.137,0,0,13.58,84.11,6,P-GPS,
0.371713995522776,36.9135365350458,5437.1034453128,25.590552,0,3.0603839562,9400,2018-04-18 06:34:06,11,0,16.524,5437.1034453128,25.590552,0.223694,3.0603839562,0,0,-4.47388,22.9, -1.1, 1.1,0,0,1024,1024,1417,1024,23.1,0,99,4.148,4.146,4.141,4.137,0,0,13.58,84.11,6,P-GPS,
0.3717139094188,36.9135365625885,5438.0876973128,26.574804,0,3.0929134848,9500,2018-04-18 06:34:06,11,0,16.524,5438.0876973128,26.574804,0.223694,3.0929134848,0,0,-4.697574,22.9, -1.4, 1,0,0,1024,1024,1420,1024,23.1,0,99,4.148,4.146,4.141,4.137,0,0,13.58,84.11,6,P-GPS,
0.371713884907461,36.9135365838711,5438.7438653128,27.230972,0,3.10288395756,9600,2018-04-18 06:34:06,11,0,16.524,5438.7438653128,27.230972,0.223694,3.10288395756,0,0,-4.921268,22.9, -1.4, 0.9,0,0,1024,1024,1420,1024,23.1,0,99,4.148,4.146,4.141,4.137,0,0,13.58,84.11,6,P-GPS,
0.371713838583929,36.9135366019405,5439.4000333128,27.88714,0,3.12056768516,9700,2018-04-18 06:34:06,11,0,16.524,5439.4000333128,27.88714,0.223694,3.12056768516,0,0,-4.921268,22.9, -1.3, 1,0,0,1024,1024,1434,1024,23.1,0,99,4.148,4.146,4.141,4.137,0,0,13.58,84.11,6,P-GPS,
0.371713859049398,36.9135366075535,5440.0562013128,28.543308,0,3.1134843516,9800,2018-04-18 06:34:06,11,0,16.524,5440.0562013128,28.543308,0.223694,3.12056768516,0,0,-5.144962,22.9, -1.2, 1.1,0,0,1024,1024,1434,1024,23.1,0,99,4.148,4.146,4.141,4.137,0,0,13.58,84.11,6,P-GPS,
0.37171386661922,36.9135366154702,5441.0404533128,29.52756,0,3.11118120192,9900,2018-04-18 06:34:06,11,0,16.524,5441.0404533128,29.52756,0.223694,3.12056768516,0,0,-5.144962,22.9, -0.8, 1.3,0,0,1024,1024,1436,1024,23.1,0,99,4.148,4.146,4.141,4.137,0,0,13.58,84.11,6,P-GPS,
0.371713937984964,36.9135366343618,5441.6966213128,30.183728,0,3.08647975756,10000,2018-04-18 06:34:06,11,0,16.524,5441.6966213128,30.183728,0.223694,3.12056768516,0,0,-5.368656,22.8, -0.7, 1.4,0,0,1024,1024,1434,1024,23.1,0,99,4.148,4.146,4.141,4.137,0,0,13.58,84.11,6,P-GPS,
0.371713964104392,36.9135366707155,5442.6808733128,31.16798,0,3.0791175526,10100,2018-04-18 06:34:06,11,0,16.524,5442.6808733128,31.16798,0.223694,3.12056768516,0,0,-5.368656,22.8, -0.9, 1.3,0,0,1024,1024,1437,1024,23.1,0,99,4.148,4.146,4.141,4.137,0,0,13.58,84.11,6,P-GPS,
0.371714029006027,36.9135366985302,5443.3370413128,31.824148,0,3.05735574088,10200,2018-04-18 06:34:06,11,0,16.524,5443.3370413128,31.824148,0.223694,3.12056768516,0,0,-5.59235,22.8, -1, 1.3,0,0,1024,1024,1437,1024,23.1,0,99,4.148,4.146,4.141,4.137,0,0,13.58,84.11,6,P-GPS,
0.37171406117431,36.9135367240511,5444.3212933128,32.8084,0,3.04729668544,10300,2018-04-18 06:34:06,11,0,16.34,5444.3212933128,32.8084,0.223694,3.12056768516,0,0,-5.59235,22.8, -1.3, 0.8,0,0,1024,1024,1436,1024,23.1,0,99,4.148,4.146,4.141,4.137,0,0,13.58,84.11,6,P-GPS,
0.371714133859908,36.9135367536537,5444.9774613128,33.464568,0,3.02296269516,10400,2018-04-18 06:34:07,11,0,16.34,5444.9774613128,33.464568,0.223694,3.12056768516,0,0,-5.59235,22.8, -1.5, 0.6,0,0,1024,1024,1437,1024,23.1,0,99,4.148,4.146,4.141,4.137,0,0,13.58,84.11,6,P-GPS,
0.371714194789768,36.913536788816,5445.9617133128,34.44882,0,3.003280936,10500,2018-04-18 06:34:07,11,0,16.34,5445.9617133128,34.44882,0.223694,3.12056768516,0,0,-5.59235,22.9, -0.9, 0.8,0,0,1024,1024,1442,1024,23.1,0,99,4.148,4.146,4.141,4.137,0,0,13.58,84.11,6,P-GPS,
0.371714288751801,36.9135368258225,5446.6178813128,35.104988,0,2.97195875652,10600,2018-04-18 06:34:07,11,0,16.34,5446.6178813128,35.104988,0.223694,3.12056768516,0,0,-5.59235,22.9, -0.7, 1.2,0,0,1024,1024,1443,1024,23.1,0,99,4.148,4.146,4.141,4.137,0,0,13.58,84.11,6,P-GPS,
0.371714357383388,36.9135368663792,5447.6021333128,36.08924,0,2.95008539624,10700,2018-04-18 06:34:07,11,0,16.34,5447.6021333128,36.08924,0.223694,3.12056768516,0,0,-5.816044,22.9, -0.5, 1.3,0,0,1024,1024,1443,1024,23.1,0,99,4.148,4.146,4.141,4.137,0,0,13.58,84.11,6,P-GPS,
0.371714427583166,36.9135368994645,5448.5863853128,37.073492,0,2.92725074984,10800,2018-04-18 06:34:07,11,0,16.34,5448.5863853128,37.073492,0.223694,3.12056768516,0,0,-5.59235,22.9, -0.4, 1.2,0,0,1024,1024,1446,1024,23.1,0,99,4.148,4.146,4.141,4.137,0,0,13.58,84.11,6,P-GPS,
0.37171446782446,36.9135369215707,5449.2425533128,37.72966,0,2.91442922712,10900,2018-04-18 06:34:07,11,0,16.34,5449.2425533128,37.72966,0.223694,3.12056768516,0,0,-5.59235,22.9, -0.5, 1.2,0,0,1024,1024,1447,1024,23.1,0,99,4.148,4.146,4.141,4.137,0,0,13.58,84.11,6,P-GPS,
0.371714520741561,36.9135369490021,5450.2268053128,38.713912,0,2.8975066544,11000,2018-04-18 06:34:07,11,0,16.34,5450.2268053128,38.713912,0.223694,3.12056768516,0,0,-5.816044,22.9, -0.5, 1.1,0,0,1024,1024,1447,1024,23.1,0,99,4.148,4.146,4.141,4.137,0,0,13.58,84.11,6,P-GPS,
0.371714568771703,36.9135369873902,5450.8829733128,39.37008,0,2.88322515788,11100,2018-04-18 06:34:07,11,0,16.34,5450.8829733128,39.37008,0.223694,3.12056768516,0,0,-5.816044,22.9, -0.4, 0.8,0,0,1024,1024,1448,1024,23.1,0,99,4.148,4.146,4.141,4.137,0,0,13.58,84.11,6,P-GPS,
0.371714651833746,36.9135370298906,5451.8672253128,40.354332,0,2.85688329352,11200,2018-04-18 06:34:07,11,0,16.34,5451.8672253128,40.354332,0.223694,3.12056768516,0,0,-5.816044,22.9, -0.5, 0.6,0,0,1024,1024,1448,1024,23.1,0,99,4.148,4.146,4.141,4.137,0,0,13.58,84.11,6,P-GPS,
0.37171474728092,36.9135370638812,5452.8514773128,41.338584,0,2.82561032664,11300,2018-04-18 06:34:07,11,0,16.366,5452.8514773128,41.338584,0.223694,3.12056768516,0,0,-6.039738,22.9, -0.2, 0.8,0,0,1024,1024,1454,1024,23.1,0,99,4.123,4.124,4.116,4.116,0,0,14.958,84.11,6,P-GPS,
0.371714864092464,36.9135370977839,5453.5076453128,41.994752,0,2.78688001044,11400,2018-04-18 06:34:08,11,0,16.366,5453.5076453128,41.994752,0.223694,3.12056768516,0,0,-5.816044,22.9, -0.1, 1.1,0,0,1024,1024,1454,1024,23.1,0,99,4.123,4.124,4.116,4.116,0,0,14.958,84.11,6,P-GPS,
0.371714962426055,36.9135371273614,5454.4918973128,42.979004,0,2.75450140048,11500,2018-04-18 06:34:08,11,0,16.366,5454.4918973128,42.979004,0.223694,3.12056768516,0,0,-5.816044,22.9, -0.1, 1.2,0,0,1024,1024,1455,1024,23.1,0,99,4.123,4.124,4.116,4.116,0,0,14.958,84.11,6,P-GPS,
0.371715063016669,36.9135371703773,5455.4761493128,43.963256,0,2.72264772492,11600,2018-04-18 06:34:08,11,0,16.366,5455.4761493128,43.963256,0.223694,3.12056768516,0,0,-5.816044,22.9, 0, 1.3,0,0,1024,1024,1457,1024,23.1,0,99,4.123,4.124,4.116,4.116,0,0,14.958,84.11,6,P-GPS,
0.371715151164343,36.9135372176344,5456.1323173128,44.619424,0,2.69579076868,11700,2018-04-18 06:34:08,11,0,16.366,5456.1323173128,44.619424,0.223694,3.12056768516,0,0,-5.816044,22.9, 0.1, 1.2,0,0,1024,1024,1457,1024,23.1,0,99,4.123,4.124,4.116,4.116,0,0,14.958,84.11,6,P-GPS,
0.37171523044351,36.9135372608146,5457.1165693128,45.603676,0,2.67189641096,11800,2018-04-18 06:34:08,11,0,16.366,5457.1165693128,45.603676,0.223694,3.12056768516,0,0,-6.039738,22.9, 0.2, 1.3,0,0,1024,1024,1458,1024,23.1,0,99,4.123,4.124,4.116,4.116,0,0,14.958,84.11,6,P-GPS,
0.371715295512876,36.9135372946237,5458.1008213128,46.587928,0,2.65227042608,11900,2018-04-18 06:34:08,11,0,16.366,5458.1008213128,46.587928,0.223694,3.12056768516,0,0,-6.039738,22.8, 0.4, 1.2,0,0,1024,1024,1465,1024,23.1,0,99,4.123,4.124,4.116,4.116,0,0,14.958,84.11,6,P-GPS,
0.371715295210799,36.9135373393756,5459.0850733128,47.57218,0,2.65680126612,12000,2018-04-18 06:34:08,11,0,16.366,5459.0850733128,47.57218,0.223694,3.12056768516,0,0,-6.039738,22.8, 0.6, 1,0,0,1024,1024,1469,1024,23.1,0,99,4.123,4.124,4.116,4.116,0,0,14.958,84.11,6,P-GPS,
0.371715259394802,36.9135373814558,5459.7412413128,48.228348,0,2.67359588608,12100,2018-04-18 06:34:08,11,0,16.366,5459.7412413128,48.228348,0.223694,3.12056768516,0,0,-6.039738,22.8, 0.2, 0.9,0,0,1024,1024,1474,1024,23.1,0,99,4.123,4.124,4.116,4.116,0,0,14.958,84.11,6,P-GPS,
0.371715134230968,36.9135374419554,5460.7254933128,49.2126,0,2.72361229188,12200,2018-04-18 06:34:08,11,0,16.366,5460.7254933128,49.2126,0.223694,3.12056768516,0,0,-6.039738,22.8, -0.2, 1.2,0,0,1024,1024,1475,1024,23.1,0,99,4.123,4.124,4.116,4.116,0,0,14.958,84.11,6,P-GPS,
0.371715008392958,36.9135375132372,5461.7097453128,50.196852,0,2.77500336964,12300,2018-04-18 06:34:08,11,0,16.34,5461.7097453128,50.196852,0.223694,3.12056768516,0,0,-6.039738,22.8, -0.8, 0.8,0,0,1024,1024,1475,1024,23.1,0,99,4.126,4.124,4.12,4.117,0,0,14.516,84.11,6,P-GPS,
0.371714862995707,36.9135376031805,5462.6939973128,51.181104,0,2.8352527154,12400,2018-04-18 06:34:09,11,0,16.34,5462.6939973128,51.181104,0.223694,3.12056768516,0,0,-6.039738,22.8, -0.6, 0.5,0,0,1024,1024,1480,1024,23.1,0,99,4.126,4.124,4.12,4.117,0,0,14.516,84.11,6,P-GPS,
0.371714771379448,36.9135376781121,5463.6782493128,52.165356,0,2.87522646996,12500,2018-04-18 06:34:09,11,0,16.34,5463.6782493128,52.165356,0.223694,3.12056768516,0,0,-6.263432,22.9, 0.1, 0.6,0,0,1024,1024,1488,1024,23.1,0,99,4.126,4.124,4.12,4.117,0,0,14.516,84.11,6,P-GPS,
0.371714662971489,36.9135377517653,5464.6625013128,53.149608,0,2.92099418796,12600,2018-04-18 06:34:09,11,0,16.34,5464.6625013128,53.149608,0.223694,3.12056768516,0,0,-6.263432,22.9, 0.6, 0.7,0,0,1024,1024,1492,1024,23.1,0,99,4.126,4.124,4.12,4.117,0,0,14.516,84.11,6,P-GPS,
0.371714579437197,36.9135378012638,5465.6467533128,54.13386,0,2.95550206308,12700,2018-04-18 06:34:09,11,0,16.34,5465.6467533128,54.13386,0.223694,3.12056768516,0,0,-6.487126,22.9, 0.5, 0.9,0,0,1024,1024,1491,1024,23.1,0,99,4.126,4.124,4.12,4.117,0,0,14.516,84.11,6,P-GPS,
0.371714469921895,36.9135378436833,5466.6310053128,55.118112,0,2.99827109332,12800,2018-04-18 06:34:09,11,0,16.34,5466.6310053128,55.118112,0.223694,3.12056768516,0,0,-6.71082,22.9, 0.3, 1.2,0,0,1024,1024,1495,1024,23.1,0,99,4.126,4.124,4.12,4.117,0,0,14.516,84.11,6,P-GPS,
0.371714365089999,36.9135378785165,5467.6152573128,56.102364,0,3.03857293188,12900,2018-04-18 06:34:09,11,0,16.34,5467.6152573128,56.102364,0.223694,3.12056768516,0,0,-6.487126,22.9, 0.2, 1.3,0,0,1024,1024,1499,1024,23.1,0,99,4.126,4.124,4.12,4.117,0,0,14.516,84.11,6,P-GPS,
0.371714244497207,36.9135378999594,5468.5995093128,57.086616,0,3.08287083356,13000,2018-04-18 06:34:09,11,0,16.34,5468.5995093128,57.086616,0.223694,3.12056768516,0,0,-6.487126,22.9, 0, 1.5,0,0,1024,1024,1500,1024,23.1,0,99,4.126,4.124,4.12,4.117,0,0,14.516,84.11,6,P-GPS,
0.37171413171769,36.9135379189875,5469.5837613128,58.070868,0,3.1241962942,13100,2018-04-18 06:34:09,11,0,16.34,5469.5837613128,58.070868,0.223694,3.1241962942,0,0,-6.71082,22.9, -0.2, 1.4,0,0,1024,1024,1501,1024,23.1,0,99,4.126,4.124,4.12,4.117,0,0,14.516,84.11,6,P-GPS,
0.371714030732178,36.9135379568912,5470.5680133128,59.05512,0,3.16349419572,13200,2018-04-18 06:34:09,11,0,16.34,5470.5680133128,59.05512,0.223694,3.16349419572,0,0,-6.487126,22.9, -0.1, 1.3,0,0,1024,1024,1511,1024,23.1,0,99,4.126,4.124,4.12,4.117,0,0,14.516,84.11,6,P-GPS,
0.371713944856184,36.9135380135446,5471.5522653128,60.039372,0,3.19961296328,13300,2018-04-18 06:34:09,11,0,16.34,5471.5522653128,60.039372,0.223694,3.19961296328,0,0,-6.934514,22.9, 0, 1,0,0,1024,1024,1513,1024,23.1,0,99,4.114,4.113,4.111,4.109,0,0,14.8,84.11,6,P-GPS,
0.371713859112094,36.9135380784573,5472.5365173128,61.023624,0,3.2366470852,13400,2018-04-18 06:34:10,11,0,16.34,5472.5365173128,61.023624,0.223694,3.2366470852,0,0,-6.934514,22.9, 0.1, 1,0,0,1024,1024,1521,1024,23.1,0,99,4.114,4.113,4.111,4.109,0,0,14.8,84.11,6,P-GPS,
0.371713766822473,36.9135381434819,5473.5207693128,62.007876,0,3.27601060352,13500,2018-04-18 06:34:10,11,0,16.34,5473.5207693128,62.007876,0.223694,3.27601060352,0,0,-7.158208,22.8, 0.4, 1,0,0,1024,1024,1534,1024,23.1,0,99,4.114,4.113,4.111,4.109,0,0,14.8,84.11,6,P-GPS,
0.371713671221411,36.9135382077699,5474.8331053128,63.320212,0,3.3164699224,13600,2018-04-18 06:34:10,11,0,16.34,5474.8331053128,63.320212,0.223694,3.3164699224,0,0,-7.158208,22.9, 0.3, 0.8,0,0,1024,1024,1539,1024,23.1,0,99,4.114,4.113,4.111,4.109,0,0,14.8,84.11,6,P-GPS,
0.371713574894877,36.9135382632521,5475.8173573128,64.304464,0,3.3562337032,13700,2018-04-18 06:34:10,11,0,16.34,5475.8173573128,64.304464,0.223694,3.3562337032,0,0,-7.381902,22.9, 0.5, 1.1,0,0,1024,1024,1545,1024,23.1,0,99,4.114,4.113,4.111,4.109,0,0,14.8,84.11,6,P-GPS,
0.371713476037742,36.9135383132655,5476.8016093128,65.288716,0,3.3962271428,13800,2018-04-18 06:34:10,11,0,16.34,5476.8016093128,65.288716,0.223694,3.3962271428,0,0,-7.381902,22.9, 0.7, 1.5,0,0,1024,1024,1547,1024,23.1,0,99,4.114,4.113,4.111,4.109,0,0,14.8,84.11,6,P-GPS,
0.371713362382936,36.9135383685834,5478.1139453128,66.601052,0,3.4419620524,13900,2018-04-18 06:34:10,11,0,16.34,5478.1139453128,66.601052,0.223694,3.4419620524,0,0,-7.605596,22.9, 0.6, 1.4,0,0,1024,1024,1547,1024,23.1,0,99,4.114,4.113,4.111,4.109,0,0,14.8,84.11,6,P-GPS,
0.371713216186933,36.9135384538357,5479.4262813128,67.913388,0,3.5024935504,14000,2018-04-18 06:34:10,11,0,16.34,5479.4262813128,67.913388,0.223694,3.5024935504,0,0,-7.82929,22.9, 0.5, 0.8,0,0,1024,1024,1554,1024,23.1,0,99,4.114,4.113,4.111,4.109,0,0,14.8,84.11,6,P-GPS,
0.371713052450146,36.9135385510715,5480.4105333128,68.89764,0,3.5705053636,14100,2018-04-18 06:34:10,11,0,16.34,5480.4105333128,68.89764,0.223694,3.5705053636,0,0,-7.82929,22.9, 0.4, 0.5,0,0,1024,1024,1555,1024,23.1,0,99,4.114,4.113,4.111,4.109,0,0,14.8,84.11,6,P-GPS,
0.371712868098073,36.9135386411283,5481.7228693128,70.209976,0,3.644849198,14200,2018-04-18 06:34:10,11,0,16.34,5481.7228693128,70.209976,0.223694,3.644849198,0,0,-7.82929,22.9, 0.2, 0.4,0,0,1024,1024,1558,1024,23.1,0,99,4.114,4.113,4.111,4.109,0,0,14.8,84.11,6,P-GPS,
0.371712691899618,36.9135387126082,5483.0352053128,71.522312,0,3.7141405388,14300,2018-04-18 06:34:10,11,0,16.392,5483.0352053128,71.522312,0.223694,3.7141405388,0,0,-8.052984,22.9, 0.2, 0.6,0,0,1024,1024,1560,1024,23.1,0,99,4.114,4.113,4.111,4.109,0,0,14.8,84.11,6,P-GPS,
0.371712489417263,36.9135387731142,5484.0194573128,72.506564,0,3.7911418536,14400,2018-04-18 06:34:11,11,0,16.392,5484.0194573128,72.506564,0.223694,3.7911418536,0,0,-8.276678,22.9, 0.1, 0.6,0,0,1024,1024,1568,1024,23.1,0,99,4.114,4.113,4.111,4.109,0,0,14.8,84.11,6,P-GPS,
0.371712285080924,36.91353883088,5485.3317933128,73.8189,0,3.8684712524,14500,2018-04-18 06:34:11,11,0,16.392,5485.3317933128,73.8189,0.223694,3.8684712524,0,0,-8.052984,22.9, 0, 0.5,0,0,1024,1024,1569,1024,23.1,0,99,4.114,4.113,4.111,4.109,0,0,14.8,84.11,6,P-GPS,
0.371712090555961,36.9135389020066,5486.6441293128,75.131236,0,3.944061806,14600,2018-04-18 06:34:11,11,0,16.392,5486.6441293128,75.131236,0.223694,3.944061806,0,0,-8.052984,22.9, 0, 0.5,0,0,1024,1024,1574,1024,23.1,0,99,4.114,4.113,4.111,4.109,0,0,14.8,84.11,6,P-GPS,
0.371711923471093,36.9135389885143,5487.9564653128,76.443572,0,4.0120080024,14700,2018-04-18 06:34:11,11,0,16.392,5487.9564653128,76.443572,0.223694,4.0120080024,0,0,-8.276678,22.8, 0.2, 0.1,0,0,1024,1024,1585,1024,23.1,0,99,4.114,4.113,4.111,4.109,0,0,14.8,84.11,6,P-GPS,
0.371711744988746,36.9135390625604,5488.9407173128,77.427824,0,4.0824148288,14800,2018-04-18 06:34:11,11,0,16.392,5488.9407173128,77.427824,0.223694,4.0824148288,0,0,-8.276678,22.9, 0.3, 0.2,0,0,1024,1024,1586,1024,23.1,0,99,4.114,4.113,4.111,4.109,0,0,14.8,84.11,6,P-GPS,
0.37171156924137,36.9135391217657,5490.2530533128,78.74016,0,4.1500657496,14900,2018-04-18 06:34:11,11,0,16.392,5490.2530533128,78.74016,0.223694,4.1500657496,0,0,-8.500372,22.8, 0.5, 0.1,0,0,1024,1024,1587,1024,23.1,0,99,4.114,4.113,4.111,4.109,0,0,14.8,84.11,6,P-GPS,
0.371711377102891,36.9135391836517,5491.5653893128,80.052496,0,4.2236877992,15000,2018-04-18 06:34:11,11,0,16.392,5491.5653893128,80.052496,0.223694,4.2236877992,0,0,-8.724066,22.9, 0.3, 0.2,0,0,1024,1024,1596,1024,23.1,0,99,4.114,4.113,4.111,4.109,0,0,14.8,84.11,6,P-GPS,
0.371711188626783,36.9135392450089,5492.8777253128,81.364832,0,4.2959647044,15100,2018-04-18 06:34:11,11,0,16.392,5492.8777253128,81.364832,0.223694,4.2959647044,0,0,-8.724066,22.8, 0.1, 0.4,0,0,1024,1024,1602,1024,23.1,0,99,4.114,4.113,4.111,4.109,0,0,14.8,84.11,6,P-GPS,
0.371710982830544,36.9135393009617,5494.5181453128,83.005252,0,4.3735893788,15200,2018-04-18 06:34:11,11,0,16.392,5494.5181453128,83.005252,0.223694,4.3735893788,0,0,-8.94776,22.8, 0.3, 0.5,0,0,1024,1024,1602,1024,23.1,0,99,4.114,4.113,4.111,4.109,0,0,14.8,84.11,6,P-GPS,
0.371710788498552,36.9135393487782,5495.8304813128,84.317588,0,4.4462927932,15300,2018-04-18 06:34:11,11,0,16.235,5495.8304813128,84.317588,0.223694,4.4462927932,0,0,-9.171454,22.8, 0.3, 0.4,0,0,1024,1024,1601,1024,23.1,0,99,4.105,4.105,4.097,4.097,0,0,15.956,84.11,6,P-GPS,
0.371710562911019,36.9135394126513,5497.1428173128,85.629924,0,4.5316930584,15400,2018-04-18 06:34:12,11,0,16.235,5497.1428173128,85.629924,0.223694,4.5316930584,0,0,-9.171454,22.9, 0.3, 0.4,0,0,1024,1024,1601,1024,23.1,0,99,4.105,4.105,4.097,4.097,0,0,15.956,84.11,6,P-GPS,
0.371710338704407,36.9135394841452,5498.4551533128,86.94226,0,4.6175198328,15500,2018-04-18 06:34:12,11,0,16.235,5498.4551533128,86.94226,0.223694,4.6175198328,0,0,-9.171454,22.8, 0.1, 0.4,0,0,1024,1024,1600,1024,23.1,0,99,4.105,4.105,4.097,4.097,0,0,15.956,84.11,6,P-GPS,
0.371710101887124,36.913539557527,5499.7674893128,88.254596,0,4.7079069748,15600,2018-04-18 06:34:12,11,0,16.235,5499.7674893128,88.254596,0.223694,4.7079069748,0,0,-9.171454,22.9, 0.1, 0.2,0,0,1024,1024,1602,1024,23.1,0,99,4.105,4.105,4.097,4.097,0,0,15.956,84.11,6,P-GPS,
0.371709894565034,36.9135396145991,5501.0798253128,89.566932,0,4.7862206256,15700,2018-04-18 06:34:12,11,0,16.235,5501.0798253128,89.566932,0.223694,4.7862206256,0,0,-8.94776,22.9, 0.1, 0.3,0,0,1024,1024,1607,1024,23.1,0,99,4.105,4.105,4.097,4.097,0,0,15.956,84.11,6,P-GPS,
0.371709680819546,36.913539667235,5502.7202453128,91.207352,0,4.8662075048,15800,2018-04-18 06:34:12,11,0,16.235,5502.7202453128,91.207352,0.223694,4.8662075048,0,0,-9.171454,22.9, 0.1, 0.6,0,0,1024,1024,1607,1024,23.1,0,99,4.105,4.105,4.097,4.097,0,0,15.956,84.11,6,P-GPS,
0.371709489622308,36.9135397137577,5504.0325813128,92.519688,0,4.9376970084,15900,2018-04-18 06:34:12,11,0,16.235,5504.0325813128,92.519688,0.223694,4.9376970084,0,0,-9.171454,22.9, 0.2, 0.8,0,0,1024,1024,1607,1024,23.1,0,99,4.105,4.105,4.097,4.097,0,0,15.956,84.11,6,P-GPS,
0.37170925707562,36.9135397674615,5505.3449173128,93.832024,0,5.0243439928,16000,2018-04-18 06:34:12,11,0,16.235,5505.3449173128,93.832024,0.223694,5.0243439928,0,0,-9.171454,22.9, 0, 0.6,0,0,1024,1024,1608,1024,23.1,0,99,4.105,4.105,4.097,4.097,0,0,15.956,84.11,6,P-GPS,
0.371709028683092,36.9135398229223,5506.6572533128,95.14436,0,5.1097770664,16100,2018-04-18 06:34:12,11,0,16.235,5506.6572533128,95.14436,0.223694,5.1097770664,0,0,-8.94776,22.9, 0, 0.4,0,0,1024,1024,1608,1024,23.1,0,99,4.105,4.105,4.097,4.097,0,0,15.956,84.11,6,P-GPS,
0.37170878781017,36.9135398986659,5507.9695893128,96.456696,0,5.2018702452,16200,2018-04-18 06:34:12,11,0,16.235,5507.9695893128,96.456696,0.223694,5.2018702452,0,0,-9.171454,22.9, 0, 0.5,0,0,1024,1024,1610,1024,23.1,0,99,4.105,4.105,4.097,4.097,0,0,15.956,84.11,6,P-GPS,
0.371708573990588,36.9135399827106,5509.2819253128,97.769032,0,5.285597282,16300,2018-04-18 06:34:12,11,0,16.208,5509.2819253128,97.769032,0.223694,5.285597282,0,0,-9.171454,22.8, 0.1, 0.4,0,0,1024,1024,1610,1024,23.1,0,99,4.088,4.089,4.088,4.083,0,0,17.078,84.11,6,P-GPS,
0.37170834610125,36.9135400710094,5510.5942613128,99.081368,0,5.374672088,16400,2018-04-18 06:34:12,11,0,16.208,5510.5942613128,99.081368,0.223694,5.374672088,0,0,-9.171454,22.9, -0.1, 0,0,0,1024,1024,1611,1024,23.1,0,99,4.088,4.089,4.088,4.083,0,0,17.078,84.11,6,P-GPS,
0.371708140917306,36.9135401409974,5512.2346813128,100.721788,0,5.4537731404,16500,2018-04-18 06:34:13,11,0,16.208,5512.2346813128,100.721788,0.223694,5.4537731404,0,0,-9.171454,22.8, -0.3, 0,0,0,1024,1024,1615,1024,23.1,0,99,4.088,4.089,4.088,4.083,0,0,17.078,84.11,6,P-GPS,
0.37170793861408,36.9135402252321,5513.5470173128,102.034124,0,5.5335303608,16600,2018-04-18 06:34:13,11,0,16.208,5513.5470173128,102.034124,0.223694,5.5335303608,0,0,-9.395148,22.9, -0.3, -0.1,0,0,1024,1024,1614,1024,23.1,0,99,4.088,4.089,4.088,4.083,0,0,17.078,84.11,6,P-GPS,
0.371707760188728,36.9135403056474,5514.8593533128,103.34646,0,5.6046261636,16700,2018-04-18 06:34:13,11,0,16.208,5514.8593533128,103.34646,0.223694,5.6046261636,0,0,-9.395148,22.9, -0.4, -0.3,0,0,1024,1024,1617,1024,23.1,0,99,4.088,4.089,4.088,4.083,0,0,17.078,84.11,6,P-GPS,
0.371707561977781,36.91354037575,5516.4997733128,104.98688,0,5.6813322028,16800,2018-04-18 06:34:13,11,0,16.208,5516.4997733128,104.98688,0.223694,5.6813322028,0,0,-9.618842,22.9, -0.3, -0.1,0,0,1024,1024,1617,1024,23.1,0,99,4.088,4.089,4.088,4.083,0,0,17.078,84.11,6,P-GPS,
0.371707370208959,36.9135404210532,5517.8121093128,106.299216,0,5.7528873232,16900,2018-04-18 06:34:13,11,0,16.208,5517.8121093128,106.299216,0.223694,5.7528873232,0,0,-9.618842,22.9, -0.4, 0.1,0,0,1024,1024,1617,1024,23.1,0,99,4.088,4.089,4.088,4.083,0,0,17.078,84.11,6,P-GPS,
0.371707160450717,36.9135404648212,5519.1244453128,107.611552,0,5.8304791892,17000,2018-04-18 06:34:13,11,0,16.208,5519.1244453128,107.611552,0.223694,5.8304791892,0,0,-9.618842,22.9, -0.4, 0.1,0,0,1024,1024,1621,1024,23.1,0,99,4.088,4.089,4.088,4.083,0,0,17.078,84.11,6,P-GPS,
0.371706968431114,36.9135405031976,5520.7648653128,109.251972,0,5.9013453332,17100,2018-04-18 06:34:13,11,0,16.208,5520.7648653128,109.251972,0.223694,5.9013453332,0,0,-9.395148,22.9, -0.6, 0,0,0,1024,1024,1623,1024,23.1,0,99,4.088,4.089,4.088,4.083,0,0,17.078,84.11,6,P-GPS,
0.371706755622796,36.913540541265,5522.0772013128,110.564308,0,5.9793637084,17200,2018-04-18 06:34:13,11,0,16.208,5522.0772013128,110.564308,0.223694,5.9793637084,0,0,-9.395148,22.9, -1, -0.1,0,0,1024,1024,1624,1024,23.1,0,99,4.088,4.089,4.088,4.083,0,0,17.078,84.11,6,P-GPS,
0.371706566943132,36.9135405774193,5523.3895373128,111.876644,0,6.0488518996,17300,2018-04-18 06:34:13,11,0,16.208,5523.3895373128,111.876644,0.223694,6.0488518996,0,0,-9.618842,22.8, -1.1, -0.2,0,0,1024,1024,1625,1024,23.1,0,98,4.087,4.086,4.084,4.081,0,0,16.65,84.11,6,P-GPS,
0.371706373453045,36.9135406200134,5525.0299573128,113.517064,0,6.120735104,17400,2018-04-18 06:34:14,11,0,16.208,5525.0299573128,113.517064,0.223694,6.120735104,0,0,-9.618842,22.8, -1.1, -0.4,0,0,1024,1024,1626,1024,23.1,0,98,4.087,4.086,4.084,4.081,0,0,16.65,84.11,6,P-GPS,
0.371706218102745,36.9135406551126,5526.3422933128,114.8294,0,6.1785763132,17500,2018-04-18 06:34:14,11,0,16.208,5526.3422933128,114.8294,0.223694,6.1785763132,0,0,-9.618842,22.8, -0.7, -0.2,0,0,1024,1024,1626,1024,23.1,0,98,4.087,4.086,4.084,4.081,0,0,16.65,84.11,6,P-GPS,
0.371706060291865,36.9135406878976,5527.9827133128,116.46982,0,6.2370080736,17600,2018-04-18 06:34:14,11,0,16.208,5527.9827133128,116.46982,0.223694,6.2370080736,0,0,-9.842536,22.8, -0.4, -0.1,0,0,1024,1024,1626,1024,23.1,0,98,4.087,4.086,4.084,4.081,0,0,16.65,84.11,6,P-GPS,
0.371705902873441,36.9135407076869,5529.2950493128,117.782156,0,6.2938322224,17700,2018-04-18 06:34:14,11,0,16.208,5529.2950493128,117.782156,0.223694,6.2938322224,0,0,-9.842536,22.8, -0.6, 0.1,0,0,1024,1024,1626,1024,23.1,0,98,4.087,4.086,4.084,4.081,0,0,16.65,84.11,6,P-GPS,
0.371705729859409,36.9135407130357,5530.9354693128,119.422576,0,6.3544621456,17800,2018-04-18 06:34:14,11,0,16.208,5530.9354693128,119.422576,0.223694,6.3544621456,0,0,-9.842536,22.8, -1.3, 0.5,0,0,1024,1024,1627,1024,23.1,0,98,4.087,4.086,4.084,4.081,0,0,16.65,84.11,6,P-GPS,
0.371705590892883,36.9135407072608,5532.2478053128,120.734912,0,6.402067134,17900,2018-04-18 06:34:14,11,0,16.208,5532.2478053128,120.734912,0.223694,6.402067134,0,0,-9.618842,22.8, -1.5, 0.6,0,0,1024,1024,1628,1024,23.1,0,98,4.087,4.086,4.084,4.081,0,0,16.65,84.11,6,P-GPS,
0.371705428717774,36.9135407345284,5533.8882253128,122.375332,0,6.461450338,18000,2018-04-18 06:34:14,11,0,16.208,5533.8882253128,122.375332,0.223694,6.461450338,0,0,-9.842536,22.8, -1.6, 0,0,0,1024,1024,1627,1024,23.1,0,98,4.087,4.086,4.084,4.081,0,0,16.65,84.11,6,P-GPS,
0.37170527890744,36.9135407721372,5535.2005613128,123.687668,0,6.517716744,18100,2018-04-18 06:34:14,11,0,16.208,5535.2005613128,123.687668,0.223694,6.517716744,0,0,-9.842536,22.9, -1.7, 0.1,0,0,1024,1024,1629,1024,23.1,0,98,4.087,4.086,4.084,4.081,0,0,16.65,84.11,6,P-GPS,
0.371705134816201,36.9135408121847,5536.5128973128,125.000004,0,6.5722114964,18200,2018-04-18 06:34:14,11,0,16.208,5536.5128973128,125.000004,0.223694,6.5722114964,0,0,-9.842536,22.8, -1.5, 0.1,0,0,1024,1024,1633,1024,23.1,0,98,4.087,4.086,4.084,4.081,0,0,16.65,84.11,6,P-GPS,
0.371705024270909,36.9135408484016,5538.1533173128,126.640424,0,6.614665566,18300,2018-04-18 06:34:14,11,0,16.182,5538.1533173128,126.640424,0.223694,6.614665566,0,0,-9.618842,22.9, -1.3, -0.1,0,0,1024,1024,1634,1024,23.1,0,98,4.087,4.086,4.084,4.081,0,0,16.65,84.11,6,P-GPS,
0.371704905501975,36.9135408959575,5539.4656533128,127.95276,0,6.6612206856,18400,2018-04-18 06:34:14,11,0,16.182,5539.4656533128,127.95276,0.223694,6.6612206856,0,0,-9.842536,22.9, -1.4, -0.2,0,0,1024,1024,1634,1024,23.1,0,98,4.087,4.086,4.084,4.081,0,0,16.65,84.11,6,P-GPS,
0.371704810011647,36.9135409453783,5541.1060733128,129.59318,0,6.6999017892,18500,2018-04-18 06:34:15,11,0,16.182,5541.1060733128,129.59318,0.223694,6.6999017892,0,0,-9.842536,22.9, -1.2, -0.2,0,0,1024,1024,1634,1024,23.1,0,98,4.087,4.086,4.084,4.081,0,0,16.65,84.11,6,P-GPS,
0.371704716317493,36.9135410063903,5542.4184093128,130.905516,0,6.7392390608,18600,2018-04-18 06:34:15,11,0,16.182,5542.4184093128,130.905516,0.223694,6.7392390608,0,0,-9.842536,22.9, -1.1, -0.2,0,0,1024,1024,1636,1024,23.1,0,98,4.087,4.086,4.084,4.081,0,0,16.65,84.11,6,P-GPS,
0.371704653755932,36.9135410597317,5544.0588293128,132.545936,0,6.7669621588,18700,2018-04-18 06:34:15,11,0,16.182,5544.0588293128,132.545936,0.223694,6.7669621588,0,0,-9.842536,22.9, -1.1, -0.2,0,0,1024,1024,1636,1024,23.1,0,98,4.087,4.086,4.084,4.081,0,0,16.65,84.11,6,P-GPS,
0.371704589699459,36.9135411009945,5545.3711653128,133.858272,0,6.7938322384,18800,2018-04-18 06:34:15,11,0,16.182,5545.3711653128,133.858272,0.223694,6.7938322384,0,0,-10.06623,22.9, -0.7, -0.2,0,0,1024,1024,1637,1024,23.1,0,98,4.087,4.086,4.084,4.081,0,0,16.65,84.11,6,P-GPS,
0.371704547609067,36.913541125714,5547.0115853128,135.498692,0.223694,6.8112206904,18900,2018-04-18 06:34:15,11,0,16.182,5547.0115853128,135.498692,0.223694,6.8112206904,0.223694,0,-10.06623,22.9, -0.3, -0.3,0,0,1024,1024,1638,1024,23.1,0,98,4.087,4.086,4.084,4.081,0,0,16.65,84.11,6,P-GPS,
0.371704498552191,36.9135411471237,5548.3239213128,136.811028,0,6.8306432632,19000,2018-04-18 06:34:15,11,0,16.182,5548.3239213128,136.811028,0.223694,6.8306432632,0,0,-9.842536,22.9, -0.2, -0.2,0,0,1024,1024,1638,1024,23.1,0,98,4.087,4.086,4.084,4.081,0,0,16.65,84.11,6,P-GPS,
0.37170446633017,36.9135411665886,5549.9643413128,138.451448,0,6.8440290904,19100,2018-04-18 06:34:15,11,0,16.182,5549.9643413128,138.451448,0.223694,6.8440290904,0,0,-9.842536,22.9, -0.3, -0.1,0,0,1024,1024,1639,1024,23.1,0,98,4.087,4.086,4.084,4.081,0,0,16.65,84.11,6,P-GPS,
0.371704437897538,36.9135411904206,5551.2766773128,139.763784,0,6.8565947076,19200,2018-04-18 06:34:15,11,0,16.182,5551.2766773128,139.763784,0.223694,6.8565947076,0,0,-10.06623,22.9, -0.4, -0.1,0,0,1024,1024,1640,1024,23.1,0,98,4.087,4.086,4.084,4.081,0,0,16.65,84.11,6,P-GPS,
0.371704428294604,36.91354121203,5552.9170973128,141.404204,0,6.862368986,19300,2018-04-18 06:34:15,11,0,16.129,5552.9170973128,141.404204,0.223694,6.862368986,0,0,-10.06623,22.9, -0.4, 0,0,0,1024,1024,1640,1024,23.1,0,98,4.084,4.082,4.073,4.071,0,0,17.054,84.11,6,P-GPS,
0.371704426055493,36.9135412230328,5554.5575173128,143.044624,0,6.8644031068,19400,2018-04-18 06:34:16,11,0,16.129,5554.5575173128,143.044624,0.223694,6.8644031068,0,0,-10.06623,22.9, -0.4, 0,0,0,1024,1024,1641,1024,23.1,0,98,4.084,4.082,4.073,4.071,0,0,17.054,84.11,6,P-GPS,
0.371704433103399,36.9135412227512,5555.8698533128,144.35696,0,6.8619424768,19500,2018-04-18 06:34:16,11,0,16.129,5555.8698533128,144.35696,0.223694,6.8644031068,0,0,-10.06623,22.9, -0.5, 0,0,0,1024,1024,1641,1024,23.1,0,98,4.084,4.082,4.073,4.071,0,0,17.054,84.11,6,P-GPS,
0.371704423194317,36.9135412375857,5557.5102733128,145.99738,0,6.8670605872,19600,2018-04-18 06:34:16,11,0,16.129,5557.5102733128,145.99738,0.223694,6.8670605872,0,0,-10.06623,22.9, -0.3, 0.1,0,0,1024,1024,1643,1024,23.1,0,98,4.084,4.082,4.073,4.071,0,0,17.054,84.11,6,P-GPS,
0.371704404818955,36.9135412603663,5558.8226093128,147.309716,0,6.8760500888,19700,2018-04-18 06:34:16,11,0,16.129,5558.8226093128,147.309716,0.223694,6.8760500888,0,0,-10.06623,22.9, -0.4, 0.1,0,0,1024,1024,1647,1024,23.1,0,98,4.084,4.082,4.073,4.071,0,0,17.054,84.11,6,P-GPS,
0.371704380227822,36.9135412836105,5560.4630293128,148.950136,0,6.8872049448,19800,2018-04-18 06:34:16,11,0,16.129,5560.4630293128,148.950136,0.223694,6.8872049448,0,0,-10.06623,22.9, -0.5, 0,0,0,1024,1024,1648,1024,23.1,0,98,4.084,4.082,4.073,4.071,0,0,17.054,84.11,6,P-GPS,
0.371704370157524,36.9135412977481,5561.7753653128,150.262472,0,6.8923230552,19900,2018-04-18 06:34:16,11,0,16.129,5561.7753653128,150.262472,0.223694,6.8923230552,0,0,-10.06623,22.8, -0.5, -0.3,0,0,1024,1024,1648,1024,23.1,0,98,4.084,4.082,4.073,4.071,0,0,17.054,84.11,6,P-GPS,
0.371704368239217,36.9135413052188,5563.4157853128,151.902892,0,6.89386505,20000,2018-04-18 06:34:16,11,0,16.129,5563.4157853128,151.902892,0.223694,6.89386505,0,0,-10.06623,22.9, -0.6, 0,0,0,1024,1024,1648,1024,23,0,98,4.084,4.082,4.073,4.071,0,0,17.054,84.11,6,P-GPS,
0.371704383417944,36.9135413031932,5564.7281213128,153.215228,0,6.8883532388,20100,2018-04-18 06:34:16,11,0,16.129,5564.7281213128,153.215228,0.223694,6.89386505,0.223694,0,-10.06623,22.9, -0.6, 0,0,0,1024,1024,1649,1024,23.1,0,98,4.084,4.082,4.073,4.071,0,0,17.054,84.11,6,P-GPS,
0.371704387327838,36.9135413020209,5566.3685413128,154.855648,0.223694,6.8868768608,20200,2018-04-18 06:34:16,11,0,16.129,5566.3685413128,154.855648,0.223694,6.89386505,0.223694,0,-10.06623,22.9, -0.3, 0.2,0,0,1024,1024,1651,1024,23.1,0,98,4.084,4.082,4.073,4.071,0,0,17.054,84.11,6,P-GPS,
0.371704386056023,36.9135413055797,5567.6808773128,156.167984,0.223694,6.8877298792,20300,2018-04-18 06:34:16,11,0,16.156,5567.6808773128,156.167984,0.223694,6.89386505,0.223694,0,-10.06623,22.9, 0, -0.3,0,0,1024,1024,1652,1024,23,0,98,4.077,4.077,4.072,4.067,0,0,16.942,84.11,6,P-GPS,
0.371704391377778,36.9135412974622,5569.3212973128,157.808404,0.223694,6.8849411652,20400,2018-04-18 06:34:16,11,0,16.156,5569.3212973128,157.808404,0.223694,6.89386505,0.223694,0,-10.289924,22.9, 0, 0,0,0,1024,1024,1652,1024,23,0,98,4.077,4.077,4.072,4.067,0,0,16.942,84.11,6,P-GPS,
0.371704419364217,36.9135412824018,5570.9617173128,159.448824,0.223694,6.873523842,20500,2018-04-18 06:34:17,11,0,16.156,5570.9617173128,159.448824,0.223694,6.89386505,0.223694,0,-10.289924,22.9, -0.1, 0.3,0,0,1024,1024,1661,1024,23,0,98,4.077,4.077,4.072,4.067,0,0,16.942,84.11,6,P-GPS,
0.371704457453522,36.9135412714344,5572.6021373128,161.089244,0.223694,6.859088146,20600,2018-04-18 06:34:17,11,0,16.156,5572.6021373128,161.089244,0.223694,6.89386505,0.223694,0,-10.289924,22.8, 0, 0.2,0,0,1024,1024,1664,1024,23.1,0,98,4.077,4.077,4.072,4.067,0,0,16.942,84.11,6,P-GPS,
0.371704496689251,36.9135412613984,5574.2425573128,162.729664,0,6.844324366,20700,2018-04-18 06:34:17,11,0,16.156,5574.2425573128,162.729664,0.223694,6.89386505,0,0,-10.513618,22.9, 0.2, 0.3,0,0,1024,1024,1665,1024,23,0,98,4.077,4.077,4.072,4.067,0,0,16.942,84.11,6,P-GPS,
0.371704531819674,36.9135412537328,5575.5548933128,164.042,0,6.8312994312,20800,2018-04-18 06:34:17,11,0,16.156,5575.5548933128,164.042,0.223694,6.89386505,0,0,-10.513618,22.8, 0.1, 0.3,0,0,1024,1024,1666,1024,23,0,98,4.077,4.077,4.072,4.067,0,0,16.942,84.11,6,P-GPS,
0.3717045477312,36.9135412455714,5577.1953133128,165.68242,0,6.8248361764,20900,2018-04-18 06:34:17,11,0,16.156,5577.1953133128,165.68242,0.223694,6.89386505,0,0,-10.513618,22.8, -0.3, 0.2,0,0,1024,1024,1670,1024,23,0,98,4.077,4.077,4.072,4.067,0,0,16.942,84.11,6,P-GPS,
0.371704549113749,36.9135412200586,5578.8357333128,167.32284,0,6.8214241028,21000,2018-04-18 06:34:17,11,0,16.156,5578.8357333128,167.32284,0.223694,6.89386505,0,0,-10.513618,22.8, -0.6, 0.1,0,0,1024,1024,1672,1024,23,0,98,4.077,4.077,4.072,4.067,0,0,16.942,84.11,6,P-GPS,
0.371704541595223,36.9135411830055,5580.4761533128,168.96326,0,6.8198164912,21100,2018-04-18 06:34:17,11,0,16.156,5580.4761533128,168.96326,0.223694,6.89386505,0,0,-10.737312,22.8, -0.4, 0.1,0,0,1024,1024,1671,1024,23,0,98,4.077,4.077,4.072,4.067,0,0,16.942,84.11,6,P-GPS,
0.37170450189213,36.9135411414714,5582.1165733128,170.60368,0,6.8288716096,21200,2018-04-18 06:34:17,11,0,16.156,5582.1165733128,170.60368,0.223694,6.89386505,0,0,-10.737312,22.8, -0.6, 0.4,0,0,1024,1024,1671,1024,23,0,98,4.077,4.077,4.072,4.067,0,0,16.942,84.11,6,P-GPS,
0.37170444009268,36.9135411114384,5583.7569933128,172.2441,0,6.8469162296,21300,2018-04-18 06:34:17,11,0,16.156,5583.7569933128,172.2441,0.223694,6.89386505,0,0,-10.737312,22.8, -0.9, 0.5,0,0,1024,1024,1673,1024,23,0,98,4.066,4.066,4.06,4.056,0,0,17.694,84.11,6,P-GPS,
0.37170438308737,36.9135410764869,5585.3974133128,173.88452,0,6.8628283036,21400,2018-04-18 06:34:18,11,0,16.156,5585.3974133128,173.88452,0.223694,6.89386505,0,0,-10.961006,22.9, -1.4, 0.4,0,0,1024,1024,1673,1024,23,0,98,4.066,4.066,4.06,4.056,0,0,17.694,84.11,6,P-GPS,
0.371704338230251,36.9135410437104,5586.7097493128,175.196856,0,6.8748033696,21500,2018-04-18 06:34:18,11,0,16.156,5586.7097493128,175.196856,0.223694,6.89386505,0,0,-10.737312,22.9, -2, 0.2,0,0,1024,1024,1672,1024,23,0,98,4.066,4.066,4.06,4.056,0,0,17.694,84.11,6,P-GPS,
0.371704281325904,36.9135410067136,5588.3501693128,176.837276,0,6.8905185932,21600,2018-04-18 06:34:18,11,0,16.156,5588.3501693128,176.837276,0.223694,6.89386505,0,0,-10.961006,22.9, -2.2, 0.1,0,0,1024,1024,1675,1024,23,0,98,4.066,4.066,4.06,4.056,0,0,17.694,84.11,6,P-GPS,
0.371704230523337,36.9135409761415,5589.9905893128,178.477696,0,6.9048886724,21700,2018-04-18 06:34:18,11,0,16.156,5589.9905893128,178.477696,0.223694,6.9048886724,0,0,-10.737312,22.8, -1.7, 0.3,0,0,1024,1024,1680,1024,23,0,98,4.066,4.066,4.06,4.056,0,0,17.694,84.11,6,P-GPS,
0.371704178284482,36.9135409395756,5591.6310093128,180.118116,0,6.919127518,21800,2018-04-18 06:34:18,11,0,16.156,5591.6310093128,180.118116,0.223694,6.919127518,0,0,-10.961006,22.8, -0.9, 0.3,0,0,1024,1024,1684,1024,23,0,98,4.066,4.066,4.06,4.056,0,0,17.694,84.11,6,P-GPS,
0.371704118489647,36.9135409061123,5593.5995133128,182.08662,0,6.9364175448,21900,2018-04-18 06:34:18,11,0,16.156,5593.5995133128,182.08662,0.223694,6.9364175448,0,0,-11.1847,22.8, -0.7, 0.2,0,0,1024,1024,1684,1024,23,0,98,4.066,4.066,4.06,4.056,0,0,17.694,84.11,6,P-GPS,
