latitude,longitude,altitude(feet),ascent(feet),speed(mph),distance(feet),time(millisecond),datetime(utc),satellites,gpslevel,voltage(v),max_altitude(feet),max_ascent(feet),max_speed(mph),max_distance(feet), xSpeed(mph), ySpeed(mph), zSpeed(mph), compass_heading(degrees), pitch(degrees), roll(degrees),isPhoto,isVideo,rc_elevator,rc_aileron,rc_throttle,rc_rudder,gimbal_heading(degrees),gimbal_pitch(degrees),battery_percent,voltageCell1,voltageCell2,voltageCell3,voltageCell4,voltageCell5,voltageCell6,current(A),battery_temperature(f),flycStateRaw,flycState,message
0.318392360766979,36.9028571243534,5545.4522253547,0,0,0,0,2018-04-06 12:22:29,17,0,0,5545.4522253547,0,0,0,0,0,0,174.7, 3.5, -2.9,0,0,364,364,364,1684,179.2,0,100,4.313,4.312,4.31,4.309,0,0,0,80.51,41,Motors_Started,
0.318392390787344,36.902857119533,5545.4522253547,0,0,0.0110932090164,100,2018-04-06 12:22:29,17,0,0,5545.4522253547,0,0,0.0110932090164,0,0,0,174.7, 3.5, -2.9,0,0,364,364,364,1684,178.8,0,100,4.313,4.312,4.31,4.309,0,0,0,80.51,41,Motors_Started,
0.318392423514998,36.9028571129116,5545.4522253547,0,0,0.0232710637368,300,2018-04-06 12:22:29,17,0,0,5545.4522253547,0,0,0.0232710637368,0,0,0,174.7, 3.5, -2.9,0,0,364,364,364,1684,179,0,100,4.313,4.312,4.31,4.309,0,0,0,80.51,41,Motors_Started,
0.318392432290682,36.9028571084222,5545.4522253547,0,0,0.0267348433752,400,2018-04-06 12:22:29,17,0,0,5545.4522253547,0,0,0.0267348433752,0,0,0,174.8, 3.5, -2.9,0,0,364,364,364,1684,179,0,100,4.313,4.312,4.31,4.309,0,0,0,80.51,41,Motors_Started,
0.31839243774597,36.902857112619,5545.4522253547,0,0,0.0284101715128,500,2018-04-06 12:22:29,17,0,17.209,5545.4522253547,0,0,0.0284101715128,0,0,0,174.7, 3.5, -2.9,0,0,364,364,364,1684,178.8,0,100,4.313,4.312,4.31,4.309,0,0,1.622,80.51,41,Motors_Started,Setting new Return-To-Home altitude to 45m (148 ft). Setting new Maximum Flight Altitude to 150m (492 ft)
0.318392439279964,36.9028571105123,5545.4522253547,0,0,0.02908710723,600,2018-04-06 12:22:29,17,0,17.209,5545.4522253547,0,0,0.02908710723,0,0,0,174.8, 3.5, -2.9,0,0,364,364,364,1684,179,0,100,4.313,4.312,4.31,4.309,0,0,1.622,80.51,41,Motors_Started,
0.31839243787136,36.9028571152385,5545.4522253547,0,0,0.0283273631112,700,2018-04-06 12:22:29,17,0,17.209,5545.4522253547,0,0,0.02908710723,0,0,0,174.7, 3.5, -2.9,0,0,364,364,364,1684,179,0,100,4.313,4.312,4.31,4.309,0,0,1.622,80.51,41,Motors_Started,
0.318392434705665,36.9028571143365,5545.4522253547,0,0,0.0272229011336,800,2018-04-06 12:22:29,17,0,17.209,5545.4522253547,0,0,0.02908710723,0,0,0,174.7, 3.5, -2.9,0,0,364,364,364,1684,178.8,0,100,4.313,4.312,4.31,4.309,0,0,1.622,80.51,41,Motors_Started,
0.318392455759817,36.9028571193095,5545.4522253547,0,0,0.034707022108,900,2018-04-06 12:22:29,17,0,17.209,5545.4522253547,0,0,0.034707022108,0,0,0,174.7, 3.6, -2.9,0,0,364,364,364,1684,179.1,0,100,4.313,4.312,4.31,4.309,0,0,1.622,80.51,41,Motors_Started,
0.318392481503074,36.9028571178489,5545.4522253547,0,0,0.044114502724,1000,2018-04-06 12:22:29,17,0,17.209,5545.4522253547,0,0,0.044114502724,0,0,0,174.7, 3.7, -2.8,0,0,364,364,364,1684,178.9,0,100,4.313,4.312,4.31,4.309,0,0,1.622,80.51,41,Motors_Started,
0.318392507118498,36.9028571215476,5545.4522253547,0,0,0.053406169688,1100,2018-04-06 12:22:30,17,0,17.209,5545.4522253547,0,0,0.053406169688,0,0,0,174.7, 3.7, -2.8,0,0,364,364,364,1684,178.6,0,100,4.313,4.312,4.31,4.309,0,0,1.622,80.51,41,Motors_Started,
0.318392516573244,36.9028571222363,5545.4522253547,0,0,0.056851051688,1200,2018-04-06 12:22:30,17,0,17.209,5545.4522253547,0,0,0.056851051688,0,0,0,174.7, 3.5, -2.9,0,0,364,364,364,1684,179.1,0,100,4.313,4.312,4.31,4.309,0,0,1.622,80.51,41,Motors_Started,
0.318392528496711,36.9028571273064,5545.4522253547,0,0,0.06120571062,1300,2018-04-06 12:22:30,17,0,17.209,5545.4522253547,0,0,0.06120571062,0,0,0,174.7, 3.7, -2.8,0,0,364,364,364,1684,178.9,0,100,4.313,4.312,4.31,4.309,0,0,1.622,80.51,41,Motors_Started,
0.318392531838278,36.902857128836,5545.4522253547,0,0,0.062436681788,1400,2018-04-06 12:22:30,17,0,17.209,5545.4522253547,0,0,0.062436681788,0,0,0,174.7, 3.6, -2.8,0,0,364,364,364,1684,178.7,0,100,4.313,4.312,4.31,4.309,0,0,1.622,80.51,41,Motors_Started,
0.318392535323148,36.902857132717,5545.4522253547,0,0,0.06375984456,1500,2018-04-06 12:22:30,17,0,17.209,5545.4522253547,0,0,0.06375984456,0,0,0,174.8, 3.8, -2.7,0,0,364,364,429,1649,178.7,0,100,4.306,4.306,4.305,4.305,0,0,1.844,80.51,41,Motors_Started,
0.318392534322469,36.902857132554,5545.4522253547,0,0,0.06339239048,1600,2018-04-06 12:22:30,17,0,17.209,5545.4522253547,0,0,0.06375984456,0,0,0,174.8, 3.6, -2.8,0,0,364,364,509,1579,179.1,0,100,4.306,4.306,4.305,4.305,0,0,1.844,80.51,10,Assisted_Takeoff,
0.318392528337938,36.9028571401274,5545.4522253547,0,0,0.061408466532,1700,2018-04-06 12:22:30,17,0,17.209,5545.4522253547,0,0,0.06375984456,0,0,0,174.7, 3.7, -2.8,0,0,442,364,565,1539,178.9,0,100,4.306,4.306,4.305,4.305,0,0,1.844,80.51,10,Assisted_Takeoff,
0.318392523696872,36.9028571402109,5545.4522253547,0,0,0.059725723696,1800,2018-04-06 12:22:30,17,0,17.209,5545.4522253547,0,0,0.06375984456,0,0,0,174.8, 3.5, -2.9,0,0,616,445,625,1494,179,0,100,4.306,4.306,4.305,4.305,0,0,1.844,80.51,10,Assisted_Takeoff,
0.318392541413529,36.9028571468856,5545.4522253547,0,0,0.066419621548,1900,2018-04-06 12:22:30,17,0,17.209,5545.4522253547,0,0,0.066419621548,0,0,0,174.8, 3.6, -2.8,0,0,1002,836,1059,1024,178.9,0,100,4.306,4.306,4.305,4.305,0,0,1.844,80.51,10,Assisted_Takeoff,
0.318392566544491,36.9028571466354,5545.4522253547,0,0,0.0755167347,2000,2018-04-06 12:22:31,17,0,17.209,5545.4522253547,0,0,0.0755167347,0,0,0,174.7, 3.5, -2.9,0,0,1024,1024,1024,994,178.4,0,100,4.306,4.306,4.305,4.305,0,0,1.844,80.51,10,Assisted_Takeoff,
0.31839258748628,36.9028571510185,5545.4522253547,0,0,0.083288388492,2100,2018-04-06 12:22:31,17,0,17.209,5545.4522253547,0,0,0.083288388492,0,0,0,174.7, 3.6, -2.8,0,0,1024,1024,1024,1024,176.9,0,100,4.306,4.306,4.305,4.305,0,0,1.844,80.51,10,Assisted_Takeoff,
0.318392602321405,36.9028571512989,5545.4522253547,0,0,0.088677496276,2200,2018-04-06 12:22:31,17,0,17.209,5545.4522253547,0,0,0.088677496276,0,0,0,174.7, 3.5, -2.8,0,0,1024,1024,1024,1024,176.4,0,100,4.306,4.306,4.305,4.305,0,0,1.844,80.51,10,Assisted_Takeoff,
0.318392616545864,36.9028571565757,5545.4522253547,0,0,0.09405840196,2300,2018-04-06 12:22:31,17,0,17.209,5545.4522253547,0,0,0.09405840196,0,0,0,174.7, 3.5, -2.8,0,0,1024,1024,1024,1024,176.1,0,100,4.306,4.306,4.305,4.305,0,0,1.844,80.51,10,Assisted_Takeoff,
0.318392622208778,36.9028571564783,5545.4522253547,0,0,0.096104333784,2400,2018-04-06 12:22:31,17,0,17.209,5545.4522253547,0,0,0.096104333784,0,0,0,174.7, 3.5, -2.9,0,0,1024,1024,1024,1024,175.9,0,100,4.306,4.306,4.305,4.305,0,0,1.844,80.51,10,Assisted_Takeoff,
0.318392625579657,36.9028571596973,5545.4522253547,0,0,0.097473428316,2500,2018-04-06 12:22:31,17,0,16.995,5545.4522253547,0,0,0.097473428316,0,0,0,174.7, 3.6, -2.8,0,0,1024,1024,1024,1024,175.8,0,100,4.306,4.306,4.305,4.305,0,0,4.206,80.51,10,Assisted_Takeoff,
0.318392627338376,36.9028571593338,5545.4522253547,0,0,0.09809219474,2600,2018-04-06 12:22:31,17,0,16.995,5545.4522253547,0,0,0.09809219474,0,0,0,174.7, 3.5, -2.9,0,0,1024,1024,1024,1024,175.7,0,100,4.306,4.306,4.305,4.305,0,0,4.206,80.51,10,Assisted_Takeoff,
0.318392627245555,36.9028571619625,5545.4522253547,0,0,0.098187995268,2700,2018-04-06 12:22:31,17,0,16.995,5545.4522253547,0,0,0.098187995268,0,0,0,174.7, 3.5, -2.9,0,0,1024,1024,1024,1024,175.6,0,100,4.306,4.306,4.305,4.305,0,0,4.206,80.51,10,Assisted_Takeoff,
0.318392626065747,36.9028571621206,5545.4522253547,0,0,0.097770016252,2800,2018-04-06 12:22:31,17,0,16.995,5545.4522253547,0,0,0.098187995268,0,0,0,174.7, 3.5, -2.9,0,0,1024,1024,1024,1024,175.5,0,100,4.306,4.306,4.305,4.305,0,0,4.206,80.51,10,Assisted_Takeoff,
0.318392647724052,36.902857164841,5545.4522253547,0,0,0.105732943016,2900,2018-04-06 12:22:31,17,0,16.995,5545.4522253547,0,0,0.105732943016,0,0,0,174.7, 3.5, -2.8,0,0,1024,1024,1024,1024,175.5,0,100,4.306,4.306,4.305,4.305,0,0,4.206,80.51,10,Assisted_Takeoff,
0.318392674754594,36.9028571651079,5545.4522253547,0,0,0.115519032568,3000,2018-04-06 12:22:31,17,0,16.995,5545.4522253547,0,0,0.115519032568,0,0,0,174.7, 3.5, -2.9,0,0,1024,1024,1024,1024,175.5,0,100,4.306,4.306,4.305,4.305,0,0,4.206,80.51,10,Assisted_Takeoff,
0.318392703501516,36.9028571675111,5545.4522253547,0,0,0.126033796684,3100,2018-04-06 12:22:31,17,0,16.995,5545.4522253547,0,0,0.126033796684,0,0,0,174.7, 3.5, -2.8,0,0,1024,1024,1024,1024,175.5,0,100,4.306,4.306,4.305,4.305,0,0,4.206,80.51,10,Assisted_Takeoff,
0.31839271823242,36.9028571671568,5545.4522253547,0,0,0.131352694492,3200,2018-04-06 12:22:32,17,0,16.995,5545.4522253547,0,0,0.131352694492,0,0,0,174.7, 3.5, -2.9,0,0,1024,1024,1024,1024,175.4,0,100,4.306,4.306,4.305,4.305,0,0,4.206,80.51,10,Assisted_Takeoff,
0.318392729905107,36.9028571691623,5545.4522253547,0,0,0.135668311428,3300,2018-04-06 12:22:32,17,0,16.995,5545.4522253547,0,0,0.135668311428,0,0,0,174.7, 3.5, -2.9,0,0,1024,1024,1024,1024,175.4,0,100,4.306,4.306,4.305,4.305,0,0,4.206,80.51,10,Assisted_Takeoff,
0.318392735140555,36.9028571694002,5545.4522253547,0,0,0.137575135636,3400,2018-04-06 12:22:32,17,0,16.995,5545.4522253547,0,0,0.137575135636,0,0,0,174.7, 3.5, -2.9,0,0,1024,1024,1024,1024,175.4,0,100,4.306,4.306,4.305,4.305,0,0,4.206,80.51,10,Assisted_Takeoff,
0.318392763215743,36.9028571707015,5545.4522253547,0,0,0.147803810504,3500,2018-04-06 12:22:32,17,0,17.182,5545.4522253547,0,0,0.147803810504,0,0,0,174.7, 3.5, -2.8,0,0,1024,1024,1024,1024,175.4,0,100,4.29,4.288,4.286,4.298,0,0,4.206,80.51,10,Assisted_Takeoff,
0.318392792220773,36.9028571702679,5545.4522253547,0,0,0.158304467008,3600,2018-04-06 12:22:32,17,0,17.182,5545.4522253547,0,0,0.158304467008,0,0,0,174.7, 3.5, -2.9,0,0,1024,1024,1035,1024,175.4,0,100,4.29,4.288,4.286,4.298,0,0,4.206,80.51,10,Assisted_Takeoff,
0.31839281928307,36.9028571710931,5545.4522253547,0,0,0.16815617336,3700,2018-04-06 12:22:32,17,0,17.182,5545.4522253547,0,0,0.16815617336,0,0,0,174.7, 3.5, -2.8,0,0,1024,1024,1086,1024,175.3,0,100,4.29,4.288,4.286,4.298,0,0,4.206,80.51,10,Assisted_Takeoff,
0.318392834356762,36.9028571697506,5545.4522253547,0,0,0.1735810423,3800,2018-04-06 12:22:32,17,0,17.182,5545.4522253547,0,0,0.1735810423,0,0,0,174.7, 3.5, -2.9,0,0,1024,1024,1134,1024,175.3,0,100,4.29,4.288,4.286,4.298,0,0,4.206,80.51,10,Assisted_Takeoff,
0.318392844177908,36.902857169143,5545.4522253547,0,0,0.17712763034,3900,2018-04-06 12:22:32,17,0,17.182,5545.4522253547,0,0,0.17712763034,0,0,0,174.7, 3.5, -2.8,0,0,1024,1024,1172,1024,175.3,0,100,4.29,4.288,4.286,4.298,0,0,4.206,80.51,10,Assisted_Takeoff,
0.318392848842586,36.9028571666597,5545.4522253547,0,0,0.17874180362,4000,2018-04-06 12:22:33,17,0,17.182,5545.4522253547,0,0,0.17874180362,0,0,0,174.7, 3.5, -2.8,0,0,1024,1024,1202,1024,175.3,0,100,4.29,4.288,4.286,4.298,0,0,4.206,80.51,10,Assisted_Takeoff,
0.318392848279958,36.902857166216,5545.4522253547,0,0,0.178523299676,4100,2018-04-06 12:22:33,17,0,17.182,5545.4522253547,0,0,0.17874180362,0,0,0,174.7, 3.6, -2.7,0,0,1024,1024,1236,1024,175.3,0,100,4.29,4.288,4.286,4.298,0,0,4.206,80.51,10,Assisted_Takeoff,
0.318392847658707,36.9028571631522,5545.4522253547,0,0,0.17820538628,4200,2018-04-06 12:22:33,17,0,17.182,5545.4522253547,0,0,0.17874180362,0,0,0,174.7, 3.7, -2.7,0,0,1024,1024,1269,1024,175.3,0,100,4.29,4.288,4.286,4.298,0,0,4.206,80.51,10,Assisted_Takeoff,
0.318392843618537,36.9028571620936,5545.4522253547,0,0,0.176705386232,4300,2018-04-06 12:22:33,17,0,17.182,5545.4522253547,0,0,0.17874180362,0,0,0,174.7, 3.8, -2.5,0,0,1024,1024,1302,1024,175.3,0,100,4.29,4.288,4.286,4.298,0,0,4.206,80.51,10,Assisted_Takeoff,
0.318392844460443,36.9028571619475,5545.4522253547,0,0,0.177007551596,4400,2018-04-06 12:22:33,17,0,17.182,5545.4522253547,0,0,0.17874180362,0,0,0,174.6, 3.3, -1.8,0,0,1024,1024,1338,1024,175.3,0,100,4.29,4.288,4.286,4.298,0,0,4.206,80.51,10,Assisted_Takeoff,
0.318392900076691,36.9028571806395,5545.4522253547,0,0,0.197835636252,4500,2018-04-06 12:22:33,17,0,17.182,5545.4522253547,0,0,0.197835636252,0,0,0,174.7, 1.3, 1.2,0,0,1024,1024,1360,1024,175.3,0,100,4.305,4.305,4.303,4.301,0,0,2.086,80.51,10,Assisted_Takeoff,
0.318392981075495,36.9028571813605,5545.4522253547,0,0,0.227272973152,4600,2018-04-06 12:22:33,17,0,17.182,5545.4522253547,0,0,0.227272973152,0,0,-0.447388,174.6, 0, 2.8,0,0,1024,1024,1378,1024,175.3,0,100,4.305,4.305,4.303,4.301,0,0,2.086,80.51,6,P-GPS,Home Point Recorded. RTH Altitude:  45m.
0.318393039297253,36.9028571019512,5545.4522253547,0,0.223694,0.247696202152,4700,2018-04-06 12:22:33,17,0,17.182,5545.4522253547,0,0.223694,0.247696202152,0,-0.223694,-0.894776,174.7, 0.1, 1.6,0,0,1024,1024,1395,1024,175.3,0,100,4.305,4.305,4.303,4.301,0,0,2.086,80.51,6,P-GPS,
0.318393067452236,36.9028569587234,5545.4522253547,0,0.223694,0.264820546532,4800,2018-04-06 12:22:33,17,0,17.182,5545.4522253547,0,0.223694,0.264820546532,0,-0.223694,-1.565858,174.7, 0.2, 0.6,0,0,1024,1024,1396,1024,175.2,0,100,4.305,4.305,4.303,4.301,0,0,2.086,80.51,6,P-GPS,
0.318393106975386,36.9028567511754,5545.7803093547,0.328084,0.447388,0.304399944124,4900,2018-04-06 12:22:33,17,0,17.182,5545.7803093547,0.328084,0.447388,0.304399944124,0,-0.447388,-2.23694,174.7, 0, -2,0,0,1024,1024,1388,1024,175.2,0,100,4.305,4.305,4.303,4.301,0,0,2.086,80.51,6,P-GPS,
0.31839312445836,36.9028565399961,5546.1083933547,0.656168,0.447388,0.35084318708,5000,2018-04-06 12:22:33,17,0,17.182,5546.1083933547,0.656168,0.447388,0.35084318708,0,-0.223694,-2.908022,174.9, 0.9, -1.9,0,0,1024,1024,1391,1024,175.3,0,100,4.305,4.305,4.303,4.301,0,0,2.086,80.51,6,P-GPS,
0.318393133608587,36.9028563305809,5546.7645613547,1.312336,0.223694,0.404199488,5100,2018-04-06 12:22:33,17,0,17.182,5546.7645613547,1.312336,0.447388,0.404199488,0,-0.223694,-3.35541,174.8, 1.3, -3.3,0,0,1024,1024,1396,1024,175.2,0,100,4.305,4.305,4.303,4.301,0,0,2.086,80.51,6,P-GPS,
0.318393172755567,36.9028561257447,5547.0926453547,1.64042,0.223694,0.46958334836,5200,2018-04-06 12:22:34,17,0,17.182,5547.0926453547,1.64042,0.447388,0.46958334836,0,-0.223694,-3.579104,174.8, 0.4, -3.8,0,0,1024,1024,1388,1024,175.2,0,100,4.305,4.305,4.303,4.301,0,0,2.086,80.51,6,P-GPS,
0.318393272961054,36.9028559578928,5547.7488133547,2.296588,0.3131716,0.54025920364,5300,2018-04-06 12:22:34,17,0,17.182,5547.7488133547,2.296588,0.447388,0.54025920364,0.223694,-0.223694,-4.250186,174.6, 0.1, -3.7,0,0,1024,1024,1382,1024,175.2,0,100,4.305,4.305,4.303,4.301,0,0,2.086,80.51,6,P-GPS,
0.318393415129914,36.9028558252558,5548.4049813547,2.952756,0.3131716,0.6104330904,5400,2018-04-06 12:22:34,17,0,17.182,5548.4049813547,2.952756,0.447388,0.6104330904,0.223694,-0.223694,-4.697574,174.6, 0.3, -3.2,0,0,1024,1024,1390,1024,175.2,0,100,4.305,4.305,4.303,4.301,0,0,2.086,80.51,6,P-GPS,
0.318393681288501,36.9028557800438,5549.0611493547,3.608924,0.447388,0.6875164262,5500,2018-04-06 12:22:34,16,0,16.995,5549.0611493547,3.608924,0.447388,0.6875164262,0.447388,0,-4.921268,174.8, -2.2, -2.2,0,0,1024,1024,1390,1024,175.2,0,100,4.234,4.232,4.226,4.22,0,0,9.408,82.31,6,P-GPS,
0.318393977706019,36.902855770926,5550.0454013547,4.593176,0.447388,0.76932089076,5600,2018-04-06 12:22:34,16,0,16.995,5550.0454013547,4.593176,0.447388,0.76932089076,0.447388,0,-5.144962,174.8, -5.2, -1.1,0,0,1024,1024,1391,1024,175.2,0,100,4.234,4.232,4.226,4.22,0,0,9.408,82.31,6,P-GPS,
0.318394282684268,36.9028558179188,5550.7015693547,5.249344,0.223694,0.84787076204,5700,2018-04-06 12:22:34,17,0,16.995,5550.7015693547,5.249344,0.447388,0.84787076204,0.223694,0,-5.144962,174.7, -5.8, 0,0,0,1024,1024,1392,1024,175.2,0,100,4.234,4.232,4.226,4.22,0,0,9.408,82.31,6,P-GPS,
0.318394484682975,36.9028558243945,5551.3577373547,5.905512,0.223694,0.9085302128,5800,2018-04-06 12:22:34,17,0,16.995,5551.3577373547,5.905512,0.447388,0.9085302128,0,-0.223694,-5.144962,174.6, -4.9, -0.6,0,0,1024,1024,1396,1024,175.2,0,100,4.234,4.232,4.226,4.22,0,0,9.408,82.31,6,P-GPS,
0.318394561613112,36.9028558257256,5552.3419893547,6.889764,0.223694,0.93233926868,5900,2018-04-06 12:22:34,17,0,16.995,5552.3419893547,6.889764,0.447388,0.93233926868,0,-0.223694,-5.144962,174.5, -2.6, -2.7,0,0,1024,1024,1397,1024,175.2,0,100,4.234,4.232,4.226,4.22,0,0,9.408,82.31,6,P-GPS,
0.318394584114951,36.9028558203579,5552.9981573547,7.545932,0.223694,0.94040685424,6000,2018-04-06 12:22:35,17,0,16.995,5552.9981573547,7.545932,0.447388,0.94040685424,0.223694,0,-5.144962,174.6, -2.5, -3.2,0,0,1024,1024,1397,1024,175.2,0,100,4.234,4.232,4.226,4.22,0,0,9.408,82.31,6,P-GPS,
0.318394629009524,36.9028558379399,5553.6543253547,8.2021,0.223694,0.95139110656,6100,2018-04-06 12:22:35,17,0,16.995,5553.6543253547,8.2021,0.447388,0.95139110656,0.223694,0,-4.921268,174.6, -2.4, -2.4,0,0,1024,1024,1397,1024,175.2,0,100,4.234,4.232,4.226,4.22,0,0,9.408,82.31,6,P-GPS,
0.318394690879811,36.9028558387137,5554.6385773547,9.186352,0.223694,0.97095475548,6200,2018-04-06 12:22:35,17,0,16.995,5554.6385773547,9.186352,0.447388,0.97095475548,0.223694,0,-4.921268,174.7, -2.7, -1.7,0,0,1024,1024,1399,1024,175.2,0,100,4.234,4.232,4.226,4.22,0,0,9.408,82.31,6,P-GPS,
0.318394732028148,36.9028558041524,5555.2947453547,9.84252,0.223694,0.99020016292,6300,2018-04-06 12:22:35,17,0,16.995,5555.2947453547,9.84252,0.447388,0.99020016292,0,-0.223694,-4.697574,174.7, -3.1, -1.7,0,0,1024,1024,1398,1024,175.2,0,100,4.234,4.232,4.226,4.22,0,0,9.408,82.31,6,P-GPS,
0.318394758601097,36.9028557146013,5555.9509133547,10.498688,0.223694,1.01484255216,6400,2018-04-06 12:22:35,17,0,16.995,5555.9509133547,10.498688,0.447388,1.01484255216,0,-0.447388,-4.697574,174.7, -3.3, -3,0,0,1024,1024,1399,1024,175.2,0,100,4.234,4.232,4.226,4.22,0,0,9.408,82.31,6,P-GPS,
0.318394805304057,36.9028555693687,5556.6070813547,11.154856,0.223694,1.05703415456,6500,2018-04-06 12:22:35,17,0,16.594,5556.6070813547,11.154856,0.447388,1.05703415456,0,-0.223694,-4.697574,174.8, -3.6, -4.2,0,0,1024,1024,1399,1024,175.2,0,100,4.234,4.232,4.226,4.22,0,0,9.408,82.31,6,P-GPS,
0.318394862785687,36.9028554106133,5557.2632493547,11.811024,0.223694,1.10645672832,6600,2018-04-06 12:22:35,17,0,16.594,5557.2632493547,11.811024,0.447388,1.10645672832,0,-0.223694,-4.47388,174.8, -3.9, -4.5,0,0,1024,1024,1397,1024,175.2,0,100,4.234,4.232,4.226,4.22,0,0,9.408,82.31,6,P-GPS,
0.318394937365165,36.9028552351744,5557.9194173547,12.467192,0.223694,1.16567917116,6700,2018-04-06 12:22:35,17,0,16.594,5557.9194173547,12.467192,0.447388,1.16567917116,0,-0.223694,-4.697574,174.8, -3.7, -4.4,0,0,1024,1024,1400,1024,175.1,0,100,4.234,4.232,4.226,4.22,0,0,9.408,82.31,6,P-GPS,
0.318395002361251,36.9028550705427,5558.5755853547,13.12336,0.223694,1.22080384484,6800,2018-04-06 12:22:35,17,0,16.594,5558.5755853547,13.12336,0.447388,1.22080384484,0,-0.223694,-4.697574,174.8, -3.3, -5,0,0,1024,1024,1401,1024,175.1,0,100,4.234,4.232,4.226,4.22,0,0,9.408,82.31,6,P-GPS,
0.318395059010746,36.9028549230885,5559.5598373547,14.107612,0.223694,1.2704888858,6900,2018-04-06 12:22:35,17,0,16.594,5559.5598373547,14.107612,0.447388,1.2704888858,0,-0.223694,-4.697574,174.8, -3.9, -5.8,0,0,1024,1024,1400,1024,175.1,0,100,4.234,4.232,4.226,4.22,0,0,9.408,82.31,6,P-GPS,
0.318395104174826,36.9028548182158,5560.2160053547,14.76378,0.223694,1.30758534368,7000,2018-04-06 12:22:35,17,0,16.594,5560.2160053547,14.76378,0.447388,1.30758534368,0,-0.223694,-4.697574,174.9, -4.8, -5.3,0,0,1024,1024,1399,1024,175.1,0,100,4.234,4.232,4.226,4.22,0,0,9.408,82.31,6,P-GPS,
0.318395159110384,36.9028547189793,5560.8721733547,15.419948,0.223694,1.3463090982,7100,2018-04-06 12:22:35,17,0,16.594,5560.8721733547,15.419948,0.447388,1.3463090982,0,-0.223694,-4.697574,174.9, -5.1, -5.2,0,0,1024,1024,1400,1024,175.1,0,100,4.234,4.232,4.226,4.22,0,0,9.408,82.31,6,P-GPS,
0.318395193900462,36.9028546255162,5561.5283413547,16.076116,0.223694,1.37827432232,7200,2018-04-06 12:22:36,17,0,16.594,5561.5283413547,16.076116,0.447388,1.37827432232,0,-0.223694,-4.697574,174.9, -5, -5.2,0,0,1024,1024,1400,1024,175.1,0,100,4.234,4.232,4.226,4.22,0,0,9.408,82.31,6,P-GPS,
0.318395199921634,36.9028545387277,5562.1845093547,16.732284,0.223694,1.40104335192,7300,2018-04-06 12:22:36,17,0,16.594,5562.1845093547,16.732284,0.447388,1.40104335192,0,-0.223694,-4.697574,175, -4.4, -5.4,0,0,1024,1024,1399,1024,175.1,0,100,4.234,4.232,4.226,4.22,0,0,9.408,82.31,6,P-GPS,
0.318395165800032,36.9028544684118,5562.8406773547,17.388452,0,1.40937668552,7400,2018-04-06 12:22:36,17,0,16.594,5562.8406773547,17.388452,0.447388,1.40937668552,0,0,-4.697574,175, -4.1, -5.5,0,0,1024,1024,1396,1024,175.1,0,100,4.234,4.232,4.226,4.22,0,0,9.408,82.31,6,P-GPS,
0.318395106676116,36.9028544262671,5563.8249293547,18.372704,0,1.404527604,7500,2018-04-06 12:22:36,17,0,16.648,5563.8249293547,18.372704,0.447388,1.40937668552,0,0,-4.697574,175, -3.6, -5.4,0,0,1024,1024,1393,1024,175.1,0,100,4.186,4.19,4.188,4.185,0,0,14.972,82.31,6,P-GPS,
0.318395013021045,36.9028544020466,5564.4810973547,19.028872,0,1.38667655356,7600,2018-04-06 12:22:36,17,0,16.648,5564.4810973547,19.028872,0.447388,1.40937668552,0,0,-4.697574,174.9, -3.1, -5,0,0,1024,1024,1394,1024,175.1,0,100,4.186,4.19,4.188,4.185,0,0,14.972,82.31,6,P-GPS,
0.318394923071498,36.9028543490937,5565.1372653547,19.68504,0.3131716,1.37811028032,7700,2018-04-06 12:22:36,17,0,16.648,5565.1372653547,19.68504,0.447388,1.40937668552,-0.223694,-0.223694,-4.697574,174.9, -2.5, -5.5,0,0,1024,1024,1392,1024,175.1,0,100,4.186,4.19,4.188,4.185,0,0,14.972,82.31,6,P-GPS,
0.318394824705338,36.9028542766548,5565.7934333547,20.341208,0.3131716,1.37389440092,7800,2018-04-06 12:22:36,17,0,16.648,5565.7934333547,20.341208,0.447388,1.40937668552,-0.223694,-0.223694,-4.697574,174.8, -2, -5.8,0,0,1024,1024,1392,1024,175.1,0,100,4.186,4.19,4.188,4.185,0,0,14.972,82.31,6,P-GPS,
0.318394727622393,36.9028541946513,5566.4496013547,20.997376,0.3131716,1.37412734056,7900,2018-04-06 12:22:36,17,0,16.648,5566.4496013547,20.997376,0.447388,1.40937668552,-0.223694,-0.223694,-4.697574,174.8, -1.7, -7,0,0,1024,1024,1393,1024,175.1,0,100,4.186,4.19,4.188,4.185,0,0,14.972,82.31,6,P-GPS,
0.318394629873413,36.9028541296322,5567.4338533547,21.981628,0,1.37083009636,8000,2018-04-06 12:22:36,17,0,16.648,5567.4338533547,21.981628,0.447388,1.40937668552,0,0,-4.697574,174.8, -1.6, -7.3,0,0,1024,1024,1394,1024,175.1,0,100,4.186,4.19,4.188,4.185,0,0,14.972,82.31,6,P-GPS,
0.318394562573894,36.9028541267958,5568.0900213547,22.637796,0,1.35697510904,8100,2018-04-06 12:22:37,17,0,16.648,5568.0900213547,22.637796,0.447388,1.40937668552,0,0,-4.697574,174.8, -2, -6.6,0,0,1024,1024,1396,1024,175.1,0,100,4.186,4.19,4.188,4.185,0,0,14.972,82.31,6,P-GPS,
0.318394508341009,36.9028541562485,5568.7461893547,23.293964,0,1.33663718188,8200,2018-04-06 12:22:37,17,0,16.648,5568.7461893547,23.293964,0.447388,1.40937668552,0,0,-4.697574,174.7, -2.1, -6,0,0,1024,1024,1392,1024,175.1,0,100,4.186,4.19,4.188,4.185,0,0,14.972,82.31,6,P-GPS,
0.318394498964429,36.902854191009,5569.4023573547,23.950132,0,1.32436355944,8300,2018-04-06 12:22:37,17,0,16.648,5569.4023573547,23.950132,0.447388,1.40937668552,0,0,-4.697574,174.7, -2.1, -5.8,0,0,1024,1024,1392,1024,175.1,0,100,4.186,4.19,4.188,4.185,0,0,14.972,82.31,6,P-GPS,
0.318394501679859,36.9028542178329,5570.0585253547,24.6063,0,1.31705712876,8400,2018-04-06 12:22:37,17,0,16.648,5570.0585253547,24.6063,0.447388,1.40937668552,0,0,-4.697574,174.8, -2.5, -6,0,0,1024,1024,1395,1024,175.1,0,100,4.186,4.19,4.188,4.185,0,0,14.972,82.31,6,P-GPS,
0.318394523882879,36.9028542730932,5570.7146933547,25.262468,0,1.3057579158,8500,2018-04-06 12:22:37,17,0,16.621,5570.7146933547,25.262468,0.447388,1.40937668552,0,0,-4.921268,174.8, -2.7, -5.8,0,0,1024,1024,1398,1024,175,0,100,4.175,4.172,4.171,4.172,0,0,14.566,82.31,6,P-GPS,
0.318394536988596,36.9028543418084,5571.6989453547,26.24672,0,1.28881565804,8600,2018-04-06 12:22:37,17,0,16.621,5571.6989453547,26.24672,0.447388,1.40937668552,0,0,-4.921268,174.8, -2.6, -5.9,0,0,1024,1024,1398,1024,175,0,100,4.175,4.172,4.171,4.172,0,0,14.566,82.31,6,P-GPS,
0.318394591208453,36.9028544303175,5572.3551133547,26.902888,0,1.27605975212,8700,2018-04-06 12:22:37,17,0,16.621,5572.3551133547,26.902888,0.447388,1.40937668552,0,0,-4.921268,174.8, -2.5, -5.8,0,0,1024,1024,1404,1024,175,0,100,4.175,4.172,4.171,4.172,0,0,14.566,82.31,6,P-GPS,
0.318394749452499,36.9028546410412,5573.6674493547,28.215224,0,1.25714242868,8900,2018-04-06 12:22:37,17,0,16.621,5573.6674493547,28.215224,0.447388,1.40937668552,0,0,-4.697574,174.8, -3.2, -4.7,0,0,1024,1024,1406,1024,175,0,100,4.175,4.172,4.171,4.172,0,0,14.566,82.31,6,P-GPS,
0.318394819237838,36.9028547431919,5574.3236173547,28.871392,0,1.24871395072,9000,2018-04-06 12:22:37,17,0,16.621,5574.3236173547,28.871392,0.447388,1.40937668552,0,0,-4.697574,174.8, -3.5, -4.3,0,0,1024,1024,1407,1024,175,0,100,4.175,4.172,4.171,4.172,0,0,14.566,82.31,6,P-GPS,
0.318394885307068,36.9028548249343,5575.3078693547,29.855644,0,1.2458661816,9100,2018-04-06 12:22:37,17,0,16.621,5575.3078693547,29.855644,0.447388,1.40937668552,0,0,-4.697574,174.8, -3.5, -4.6,0,0,1024,1024,1416,1024,175,0,100,4.175,4.172,4.171,4.172,0,0,14.566,82.31,6,P-GPS,
0.318394915027799,36.9028548933291,5575.9640373547,30.511812,0,1.23734912096,9200,2018-04-06 12:22:38,17,0,16.621,5575.9640373547,30.511812,0.447388,1.40937668552,0,0,-4.697574,174.7, -2.6, -5.6,0,0,1024,1024,1419,1024,175,0,100,4.175,4.172,4.171,4.172,0,0,14.566,82.31,6,P-GPS,
0.318394960613646,36.9028550130162,5576.6202053547,31.16798,0.223694,1.22193573464,9300,2018-04-06 12:22:38,17,0,16.621,5576.6202053547,31.16798,0.447388,1.40937668552,0,0.223694,-4.921268,174.6, -2, -5,0,0,1024,1024,1420,1024,175,0,100,4.175,4.172,4.171,4.172,0,0,14.566,82.31,6,P-GPS,
0.318395014427206,36.9028551703232,5577.2763733547,31.824148,0.223694,1.202345839,9400,2018-04-06 12:22:38,17,0,16.621,5577.2763733547,31.824148,0.447388,1.40937668552,0,0.223694,-4.921268,174.7, -2.3, -4.1,0,0,1024,1024,1422,1024,175,0,100,4.175,4.172,4.171,4.172,0,0,14.566,82.31,6,P-GPS,
0.318395108806935,36.9028553079866,5578.2606253547,32.8084,0.223694,1.20183402796,9500,2018-04-06 12:22:38,17,0,16.621,5578.2606253547,32.8084,0.447388,1.40937668552,0,0.223694,-5.144962,174.7, -3.3, -3.3,0,0,1024,1024,1431,1024,175,0,100,4.163,4.164,4.159,4.163,0,0,15.178,82.31,6,P-GPS,
0.318395192226421,36.9028554037889,5578.9167933547,33.464568,0.223694,1.208825498,9600,2018-04-06 12:22:38,17,0,16.621,5578.9167933547,33.464568,0.447388,1.40937668552,0,0,-5.144962,174.8, -3.8, -3.8,0,0,1024,1024,1437,1024,175,0,100,4.163,4.164,4.159,4.163,0,0,15.178,82.31,6,P-GPS,
0.318395291256986,36.9028554888752,5579.9010453547,34.44882,0,1.22441933052,9700,2018-04-06 12:22:38,17,0,16.621,5579.9010453547,34.44882,0.447388,1.40937668552,0,0,-5.368656,174.8, -4, -4,0,0,1024,1024,1445,1024,175,0,100,4.163,4.164,4.159,4.163,0,0,15.178,82.31,6,P-GPS,
0.318395357213853,36.9028555789118,5580.5572133547,35.104988,0,1.23008862204,9800,2018-04-06 12:22:38,17,0,16.621,5580.5572133547,35.104988,0.447388,1.40937668552,0,0,-5.59235,174.8, -3.5, -4.2,0,0,1024,1024,1456,1024,175,0,100,4.163,4.164,4.159,4.163,0,0,15.178,82.31,6,P-GPS,
0.318395404709051,36.9028556655882,5581.5414653547,36.08924,0,1.23152234912,9900,2018-04-06 12:22:38,17,0,16.621,5581.5414653547,36.08924,0.447388,1.40937668552,0,0,-5.816044,174.8, -3, -4.4,0,0,1024,1024,1460,1024,175,0,100,4.163,4.164,4.159,4.163,0,0,15.178,82.31,6,P-GPS,
0.318395418532098,36.9028557610591,5582.5257173547,37.073492,0,1.22147969788,10000,2018-04-06 12:22:38,17,0,16.621,5582.5257173547,37.073492,0.447388,1.40937668552,0,0,-6.039738,174.7, -2.6, -4.3,0,0,1024,1024,1464,1024,175,0,100,4.163,4.164,4.159,4.163,0,0,15.178,82.31,6,P-GPS,
0.318395451308605,36.9028558695291,5583.5099693547,38.057744,0,1.2169783854,10100,2018-04-06 12:22:38,17,0,16.621,5583.5099693547,38.057744,0.447388,1.40937668552,0,0,-6.263432,174.7, -2.5, -3.8,0,0,1024,1024,1469,1024,175,0,100,4.163,4.164,4.159,4.163,0,0,15.178,82.31,6,P-GPS,
0.31839548364136,36.9028559747714,5584.4942213547,39.041996,0,1.2141240546,10200,2018-04-06 12:22:39,17,0,16.621,5584.4942213547,39.041996,0.447388,1.40937668552,0,0,-6.487126,174.7, -2.7, -3.6,0,0,1024,1024,1477,1024,175,0,100,4.163,4.164,4.159,4.163,0,0,15.178,82.31,6,P-GPS,
0.318395544160039,36.9028560600436,5585.4784733547,40.026248,0,1.22465227016,10300,2018-04-06 12:22:39,17,0,16.621,5585.4784733547,40.026248,0.447388,1.40937668552,0,0,-6.487126,174.8, -3.2, -4,0,0,1024,1024,1479,1024,175,0,100,4.163,4.164,4.159,4.163,0,0,15.178,82.31,6,P-GPS,
0.318395594937365,36.9028561327081,5586.4627253547,41.0105,0,1.23420607624,10400,2018-04-06 12:22:39,17,0,16.621,5586.4627253547,41.0105,0.447388,1.40937668552,0,0,-6.71082,174.8, -3.6, -4.8,0,0,1024,1024,1480,1024,175,0,100,4.163,4.164,4.159,4.163,0,0,15.178,82.31,6,P-GPS,
0.318395647206346,36.9028562155974,5587.4469773547,41.994752,0,1.24405187708,10500,2018-04-06 12:22:39,17,0,16.568,5587.4469773547,41.994752,0.447388,1.40937668552,0,0,-6.71082,174.8, -3.1, -4.9,0,0,1024,1024,1483,1024,175,0,100,4.163,4.164,4.159,4.163,0,0,15.178,82.31,6,P-GPS,
0.318395682690955,36.9028563191034,5588.4312293547,42.979004,0,1.24709977744,10600,2018-04-06 12:22:39,17,0,16.568,5588.4312293547,42.979004,0.447388,1.40937668552,0,0,-6.71082,174.8, -3.4, -4.5,0,0,1024,1024,1484,1024,175,0,100,4.163,4.164,4.159,4.163,0,0,15.178,82.31,6,P-GPS,
0.31839570864021,36.9028564324827,5589.4154813547,43.963256,0.223694,1.24728022364,10700,2018-04-06 12:22:39,17,0,16.568,5589.4154813547,43.963256,0.447388,1.40937668552,0,0.223694,-6.71082,174.7, -3.5, -3.7,0,0,1024,1024,1489,1024,175,0,100,4.163,4.164,4.159,4.163,0,0,15.178,82.31,6,P-GPS,
0.318395700910801,36.9028565432318,5590.3997333547,44.947508,0.223694,1.23695542016,10800,2018-04-06 12:22:39,17,0,16.568,5590.3997333547,44.947508,0.447388,1.40937668552,0,0,-6.71082,174.7, -3.4, -3.3,0,0,1024,1024,1491,1024,175,0,100,4.163,4.164,4.159,4.163,0,0,15.178,82.31,6,P-GPS,
0.318395704665993,36.9028566704179,5591.7120693547,46.259844,0,1.23121066932,10900,2018-04-06 12:22:39,17,0,16.568,5591.7120693547,46.259844,0.447388,1.40937668552,0,0,-6.71082,174.8, -3.3, -3.7,0,0,1024,1024,1497,1024,175,0,100,4.163,4.164,4.159,4.163,0,0,15.178,82.31,6,P-GPS,
0.318395689576831,36.9028568072179,5592.6963213547,47.244096,0,1.2200131624,11000,2018-04-06 12:22:39,17,0,16.568,5592.6963213547,47.244096,0.447388,1.40937668552,0,0,-6.934514,174.7, -2.9, -4,0,0,1024,1024,1501,1024,175,0,100,4.163,4.164,4.159,4.163,0,0,15.178,82.31,6,P-GPS,
0.3183956976303,36.9028569458258,5593.6805733547,48.228348,0,1.2191929524,11100,2018-04-06 12:22:40,17,0,16.568,5593.6805733547,48.228348,0.447388,1.40937668552,0,0,-6.934514,174.7, -2.5, -4.2,0,0,1024,1024,1501,1024,175,0,100,4.163,4.164,4.159,4.163,0,0,15.178,82.31,6,P-GPS,
0.318395708137835,36.9028571010822,5594.6648253547,49.2126,0,1.22131565588,11200,2018-04-06 12:22:40,17,0,16.568,5594.6648253547,49.2126,0.447388,1.40937668552,0,0,-6.934514,174.7, -2.4, -3.6,0,0,1024,1024,1511,1024,174.9,0,100,4.163,4.164,4.159,4.163,0,0,15.178,82.31,6,P-GPS,
0.31839575484568,36.9028572913546,5595.6490773547,50.196852,0,1.23982615516,11300,2018-04-06 12:22:40,17,0,16.568,5595.6490773547,50.196852,0.447388,1.40937668552,0,0,-6.934514,174.7, -2.9, -2.7,0,0,1024,1024,1515,1024,174.9,0,100,4.163,4.164,4.159,4.163,0,0,15.178,82.31,6,P-GPS,
0.318395787970674,36.9028574789478,5596.9614133547,51.509188,0,1.2570866544,11400,2018-04-06 12:22:40,17,0,16.568,5596.9614133547,51.509188,0.447388,1.40937668552,0,0,-7.158208,174.5, -3.3, -2.3,0,0,1024,1024,1520,1024,174.9,0,100,4.163,4.164,4.159,4.163,0,0,15.178,82.31,6,P-GPS,
0.318395838320534,36.902857662745,5597.9456653547,52.49344,0,1.28389767888,11500,2018-04-06 12:22:40,17,0,16.568,5597.9456653547,52.49344,0.447388,1.40937668552,0,0,-7.381902,174.6, -3.3, -2.7,0,0,1024,1024,1544,1024,174.9,0,100,4.152,4.158,4.154,4.154,0,0,15.618,82.31,6,P-GPS,
0.318395963973715,36.9028579864583,5600.2422533547,54.790028,0,1.35173232672,11700,2018-04-06 12:22:40,17,0,16.568,5600.2422533547,54.790028,0.447388,1.40937668552,0,0,-7.605596,174.7, -4.2, -2.9,0,0,1024,1024,1554,1024,174.9,0,100,4.152,4.158,4.154,4.154,0,0,15.618,82.31,6,P-GPS,
0.318396032957046,36.9028581288797,5601.5545893547,56.102364,0,1.38901907332,11800,2018-04-06 12:22:40,17,0,16.568,5601.5545893547,56.102364,0.447388,1.40937668552,0,0,-7.82929,174.7, -5, -2,0,0,1024,1024,1575,1024,174.9,0,100,4.152,4.158,4.154,4.154,0,0,15.618,82.31,6,P-GPS,
0.318396085633138,36.9028582419116,5602.5388413547,57.086616,0,1.41886159396,11900,2018-04-06 12:22:40,17,0,16.568,5602.5388413547,57.086616,0.447388,1.41886159396,0,0,-8.052984,174.6, -4.2, -2.6,0,0,1024,1024,1596,1024,174.9,0,100,4.152,4.158,4.154,4.154,0,0,15.618,82.31,6,P-GPS,
0.3183961021822,36.9028583137202,5603.8511773547,58.398952,0,1.4323655314,12000,2018-04-06 12:22:40,17,0,16.568,5603.8511773547,58.398952,0.447388,1.4323655314,0,0,-8.276678,174.6, -3.7, -3.3,0,0,1024,1024,1605,1024,174.9,0,100,4.152,4.158,4.154,4.154,0,0,15.618,82.31,6,P-GPS,
0.318396135930887,36.902858349272,5605.1635133547,59.711288,0,1.44805450828,12100,2018-04-06 12:22:40,17,0,16.568,5605.1635133547,59.711288,0.447388,1.44805450828,0,0,-8.500372,174.8, -3.8, -3.3,0,0,1024,1024,1608,1024,174.9,0,100,4.152,4.158,4.154,4.154,0,0,15.618,82.31,6,P-GPS,
0.318396154949485,36.9028583404939,5606.4758493547,61.023624,0,1.4536745872,12200,2018-04-06 12:22:41,17,0,16.568,5606.4758493547,61.023624,0.447388,1.4536745872,0,0,-8.94776,174.8, -3.8, -4.1,0,0,1024,1024,1607,1024,174.9,0,100,4.152,4.158,4.154,4.154,0,0,15.618,82.31,6,P-GPS,
0.318396199476843,36.902858292858,5607.7881853547,62.33596,0,1.46399939068,12300,2018-04-06 12:22:41,17,0,16.568,5607.7881853547,62.33596,0.447388,1.46399939068,0,0,-9.171454,174.9, -4.4, -5,0,0,1024,1024,1610,1024,174.9,0,100,4.152,4.158,4.154,4.154,0,0,15.618,82.31,6,P-GPS,
0.318396227213316,36.9028582313921,5609.1005213547,63.648296,0,1.46735240916,12400,2018-04-06 12:22:41,17,0,16.568,5609.1005213547,63.648296,0.447388,1.46735240916,0,0,-9.171454,174.9, -4.6, -6,0,0,1024,1024,1618,1024,174.9,0,100,4.152,4.158,4.154,4.154,0,0,15.618,82.31,6,P-GPS,
0.318396243262446,36.9028581773728,5610.7409413547,65.288716,0,1.4677001782,12500,2018-04-06 12:22:41,17,0,16.514,5610.7409413547,65.288716,0.447388,1.4677001782,0,0,-9.171454,174.9, -4.3, -6.2,0,0,1024,1024,1614,1024,174.9,0,99,4.153,4.159,4.156,4.154,0,0,15.116,82.31,6,P-GPS,
0.318396229666567,36.9028581410753,5612.0532773547,66.601052,0,1.45949151652,12600,2018-04-06 12:22:41,17,0,16.514,5612.0532773547,66.601052,0.447388,1.4677001782,0,0,-9.395148,174.9, -3.8, -5.9,0,0,1024,1024,1608,1024,174.9,0,99,4.153,4.159,4.156,4.154,0,0,15.116,82.31,6,P-GPS,
0.318396243881254,36.9028581355306,5613.3656133547,67.913388,0,1.46399610984,12700,2018-04-06 12:22:41,17,0,16.514,5613.3656133547,67.913388,0.447388,1.4677001782,0,0,-9.395148,174.9, -3.6, -5.8,0,0,1024,1024,1610,1024,174.9,0,99,4.153,4.159,4.156,4.154,0,0,15.116,82.31,6,P-GPS,
0.318396256713393,36.9028581351497,5615.0060333547,69.553808,0,1.46849414148,12800,2018-04-06 12:22:41,17,0,16.514,5615.0060333547,69.553808,0.447388,1.46849414148,0,0,-9.395148,175, -3.9, -5.8,0,0,1024,1024,1620,1024,174.9,0,99,4.153,4.159,4.156,4.154,0,0,15.116,82.31,6,P-GPS,
0.318396276817348,36.9028581718822,5616.3183693547,70.866144,0,1.479002672,12900,2018-04-06 12:22:41,17,0,16.514,5616.3183693547,70.866144,0.447388,1.479002672,0,0,-9.171454,175, -3.8, -5.8,0,0,1024,1024,1684,1024,174.9,0,99,4.153,4.159,4.156,4.154,0,0,15.116,82.31,6,P-GPS,
0.318396272235721,36.902858211955,5617.6307053547,72.17848,0,1.48123692404,13000,2018-04-06 12:22:41,17,0,16.514,5617.6307053547,72.17848,0.447388,1.48123692404,0,0,-9.395148,175, -3.4, -5.4,0,0,1024,1024,1684,1024,174.9,0,99,4.153,4.159,4.156,4.154,0,0,15.116,82.31,6,P-GPS,
0.318396272863486,36.9028582661692,5618.9430413547,73.490816,0,1.486876688,13100,2018-04-06 12:22:42,17,0,16.514,5618.9430413547,73.490816,0.447388,1.486876688,0,0,-9.618842,175, -2.5, -4.2,0,0,1024,1024,1684,1024,174.9,0,99,4.153,4.159,4.156,4.154,0,0,15.116,82.31,6,P-GPS,
0.318396259284706,36.9028582764374,5620.5834613547,75.131236,0,1.48317918132,13200,2018-04-06 12:22:42,17,0,16.514,5620.5834613547,75.131236,0.447388,1.486876688,0,0,-10.06623,174.9, -2.3, -4.8,0,0,1024,1024,1684,1024,174.9,0,99,4.153,4.159,4.156,4.154,0,0,15.116,82.31,6,P-GPS,
0.318396277518393,36.9028582603965,5622.2238813547,76.771656,0,1.48791999512,13300,2018-04-06 12:22:42,17,0,16.514,5622.2238813547,76.771656,0.447388,1.48791999512,0,0,-10.289924,175.1, -3.2, -6.3,0,0,1024,1024,1684,1024,174.9,0,99,4.153,4.159,4.156,4.154,0,0,15.116,82.31,6,P-GPS,
0.318396285014935,36.9028582418378,5623.8643013547,78.412076,0,1.48867786916,13400,2018-04-06 12:22:42,17,0,16.514,5623.8643013547,78.412076,0.447388,1.48867786916,0,0,-10.513618,175.1, -3.8, -6.9,0,0,1024,1024,1684,1024,174.9,0,99,4.153,4.159,4.156,4.154,0,0,15.116,82.31,6,P-GPS,
0.318396314309014,36.9028582370051,5625.5047213547,80.052496,0,1.49848101908,13500,2018-04-06 12:22:42,17,0,16.434,5625.5047213547,80.052496,0.447388,1.49848101908,0,0,-10.737312,175.1, -3.5, -6.7,0,0,1024,1024,1684,1024,174.9,0,99,4.153,4.159,4.156,4.154,0,0,16.114,82.31,6,P-GPS,
0.318396323530079,36.9028582512982,5627.1451413547,81.692916,0,1.50313653104,13600,2018-04-06 12:22:42,17,0,16.434,5627.1451413547,81.692916,0.447388,1.50313653104,0,0,-10.961006,175, -3.1, -5.9,0,0,1024,1024,1684,1024,174.9,0,99,4.153,4.159,4.156,4.154,0,0,16.114,82.31,6,P-GPS,
0.318396337310786,36.9028583081112,5628.7855613547,83.333336,0,1.51375661012,13700,2018-04-06 12:22:42,17,0,16.434,5628.7855613547,83.333336,0.447388,1.51375661012,0,0,-10.961006,174.9, -2.6, -5.7,0,0,1024,1024,1684,1023,174.9,0,99,4.153,4.159,4.156,4.154,0,0,16.114,82.31,6,P-GPS,
0.318396337082804,36.902858376447,5630.4259813547,84.973756,0,1.52097773896,13800,2018-04-06 12:22:42,17,0,16.434,5630.4259813547,84.973756,0.447388,1.52097773896,0,0,-10.961006,174.8, -2.2, -5.1,0,0,1024,1024,1684,1024,174.9,0,99,4.153,4.159,4.156,4.154,0,0,16.114,82.31,6,P-GPS,
0.318396373756991,36.9028584505369,5632.0664013547,86.614176,0,1.54201448504,13900,2018-04-06 12:22:42,17,0,16.434,5632.0664013547,86.614176,0.447388,1.54201448504,0,0,-11.1847,174.8, -2.4, -4.9,0,0,1024,1024,1684,1024,174.9,0,99,4.153,4.159,4.156,4.154,0,0,16.114,82.31,6,P-GPS,
0.318396420174159,36.9028584791106,5633.7068213547,88.254596,0,1.56137144104,14000,2018-04-06 12:22:43,17,0,16.434,5633.7068213547,88.254596,0.447388,1.56137144104,0,0,-11.1847,174.9, -3.1, -5.7,0,0,1024,1024,1684,1024,174.9,0,99,4.153,4.159,4.156,4.154,0,0,16.114,82.31,6,P-GPS,
0.318396535107293,36.9028584843167,5636.9876613547,91.535436,0,1.60179138984,14200,2018-04-06 12:22:43,17,0,16.434,5636.9876613547,91.535436,0.447388,1.60179138984,0,0,-10.961006,174.9, -3.6, -5.7,0,0,1024,1024,1684,1024,174.9,0,99,4.153,4.159,4.156,4.154,0,0,16.114,82.31,6,P-GPS,
0.318396599248445,36.9028585048046,5638.6280813547,93.175856,0,1.62635831976,14300,2018-04-06 12:22:43,17,0,16.434,5638.6280813547,93.175856,0.447388,1.62635831976,0,0,-10.961006,175, -3.7, -5.7,0,0,1024,1024,1684,1024,174.9,-0.6,99,4.153,4.159,4.156,4.154,0,0,16.114,82.31,6,P-GPS,
0.318396651412392,36.9028585366522,5640.2685013547,94.816276,0,1.64806107636,14400,2018-04-06 12:22:43,17,0,16.434,5640.2685013547,94.816276,0.447388,1.64806107636,0,0,-10.961006,174.9, -3.5, -5.6,0,0,1024,1024,1684,1024,174.9,-0.6,99,4.153,4.159,4.156,4.154,0,0,16.114,82.31,6,P-GPS,
0.318396711417296,36.90285859345,5641.9089213547,96.456696,0,1.67538391188,14500,2018-04-06 12:22:43,17,0,16.354,5641.9089213547,96.456696,0.447388,1.67538391188,0,0,-10.961006,175, -4.1, -5.3,0,0,1024,1024,1684,1024,174.9,-2.3,99,4.138,4.137,4.133,4.111,0,0,16.114,82.31,6,P-GPS,
0.318396747115231,36.9028586466613,5643.5493413547,98.097116,0,1.69399283636,14600,2018-04-06 12:22:43,17,0,16.354,5643.5493413547,98.097116,0.447388,1.69399283636,0,0,-10.961006,175, -4.1, -5.2,0,0,1024,1024,1684,1024,174.9,-4.6,99,4.138,4.137,4.133,4.111,0,0,16.114,82.31,6,P-GPS,
0.318396794931233,36.9028586975462,5645.1897613547,99.737536,0,1.71660438564,14700,2018-04-06 12:22:43,17,0,16.354,5645.1897613547,99.737536,0.447388,1.71660438564,0,0,-10.961006,174.9, -3.4, -5.1,0,0,1024,1024,1684,1024,174.9,-7.2,99,4.138,4.137,4.133,4.111,0,0,16.114,82.31,6,P-GPS,
0.3183968307627,36.9028587330501,5646.8301813547,101.377956,0,1.73327105284,14800,2018-04-06 12:22:43,17,0,16.354,5646.8301813547,101.377956,0.447388,1.73327105284,0,0,-10.961006,174.8, -3.1, -4.9,0,0,1024,1024,1684,1024,174.9,-10.3,99,4.138,4.137,4.133,4.111,0,0,16.114,82.31,6,P-GPS,
0.318396889629322,36.9028587921883,5648.7986853547,103.34646,0,1.76083667052,14900,2018-04-06 12:22:43,17,0,16.354,5648.7986853547,103.34646,0.447388,1.76083667052,0,0,-11.1847,174.9, -3.3, -5.1,0,0,1024,1024,1684,1024,174.9,-13.4,99,4.138,4.137,4.133,4.111,0,0,16.114,82.31,6,P-GPS,
0.318396933364443,36.9028588473422,5650.4391053547,104.98688,0,1.78281173684,15000,2018-04-06 12:22:43,17,0,16.354,5650.4391053547,104.98688,0.447388,1.78281173684,0,0,-11.1847,174.9, -3.6, -5.4,0,0,1024,1024,1684,1024,174.9,-16.4,99,4.138,4.137,4.133,4.111,0,0,16.114,82.31,6,P-GPS,
0.318396970269869,36.9028588886039,5652.0795253547,106.6273,0,1.80074480828,15100,2018-04-06 12:22:44,17,0,16.354,5652.0795253547,106.6273,0.447388,1.80074480828,0,0,-11.1847,174.9, -3.5, -5.3,0,0,1024,1024,1684,1024,174.9,-19.3,99,4.138,4.137,4.133,4.111,0,0,16.114,82.31,6,P-GPS,
0.318396975519972,36.902858899675,5653.7199453547,108.26772,0,1.80397971652,15200,2018-04-06 12:22:44,17,0,16.354,5653.7199453547,108.26772,0.447388,1.80397971652,0,0,-11.1847,174.9, -3.3, -5.3,0,0,1024,1024,1684,1024,174.9,-19.8,99,4.138,4.137,4.133,4.111,0,0,16.114,82.31,6,P-GPS,
0.318396998419966,36.9028589156726,5655.3603653547,109.90814,0,1.81387472996,15300,2018-04-06 12:22:44,17,0,16.354,5655.3603653547,109.90814,0.447388,1.81387472996,0,0,-11.1847,174.9, -3.1, -5.5,0,0,1024,1024,1684,1024,174.9,-19.8,99,4.138,4.137,4.133,4.111,0,0,16.114,82.31,6,P-GPS,
0.318397020954374,36.9028589259846,5657.3288693547,111.876644,0,1.8229003208,15400,2018-04-06 12:22:44,17,0,16.354,5657.3288693547,111.876644,0.447388,1.8229003208,0,0,-11.1847,174.9, -3.4, -5.8,0,0,1024,1024,1684,1024,174.9,-19.8,99,4.138,4.137,4.133,4.111,0,0,16.114,82.31,6,P-GPS,
0.318397088884915,36.9028589412413,5660.6097093547,115.157484,0,1.84802827436,15600,2018-04-06 12:22:44,17,0,16.354,5660.6097093547,115.157484,0.447388,1.84802827436,0,0,-11.1847,175, -3.6, -5.8,0,0,1024,1024,1684,1024,174.9,-19.8,99,4.138,4.137,4.133,4.111,0,0,16.114,82.31,6,P-GPS,
0.318397118884925,36.9028589556319,5662.2501293547,116.797904,0,1.86012801228,15700,2018-04-06 12:22:44,17,0,16.354,5662.2501293547,116.797904,0.447388,1.86012801228,0,0,-11.1847,174.9, -3.3, -5.6,0,0,1024,1024,1684,1024,174.9,-19.8,99,4.138,4.137,4.133,4.111,0,0,16.114,82.31,6,P-GPS,
0.318397128386896,36.9028589661816,5663.8905493547,118.438324,0,1.86475071584,15800,2018-04-06 12:22:44,17,0,16.354,5663.8905493547,118.438324,0.447388,1.86475071584,0,0,-10.961006,174.9, -3.1, -5.6,0,0,1024,1024,1684,1024,174.9,-19.8,99,4.138,4.137,4.133,4.111,0,0,16.114,82.31,6,P-GPS,
0.318397174802435,36.9028589982045,5665.5309693547,120.078744,0,1.88476383984,15900,2018-04-06 12:22:44,17,0,16.354,5665.5309693547,120.078744,0.447388,1.88476383984,0,0,-10.961006,174.9, -3, -5.6,0,0,1024,1024,1684,1024,174.9,-19.8,99,4.138,4.137,4.133,4.111,0,0,16.114,82.31,6,P-GPS,
0.318397201236152,36.9028590356645,5667.1713893547,121.719164,0,1.89873037572,16000,2018-04-06 12:22:44,17,0,16.354,5667.1713893547,121.719164,0.447388,1.89873037572,0,0,-10.961006,174.8, -3, -5.4,0,0,1024,1024,1684,1024,174.9,-19.8,99,4.138,4.137,4.133,4.111,0,0,16.114,82.31,6,P-GPS,
0.318397244043874,36.9028590939558,5668.8118093547,123.359584,0,1.92111882788,16100,2018-04-06 12:22:44,17,0,16.354,5668.8118093547,123.359584,0.447388,1.92111882788,0,0,-10.961006,174.8, -2.9, -5.5,0,0,1024,1024,1684,1024,174.8,-19.8,99,4.138,4.137,4.133,4.111,0,0,16.114,82.31,6,P-GPS,
0.318397268863803,36.9028591473924,5670.4522293547,125.000004,0,1.93686357904,16200,2018-04-06 12:22:45,17,0,16.354,5670.4522293547,125.000004,0.447388,1.93686357904,0,0,-10.961006,174.8, -3.2, -5.2,0,0,1024,1024,1684,1024,174.9,-19.8,99,4.138,4.137,4.133,4.111,0,0,16.114,82.31,6,P-GPS,
0.318397307740461,36.9028591947352,5672.0926493547,126.640424,0,1.95658798912,16300,2018-04-06 12:22:45,17,0,16.354,5672.0926493547,126.640424,0.447388,1.95658798912,0,0,-10.961006,174.8, -3.4, -5.2,0,0,1024,1024,1684,1024,174.9,-19.8,99,4.138,4.137,4.133,4.111,0,0,16.114,82.31,6,P-GPS,
0.318397324686049,36.902859224535,5673.7330693547,128.280844,0,1.96650596844,16400,2018-04-06 12:22:45,17,0,16.354,5673.7330693547,128.280844,0.447388,1.96650596844,0,0,-10.961006,174.9, -3.6, -5.3,0,0,1024,1024,1684,1024,174.8,-19.8,99,4.138,4.137,4.133,4.111,0,0,16.114,82.31,6,P-GPS,
0.318397361395248,36.9028592726619,5675.3734893547,129.921264,0,1.9857120058,16500,2018-04-06 12:22:45,17,0,16.381,5675.3734893547,129.921264,0.447388,1.9857120058,0,0,-10.961006,174.9, -3.6, -5.3,0,0,1024,1024,1684,1024,174.8,-19.8,99,4.111,4.116,4.111,4.112,0,0,17.678,82.31,6,P-GPS,
0.318397375532584,36.9028593279914,5677.3419933547,131.889768,0,1.99848759676,16600,2018-04-06 12:22:45,17,0,16.381,5677.3419933547,131.889768,0.447388,1.99848759676,0,0,-11.1847,174.9, -3.8, -5.1,0,0,1024,1024,1684,1024,174.8,-19.8,99,4.111,4.116,4.111,4.112,0,0,17.678,82.31,6,P-GPS,
0.318397374088969,36.9028593997343,5678.9824133547,133.530188,0,2.00868116664,16700,2018-04-06 12:22:45,17,0,16.381,5678.9824133547,133.530188,0.447388,2.00868116664,0,0,-11.1847,174.9, -3.3, -4.8,0,0,1024,1024,1684,1024,174.8,-19.8,99,4.111,4.116,4.111,4.112,0,0,17.678,82.31,6,P-GPS,
0.318397336357107,36.9028594625468,5680.6228333547,135.170608,0,2.0057907466,16800,2018-04-06 12:22:45,17,0,16.381,5680.6228333547,135.170608,0.447388,2.00868116664,0,0,-11.1847,174.8, -2.9, -4.7,0,0,1024,1024,1684,1024,174.8,-19.8,99,4.111,4.116,4.111,4.112,0,0,17.678,82.31,6,P-GPS,
0.318397313178649,36.9028595230435,5682.2632533547,136.811028,0,2.00766410624,16900,2018-04-06 12:22:45,17,0,16.381,5682.2632533547,136.811028,0.447388,2.00868116664,0,0,-11.1847,174.8, -2.8, -4.7,0,0,1024,1024,1684,1024,174.8,-19.8,99,4.111,4.116,4.111,4.112,0,0,17.678,82.31,6,P-GPS,
0.31839727961479,36.9028595675599,5683.9036733547,138.451448,0,2.0038222426,17000,2018-04-06 12:22:45,17,0,16.381,5683.9036733547,138.451448,0.447388,2.00868116664,0,0,-11.1847,174.9, -3, -5,0,0,1024,1024,1684,1024,174.8,-19.8,99,4.111,4.116,4.111,4.112,0,0,17.678,82.31,6,P-GPS,
0.318397268994893,36.9028596096171,5685.5440933547,140.091868,0,2.00723759704,17100,2018-04-06 12:22:45,17,0,16.381,5685.5440933547,140.091868,0.447388,2.00868116664,0,0,-11.1847,174.9, -3.2, -5.2,0,0,1024,1024,1684,1024,174.8,-19.8,99,4.111,4.116,4.111,4.112,0,0,17.678,82.31,6,P-GPS,
0.318397235463602,36.9028596493933,5687.1845133547,141.732288,0.223694,2.00296266252,17200,2018-04-06 12:22:46,17,0,16.381,5687.1845133547,141.732288,0.447388,2.00868116664,-0.223694,0,-10.961006,174.8, -2.6, -4.8,0,0,1024,1024,1684,1024,174.8,-19.8,99,4.111,4.116,4.111,4.112,0,0,17.678,82.31,6,P-GPS,
0.318397203869346,36.9028597130141,5689.1530173547,143.700792,0,2.00357289876,17300,2018-04-06 12:22:46,17,0,16.381,5689.1530173547,143.700792,0.447388,2.00868116664,0,0,-11.1847,174.8, -2.2, -4.6,0,0,1024,1024,1684,1024,174.8,-19.8,99,4.111,4.116,4.111,4.112,0,0,17.678,82.31,6,P-GPS,
0.3183971615526,36.902859761436,5690.7934373547,145.341212,0,1.99841213744,17400,2018-04-06 12:22:46,17,0,16.381,5690.7934373547,145.341212,0.447388,2.00868116664,0,0,-11.1847,174.8, -2.4, -5,0,0,1024,1024,1684,1024,174.8,-19.8,99,4.111,4.116,4.111,4.112,0,0,17.678,82.31,6,P-GPS,
0.318397155872588,36.9028597828128,5692.4338573547,146.981632,0,2.00036751808,17500,2018-04-06 12:22:46,17,0,16.407,5692.4338573547,146.981632,0.447388,2.00868116664,0,0,-11.1847,174.9, -2.8, -5.3,0,0,1024,1024,1684,1024,174.8,-19.8,99,4.111,4.116,4.111,4.112,0,0,17.678,82.31,6,P-GPS,
0.318397137090929,36.902859778881,5694.0742773547,148.622052,0,1.99368116616,17600,2018-04-06 12:22:46,17,0,16.407,5694.0742773547,148.622052,0.447388,2.00868116664,0,0,-11.1847,174.9, -2.9, -5.6,0,0,1024,1024,1684,1024,174.8,-19.8,99,4.111,4.116,4.111,4.112,0,0,17.678,82.31,6,P-GPS,
0.318397131640527,36.9028597983933,5695.7146973547,150.262472,0.223694,1.99541344968,17700,2018-04-06 12:22:46,17,0,16.407,5695.7146973547,150.262472,0.447388,2.00868116664,-0.223694,0,-11.1847,174.9, -2.7, -5.7,0,0,1024,1024,1684,1024,174.8,-19.8,99,4.111,4.116,4.111,4.112,0,0,17.678,82.31,6,P-GPS,
0.318397099660329,36.9028598296101,5697.3551173547,151.902892,0.223694,1.9908629246,17800,2018-04-06 12:22:46,17,0,16.407,5697.3551173547,151.902892,0.447388,2.00868116664,-0.223694,0,-10.961006,174.9, -2.4, -5.6,0,0,1024,1024,1684,1024,174.8,-19.8,99,4.111,4.116,4.111,4.112,0,0,17.678,82.31,6,P-GPS,
0.318397069407911,36.9028598710789,5698.9955373547,153.543312,0.223694,1.98886817388,17900,2018-04-06 12:22:46,17,0,16.407,5698.9955373547,153.543312,0.447388,2.00868116664,-0.223694,0,-10.961006,174.8, -2, -5.4,0,0,1024,1024,1684,1024,174.8,-19.8,99,4.111,4.116,4.111,4.112,0,0,17.678,82.31,6,P-GPS,
0.318397018492981,36.902859908579,5700.6359573547,155.183732,0.223694,1.97982617884,18000,2018-04-06 12:22:46,17,0,16.407,5700.6359573547,155.183732,0.447388,2.00868116664,0,0,-10.961006,174.8, -1.9, -5.2,0,0,1024,1024,1684,1024,174.8,-19.8,99,4.111,4.116,4.111,4.112,0,0,17.678,82.31,6,P-GPS,
0.318396988395265,36.9028599633727,5702.2763773547,156.824152,0,1.9807907458,18100,2018-04-06 12:22:46,17,0,16.407,5702.2763773547,156.824152,0.447388,2.00868116664,0,0,-10.961006,174.8, -1.8, -4.9,0,0,1024,1024,1684,1024,174.8,-19.8,99,4.111,4.116,4.111,4.112,0,0,17.678,82.31,6,P-GPS,
0.318396951915677,36.9028600108064,5704.2448813547,158.792656,0,1.97861554888,18200,2018-04-06 12:22:47,17,0,16.407,5704.2448813547,158.792656,0.447388,2.00868116664,0,0,-11.1847,174.8, -1.9, -4.9,0,0,1024,1024,1684,1024,174.8,-19.8,99,4.111,4.116,4.111,4.112,0,0,17.678,82.31,6,P-GPS,
0.318396932656884,36.9028600655781,5705.8853013547,160.433076,0,1.98340885612,18300,2018-04-06 12:22:47,17,0,16.407,5705.8853013547,160.433076,0.447388,2.00868116664,0,0,-11.1847,174.8, -2.3, -4.9,0,0,1024,1024,1684,1024,174.8,-19.8,99,4.111,4.116,4.111,4.112,0,0,17.678,82.31,6,P-GPS,
0.318396878500536,36.9028601586582,5709.1661413547,163.713916,0,1.98555452548,18500,2018-04-06 12:22:47,17,0,16.274,5709.1661413547,163.713916,0.447388,2.00868116664,0,0,-11.1847,174.8, -2.4, -5.1,0,0,1024,1024,1684,1024,174.8,-19.8,99,4.104,4.111,4.11,4.111,0,0,17.62,82.31,6,P-GPS,
0.318396838667167,36.9028602040107,5710.8065613547,165.354336,0,1.98283470912,18600,2018-04-06 12:22:47,17,0,16.274,5710.8065613547,165.354336,0.447388,2.00868116664,0,0,-10.961006,174.9, -2.5, -5.3,0,0,1024,1024,1684,1024,174.8,-19.8,99,4.104,4.111,4.11,4.111,0,0,17.62,82.31,6,P-GPS,
0.318396813551675,36.9028602430702,5712.4469813547,166.994756,0,1.983431822,18700,2018-04-06 12:22:47,17,0,16.274,5712.4469813547,166.994756,0.447388,2.00868116664,0,0,-10.961006,174.9, -2.4, -5,0,0,1024,1024,1684,1024,174.8,-19.8,99,4.104,4.111,4.11,4.111,0,0,17.62,82.31,6,P-GPS,
0.3183967767236,36.9028602706137,5714.0874013547,168.635176,0,1.97825465648,18800,2018-04-06 12:22:47,17,0,16.274,5714.0874013547,168.635176,0.447388,2.00868116664,0,0,-10.961006,174.8, -1.8, -4.6,0,0,1024,1024,1684,1024,174.8,-19.8,99,4.104,4.111,4.11,4.111,0,0,17.62,82.31,6,P-GPS,
0.318396770694286,36.9028602969805,5715.7278213547,170.275596,0,1.98206699256,18900,2018-04-06 12:22:47,17,0,16.274,5715.7278213547,170.275596,0.447388,2.00868116664,0,0,-11.1847,174.8, -1.6, -4.5,0,0,1024,1024,1684,1024,174.8,-19.8,99,4.104,4.111,4.11,4.111,0,0,17.62,82.31,6,P-GPS,
0.318396776628336,36.9028603052199,5717.3682413547,171.916016,0,1.9855807722,19000,2018-04-06 12:22:47,17,0,16.274,5717.3682413547,171.916016,0.447388,2.00868116664,0,0,-11.1847,174.8, -2.2, -5.1,0,0,1024,1024,1684,1024,174.8,-19.8,99,4.104,4.111,4.11,4.111,0,0,17.62,82.31,6,P-GPS,
0.318396794105611,36.9028603140508,5719.0086613547,173.556436,0,1.99263785904,19100,2018-04-06 12:22:47,17,0,16.274,5719.0086613547,173.556436,0.447388,2.00868116664,0,0,-11.1847,174.8, -2.7, -5.4,0,0,1024,1024,1684,1024,174.8,-19.8,99,4.104,4.111,4.11,4.111,0,0,17.62,82.31,6,P-GPS,
0.318396785255833,36.9028603262097,5720.6490813547,175.196856,0,1.99261489316,19200,2018-04-06 12:22:48,17,0,16.274,5720.6490813547,175.196856,0.447388,2.00868116664,0,0,-11.1847,174.8, -2.5, -5,0,0,1024,1024,1684,1024,174.8,-19.8,99,4.104,4.111,4.11,4.111,0,0,17.62,82.31,6,P-GPS,
0.318396780223126,36.9028603289745,5722.6175853547,177.16536,0,1.99171922384,19300,2018-04-06 12:22:48,17,0,16.274,5722.6175853547,177.16536,0.447388,2.00868116664,0,0,-11.1847,174.8, -2.3, -5.2,0,0,1024,1024,1684,1024,174.8,-19.8,99,4.104,4.111,4.11,4.111,0,0,17.62,82.31,6,P-GPS,
0.318396769926475,36.9028603095741,5724.2580053547,178.80578,0,1.98452762256,19400,2018-04-06 12:22:48,17,0,16.274,5724.2580053547,178.80578,0.447388,2.00868116664,0,0,-11.1847,174.9, -2.5, -5.5,0,0,1024,1024,1684,1024,174.8,-19.8,99,4.104,4.111,4.11,4.111,0,0,17.62,82.31,6,P-GPS,
0.318396773256643,36.9028602824717,5725.8984253547,180.4462,0,1.979740877,19500,2018-04-06 12:22:48,17,0,16.274,5725.8984253547,180.4462,0.447388,2.00868116664,0,0,-11.1847,174.9, -2.7, -5.8,0,0,1024,1024,1684,1024,174.8,-19.8,99,4.105,4.109,4.105,4.105,0,0,17.618,82.31,6,P-GPS,
0.318396757631723,36.9028602493675,5727.5388453547,182.08662,0,1.96808405248,19600,2018-04-06 12:22:48,17,0,16.274,5727.5388453547,182.08662,0.447388,2.00868116664,0,0,-10.961006,175, -2.9, -6.2,0,0,1024,1024,1684,1024,174.8,-19.8,99,4.105,4.109,4.105,4.105,0,0,17.618,82.31,6,P-GPS,
0.318396737326655,36.9028602420627,5729.1792653547,183.72704,0,1.96050531208,19700,2018-04-06 12:22:48,17,0,16.274,5729.1792653547,183.72704,0.447388,2.00868116664,0,0,-10.961006,174.9, -2.5, -5.9,0,0,1024,1024,1684,1024,174.8,-19.8,99,4.105,4.109,4.105,4.105,0,0,17.618,82.31,6,P-GPS,
0.318396690920886,36.9028602469779,5730.8196853547,185.36746,0,1.94778877624,19800,2018-04-06 12:22:48,17,0,16.274,5730.8196853547,185.36746,0.447388,2.00868116664,0,0,-10.961006,174.9, -2, -5.7,0,0,1024,1024,1684,1024,174.8,-19.8,99,4.105,4.109,4.105,4.105,0,0,17.618,82.31,6,P-GPS,
0.318396659940553,36.9028602487765,5732.4601053547,187.00788,0,1.93901581008,19900,2018-04-06 12:22:48,17,0,16.274,5732.4601053547,187.00788,0.447388,2.00868116664,-0.223694,0,-10.961006,174.9, -1.8, -5.3,0,0,1024,1024,1684,1024,174.8,-19.8,99,4.105,4.109,4.105,4.105,0,0,17.618,82.31,6,P-GPS,
0.318396611536684,36.9028602425852,5734.1005253547,188.6483,0.223694,1.92342197756,20000,2018-04-06 12:22:48,17,0,16.274,5734.1005253547,188.6483,0.447388,2.00868116664,-0.223694,0,-11.1847,174.8, -1.4, -5.3,0,0,1024,1024,1684,1024,174.8,-19.8,99,4.105,4.109,4.105,4.105,0,0,17.618,82.31,6,P-GPS,
0.31839657557087,36.9028602276609,5735.7409453547,190.28872,0.223694,1.90962276452,20100,2018-04-06 12:22:48,17,0,16.274,5735.7409453547,190.28872,0.447388,2.00868116664,0,0,-11.1847,174.9, -1.4, -6,0,0,1024,1024,1684,1024,174.8,-19.8,99,4.105,4.109,4.105,4.105,0,0,17.618,82.31,6,P-GPS,
0.318396522705878,36.902860224129,5737.3813653547,191.92914,0,1.8933563598,20200,2018-04-06 12:22:49,17,0,16.274,5737.3813653547,191.92914,0.447388,2.00868116664,0,0,-11.1847,174.9, -1.2, -5.6,0,0,1024,1024,1684,1024,174.8,-19.8,99,4.105,4.109,4.105,4.105,0,0,17.618,82.31,6,P-GPS,
0.318396480146494,36.9028602595912,5739.0217853547,193.56956,0,1.88873365624,20300,2018-04-06 12:22:49,17,0,16.274,5739.0217853547,193.56956,0.447388,2.00868116664,0,0,-10.961006,174.8, -1.1, -5,0,0,1024,1024,1684,1024,174.8,-19.8,99,4.105,4.109,4.105,4.105,0,0,17.618,82.31,6,P-GPS,
0.318396429842231,36.9028602859865,5740.6622053547,195.20998,0,1.8800525536,20400,2018-04-06 12:22:49,17,0,16.274,5740.6622053547,195.20998,0.447388,2.00868116664,0,0,-10.961006,174.8, -1.4, -5.1,0,0,1024,1024,1684,1024,174.8,-19.8,99,4.105,4.109,4.105,4.105,0,0,17.618,82.31,6,P-GPS,
0.3183964099687,36.9028602764661,5742.3026253547,196.8504,0,1.87219822264,20500,2018-04-06 12:22:49,17,0,16.354,5742.3026253547,196.8504,0.447388,2.00868116664,0,0,-10.961006,174.8, -1.5, -5.6,0,0,1024,1024,1684,1024,174.8,-19.8,99,4.094,4.102,4.1,4.103,0,0,17.768,82.31,6,P-GPS,
0.318396374555743,36.9028602427137,5743.9430453547,198.49082,0.223694,1.85443903572,20600,2018-04-06 12:22:49,17,0,16.354,5743.9430453547,198.49082,0.447388,2.00868116664,-0.223694,0,-10.961006,174.8, -1.1, -6.2,0,0,1024,1024,1684,1024,174.8,-19.8,99,4.094,4.102,4.1,4.103,0,0,17.768,82.31,6,P-GPS,
0.31839628781993,36.9028602516404,5749.1923893547,203.740164,0,1.8315781426,20900,2018-04-06 12:22:49,17,0,16.354,5749.1923893547,203.740164,0.447388,2.00868116664,0,0,-10.961006,174.8, -0.6, -5.4,0,0,1024,1024,1684,1024,174.8,-19.8,99,4.094,4.102,4.1,4.103,0,0,17.768,82.31,6,P-GPS,
0.31839625968856,36.9028602693776,5750.8328093547,205.380584,0,1.82761816872,21000,2018-04-06 12:22:49,17,0,16.354,5750.8328093547,205.380584,0.447388,2.00868116664,0,0,-10.961006,174.7, -0.3, -5,0,0,1024,1024,1684,1024,174.8,-19.8,99,4.094,4.102,4.1,4.103,0,0,17.768,82.31,6,P-GPS,
0.318396287502384,36.9028602687765,5752.4732293547,207.021004,0,1.83539047868,21100,2018-04-06 12:22:49,17,0,16.354,5752.4732293547,207.021004,0.447388,2.00868116664,0,0,-11.1847,174.7, -0.9, -5,0,0,1024,1024,1684,1024,174.8,-19.8,99,4.094,4.102,4.1,4.103,0,0,17.768,82.31,6,P-GPS,
0.31839632885509,36.9028602362906,5754.1136493547,208.661424,0,1.83985242108,21200,2018-04-06 12:22:50,17,0,16.354,5754.1136493547,208.661424,0.447388,2.00868116664,0,0,-11.1847,174.8, -1.9, -6,0,0,1024,1024,1684,1024,174.8,-19.8,99,4.094,4.102,4.1,4.103,0,0,17.768,82.31,6,P-GPS,
0.318396392583432,36.9028601968355,5755.7540693547,210.301844,0,1.84944559724,21300,2018-04-06 12:22:50,17,0,16.354,5755.7540693547,210.301844,0.447388,2.00868116664,0,0,-11.1847,175, -2.4, -6.4,0,0,1024,1024,1684,1024,174.8,-19.8,99,4.094,4.102,4.1,4.103,0,0,17.768,82.31,6,P-GPS,
0.318396421704082,36.9028601629348,5757.3944893547,211.942264,0,1.85046921932,21400,2018-04-06 12:22:50,17,0,16.354,5757.3944893547,211.942264,0.447388,2.00868116664,0,0,-11.1847,174.9, -2.3, -6.3,0,0,1024,1024,1684,1024,174.8,-19.8,99,4.094,4.102,4.1,4.103,0,0,17.768,82.31,6,P-GPS,
0.318396460461863,36.9028601496314,5759.0349093547,213.582684,0,1.85892722484,21500,2018-04-06 12:22:50,17,0,16.274,5759.0349093547,213.582684,0.447388,2.00868116664,0,0,-11.1847,174.8, -1.8, -6.2,0,0,1024,1024,1684,1024,174.8,-19.8,99,4.094,4.102,4.1,4.103,0,0,17.768,82.31,6,P-GPS,
0.318396481886487,36.9028601419434,5760.6753293547,215.223104,0,1.86356305176,21600,2018-04-06 12:22:50,17,0,16.274,5760.6753293547,215.223104,0.447388,2.00868116664,0,0,-11.1847,174.8, -1.7, -6.1,0,0,1024,1024,1684,1024,174.8,-19.8,99,4.094,4.102,4.1,4.103,0,0,17.768,82.31,6,P-GPS,
0.31839653498516,36.9028601238806,5762.3157493547,216.863524,0,1.87537407576,21700,2018-04-06 12:22:50,17,0,16.274,5762.3157493547,216.863524,0.447388,2.00868116664,0,0,-11.1847,174.8, -1.9, -6.1,0,0,1024,1024,1684,1024,174.8,-19.8,99,4.094,4.102,4.1,4.103,0,0,17.768,82.31,6,P-GPS,
0.318396572301768,36.9028600906164,5763.9561693547,218.503944,0,1.87943247484,21800,2018-04-06 12:22:50,17,0,16.274,5763.9561693547,218.503944,0.447388,2.00868116664,0,0,-11.1847,174.8, -1.9, -6.2,0,0,1024,1024,1684,1024,174.8,-19.8,99,4.094,4.102,4.1,4.103,0,0,17.768,82.31,6,P-GPS,
0.318396634480646,36.9028600434524,5765.5965893547,220.144364,0,1.88826777696,21900,2018-04-06 12:22:50,17,0,16.274,5765.5965893547,220.144364,0.447388,2.00868116664,0,0,-10.961006,174.8, -1.8, -6.4,0,0,1024,1024,1684,1024,174.8,-19.8,99,4.094,4.102,4.1,4.103,0,0,17.768,82.31,6,P-GPS,
