latitude,longitude,altitude(feet),ascent(feet),speed(mph),distance(feet),time(millisecond),datetime(utc),satellites,gpslevel,voltage(v),max_altitude(feet),max_ascent(feet),max_speed(mph),max_distance(feet), xSpeed(mph), ySpeed(mph), zSpeed(mph), compass_heading(degrees), pitch(degrees), roll(degrees),isPhoto,isVideo,rc_elevator,rc_aileron,rc_throttle,rc_rudder,gimbal_heading(degrees),gimbal_pitch(degrees),battery_percent,voltageCell1,voltageCell2,voltageCell3,voltageCell4,voltageCell5,voltageCell6,current(A),battery_temperature(f),flycStateRaw,flycState,message
0.35443256123799,36.9190148938337,5497.5163973772,0,0,0,0,2018-04-16 05:34:43,18,0,0,5497.5163973772,0,0,0,0,0,0,335.7, 2.4, -0.8,0,0,1020,1024,680,1411,340.3,0,98,4.289,4.288,4.268,4.282,0,0,0,78.71,41,Motors_Started,
0.354432578220625,36.9190149319647,5497.5163973772,0,0,0.0152292327708,100,2018-04-16 05:34:43,18,0,0,5497.5163973772,0,0,0.0152292327708,0,0,0,335.7, 2.4, -0.8,0,0,1020,1024,680,1411,339.7,0,98,4.289,4.288,4.268,4.282,0,0,0,78.71,41,Motors_Started,
0.354432612666694,36.9190149515162,5497.5163973772,0,0,0.028195210876,200,2018-04-16 05:34:44,18,0,0,5497.5163973772,0,0,0.028195210876,0,0,0,335.8, 2.4, -0.8,0,0,1024,1024,1024,1024,339.7,0,98,4.289,4.288,4.268,4.282,0,0,0,78.71,41,Motors_Started,
0.354432640016004,36.919014978834,5497.5163973772,0,0,0.042282809752,300,2018-04-16 05:34:44,18,0,0,5497.5163973772,0,0,0.042282809752,0,0,0,335.7, 2.4, -0.8,0,0,1024,1024,1024,1024,338.2,0,98,4.289,4.288,4.268,4.282,0,0,0,78.71,41,Motors_Started,
0.354432656193373,36.919015015738,5497.5163973772,0,0,0.056376642224,400,2018-04-16 05:34:44,18,0,0,5497.5163973772,0,0,0.056376642224,0,0,0,335.8, 2.4, -0.8,0,0,1024,1024,1024,1024,337.4,0,98,4.289,4.288,4.268,4.282,0,0,0,78.71,41,Motors_Started,
0.354432675353238,36.9190150492118,5497.5163973772,0,0,0.070335304088,500,2018-04-16 05:34:44,18,0,0,5497.5163973772,0,0,0.070335304088,0,0,0,335.7, 2.4, -0.8,0,0,1024,1024,1024,1024,337,0,98,4.289,4.288,4.268,4.282,0,0,0,78.71,41,Motors_Started,
0.354432708214424,36.9190150665921,5497.5163973772,0,0,0.08275426774,600,2018-04-16 05:34:44,18,0,0,5497.5163973772,0,0,0.08275426774,0,0,0,335.7, 2.4, -0.8,0,0,1024,1024,1024,1024,336.8,0,98,4.289,4.288,4.268,4.282,0,0,0,78.71,41,Motors_Started,
0.354432734653027,36.919015077037,5497.5163973772,0,0,0.092036748352,700,2018-04-16 05:34:44,18,0,0,5497.5163973772,0,0,0.092036748352,0,0,0,335.7, 2.4, -0.8,0,0,1024,1024,1024,1024,336.6,0,98,4.289,4.288,4.268,4.282,0,0,0,78.71,41,Motors_Started,
0.354432749783307,36.9190150813131,5497.5163973772,0,0,0.097009189456,800,2018-04-16 05:34:44,18,0,0,5497.5163973772,0,0,0.097009189456,0,0,0,335.7, 2.4, -0.8,0,0,1024,1024,1024,1024,336.5,0,98,4.289,4.288,4.268,4.282,0,0,0,78.71,41,Motors_Started,
0.354432754957281,36.9190150775659,5497.5163973772,0,0,0.097411092356,900,2018-04-16 05:34:44,18,0,17.104,5497.5163973772,0,0,0.097411092356,0,0,0,335.7, 2.4, -0.8,0,0,1024,1024,1024,1024,336.4,0,98,4.289,4.288,4.268,4.282,0,0,1.59,78.71,41,Motors_Started,
0.354432758419352,36.919015074247,5497.5163973772,0,0,0.09750984564,1000,2018-04-16 05:34:44,18,0,17.104,5497.5163973772,0,0,0.09750984564,0,0,0,335.7, 2.4, -0.9,0,0,1024,1024,1024,1024,336.4,0,98,4.289,4.288,4.268,4.282,0,0,1.59,78.71,41,Motors_Started,
0.354432762807602,36.9190150709303,5497.5163973772,0,0,0.097894032004,1100,2018-04-16 05:34:44,18,0,17.104,5497.5163973772,0,0,0.097894032004,0,0,0,335.7, 2.4, -0.8,0,0,1024,1024,1024,1024,336.3,0,98,4.289,4.288,4.268,4.282,0,0,1.59,78.71,41,Motors_Started,
0.354432792479073,36.9190150998689,5497.5163973772,0,0,0.112998035112,1200,2018-04-16 05:34:45,18,0,17.104,5497.5163973772,0,0,0.112998035112,0,0,0,335.7, 2.4, -0.9,0,0,1024,1024,1024,1024,336.3,0,98,4.289,4.288,4.268,4.282,0,0,1.59,78.71,41,Motors_Started,
0.354432814126793,36.9190151217715,5497.5163973772,0,0,0.124212930484,1300,2018-04-16 05:34:45,18,0,17.104,5497.5163973772,0,0,0.124212930484,0,0,0,335.7, 2.4, -0.8,0,0,1024,1024,1024,1024,336.3,0,98,4.289,4.288,4.268,4.282,0,0,1.59,78.71,41,Motors_Started,
0.354432827173479,36.9190151315633,5497.5163973772,0,0,0.130141736448,1400,2018-04-16 05:34:45,18,0,17.104,5497.5163973772,0,0,0.130141736448,0,0,0,335.7, 2.4, -0.9,0,0,1024,1024,1024,1024,336.2,0,98,4.289,4.288,4.268,4.282,0,0,1.59,78.71,41,Motors_Started,
0.354432845578968,36.919015138396,5497.5163973772,0,0,0.136834650048,1500,2018-04-16 05:34:45,18,0,17.104,5497.5163973772,0,0,0.136834650048,0,0,0,335.7, 2.4, -0.9,0,0,1024,1024,1024,1024,336.2,0,98,4.289,4.288,4.268,4.282,0,0,1.59,78.71,41,Motors_Started,
0.354432878566765,36.9190151409847,5497.5163973772,0,0,0.14674869236,1600,2018-04-16 05:34:45,18,0,17.104,5497.5163973772,0,0,0.14674869236,0,0,0,335.7, 2.3, -0.8,0,0,1024,1024,1024,1024,336.2,0,98,4.289,4.288,4.268,4.282,0,0,1.59,78.71,10,Assisted_Takeoff,
0.354432907781864,36.9190151508172,5497.5163973772,0,0,0.1574065011,1700,2018-04-16 05:34:45,18,0,17.104,5497.5163973772,0,0,0.1574065011,0,0,0,335.7, 2.4, -0.8,0,0,1024,1024,1024,1024,336.2,0,98,4.289,4.288,4.268,4.282,0,0,1.59,78.71,10,Assisted_Takeoff,
0.354432926453603,36.9190151773299,5497.5163973772,0,0,0.16868110776,1800,2018-04-16 05:34:45,18,0,17.104,5497.5163973772,0,0,0.16868110776,0,0,0,335.7, 2.4, -0.8,0,0,1024,1024,1024,1024,336.2,0,98,4.289,4.288,4.268,4.282,0,0,1.59,78.71,10,Assisted_Takeoff,
0.354432936986786,36.9190152046926,5497.5163973772,0,0,0.177924218292,1900,2018-04-16 05:34:45,18,0,16.944,5497.5163973772,0,0,0.177924218292,0,0,0,335.7, 2.4, -0.8,0,0,1024,1024,1024,1024,336.2,0,98,4.276,4.272,4.253,4.262,0,0,2.208,78.71,10,Assisted_Takeoff,
0.354432943179759,36.9190152183879,5497.5163973772,0,0,0.1828658195,2000,2018-04-16 05:34:45,18,0,16.944,5497.5163973772,0,0,0.1828658195,0,0,0,335.7, 2.4, -0.8,0,0,1024,1024,1024,1024,336.1,0,98,4.276,4.272,4.253,4.262,0,0,2.208,78.71,10,Assisted_Takeoff,
0.354432953631926,36.919015229306,5497.5163973772,0,0,0.188352040148,2100,2018-04-16 05:34:45,18,0,16.944,5497.5163973772,0,0,0.188352040148,0,0,0,335.7, 2.4, -0.8,0,0,1024,1024,1024,1024,336.1,0,98,4.276,4.272,4.253,4.262,0,0,2.208,78.71,10,Assisted_Takeoff,
0.35443298216023,36.9190152343871,5497.5163973772,0,0,0.197540688736,2200,2018-04-16 05:34:46,18,0,16.944,5497.5163973772,0,0,0.197540688736,0,0,0,335.7, 2.4, -0.8,0,0,1024,1024,1052,1024,336.1,0,98,4.276,4.272,4.253,4.262,0,0,2.208,78.71,10,Assisted_Takeoff,
0.354433006301912,36.9190152492151,5497.5163973772,0,0,0.20779528224,2300,2018-04-16 05:34:46,18,0,16.944,5497.5163973772,0,0,0.20779528224,0,0,0,335.7, 2.4, -0.8,0,0,1024,1024,1107,1024,336.1,0,98,4.276,4.272,4.253,4.262,0,0,2.208,78.71,10,Assisted_Takeoff,
0.354433020744582,36.9190152793336,5497.5163973772,0,0,0.218833996504,2400,2018-04-16 05:34:46,18,0,16.944,5497.5163973772,0,0,0.218833996504,0,0,0,335.7, 2.4, -0.8,0,0,1024,1024,1147,1024,336.1,0,98,4.276,4.272,4.253,4.262,0,0,2.208,78.71,10,Assisted_Takeoff,
0.354433028064437,36.9190153101566,5497.5163973772,0,0,0.228211621476,2500,2018-04-16 05:34:46,18,0,16.944,5497.5163973772,0,0,0.228211621476,0,0,0,335.7, 2.4, -0.8,0,0,1024,1024,1211,1024,336.1,0,98,4.276,4.272,4.253,4.262,0,0,2.208,78.71,10,Assisted_Takeoff,
0.354433033139483,36.9190153267489,5497.5163973772,0,0,0.233646004852,2600,2018-04-16 05:34:46,18,0,16.944,5497.5163973772,0,0,0.233646004852,0,0,0,335.7, 2.4, -0.8,0,0,1024,1024,1255,1024,336.1,0,98,4.276,4.272,4.253,4.262,0,0,2.208,78.71,10,Assisted_Takeoff,
0.354433029982337,36.9190153402001,5497.5163973772,0,0,0.236155519368,2700,2018-04-16 05:34:46,18,0,16.944,5497.5163973772,0,0,0.236155519368,0,0,0,335.7, 2.3, -0.8,0,0,1024,1024,1278,1024,336.1,0,98,4.276,4.272,4.253,4.262,0,0,2.208,78.71,10,Assisted_Takeoff,
0.354433028808636,36.9190153467887,5497.5163973772,0,0,0.237511818624,2800,2018-04-16 05:34:46,18,0,16.944,5497.5163973772,0,0,0.237511818624,0,0,0,335.7, 2.4, -0.9,0,0,1024,1024,1298,1024,336.1,0,98,4.276,4.272,4.253,4.262,0,0,2.208,78.71,10,Assisted_Takeoff,
0.354433027816914,36.919015362259,5497.5163973772,0,0,0.241217527404,2900,2018-04-16 05:34:46,18,0,17.077,5497.5163973772,0,0,0.241217527404,0,0,0,335.9, 2.6, -1,0,0,1024,1024,1306,1024,336.1,0,98,4.283,4.28,4.26,4.273,0,0,2.702,78.71,10,Assisted_Takeoff,
0.354433028136496,36.9190153933068,5497.5163973772,0,0,0.249450795384,3000,2018-04-16 05:34:46,18,0,17.077,5497.5163973772,0,0,0.249450795384,0,0,0,336, 2.2, -1.1,0,0,1024,1024,1296,1024,336.1,0,98,4.283,4.28,4.26,4.273,0,0,2.702,78.71,10,Assisted_Takeoff,
0.354432984312218,36.9190154119012,5497.5163973772,0,0,0.244033472376,3100,2018-04-16 05:34:46,18,0,17.077,5497.5163973772,0,0,0.249450795384,0,0,-0.447388,336, 1.9, -1,0,0,1024,1024,1290,1024,336.1,0,98,4.283,4.28,4.26,4.273,0,0,2.702,78.71,6,P-GPS,
0.354432889147987,36.919015407653,5497.5163973772,0,0.223694,0.222386161972,3200,2018-04-16 05:34:47,18,0,17.077,5497.5163973772,0,0.223694,0.249450795384,-0.223694,0,-0.894776,336, 0.6, -0.6,0,0,1024,1024,1281,1024,336.1,0,98,4.283,4.28,4.26,4.273,0,0,2.702,78.71,6,P-GPS,
0.354432773184047,36.9190153871186,5497.5163973772,0,0.223694,0.19588091178,3300,2018-04-16 05:34:47,18,0,17.077,5497.5163973772,0,0.223694,0.249450795384,-0.223694,0,-1.342164,336, -0.4, 0,0,0,1024,1024,1303,1024,336.1,0,98,4.283,4.28,4.26,4.273,0,0,2.702,78.71,6,P-GPS,Obstacle Avoided. Revise Flight Route
0.354432617063493,36.9190152982042,5497.8444813772,0.328084,0,0.148930779044,3400,2018-04-16 05:34:47,18,0,17.077,5497.8444813772,0.328084,0.223694,0.249450795384,0,0,-1.789552,336.1, -0.9, 0.8,0,0,1024,1024,1364,1024,336.1,0,98,4.283,4.28,4.26,4.273,0,0,2.702,78.71,6,P-GPS,
0.354432505756496,36.9190152145123,5498.1725653772,0.656168,0,0.11873524002,3500,2018-04-16 05:34:47,18,0,17.077,5498.1725653772,0.656168,0.223694,0.249450795384,0,0,-2.013246,336.1, -0.5, 1,0,0,1024,1024,1400,1024,336.1,0,98,4.283,4.28,4.26,4.273,0,0,2.702,78.71,6,P-GPS,
0.354432470458344,36.9190151579925,5498.5006493772,0.984252,0,0.101908795912,3600,2018-04-16 05:34:47,18,0,17.077,5498.5006493772,0.984252,0.223694,0.249450795384,0,0,-2.23694,336.1, -0.2, 0.8,0,0,1024,1024,1408,1024,336.1,0,98,4.283,4.28,4.26,4.273,0,0,2.702,78.71,6,P-GPS,
0.354432453427669,36.9190151192684,5498.8287333772,1.312336,0,0.091169950424,3700,2018-04-16 05:34:47,16,0,17.077,5498.8287333772,1.312336,0.223694,0.249450795384,0,0,-2.908022,336, -0.3, 0.5,0,0,1024,1024,1420,1024,336.1,0,98,4.283,4.28,4.26,4.273,0,0,2.702,78.71,6,P-GPS,
0.354432446878475,36.9190150937878,5499.4849013772,1.968504,0,0.084040685104,3800,2018-04-16 05:34:47,16,0,17.077,5499.4849013772,1.968504,0.223694,0.249450795384,0,0,-3.35541,336.1, -0.6, 0.5,0,0,1024,1024,1420,1024,336.1,0,98,4.283,4.28,4.26,4.273,0,0,2.702,78.71,6,P-GPS,
0.354432457865586,36.9190150761099,5499.8129853772,2.296588,0,0.076452430268,3900,2018-04-16 05:34:47,16,0,16.596,5499.8129853772,2.296588,0.223694,0.249450795384,0,0,-4.026492,336.1, -0.7, 0.6,0,0,1024,1024,1457,1024,336.1,0,98,4.175,4.16,4.145,4.156,0,0,13.692,78.71,6,P-GPS,Setting new Return-To-Home altitude to 45m (148 ft). Setting new Maximum Flight Altitude to 150m (492 ft)
0.354432474242847,36.9190150518669,5500.4691533772,2.952756,0,0.065816275072,4000,2018-04-16 05:34:47,16,0,16.596,5500.4691533772,2.952756,0.223694,0.249450795384,0,0,-4.697574,336.1, -0.3, 0.5,0,0,1024,1024,1464,1024,336.1,0,98,4.175,4.16,4.145,4.156,0,0,13.692,78.71,6,P-GPS,Home Point Recorded. RTH Altitude:  45m.
0.354432495304328,36.9190150265426,5501.4534053772,3.937008,0,0.054064634276,4100,2018-04-16 05:34:47,18,0,16.596,5501.4534053772,3.937008,0.223694,0.249450795384,0,0,-5.144962,336.1, 0, 0.6,0,0,1024,1024,1463,1024,336.1,0,98,4.175,4.16,4.145,4.156,0,0,13.692,78.71,6,P-GPS,
0.354432504884464,36.9190149756072,5502.1095733772,4.593176,0,0.036232940792,4200,2018-04-16 05:34:48,18,0,16.596,5502.1095733772,4.593176,0.223694,0.249450795384,0,0,-5.59235,336.1, 0.1, 0.7,0,0,1024,1024,1460,1024,336.1,0,98,4.175,4.16,4.145,4.156,0,0,13.692,78.71,6,P-GPS,
0.354432521034964,36.9190149218645,5503.0938253772,5.577428,0,0.0178812669764,4300,2018-04-16 05:34:48,18,0,16.596,5503.0938253772,5.577428,0.223694,0.249450795384,0,0,-6.039738,336.1, 0.3, 0.7,0,0,1024,1024,1477,1024,336.1,0,98,4.175,4.16,4.145,4.156,0,0,13.692,78.71,6,P-GPS,
0.354432607809453,36.9190148705051,5504.0780773772,6.56168,0,0.019004101658,4400,2018-04-16 05:34:48,18,0,16.596,5504.0780773772,6.56168,0.223694,0.249450795384,0,0,-6.263432,336.1, 0.4, 1.1,0,0,1024,1024,1512,1024,336.1,0,98,4.175,4.16,4.145,4.156,0,0,13.692,78.71,6,P-GPS,
0.354432671788575,36.9190148130089,5504.7342453772,7.217848,0,0.049964240444,4500,2018-04-16 05:34:48,18,0,16.596,5504.7342453772,7.217848,0.223694,0.249450795384,0,0,-6.263432,336.1, 0.2, 1.7,0,0,1024,1024,1544,1024,336.1,0,98,4.175,4.16,4.145,4.156,0,0,13.692,78.71,6,P-GPS,
0.354432666281584,36.9190147783896,5505.7184973772,8.2021,0,0.056945867964,4600,2018-04-16 05:34:48,18,0,16.596,5505.7184973772,8.2021,0.223694,0.249450795384,0,0,-6.487126,336.1, 0.1, 2,0,0,1024,1024,1581,1024,336.1,0,98,4.175,4.16,4.145,4.156,0,0,13.692,78.71,6,P-GPS,
0.354432677183609,36.9190147566925,5506.7027493772,9.186352,0,0.065520999472,4700,2018-04-16 05:34:48,18,0,16.596,5506.7027493772,9.186352,0.223694,0.249450795384,0,0,-6.71082,336.1, 0, 2,0,0,1024,1024,1603,1024,336.1,0,98,4.175,4.16,4.145,4.156,0,0,13.692,78.71,6,P-GPS,
0.354432715729693,36.9190147261265,5507.6870013772,10.170604,0,0.08319225988,4800,2018-04-16 05:34:48,18,0,16.596,5507.6870013772,10.170604,0.223694,0.249450795384,0,0,-7.158208,336.1, 0.4, 1.6,0,0,1024,1024,1596,1024,336.1,0,98,4.175,4.16,4.145,4.156,0,0,13.692,78.71,6,P-GPS,
0.354432755073714,36.9190147194801,5508.9993373772,11.48294,0,0.095120409868,4900,2018-04-16 05:34:48,18,0,16.408,5508.9993373772,11.48294,0.223694,0.249450795384,0,0,-7.605596,336, 0.5, 1.4,0,0,1024,1024,1605,1024,336.1,0,98,4.175,4.16,4.145,4.156,0,0,13.692,78.71,6,P-GPS,
0.354432803189756,36.9190147211482,5509.9835893772,12.467192,0,0.108452759376,5000,2018-04-16 05:34:48,18,0,16.408,5509.9835893772,12.467192,0.223694,0.249450795384,0,0,-8.276678,336.1, -0.3, 1.4,0,0,1024,1024,1640,1024,336.1,0,98,4.175,4.16,4.145,4.156,0,0,13.692,78.71,6,P-GPS,
0.354432856806275,36.9190147315738,5511.2959253772,13.779528,0,0.123018704724,5100,2018-04-16 05:34:49,18,0,16.408,5511.2959253772,13.779528,0.223694,0.249450795384,0,0,-8.500372,336, -0.7, 1.6,0,0,1024,1024,1656,1024,336.1,0,98,4.175,4.16,4.145,4.156,0,0,13.692,78.71,6,P-GPS,
0.354433051346708,36.9190147067099,5513.9205973772,16.4042,0,0.191405517936,5300,2018-04-16 05:34:49,18,0,16.408,5513.9205973772,16.4042,0.223694,0.249450795384,0,0,-9.171454,336, 0.9, 0.7,0,0,1024,1024,1653,1024,336.1,0,98,4.175,4.16,4.145,4.156,0,0,13.692,78.71,6,P-GPS,
0.354433102622339,36.919014743342,5515.2329333772,17.716536,0,0.205012801836,5400,2018-04-16 05:34:49,18,0,16.408,5515.2329333772,17.716536,0.223694,0.249450795384,0,0,-9.618842,336, 1, 0.8,0,0,1024,1024,1679,1024,336.1,0,98,4.175,4.16,4.145,4.156,0,0,13.692,78.71,6,P-GPS,
0.354433150615026,36.9190147820275,5516.5452693772,19.028872,0,0.218868773408,5500,2018-04-16 05:34:49,18,0,16.408,5516.5452693772,19.028872,0.223694,0.249450795384,0,0,-9.842536,336, 0.6, 0.9,0,0,1024,1024,1684,1024,336.1,0,98,4.175,4.16,4.145,4.156,0,0,13.692,78.71,6,P-GPS,
0.354433171458295,36.9190148109233,5518.1856893772,20.669292,0,0.224684062308,5600,2018-04-16 05:34:49,18,0,16.408,5518.1856893772,20.669292,0.223694,0.249450795384,0,0,-10.06623,336.1, 0.6, 0.7,0,0,1024,1024,1684,1024,336.1,0,98,4.175,4.16,4.145,4.156,0,0,13.692,78.71,6,P-GPS,
0.354433207969638,36.9190148517801,5519.4980253772,21.981628,0,0.236458012816,5700,2018-04-16 05:34:49,18,0,16.408,5519.4980253772,21.981628,0.223694,0.249450795384,0,0,-10.289924,336.1, 1, 0.1,0,0,1024,1024,1684,1024,336.1,0,98,4.175,4.16,4.145,4.156,0,0,13.692,78.71,6,P-GPS,
0.35443322102528,36.9190149069573,5521.1384453772,23.622048,0,0.240770676996,5800,2018-04-16 05:34:49,18,0,16.408,5521.1384453772,23.622048,0.223694,0.249450795384,0,0,-10.513618,336.1, 0.5, 0.3,0,0,1024,1024,1684,1024,336.1,0,98,4.175,4.16,4.145,4.156,0,0,13.692,78.71,6,P-GPS,
0.354433233940063,36.9190149541178,5522.7788653772,25.262468,0,0.246418314972,5900,2018-04-16 05:34:49,18,0,16.408,5522.7788653772,25.262468,0.223694,0.249450795384,0,0,-10.513618,336.1, 0.2, 0.5,0,0,1024,1024,1684,1024,336.1,0,98,4.175,4.16,4.145,4.156,0,0,13.692,78.71,6,P-GPS,
0.354433207601609,36.9190149614579,5524.4192853772,26.902888,0,0.237112540396,6000,2018-04-16 05:34:49,18,0,16.408,5524.4192853772,26.902888,0.223694,0.249450795384,0,0,-10.737312,336.1, 0, 0.4,0,0,1024,1024,1684,1024,336.1,0,98,4.175,4.16,4.145,4.156,0,0,13.692,78.71,6,P-GPS,
0.354433207654127,36.9190149734616,5525.7316213772,28.215224,0,0.237626976108,6100,2018-04-16 05:34:49,18,0,16.408,5525.7316213772,28.215224,0.223694,0.249450795384,0,0,-10.737312,336.1, 0, 0.5,0,0,1024,1024,1684,1024,336.1,0,98,4.175,4.16,4.145,4.156,0,0,13.692,78.71,6,P-GPS,
0.354433194642452,36.9190149895872,5527.3720413772,29.855644,0,0.233722776508,6200,2018-04-16 05:34:50,18,0,16.408,5527.3720413772,29.855644,0.223694,0.249450795384,0,0,-10.737312,336.1, 0.1, 0.5,0,0,1024,1024,1684,1024,336.1,0,98,4.175,4.16,4.145,4.156,0,0,13.692,78.71,6,P-GPS,
0.354433204376069,36.9190150044195,5529.0124613772,31.496064,0,0.238091871136,6300,2018-04-16 05:34:50,18,0,16.408,5529.0124613772,31.496064,0.223694,0.249450795384,0,0,-10.737312,336.1, 0.4, 0.3,0,0,1024,1024,1684,1024,336.1,0,98,4.175,4.16,4.145,4.156,0,0,13.692,78.71,6,P-GPS,
0.354433237867462,36.9190149886301,5530.6528813772,33.136484,0,0.249278879368,6400,2018-04-16 05:34:50,18,0,16.408,5530.6528813772,33.136484,0.223694,0.249450795384,0,0,-10.737312,336.1, 0.4, 0.3,0,0,1024,1024,1684,1024,336.1,0,98,4.175,4.16,4.145,4.156,0,0,13.692,78.71,6,P-GPS,
0.354433270456291,36.9190149764872,5531.9652173772,34.44882,0,0.260509194688,6500,2018-04-16 05:34:50,18,0,16.408,5531.9652173772,34.44882,0.223694,0.260509194688,0,0,-10.737312,336, 0.3, 0.3,0,0,1024,1024,1684,1024,336.1,0,98,4.175,4.16,4.145,4.156,0,0,13.692,78.71,6,P-GPS,
0.354433271443128,36.9190149453474,5533.6056373772,36.08924,0,0.259798564744,6600,2018-04-16 05:34:50,18,0,16.408,5533.6056373772,36.08924,0.223694,0.260509194688,0,0,-10.737312,336, 0.3, 0.6,0,0,1024,1024,1684,1024,336.1,-0.2,98,4.175,4.16,4.145,4.156,0,0,13.692,78.71,6,P-GPS,
0.354433270581274,36.9190149285494,5535.2460573772,37.72966,0,0.259113197268,6700,2018-04-16 05:34:50,18,0,16.408,5535.2460573772,37.72966,0.223694,0.260509194688,0,0,-10.737312,336.1, 0.1, 0.7,0,0,1024,1024,1684,1024,336.1,-0.8,98,4.175,4.16,4.145,4.156,0,0,13.692,78.71,6,P-GPS,
0.354433275272007,36.9190149381892,5536.8864773772,39.37008,0,0.26101706872,6800,2018-04-16 05:34:50,18,0,16.408,5536.8864773772,39.37008,0.223694,0.26101706872,0,0,-10.737312,336.1, 0.2, 0.5,0,0,1024,1024,1684,1024,336.1,-0.8,98,4.175,4.16,4.145,4.156,0,0,13.692,78.71,6,P-GPS,
0.354433284403507,36.9190149467841,5538.5268973772,41.0105,0,0.264552829988,6900,2018-04-16 05:34:50,18,0,16.328,5538.5268973772,41.0105,0.223694,0.264552829988,0,0,-10.737312,336.1, 0.2, 0.4,0,0,1024,1024,1684,1024,336.1,-1.4,98,4.137,4.128,4.118,4.131,0,0,17.62,78.71,6,P-GPS,
0.354433316106461,36.9190149147856,5539.8392333772,42.322836,0,0.275519365772,7000,2018-04-16 05:34:50,18,0,16.328,5539.8392333772,42.322836,0.223694,0.275519365772,0,0,-10.737312,336.1, 0.3, 0.5,0,0,1024,1024,1684,1024,336.1,-2.3,98,4.137,4.128,4.118,4.131,0,0,17.62,78.71,6,P-GPS,
0.354433352923952,36.9190148877569,5541.4796533772,43.963256,0,0.288854668036,7100,2018-04-16 05:34:50,18,0,16.328,5541.4796533772,43.963256,0.223694,0.288854668036,0,0,-10.737312,336.1, 0.4, 0.5,0,0,1024,1024,1684,1024,336.1,-4.4,98,4.137,4.128,4.118,4.131,0,0,17.62,78.71,6,P-GPS,
0.354433363058166,36.9190148690683,5543.1200733772,45.603676,0,0.292683080232,7200,2018-04-16 05:34:51,18,0,16.328,5543.1200733772,45.603676,0.223694,0.292683080232,0,0,-10.737312,336.1, 0.2, 0.5,0,0,1024,1024,1684,1024,336.1,-7.4,98,4.137,4.128,4.118,4.131,0,0,17.62,78.71,6,P-GPS,
0.3544333835273,36.9190148544373,5544.7604933772,47.244096,0,0.30035598074,7300,2018-04-16 05:34:51,18,0,16.328,5544.7604933772,47.244096,0.223694,0.30035598074,0,0,-10.737312,336.1, 0.5, 0.4,0,0,1024,1024,1684,1024,336.1,-10.4,98,4.137,4.128,4.118,4.131,0,0,17.62,78.71,6,P-GPS,
0.354433419545224,36.9190148481999,5546.4009133772,48.884516,0,0.313595154392,7400,2018-04-16 05:34:51,18,0,16.328,5546.4009133772,48.884516,0.223694,0.313595154392,0,0,-10.961006,336.1, 0.7, 0.5,0,0,1024,1024,1684,1024,336.1,-13.4,98,4.137,4.128,4.118,4.131,0,0,17.62,78.71,6,P-GPS,
0.354433451461912,36.9190148368557,5548.0413333772,50.524936,0,0.325462280756,7500,2018-04-16 05:34:51,18,0,16.328,5548.0413333772,50.524936,0.223694,0.325462280756,0,0,-10.961006,336.1, 0.8, 0.4,0,0,1024,1024,1684,1024,336.1,-15.8,98,4.137,4.128,4.118,4.131,0,0,17.62,78.71,6,P-GPS,
0.354433407109001,36.9190147912476,5549.6817533772,52.165356,0,0.310876650368,7600,2018-04-16 05:34:51,18,0,16.328,5549.6817533772,52.165356,0.223694,0.325462280756,0,0,-11.1847,336.1, 0.5, 0.7,0,0,1024,1024,1684,1024,336.1,-15.8,98,4.137,4.128,4.118,4.131,0,0,17.62,78.71,6,P-GPS,
0.35443338124015,36.919014750832,5551.3221733772,53.805776,0,0.303692266936,7700,2018-04-16 05:34:51,18,0,16.328,5551.3221733772,53.805776,0.223694,0.325462280756,0,0,-10.961006,336.1, 0.6, 1,0,0,1024,1024,1684,1024,336.1,-15.8,98,4.137,4.128,4.118,4.131,0,0,17.62,78.71,6,P-GPS,
0.354433383336365,36.9190147369418,5552.9625933772,55.446196,0,0.305355324732,7800,2018-04-16 05:34:51,18,0,16.328,5552.9625933772,55.446196,0.223694,0.325462280756,0,0,-11.1847,336.1, 0.7, 1.1,0,0,1024,1024,1684,1024,336.1,-15.8,98,4.137,4.128,4.118,4.131,0,0,17.62,78.71,6,P-GPS,
0.354433391150453,36.9190147361432,5554.6030133772,57.086616,0,0.3082103117,7900,2018-04-16 05:34:51,18,0,16.382,5554.6030133772,57.086616,0.223694,0.325462280756,0,0,-11.1847,336.1, 0.7, 0.9,0,0,1024,1024,1684,1024,336.1,-15.8,98,4.129,4.118,4.108,4.119,0,0,18.436,78.71,6,P-GPS,
0.354433349871841,36.9190147225978,5556.2434333772,58.727036,0,0.294437017296,8000,2018-04-16 05:34:51,18,0,16.382,5556.2434333772,58.727036,0.223694,0.325462280756,0,0,-11.408394,336.1, 0.8, 0.7,0,0,1024,1024,1684,1024,336.1,-15.8,98,4.129,4.118,4.108,4.119,0,0,18.436,78.71,6,P-GPS,
0.35443331863055,36.9190147208634,5558.2119373772,60.69554,0,0.283448499884,8100,2018-04-16 05:34:51,18,0,16.382,5558.2119373772,60.69554,0.223694,0.325462280756,0,0,-11.408394,336.1, 0.7, 0.7,0,0,1024,1024,1684,1024,336.1,-15.8,98,4.129,4.118,4.108,4.119,0,0,18.436,78.71,6,P-GPS,
0.354433279970475,36.9190147311777,5559.8523573772,62.33596,0,0.268860244824,8200,2018-04-16 05:34:52,18,0,16.382,5559.8523573772,62.33596,0.223694,0.325462280756,0,0,-11.408394,336.1, 0.5, 0.7,0,0,1024,1024,1684,1024,336.1,-15.8,98,4.129,4.118,4.108,4.119,0,0,18.436,78.71,6,P-GPS,
0.35443325228937,36.9190147500954,5561.4927773772,63.97638,0,0.257525926876,8300,2018-04-16 05:34:52,18,0,16.382,5561.4927773772,63.97638,0.223694,0.325462280756,0,0,-11.632088,336.1, 0.5, 0.7,0,0,1024,1024,1684,1024,336.1,-15.8,98,4.129,4.118,4.108,4.119,0,0,18.436,78.71,6,P-GPS,
0.354433225930968,36.9190147726489,5563.4612813772,65.944884,0,0.246510178492,8400,2018-04-16 05:34:52,18,0,16.382,5563.4612813772,65.944884,0.223694,0.325462280756,0,0,-11.632088,336.1, 0.6, 0.6,0,0,1024,1024,1684,1024,336.1,-15.8,98,4.129,4.118,4.108,4.119,0,0,18.436,78.71,6,P-GPS,
0.354433197915217,36.9190148042234,5565.1017013772,67.585304,0,0.234580716168,8500,2018-04-16 05:34:52,18,0,16.382,5565.1017013772,67.585304,0.223694,0.325462280756,0,0,-11.632088,336.1, 0.6, 0.7,0,0,1024,1024,1684,1024,336.1,-15.8,98,4.129,4.118,4.108,4.119,0,0,18.436,78.71,6,P-GPS,
0.354433128267482,36.9190147906738,5567.0702053772,69.553808,0,0.210276253448,8600,2018-04-16 05:34:52,18,0,16.382,5567.0702053772,69.553808,0.223694,0.325462280756,0,0,-11.632088,336.1, 0.2, 0.5,0,0,1024,1024,1684,1024,336.1,-15.8,98,4.129,4.118,4.108,4.119,0,0,18.436,78.71,6,P-GPS,
0.354433070968644,36.9190148005384,5568.7106253772,71.194228,0,0.189064310512,8700,2018-04-16 05:34:52,18,0,16.382,5568.7106253772,71.194228,0.223694,0.325462280756,0,0,-11.408394,336.1, 0, 0.5,0,0,1024,1024,1684,1024,336.1,-15.8,98,4.129,4.118,4.108,4.119,0,0,18.436,78.71,6,P-GPS,
0.354433002881365,36.9190148296997,5570.6791293772,73.162732,0,0.162823496024,8800,2018-04-16 05:34:52,18,0,16.382,5570.6791293772,73.162732,0.223694,0.325462280756,0,0,-11.632088,336.1, 0.2, 0.7,0,0,1024,1024,1684,1024,336.1,-15.8,98,4.129,4.118,4.108,4.119,0,0,18.436,78.71,6,P-GPS,
0.354432949809968,36.9190148705029,5572.3195493772,74.803152,0,0.142025595096,8900,2018-04-16 05:34:52,18,0,16.355,5572.3195493772,74.803152,0.223694,0.325462280756,0,0,-11.408394,336.1, 0.2, 0.7,0,0,1024,1024,1684,1024,336.1,-15.8,98,4.129,4.118,4.108,4.119,0,0,17.84,80.51,6,P-GPS,
0.354432930538148,36.9190148877826,5573.9599693772,76.443572,0,0.134756894076,9000,2018-04-16 05:34:52,18,0,16.355,5573.9599693772,76.443572,0.223694,0.325462280756,0,0,-11.408394,336.1, 0, 0.5,0,0,1024,1024,1684,1024,336.1,-15.8,98,4.129,4.118,4.108,4.119,0,0,17.84,80.51,6,P-GPS,
0.354432914016769,36.9190149212586,5575.9284733772,78.412076,0,0.12909941358,9100,2018-04-16 05:34:52,18,0,16.355,5575.9284733772,78.412076,0.223694,0.325462280756,0,0,-11.632088,336.1, 0, 0.3,0,0,1024,1024,1684,1024,336.1,-15.8,98,4.129,4.118,4.108,4.119,0,0,17.84,80.51,6,P-GPS,
0.35443288249905,36.9190149636077,5577.5688933772,80.052496,0,0.119944557644,9200,2018-04-16 05:34:53,18,0,16.355,5577.5688933772,80.052496,0.223694,0.325462280756,0,0,-11.408394,336.1, -0.2, 0.3,0,0,1024,1024,1684,1024,336.1,-15.8,98,4.129,4.118,4.108,4.119,0,0,17.84,80.51,6,P-GPS,
0.354432856656865,36.9190150069376,5579.5373973772,82.021,0,0.115412733352,9300,2018-04-16 05:34:53,18,0,16.355,5579.5373973772,82.021,0.223694,0.325462280756,0,0,-11.408394,336.1, -0.3, 0.4,0,0,1024,1024,1684,1024,336.1,-15.8,98,4.129,4.118,4.108,4.119,0,0,17.84,80.51,6,P-GPS,
0.354432775377968,36.9190150457944,5581.5059013772,83.989504,0,0.095801184168,9400,2018-04-16 05:34:53,18,0,16.355,5581.5059013772,83.989504,0.223694,0.325462280756,0,0,-11.632088,336, -0.2, 0.5,0,0,1024,1024,1684,1024,336.1,-15.8,98,4.129,4.118,4.108,4.119,0,0,17.84,80.51,6,P-GPS,
0.354432720765656,36.9190150866276,5583.1463213772,85.629924,0,0.091297903184,9500,2018-04-16 05:34:53,18,0,16.355,5583.1463213772,85.629924,0.223694,0.325462280756,0,0,-11.408394,336, -0.2, 0.7,0,0,1024,1024,1677,1024,336.1,-15.8,98,4.129,4.118,4.108,4.119,0,0,17.84,80.51,6,P-GPS,
0.35443270063646,36.9190151281845,5585.1148253772,87.598428,0,0.099484255152,9600,2018-04-16 05:34:53,18,0,16.355,5585.1148253772,87.598428,0.223694,0.325462280756,0,0,-11.408394,336.1, 0, 0.8,0,0,1024,1024,1684,1024,336.1,-15.8,98,4.129,4.118,4.108,4.119,0,0,17.84,80.51,6,P-GPS,
0.354432691182121,36.9190151748204,5586.7552453772,89.238848,0,0.11294783826,9700,2018-04-16 05:34:53,18,0,16.355,5586.7552453772,89.238848,0.223694,0.325462280756,0,0,-11.408394,336.1, 0, 0.9,0,0,1024,1024,1684,1024,336.1,-15.8,98,4.129,4.118,4.108,4.119,0,0,17.84,80.51,6,P-GPS,
0.35443262766222,36.9190152335264,5588.7237493772,91.207352,0,0.126281500104,9800,2018-04-16 05:34:53,18,0,16.355,5588.7237493772,91.207352,0.223694,0.325462280756,0,0,-11.408394,336.1, 0, 0.8,0,0,1024,1024,1684,1024,336.1,-15.8,98,4.129,4.118,4.108,4.119,0,0,17.84,80.51,6,P-GPS,
0.354432593484845,36.9190153004268,5590.3641693772,92.847772,0,0.148808403712,9900,2018-04-16 05:34:53,18,0,16.355,5590.3641693772,92.847772,0.223694,0.325462280756,0,0,-11.408394,336.1, 0, 0.5,0,0,1024,1024,1684,1024,336.1,-15.8,98,4.128,4.116,4.105,4.116,0,0,17.84,80.51,6,P-GPS,
0.354432580369764,36.9190153717918,5592.3326733772,94.816276,0,0.174519034456,10000,2018-04-16 05:34:53,18,0,16.355,5592.3326733772,94.816276,0.223694,0.325462280756,0,0,-11.408394,336.1, 0, 0.3,0,0,1024,1024,1684,1024,336.1,-15.8,98,4.128,4.116,4.105,4.116,0,0,17.84,80.51,6,P-GPS,
0.354432581895209,36.919015443253,5593.9730933772,96.456696,0,0.200593182272,10100,2018-04-16 05:34:53,18,0,16.355,5593.9730933772,96.456696,0.223694,0.325462280756,0,0,-11.408394,336.1, 0.1, 0.2,0,0,1024,1024,1684,1024,336.1,-15.8,98,4.128,4.116,4.105,4.116,0,0,17.84,80.51,6,P-GPS,
0.354432543546574,36.9190154992803,5595.6135133772,98.097116,0,0.220986883712,10200,2018-04-16 05:34:54,18,0,16.355,5595.6135133772,98.097116,0.223694,0.325462280756,0,0,-11.1847,336.1, 0, 0.3,0,0,1024,1024,1684,1024,336.1,-15.8,98,4.128,4.116,4.105,4.116,0,0,17.84,80.51,6,P-GPS,
0.354432512639114,36.9190155607464,5597.5820173772,100.06562,0,0.2439632624,10300,2018-04-16 05:34:54,18,0,16.355,5597.5820173772,100.06562,0.223694,0.325462280756,0,0,-11.1847,336.1, -0.3, 0.2,0,0,1024,1024,1684,1024,336.1,-15.8,98,4.128,4.116,4.105,4.116,0,0,17.84,80.51,6,P-GPS,
0.354432478840759,36.9190156087055,5599.2224373772,101.70604,0,0.262542331236,10400,2018-04-16 05:34:54,18,0,16.355,5599.2224373772,101.70604,0.223694,0.325462280756,0,0,-10.961006,336.1, -0.4, 0.1,0,0,1024,1024,1684,1024,336.1,-15.8,98,4.128,4.116,4.105,4.116,0,0,17.84,80.51,6,P-GPS,
0.354432462024632,36.9190156564142,5601.1909413772,103.674544,0,0.280566610028,10500,2018-04-16 05:34:54,18,0,16.355,5601.1909413772,103.674544,0.223694,0.325462280756,0,0,-11.1847,336.1, -0.5, 0.4,0,0,1024,1024,1684,1024,336.1,-15.8,98,4.128,4.116,4.105,4.116,0,0,17.84,80.51,6,P-GPS,
0.354432415624156,36.919015729794,5602.8313613772,105.314964,0,0.309586295996,10600,2018-04-16 05:34:54,18,0,16.355,5602.8313613772,105.314964,0.223694,0.325462280756,0,0,-11.1847,336.1, -0.5, 0.4,0,0,1024,1024,1684,1024,336.1,-15.8,98,4.128,4.116,4.105,4.116,0,0,17.84,80.51,6,P-GPS,
0.354432394934368,36.9190157996922,5604.4717813772,106.955384,0,0.33602035196,10700,2018-04-16 05:34:54,18,0,16.355,5604.4717813772,106.955384,0.223694,0.33602035196,0,0,-11.1847,336.1, -0.4, 0.4,0,0,1024,1024,1684,1024,336.1,-15.8,98,4.128,4.116,4.105,4.116,0,0,17.84,80.51,6,P-GPS,
0.354432393443935,36.9190158624344,5606.4402853772,108.923888,0,0.35865158628,10800,2018-04-16 05:34:54,18,0,16.355,5606.4402853772,108.923888,0.223694,0.35865158628,0,0,-11.1847,336.1, -0.2, 0.1,0,0,1024,1024,1684,1024,336.1,-15.8,98,4.128,4.116,4.105,4.116,0,0,17.84,80.51,6,P-GPS,
0.35443240911038,36.9190159262194,5608.0807053772,110.564308,0,0.3807250778,10900,2018-04-16 05:34:54,18,0,16.355,5608.0807053772,110.564308,0.223694,0.3807250778,0,0,-11.1847,336.1, -0.1, -0.1,0,0,1024,1024,1684,1024,336.1,-15.8,98,4.13,4.118,4.108,4.119,0,0,16.788,80.51,6,P-GPS,
0.354432423102378,36.9190160171358,5610.0492093772,112.532812,0,0.41291667988,11000,2018-04-16 05:34:54,18,0,16.355,5610.0492093772,112.532812,0.223694,0.41291667988,0,0,-11.1847,336.1, 0, -0.2,0,0,1024,1024,1684,1024,336.1,-15.8,98,4.13,4.118,4.108,4.119,0,0,16.788,80.51,6,P-GPS,
0.354432443529987,36.9190160893251,5611.6896293772,114.173232,0,0.43827429224,11100,2018-04-16 05:34:54,18,0,16.355,5611.6896293772,114.173232,0.223694,0.43827429224,0,0,-11.1847,336.1, 0, -0.2,0,0,1024,1024,1684,1024,336.1,-15.8,98,4.13,4.118,4.108,4.119,0,0,16.788,80.51,6,P-GPS,
0.354432449276358,36.9190161362244,5613.6581333772,116.141736,0,0.45511484396,11200,2018-04-16 05:34:55,18,0,16.355,5613.6581333772,116.141736,0.223694,0.45511484396,0,0,-11.1847,336.1, 0, -0.1,0,0,1024,1024,1684,1024,336.1,-15.8,98,4.13,4.118,4.108,4.119,0,0,16.788,80.51,6,P-GPS,
0.354432460960037,36.919016176064,5615.2985533772,117.782156,0,0.46923886016,11300,2018-04-16 05:34:55,18,0,16.355,5615.2985533772,117.782156,0.223694,0.46923886016,0,0,-11.1847,336, 0, 0.2,0,0,1024,1024,1684,1024,336.1,-15.8,98,4.13,4.118,4.108,4.119,0,0,16.788,80.51,6,P-GPS,
0.35443245201133,36.9190162517199,5616.9389733772,119.422576,0,0.4970144516,11400,2018-04-16 05:34:55,18,0,16.355,5616.9389733772,119.422576,0.223694,0.4970144516,0,0,-11.1847,336, -0.2, 0.4,0,0,1024,1024,1684,1024,336.1,-15.8,98,4.13,4.118,4.108,4.119,0,0,16.788,80.51,6,P-GPS,
0.354432462146765,36.9190163231127,5618.9074773772,121.39108,0,0.52271327132,11500,2018-04-16 05:34:55,18,0,16.355,5618.9074773772,121.39108,0.223694,0.52271327132,0,0,-11.1847,336, -0.2, -0.1,0,0,1024,1024,1684,1024,336.1,-15.8,98,4.13,4.118,4.108,4.119,0,0,16.788,80.51,6,P-GPS,
0.354432504546969,36.9190163856301,5620.5478973772,123.0315,0,0.54466209092,11600,2018-04-16 05:34:55,18,0,16.355,5620.5478973772,123.0315,0.223694,0.54466209092,0,0,-11.1847,336, 0, -0.3,0,0,1024,1024,1684,1024,336.1,-15.8,98,4.13,4.118,4.108,4.119,0,0,16.788,80.51,6,P-GPS,
0.354432549548612,36.9190164220245,5622.1883173772,124.67192,0,0.55756563464,11700,2018-04-16 05:34:55,18,0,16.355,5622.1883173772,124.67192,0.223694,0.55756563464,0,0,-10.961006,336.1, 0.2, 0,0,0,1024,1024,1684,1024,336.1,-15.8,98,4.13,4.118,4.108,4.119,0,0,16.788,80.51,6,P-GPS,
0.35443261235729,36.9190164522308,5624.1568213772,126.640424,0,0.56887469012,11800,2018-04-16 05:34:55,18,0,16.355,5624.1568213772,126.640424,0.223694,0.56887469012,0,0,-11.1847,336.1, 0.4, 0.4,0,0,1024,1024,1684,1024,336.1,-15.8,98,4.13,4.118,4.108,4.119,0,0,16.788,80.51,6,P-GPS,
0.354432670264758,36.9190164831308,5625.7972413772,128.280844,0,0.58120736768,11900,2018-04-16 05:34:55,18,0,16.355,5625.7972413772,128.280844,0.223694,0.58120736768,0,0,-10.961006,336.1, 0.6, 0.3,0,0,1024,1024,1684,1024,336.1,-15.8,98,4.128,4.118,4.104,4.112,0,0,16.704,80.51,6,P-GPS,
0.354432682828611,36.9190164951923,5627.4376613772,129.921264,0,0.5859252156,12000,2018-04-16 05:34:55,18,0,16.355,5627.4376613772,129.921264,0.223694,0.5859252156,0,0,-11.1847,336.1, 0.4, 0.2,0,0,1024,1024,1684,1024,336.1,-15.8,98,4.128,4.118,4.104,4.112,0,0,16.704,80.51,6,P-GPS,
0.354432693360979,36.9190165156303,5629.4061653772,131.889768,0,0.59366143632,12100,2018-04-16 05:34:55,18,0,16.355,5629.4061653772,131.889768,0.223694,0.59366143632,0,0,-11.1847,336.1, 0.2, 0.1,0,0,1024,1024,1684,1024,336.1,-15.8,98,4.128,4.118,4.104,4.112,0,0,16.704,80.51,6,P-GPS,
0.354432706177648,36.919016561187,5631.0465853772,133.530188,0,0.61061681744,12200,2018-04-16 05:34:56,18,0,16.355,5631.0465853772,133.530188,0.223694,0.61061681744,0,0,-11.1847,336.1, -0.1, 0.2,0,0,1024,1024,1684,1024,336.1,-15.8,98,4.128,4.118,4.104,4.112,0,0,16.704,80.51,6,P-GPS,
0.354432725497507,36.9190166047417,5632.6870053772,135.170608,0,0.6270833534,12300,2018-04-16 05:34:56,18,0,16.355,5632.6870053772,135.170608,0.223694,0.6270833534,0,0,-11.1847,336, -0.3, 0.1,0,0,1024,1024,1684,1024,336.1,-15.8,98,4.128,4.118,4.104,4.112,0,0,16.704,80.51,6,P-GPS,
0.354432734451914,36.9190166616255,5634.6555093772,137.139112,0,0.64805448268,12400,2018-04-16 05:34:56,18,0,16.355,5634.6555093772,137.139112,0.223694,0.64805448268,0,0,-10.961006,336, -0.4, 0,0,0,1024,1024,1684,1024,336.1,-15.8,98,4.128,4.118,4.104,4.112,0,0,16.704,80.51,6,P-GPS,
0.354432766957284,36.9190167015444,5636.2959293772,138.779532,0,0.66378611048,12500,2018-04-16 05:34:56,18,0,16.355,5636.2959293772,138.779532,0.223694,0.66378611048,0,0,-10.961006,336.1, -0.2, -0.2,0,0,1024,1024,1684,1024,336.1,-15.8,98,4.128,4.118,4.104,4.112,0,0,16.704,80.51,6,P-GPS,
0.354432838506228,36.9190167362644,5637.9363493772,140.419952,0,0.67976708212,12600,2018-04-16 05:34:56,18,0,16.355,5637.9363493772,140.419952,0.223694,0.67976708212,0,0,-10.961006,336, 0, -0.1,0,0,1024,1024,1684,1024,336.1,-15.8,98,4.128,4.118,4.104,4.112,0,0,16.704,80.51,6,P-GPS,
0.354432919599482,36.9190167530216,5639.5767693772,142.060372,0,0.6907972662,12700,2018-04-16 05:34:56,18,0,16.355,5639.5767693772,142.060372,0.223694,0.6907972662,0,0,-10.961006,336.1, 0.5, 0,0,0,1024,1024,1684,1024,336.1,-15.8,98,4.128,4.118,4.104,4.112,0,0,16.704,80.51,6,P-GPS,
0.354433016414956,36.9190167377183,5641.2171893772,143.700792,0,0.69292325052,12800,2018-04-16 05:34:56,18,0,16.355,5641.2171893772,143.700792,0.223694,0.69292325052,0,0,-11.1847,336.1, 1, 0.1,0,0,1024,1024,1684,1024,336.1,-15.8,98,4.128,4.118,4.104,4.112,0,0,16.566,80.51,6,P-GPS,
0.354433183192048,36.9190167207426,5644.8261133772,147.309716,0,0.7041010724,13000,2018-04-16 05:34:56,18,0,16.355,5644.8261133772,147.309716,0.223694,0.7041010724,0,0,-11.1847,336.1, 1.7, 0,0,0,1024,1024,1684,1024,336.1,-15.8,98,4.128,4.118,4.104,4.112,0,0,16.566,80.51,6,P-GPS,
0.354433238770028,36.9190167246075,5646.4665333772,148.950136,0,0.71221787056,13100,2018-04-16 05:34:57,18,0,16.355,5646.4665333772,148.950136,0.223694,0.71221787056,0,0,-10.961006,336.1, 1.5, 0,0,0,1024,1024,1684,1024,336.1,-15.8,98,4.128,4.118,4.104,4.112,0,0,16.566,80.51,6,P-GPS,
0.354433246889856,36.919016736956,5648.1069533772,150.590556,0,0.71747377624,13200,2018-04-16 05:34:57,18,0,16.355,5648.1069533772,150.590556,0.223694,0.71747377624,0,0,-10.961006,336.1, 1.3, 0,0,0,1024,1024,1684,1024,336.1,-15.8,98,4.128,4.118,4.104,4.112,0,0,16.566,80.51,6,P-GPS,
0.354433276608145,36.9190167722862,5651.3877933772,153.871396,0,0.73335632268,13400,2018-04-16 05:34:57,18,0,16.355,5651.3877933772,153.871396,0.223694,0.73335632268,0,0,-10.961006,336.1, 0.5, -0.2,0,0,1024,1024,1684,1024,336.1,-15.8,98,4.128,4.118,4.104,4.112,0,0,16.566,80.51,6,P-GPS,
0.35443329792122,36.9190167856839,5653.3562973772,155.8399,0,0.74071196596,13500,2018-04-16 05:34:57,18,0,16.355,5653.3562973772,155.8399,0.223694,0.74071196596,0,0,-10.961006,336.1, 0.6, -0.2,0,0,1024,1024,1684,1024,336.1,-15.8,98,4.128,4.118,4.104,4.112,0,0,16.566,80.51,6,P-GPS,
0.354433290661617,36.9190167772988,5654.9967173772,157.48032,0,0.73690291072,13600,2018-04-16 05:34:57,18,0,16.355,5654.9967173772,157.48032,0.223694,0.74071196596,0,0,-10.961006,336.1, 0.3, 0,0,0,1024,1024,1684,1024,336.1,-15.8,98,4.128,4.118,4.104,4.112,0,0,16.566,80.51,6,P-GPS,
0.354433288795013,36.9190167708216,5656.6371373772,159.12074,0,0.73445212324,13700,2018-04-16 05:34:57,18,0,16.355,5656.6371373772,159.12074,0.223694,0.74071196596,0,0,-10.961006,336.1, 0, 0,0,0,1024,1024,1684,1024,336.1,-15.8,98,4.128,4.118,4.104,4.112,0,0,16.566,80.51,6,P-GPS,
0.354433285678578,36.9190167847139,5658.2775573772,160.76116,0,0.73877298952,13800,2018-04-16 05:34:57,18,0,16.355,5658.2775573772,160.76116,0.223694,0.74071196596,0,0,-11.1847,336, 0.3, 0,0,0,1024,1024,1684,1024,336.1,-15.8,98,4.128,4.118,4.104,4.112,0,0,16.566,80.51,6,P-GPS,
0.354433297628507,36.919016787763,5660.2460613772,162.729664,0,0.74138125732,13900,2018-04-16 05:34:57,18,0,16.328,5660.2460613772,162.729664,0.223694,0.74138125732,0,0,-11.1847,336.1, 0.8, 0.1,0,0,1024,1024,1684,1024,336.1,-15.8,98,4.125,4.112,4.099,4.11,0,0,16.566,80.51,6,P-GPS,
0.35443334283452,36.9190167832471,5661.8864813772,164.370084,0,0.74599411836,14000,2018-04-16 05:34:57,18,0,16.328,5661.8864813772,164.370084,0.223694,0.74599411836,0,0,-11.1847,336.1, 1.2, 0.3,0,0,1024,1024,1684,1024,336.1,-15.8,98,4.125,4.112,4.099,4.11,0,0,16.566,80.51,6,P-GPS,
0.354433373915002,36.9190167853348,5663.5269013772,166.010504,0,0.75110238624,14100,2018-04-16 05:34:57,18,0,16.328,5663.5269013772,166.010504,0.223694,0.75110238624,0,0,-11.1847,336.1, 1.1, 0.3,0,0,1024,1024,1684,1024,336.1,-15.8,98,4.125,4.112,4.099,4.11,0,0,16.566,80.51,6,P-GPS,
0.354433379238793,36.9190167961223,5665.1673213772,167.650924,0,0.75548558848,14200,2018-04-16 05:34:58,18,0,16.328,5665.1673213772,167.650924,0.223694,0.75548558848,0,0,-11.1847,336.1, 0.9, 0.1,0,0,1024,1024,1684,1024,336.1,-15.8,98,4.125,4.112,4.099,4.11,0,0,16.566,80.51,6,P-GPS,
0.354433380759759,36.9190168047857,5666.8077413772,169.291344,0,0.75860566732,14300,2018-04-16 05:34:58,18,0,16.328,5666.8077413772,169.291344,0.223694,0.75860566732,0,0,-11.1847,336.1, 0.8, 0.2,0,0,1024,1024,1684,1024,336.1,-15.8,98,4.125,4.112,4.099,4.11,0,0,16.566,80.51,6,P-GPS,
0.354433403971193,36.9190168099611,5668.7762453772,171.259848,0,0.7637139352,14400,2018-04-16 05:34:58,18,0,16.328,5668.7762453772,171.259848,0.223694,0.7637139352,0,0,-10.961006,336.1, 0.8, 0.3,0,0,1024,1024,1684,1024,336.1,-15.8,98,4.125,4.112,4.099,4.11,0,0,16.566,80.51,6,P-GPS,
0.35443341906463,36.9190168159073,5670.4166653772,172.900268,0,0.76792653376,14500,2018-04-16 05:34:58,18,0,16.328,5670.4166653772,172.900268,0.223694,0.76792653376,0,0,-11.1847,336.1, 0.9, 0.3,0,0,1024,1024,1684,1024,336.1,-15.8,98,4.125,4.112,4.099,4.11,0,0,16.566,80.51,6,P-GPS,
0.354433420864467,36.9190168212218,5672.0570853772,174.540688,0,0.7699639354,14600,2018-04-16 05:34:58,18,0,16.328,5672.0570853772,174.540688,0.223694,0.7699639354,0,0,-11.1847,336.1, 0.8, 0.4,0,0,1024,1024,1684,1024,336.1,-15.8,98,4.125,4.112,4.099,4.11,0,0,16.566,80.51,6,P-GPS,
0.354433414453487,36.9190168320157,5673.6975053772,176.181108,0,0.77261813496,14700,2018-04-16 05:34:58,18,0,16.328,5673.6975053772,176.181108,0.223694,0.77261813496,0,0,-10.961006,336.1, 0.6, 0.5,0,0,1024,1024,1684,1024,336.1,-15.8,98,4.125,4.112,4.099,4.11,0,0,16.566,80.51,6,P-GPS,
0.354433361693937,36.9190168469122,5675.3379253772,177.821528,0,0.77009188816,14800,2018-04-16 05:34:58,18,0,16.328,5675.3379253772,177.821528,0.223694,0.77261813496,0,0,-10.961006,336.1, 0.4, 0.4,0,0,1024,1024,1684,1024,336.1,-15.8,98,4.125,4.112,4.099,4.11,0,0,16.566,80.51,6,P-GPS,
0.354433317321688,36.9190168699882,5676.9783453772,179.461948,0,0.77195540528,14900,2018-04-16 05:34:58,18,0,16.328,5676.9783453772,179.461948,0.223694,0.77261813496,0,0,-10.961006,336.1, 0.3, 0.2,0,0,1024,1024,1684,1024,336.1,-15.8,98,4.117,4.106,4.093,4.103,0,0,16.978,80.51,6,P-GPS,
0.354433283413413,36.9190168838676,5678.9468493772,181.430452,0,0.77238191448,15000,2018-04-16 05:34:58,18,0,16.328,5678.9468493772,181.430452,0.223694,0.77261813496,0,0,-11.1847,336.1, 0.3, 0.2,0,0,1024,1024,1684,1024,336.1,-15.8,98,4.117,4.106,4.093,4.103,0,0,16.978,80.51,6,P-GPS,
0.354433250612072,36.9190169016676,5680.5872693772,183.070872,0,0.77452102216,15100,2018-04-16 05:34:59,18,0,16.328,5680.5872693772,183.070872,0.223694,0.77452102216,0,0,-11.1847,336.1, 0.1, 0.3,0,0,1024,1024,1684,1024,336.1,-15.8,98,4.117,4.106,4.093,4.103,0,0,16.978,80.51,6,P-GPS,
0.354433197125015,36.9190169064254,5682.2276893772,184.711292,0,0.77005907976,15200,2018-04-16 05:34:59,18,0,16.328,5682.2276893772,184.711292,0.223694,0.77452102216,0,0,-10.961006,336.1, 0, 0.2,0,0,1024,1024,1684,1024,336.1,-15.8,98,4.117,4.106,4.093,4.103,0,0,16.978,80.51,6,P-GPS,
0.354433153742453,36.919016922005,5683.8681093772,186.351712,0,0.77089241312,15300,2018-04-16 05:34:59,18,0,16.328,5683.8681093772,186.351712,0.223694,0.77452102216,0,0,-10.961006,336.1, -0.1, 0.2,0,0,1024,1024,1684,1024,336.1,-15.8,98,4.117,4.106,4.093,4.103,0,0,16.978,80.51,6,P-GPS,
0.35443310032664,36.9190169202578,5685.5085293772,187.992132,0,0.76503939456,15400,2018-04-16 05:34:59,18,0,16.328,5685.5085293772,187.992132,0.223694,0.77452102216,0,0,-10.961006,336.1, -0.1, 0.1,0,0,1024,1024,1684,1024,336.1,-15.9,98,4.117,4.106,4.093,4.103,0,0,16.978,80.51,6,P-GPS,
0.354433061787477,36.9190169239985,5687.1489493772,189.632552,0,0.76287075932,15500,2018-04-16 05:34:59,18,0,16.328,5687.1489493772,189.632552,0.223694,0.77452102216,0,0,-11.1847,336.1, 0, 0,0,0,1024,1024,1684,1024,336.1,-15.9,98,4.117,4.106,4.093,4.103,0,0,16.978,80.51,6,P-GPS,
0.354433015349954,36.9190169454214,5688.7893693772,191.272972,0,0.76662404028,15600,2018-04-16 05:34:59,18,0,16.328,5688.7893693772,191.272972,0.223694,0.77452102216,0,0,-10.961006,336.1, 0, 0.1,0,0,1024,1024,1684,1024,336.1,-15.9,98,4.117,4.106,4.093,4.103,0,0,16.978,80.51,6,P-GPS,
0.35443298230394,36.9190169644013,5690.4297893772,192.913392,0,0.77089241312,15700,2018-04-16 05:34:59,18,0,16.328,5690.4297893772,192.913392,0.223694,0.77452102216,0,0,-10.961006,336.1, 0.2, 0.1,0,0,1024,1024,1684,1024,336.1,-15.9,98,4.117,4.106,4.093,4.103,0,0,16.978,80.51,6,P-GPS,
0.3544329708572,36.9190169648573,5692.3982933772,194.881896,0,0.77023624512,15800,2018-04-16 05:34:59,18,0,16.328,5692.3982933772,194.881896,0.223694,0.77452102216,0,0,-11.1847,336.1, 0.2, 0.1,0,0,1024,1024,1684,1024,336.1,-15.9,98,4.117,4.106,4.093,4.103,0,0,16.978,80.51,6,P-GPS,
0.354432957931019,36.9190169667909,5694.0387133772,196.522316,0,0.77002627136,15900,2018-04-16 05:34:59,18,0,16.274,5694.0387133772,196.522316,0.223694,0.77452102216,0,0,-10.961006,336.1, 0.1, 0.1,0,0,1024,1024,1684,1024,336.1,-16.2,98,4.114,4.101,4.088,4.098,0,0,17.13,80.51,6,P-GPS,
0.354432885428214,36.9190170300577,5697.3195533772,199.803156,0,0.78831039268,16100,2018-04-16 05:34:59,18,0,16.274,5697.3195533772,199.803156,0.223694,0.78831039268,0,0,-10.961006,336.1, 0, 0.3,0,0,1024,1024,1684,1024,336.1,-16.4,98,4.114,4.101,4.088,4.098,0,0,17.13,80.51,6,P-GPS,
0.354432836745473,36.9190170558937,5698.9599733772,201.443576,0,0.79519031416,16200,2018-04-16 05:35:00,18,0,16.274,5698.9599733772,201.443576,0.223694,0.79519031416,0,0,-10.961006,336.1, 0, 0.1,0,0,1024,1024,1684,1024,336.1,-16.7,98,4.114,4.101,4.088,4.098,0,0,17.13,80.51,6,P-GPS,
0.354432801693216,36.9190170823464,5700.6003933772,203.083996,0,0.80326774224,16300,2018-04-16 05:35:00,18,0,16.274,5700.6003933772,203.083996,0.223694,0.80326774224,0,0,-10.961006,336.1, 0, 0,0,0,1024,1024,1684,1024,336.1,-17,98,4.114,4.101,4.088,4.098,0,0,17.13,80.51,6,P-GPS,
0.354432743814245,36.9190170908257,5702.2408133772,204.724416,0,0.80431761104,16400,2018-04-16 05:35:00,18,0,16.274,5702.2408133772,204.724416,0.223694,0.80431761104,0,0,-10.961006,336.1, -0.1, 0,0,0,1024,1024,1684,1024,336.1,-17.4,98,4.114,4.101,4.088,4.098,0,0,17.13,80.51,6,P-GPS,
0.354432697789533,36.9190170988017,5703.8812333772,206.364836,0,0.80600724364,16500,2018-04-16 05:35:00,18,0,16.274,5703.8812333772,206.364836,0.223694,0.80600724364,0,0,-11.1847,336.1, -0.1, 0,0,0,1024,1024,1684,1024,336.1,-17.4,98,4.114,4.101,4.088,4.098,0,0,17.13,80.51,6,P-GPS,
0.354432633568994,36.9190171288367,5705.8497373772,208.33334,0,0.81584976364,16600,2018-04-16 05:35:00,18,0,16.274,5705.8497373772,208.33334,0.223694,0.81584976364,0,0,-11.1847,336.1, 0, 0.1,0,0,1024,1024,1684,1024,336.1,-17.7,98,4.114,4.101,4.088,4.098,0,0,17.13,80.51,6,P-GPS,
0.354432583116135,36.9190171603363,5707.4901573772,209.97376,0,0.82695540704,16700,2018-04-16 05:35:00,18,0,16.274,5707.4901573772,209.97376,0.223694,0.82695540704,0,0,-11.1847,336.1, -0.1, 0,0,0,1024,1024,1684,1024,336.1,-18.1,98,4.114,4.101,4.088,4.098,0,0,17.13,80.51,6,P-GPS,
0.354432559726387,36.9190172162737,5709.1305773772,211.61418,0,0.8473261426,16800,2018-04-16 05:35:00,18,0,16.274,5709.1305773772,211.61418,0.223694,0.8473261426,0,0,-11.1847,336.1, -0.2, 0,0,0,1024,1024,1684,1024,336.1,-18.3,98,4.114,4.101,4.088,4.098,0,0,17.13,80.51,6,P-GPS,
0.354432541292401,36.919017262764,5710.7709973772,213.2546,0,0.86431761296,16900,2018-04-16 05:35:00,18,0,16.274,5710.7709973772,213.2546,0.223694,0.86431761296,0,0,-10.961006,336.1, -0.2, 0,0,0,1024,1024,1684,1024,336.1,-18.3,98,4.114,4.101,4.088,4.098,0,0,17.13,80.51,6,P-GPS,
0.354432505055043,36.9190172837116,5712.4114173772,214.89502,0,0.87216866308,17000,2018-04-16 05:35:00,18,0,16.274,5712.4114173772,214.89502,0.223694,0.87216866308,0,0,-10.961006,336, -0.2, 0,0,0,1024,1024,1684,1024,336.1,-18.3,98,4.114,4.101,4.088,4.098,0,0,17.13,80.51,6,P-GPS,
0.354432477467167,36.9190173031218,5714.0518373772,216.53544,0,0.87954071056,17100,2018-04-16 05:35:01,18,0,16.274,5714.0518373772,216.53544,0.223694,0.87954071056,0,0,-10.961006,336, -0.2, 0,0,0,1024,1024,1684,1024,336.1,-18.3,98,4.114,4.101,4.088,4.098,0,0,17.13,80.51,6,P-GPS,
0.354432472410441,36.9190173375056,5715.6922573772,218.17586,0,0.892142417,17200,2018-04-16 05:35:01,18,0,16.274,5715.6922573772,218.17586,0.223694,0.892142417,0,0,-10.961006,336, -0.3, 0,0,0,1024,1024,1684,1024,336.1,-18.3,98,4.114,4.101,4.088,4.098,0,0,17.13,80.51,6,P-GPS,
0.354432470981074,36.9190173644015,5717.3326773772,219.81628,0,0.9019685328,17300,2018-04-16 05:35:01,18,0,16.274,5717.3326773772,219.81628,0.223694,0.9019685328,0,0,-10.961006,336, -0.3, 0,0,0,1024,1024,1684,1024,336.1,-18.3,98,4.114,4.101,4.088,4.098,0,0,17.13,80.51,6,P-GPS,
0.354432449874811,36.9190173648705,5718.9730973772,221.4567,0,0.90245409712,17400,2018-04-16 05:35:01,18,0,16.274,5718.9730973772,221.4567,0.223694,0.90245409712,0,0,-11.1847,336.1, -0.2, 0,0,0,1024,1024,1684,1024,336.1,-18.3,98,4.114,4.101,4.088,4.098,0,0,17.13,80.51,6,P-GPS,
0.354432439415316,36.9190173643737,5720.9416013772,223.425204,0,0.90245409712,17500,2018-04-16 05:35:01,18,0,16.274,5720.9416013772,223.425204,0.223694,0.90245409712,0,0,-11.1847,336.1, 0, 0.2,0,0,1024,1024,1684,1024,336.1,-18.3,98,4.114,4.101,4.088,4.098,0,0,17.13,80.51,6,P-GPS,
0.354432438786736,36.9190173945093,5722.5820213772,225.065624,0,0.91344491112,17600,2018-04-16 05:35:01,18,0,16.274,5722.5820213772,225.065624,0.223694,0.91344491112,0,0,-10.961006,336.1, 0, 0,0,0,1024,1024,1684,1024,336.1,-18.3,98,4.114,4.101,4.088,4.098,0,0,17.13,80.51,6,P-GPS,
0.354432439621721,36.9190174254115,5724.2224413772,226.706044,0,0.92469163064,17700,2018-04-16 05:35:01,18,0,16.274,5724.2224413772,226.706044,0.223694,0.92469163064,0,0,-10.961006,336.1, -0.1, -0.1,0,0,1024,1024,1684,1024,336.1,-18.4,98,4.114,4.101,4.088,4.098,0,0,17.13,80.51,6,P-GPS,
0.354432438589695,36.9190174462349,5725.8628613772,228.346464,0,0.9322998986,17800,2018-04-16 05:35:01,17,0,16.274,5725.8628613772,228.346464,0.223694,0.9322998986,0,0,-11.1847,336.1, -0.3, -0.3,0,0,1024,1024,1684,1024,336.1,-18.5,98,4.114,4.101,4.088,4.098,0,0,17.13,80.51,6,P-GPS,
0.354432439464576,36.9190174598167,5727.5032813772,229.986884,0,0.93723428196,17900,2018-04-16 05:35:01,17,0,16.274,5727.5032813772,229.986884,0.223694,0.93723428196,0,0,-10.961006,336.1, -0.3, -0.1,0,0,1024,1024,1684,1024,336.1,-18.5,98,4.114,4.101,4.088,4.098,0,0,17.13,80.51,6,P-GPS,
0.354432402820108,36.9190174919287,5729.1437013772,231.627304,0,0.9496555422,18000,2018-04-16 05:35:01,18,0,16.274,5729.1437013772,231.627304,0.223694,0.9496555422,0,0,-10.961006,336.1, -0.3, 0.2,0,0,1024,1024,1684,1024,336.1,-18.6,98,4.114,4.101,4.088,4.098,0,0,17.13,80.51,6,P-GPS,
0.3544323853925,36.9190175181159,5730.7841213772,233.267724,0,0.9595964874,18100,2018-04-16 05:35:01,18,0,16.274,5730.7841213772,233.267724,0.223694,0.9595964874,0,0,-11.1847,336.1, -0.4, 0.4,0,0,1024,1024,1684,1024,336.1,-18.8,98,4.114,4.101,4.088,4.098,0,0,17.13,80.51,6,P-GPS,
0.354432388781699,36.9190175361364,5732.4245413772,234.908144,0,0.9660761464,18200,2018-04-16 05:35:02,18,0,16.274,5732.4245413772,234.908144,0.223694,0.9660761464,0,0,-11.1847,336.1, -0.2, 0.2,0,0,1024,1024,1684,1024,336.1,-18.9,98,4.114,4.101,4.088,4.098,0,0,17.13,80.51,6,P-GPS,
0.354432413867879,36.9190175550306,5734.0649613772,236.548564,0,0.97240488676,18300,2018-04-16 05:35:02,18,0,16.274,5734.0649613772,236.548564,0.223694,0.97240488676,0,0,-11.1847,336, 0, 0,0,0,1024,1024,1684,1024,336.1,-19.1,98,4.114,4.101,4.088,4.098,0,0,17.13,80.51,6,P-GPS,
0.354432483275419,36.9190175657239,5735.7053813772,238.188984,0,0.97523297084,18400,2018-04-16 05:35:02,18,0,16.274,5735.7053813772,238.188984,0.223694,0.97523297084,0,0,-10.961006,336.1, 0, -0.3,0,0,1024,1024,1684,1024,336.1,-19.2,98,4.114,4.101,4.088,4.098,0,0,17.13,80.51,6,P-GPS,
0.354432555492839,36.9190175701241,5737.3458013772,239.829404,0,0.9764271966,18500,2018-04-16 05:35:02,18,0,16.274,5737.3458013772,239.829404,0.223694,0.9764271966,0,0,-10.961006,336.1, 0.2, -0.4,0,0,1024,1024,1684,1024,336.1,-19.5,98,4.114,4.101,4.088,4.098,0,0,17.13,80.51,6,P-GPS,
0.35443260519865,36.919017590273,5738.9862213772,241.469824,0,0.9839075118,18600,2018-04-16 05:35:02,18,0,16.274,5738.9862213772,241.469824,0.223694,0.9839075118,0,0,-10.961006,336, 0.5, -0.5,0,0,1024,1024,1684,1024,336.1,-19.8,98,4.114,4.101,4.088,4.098,0,0,17.13,80.51,6,P-GPS,
0.354432656627354,36.9190175973605,5740.6266413772,243.110244,0,0.9869750972,18700,2018-04-16 05:35:02,18,0,16.274,5740.6266413772,243.110244,0.223694,0.9869750972,0,0,-10.961006,336.1, 0.7, -0.3,0,0,1024,1024,1684,1024,336.1,-20.3,98,4.114,4.101,4.088,4.098,0,0,17.13,80.51,6,P-GPS,
0.354432739522074,36.9190175927697,5742.2670613772,244.750664,0,0.98683402108,18800,2018-04-16 05:35:02,18,0,16.274,5742.2670613772,244.750664,0.223694,0.9869750972,0,0,-10.961006,336.1, 0.8, -0.2,0,0,1024,1024,1684,1024,336.1,-21,98,4.114,4.101,4.088,4.098,0,0,17.13,80.51,6,P-GPS,
0.354432810042248,36.9190175866822,5743.9074813772,246.391084,0,0.98665029404,18900,2018-04-16 05:35:02,18,0,16.301,5743.9074813772,246.391084,0.223694,0.9869750972,0,0,-10.961006,336.1, 0.8, -0.3,0,0,1024,1024,1684,1024,336.1,-21.8,97,4.108,4.096,4.084,4.093,0,0,16.852,80.51,6,P-GPS,
0.35443286352442,36.9190176179505,5745.5479013772,248.031504,0,0.99997378528,19000,2018-04-16 05:35:02,18,0,16.301,5745.5479013772,248.031504,0.223694,0.99997378528,0,0,-11.1847,336.1, 1, -0.1,0,0,1024,1024,1684,1024,336.1,-22.6,97,4.108,4.096,4.084,4.093,0,0,16.852,80.51,6,P-GPS,
0.354432907854737,36.9190176388103,5747.1883213772,249.671924,0,1.00943572784,19100,2018-04-16 05:35:03,18,0,16.301,5747.1883213772,249.671924,0.223694,1.00943572784,0,0,-10.961006,336.1, 0.9, 0,0,0,1024,1024,1684,1024,336.1,-23.1,97,4.108,4.096,4.084,4.093,0,0,16.852,80.51,6,P-GPS,
0.354432901000209,36.9190176673464,5749.1568253772,251.640428,0,1.01945869404,19200,2018-04-16 05:35:03,18,0,16.301,5749.1568253772,251.640428,0.223694,1.01945869404,0,0,-11.1847,336.1, 0.7, 0,0,0,1024,1024,1684,1024,336.1,-23.3,97,4.108,4.096,4.084,4.093,0,0,16.852,80.51,6,P-GPS,
0.354432904001432,36.9190176993877,5750.7972453772,253.280848,0,1.03119753956,19300,2018-04-16 05:35:03,18,0,16.301,5750.7972453772,253.280848,0.223694,1.03119753956,0,0,-11.1847,336.1, 0.6, 0,0,0,1024,1024,1684,1024,336.1,-23.4,97,4.108,4.096,4.084,4.093,0,0,16.852,80.51,6,P-GPS,
0.354432916837234,36.9190177393709,5752.4376653772,254.921268,0,1.04624675264,19400,2018-04-16 05:35:03,18,0,16.301,5752.4376653772,254.921268,0.223694,1.04624675264,0,0,-11.1847,336.1, 0.5, -0.2,0,0,1024,1024,1684,1024,336.1,-23.4,97,4.108,4.096,4.084,4.093,0,0,16.852,80.51,6,P-GPS,
0.354432929557825,36.9190177811654,5754.0780853772,256.561688,0,1.0619586954,19500,2018-04-16 05:35:03,18,0,16.301,5754.0780853772,256.561688,0.223694,1.0619586954,0,0,-11.1847,336.1, 0.5, -0.3,0,0,1024,1024,1655,1024,336.1,-23.4,97,4.108,4.096,4.084,4.093,0,0,16.852,80.51,6,P-GPS,
0.35443291694064,36.9190178489331,5755.7185053772,258.202108,0,1.08592851244,19600,2018-04-16 05:35:03,18,0,16.301,5755.7185053772,258.202108,0.223694,1.08592851244,0,0,-11.1847,336.1, 0.3, -0.4,0,0,1024,1024,1646,1024,336.1,-23.4,97,4.108,4.096,4.084,4.093,0,0,16.852,80.51,6,P-GPS,
0.354432910432564,36.9190179119173,5757.3589253772,259.842528,0,1.10847116408,19700,2018-04-16 05:35:03,18,0,16.301,5757.3589253772,259.842528,0.223694,1.10847116408,0,0,-11.1847,336.1, 0.2, -0.7,0,0,1024,1024,1631,1024,336.1,-23.4,97,4.108,4.096,4.084,4.093,0,0,16.852,80.51,6,P-GPS,
0.354432893947418,36.9190179807684,5758.9993453772,261.482948,0,1.13276906512,19800,2018-04-16 05:35:03,18,0,16.301,5758.9993453772,261.482948,0.223694,1.13276906512,0,0,-10.737312,336.1, 0.3, -0.7,0,0,1024,1024,1614,1024,336.1,-23.4,97,4.108,4.096,4.084,4.093,0,0,16.852,80.51,6,P-GPS,
0.354432883041729,36.9190180372304,5760.6397653772,263.123368,0,1.1528379634,19900,2018-04-16 05:35:03,18,0,16.248,5760.6397653772,263.123368,0.223694,1.1528379634,0,0,-10.513618,336, 0.7, -0.5,0,0,1024,1024,1581,1024,336.1,-23.4,97,4.104,4.09,4.077,4.084,0,0,17.274,80.51,6,P-GPS,
0.354432856147569,36.9190181011502,5762.2801853772,264.763788,0,1.17510174364,20000,2018-04-16 05:35:03,18,0,16.248,5762.2801853772,264.763788,0.223694,1.17510174364,0,0,-10.06623,336, 0.3, -0.4,0,0,1024,1024,1576,1024,336.1,-23.4,97,4.104,4.09,4.077,4.084,0,0,17.274,80.51,6,P-GPS,
0.354432826760262,36.919018173817,5763.5925213772,266.076124,0,1.2005905896,20100,2018-04-16 05:35:03,18,0,16.248,5763.5925213772,266.076124,0.223694,1.2005905896,0,0,-9.618842,336.1, -0.3, -0.7,0,0,1024,1024,1578,1024,336.1,-23.4,97,4.104,4.09,4.077,4.084,0,0,17.274,80.51,6,P-GPS,
0.354432800784951,36.9190182088967,5764.9048573772,267.38846,0,1.21262799156,20200,2018-04-16 05:35:04,18,0,16.248,5764.9048573772,267.38846,0.223694,1.21262799156,0,0,-9.171454,336.1, -0.4, -0.8,0,0,1024,1024,1579,1024,336.1,-23.4,97,4.104,4.09,4.077,4.084,0,0,17.274,80.51,6,P-GPS,
0.354432783755905,36.9190182410258,5766.2171933772,268.700796,0,1.22389439612,20300,2018-04-16 05:35:04,18,0,16.248,5766.2171933772,268.700796,0.223694,1.22389439612,0,0,-8.94776,336.1, -0.1, -1,0,0,1024,1024,1569,1024,336.1,-23.4,97,4.104,4.09,4.077,4.084,0,0,17.274,80.51,6,P-GPS,
0.354432776815477,36.9190182628085,5767.5295293772,270.013132,0,1.2316601444,20400,2018-04-16 05:35:04,18,0,16.248,5767.5295293772,270.013132,0.223694,1.2316601444,0,0,-8.724066,336.1, 0, -0.9,0,0,1024,1024,1563,1024,336.1,-23.4,97,4.104,4.09,4.077,4.084,0,0,17.274,80.51,6,P-GPS,
0.354432763041284,36.9190182860836,5768.8418653772,271.325468,0,1.23982615516,20500,2018-04-16 05:35:04,18,0,16.248,5768.8418653772,271.325468,0.223694,1.23982615516,0,0,-8.724066,336.1, -0.4, -0.9,0,0,1024,1024,1560,1024,336.1,-23.4,97,4.104,4.09,4.077,4.084,0,0,17.274,80.51,6,P-GPS,
0.354432754420301,36.9190183208935,5771.4665373772,273.95014,0,1.25232287472,20700,2018-04-16 05:35:04,18,0,16.248,5771.4665373772,273.95014,0.223694,1.25232287472,0,0,-8.276678,336.1, -0.8, -0.7,0,0,1024,1024,1562,1024,336.1,-23.4,97,4.104,4.09,4.077,4.084,0,0,17.274,80.51,6,P-GPS,
0.35443277592594,36.9190183326532,5772.7788733772,275.262476,0,1.2570702502,20800,2018-04-16 05:35:04,18,0,16.248,5772.7788733772,275.262476,0.223694,1.2570702502,0,0,-8.276678,336.1, -0.5, -0.5,0,0,1024,1024,1562,1024,336.1,-23.8,97,4.104,4.09,4.077,4.084,0,0,17.274,80.51,6,P-GPS,
0.354432802473241,36.9190183385522,5773.7631253772,276.246728,0,1.2598589642,20900,2018-04-16 05:35:04,18,0,16.301,5773.7631253772,276.246728,0.223694,1.2598589642,0,0,-8.276678,336, -0.3, -0.6,0,0,1024,1024,1562,1024,336.1,-24.3,97,4.104,4.09,4.077,4.084,0,0,17.274,80.51,6,P-GPS,
0.354432801068708,36.9190183664096,5775.0754613772,277.559064,0,1.26996067056,21000,2018-04-16 05:35:04,18,0,16.301,5775.0754613772,277.559064,0.223694,1.26996067056,0,0,-8.276678,336, 0, -0.7,0,0,1024,1024,1562,1024,336.1,-25.1,97,4.104,4.09,4.077,4.084,0,0,17.274,80.51,6,P-GPS,
0.354432802392226,36.9190183892286,5776.3877973772,278.8714,0,1.27830056584,21100,2018-04-16 05:35:05,18,0,16.301,5776.3877973772,278.8714,0.223694,1.27830056584,0,0,-8.276678,336, -0.2, -0.6,0,0,1024,1024,1561,1024,336.1,-25.9,97,4.104,4.09,4.077,4.084,0,0,17.274,80.51,6,P-GPS,
0.354432835384094,36.919018364915,5777.7001333772,280.183736,0,1.270341248,21200,2018-04-16 05:35:05,18,0,16.301,5777.7001333772,280.183736,0.223694,1.27830056584,0,0,-8.276678,336.1, -0.5, -0.5,0,0,1024,1024,1554,1024,336.1,-25.9,97,4.104,4.09,4.077,4.084,0,0,17.274,80.51,6,P-GPS,
0.354432871496061,36.9190183456311,5779.0124693772,281.496072,0,1.26443901684,21300,2018-04-16 05:35:05,18,0,16.301,5779.0124693772,281.496072,0.223694,1.27830056584,0,0,-8.276678,336, -0.9, -0.6,0,0,1024,1024,1551,1024,336.1,-26.9,97,4.104,4.09,4.077,4.084,0,0,17.274,80.51,6,P-GPS,
0.354432910453734,36.9190183232467,5780.3248053772,282.808408,0,1.25766736308,21400,2018-04-16 05:35:05,18,0,16.301,5780.3248053772,282.808408,0.223694,1.27830056584,0,0,-8.276678,336.1, -0.5, -0.8,0,0,1024,1024,1546,1024,336.1,-27.3,97,4.104,4.09,4.077,4.084,0,0,17.274,80.51,6,P-GPS,
0.354432960622429,36.9190183005519,5781.6371413772,284.120744,0,1.2514272054,21500,2018-04-16 05:35:05,18,0,16.301,5781.6371413772,284.120744,0.223694,1.27830056584,0,0,-8.276678,336.1, -0.3, -1,0,0,1024,1024,1544,1024,336.1,-27.3,97,4.104,4.09,4.077,4.084,0,0,17.274,80.51,6,P-GPS,
0.354433032666827,36.9190182767179,5782.6213933772,285.104996,0,1.24614833384,21600,2018-04-16 05:35:05,18,0,16.301,5782.6213933772,285.104996,0.223694,1.27830056584,0,0,-8.276678,336.1, -0.1, -0.7,0,0,1024,1024,1536,1024,336.1,-27.3,97,4.104,4.09,4.077,4.084,0,0,17.274,80.51,6,P-GPS,
0.354433101034606,36.919018253764,5783.9337293772,286.417332,0,1.24156500036,21700,2018-04-16 05:35:05,18,0,16.301,5783.9337293772,286.417332,0.223694,1.27830056584,0,0,-8.052984,336.1, 0, -0.7,0,0,1024,1024,1538,1024,336.1,-27.3,97,4.104,4.09,4.077,4.084,0,0,17.274,80.51,6,P-GPS,
