latitude,longitude,altitude(feet),ascent(feet),speed(mph),distance(feet),time(millisecond),datetime(utc),satellites,voltage(v),max_altitude(feet),max_ascent(feet),max_speed(mph),max_distance(feet),compass_heading(degrees), pitch(degrees), roll(degrees),isPhoto,isVideo,rc_elevator,rc_aileron,rc_throttle,rc_rudder,gimbal_heading(degrees),gimbal_pitch(degrees),battery_percent,voltageCell1,voltageCell2,voltageCell3,voltageCell4,voltageCell5,voltageCell6,battery_temperature(f),flycStateRaw,flycState,message
0.369206399489052,36.9087390386624,5426.2226070381,0,0,0,100,2017-11-06 08:09:15,16,17.204,5426.2226070381,0,0,0,332.4, 1.4, 0.7,0,0,1024,1024,1024,1024,336.9,0,99,4.302,4.298,4.303,4.299,0,0,84.11,41,Motors_Started,Setting new Return-To-Home altitude to 30m (98 ft). Setting new Maximum Flight Altitude to 100m (328 ft)
0.369206389025892,36.9087390080835,5426.2226070381,0,0,0.0117915358104,200,2017-11-06 08:09:15,16,17.204,5426.2226070381,0,0,0.0117915358104,332.5, 1.4, 0.7,0,0,1024,1024,1024,1024,336.9,0,99,4.302,4.298,4.303,4.299,0,0,84.11,41,Motors_Started,
0.369206384362029,36.9087389861888,5426.2226070381,0,0,0.0199242460444,300,2017-11-06 08:09:15,16,17.204,5426.2226070381,0,0,0.0199242460444,332.4, 1.4, 0.7,0,0,1024,1024,1024,1024,336.9,0,99,4.302,4.298,4.303,4.299,0,0,84.11,41,Motors_Started,
0.369206382488504,36.9087389739752,5426.2226070381,0,0,0.0244021005184,400,2017-11-06 08:09:15,16,17.204,5426.2226070381,0,0,0.0244021005184,332.4, 1.4, 0.7,0,0,1024,1024,1024,1024,336.9,0,99,4.302,4.298,4.303,4.299,0,0,84.11,41,Motors_Started,
0.369206387448337,36.9087389717606,5426.2226070381,0,0,0.0248007553868,500,2017-11-06 08:09:15,16,17.204,5426.2226070381,0,0,0.0248007553868,332.4, 1.4, 0.7,0,0,1024,1024,1024,1024,336.9,0,99,4.302,4.298,4.303,4.299,0,0,84.11,41,Motors_Started,
0.369206390607111,36.9087389702082,5426.2226070381,0,0,0.0251843183912,600,2017-11-06 08:09:15,16,17.204,5426.2226070381,0,0,0.0251843183912,332.4, 1.4, 0.7,0,0,1024,1024,1024,1024,336.9,0,99,4.302,4.298,4.303,4.299,0,0,84.11,41,Motors_Started,
0.369206384576983,36.9087389638129,5426.2226070381,0,0,0.0278449483976,700,2017-11-06 08:09:15,16,17.204,5426.2226070381,0,0,0.0278449483976,332.4, 1.4, 0.7,0,0,1024,1024,1024,1024,336.9,0,99,4.302,4.298,4.303,4.299,0,0,84.11,41,Motors_Started,
0.369206359882444,36.908738938421,5426.2226070381,0,0,0.039323492072,800,2017-11-06 08:09:16,16,17.204,5426.2226070381,0,0,0.039323492072,332.4, 1.4, 0.7,0,0,1024,1024,1024,1024,336.9,0,99,4.302,4.298,4.303,4.299,0,0,84.11,41,Motors_Started,
0.369206335207039,36.9087389187982,5426.2226070381,0,0,0.049623689252,900,2017-11-06 08:09:16,16,17.204,5426.2226070381,0,0,0.049623689252,332.4, 1.4, 0.7,0,0,1024,1024,1024,1024,336.9,0,99,4.302,4.298,4.303,4.299,0,0,84.11,41,Motors_Started,
0.369206323156147,36.9087389067955,5426.2226070381,0,0,0.055589896792,1000,2017-11-06 08:09:16,16,17.204,5426.2226070381,0,0,0.055589896792,332.4, 1.4, 0.7,0,0,1024,1024,945,1024,336.3,0,99,4.302,4.298,4.303,4.299,0,0,84.11,41,Motors_Started,
0.369206312811863,36.9087388882449,5426.2226070381,0,0,0.06333825662,1100,2017-11-06 08:09:16,16,17.204,5426.2226070381,0,0,0.06333825662,332.4, 1.3, 0.7,0,0,1024,1024,945,1024,334.6,0,99,4.302,4.298,4.303,4.299,0,0,84.11,41,Motors_Started,
0.369206311191969,36.9087388530832,5426.2226070381,0,0,0.07498031736,1200,2017-11-06 08:09:16,16,17.204,5426.2226070381,0,0,0.07498031736,332.4, 1.4, 0.7,0,0,1024,1024,1024,1024,334.6,0,99,4.302,4.298,4.303,4.299,0,0,84.11,41,Motors_Started,
0.369206290240408,36.9087388112894,5426.2226070381,0,0,0.092034451764,1300,2017-11-06 08:09:16,16,17.204,5426.2226070381,0,0,0.092034451764,332.4, 1.5, 0.7,0,0,1024,1024,1024,1024,333.9,0,99,4.302,4.298,4.303,4.299,0,0,84.11,41,Motors_Started,
0.369206261052992,36.9087387631614,5426.2226070381,0,0,0.112490817248,1400,2017-11-06 08:09:16,16,17.204,5426.2226070381,0,0,0.112490817248,332.4, 1.4, 0.7,0,0,1024,1024,1024,1024,333.5,0,99,4.302,4.298,4.303,4.299,0,0,84.11,41,Motors_Started,
0.369206230797724,36.9087387215449,5426.2226070381,0,0,0.131049544876,1500,2017-11-06 08:09:16,16,17.204,5426.2226070381,0,0,0.131049544876,332.4, 1.5, 0.7,0,0,1024,1024,1024,1024,333.3,0,99,4.302,4.298,4.303,4.299,0,0,84.11,10,Assisted_Takeoff,
0.36920621799734,36.908738693325,5426.2226070381,0,0,0.14233432214,1600,2017-11-06 08:09:16,16,17.204,5426.2226070381,0,0,0.14233432214,332.4, 1.3, 0.7,0,0,1024,1024,1024,1024,333.1,0,99,4.302,4.298,4.303,4.299,0,0,84.11,10,Assisted_Takeoff,
0.369206197279054,36.9087386663385,5426.2226070381,0,0,0.154581041692,1800,2017-11-06 08:09:17,16,17.204,5426.2226070381,0,0,0.154581041692,332.4, 1.3, 0.7,0,0,1024,1024,1044,1024,333,0,99,4.302,4.298,4.303,4.299,0,0,84.11,10,Assisted_Takeoff,
0.369206180668926,36.9087386517203,5426.2226070381,0,0,0.162183732224,1900,2017-11-06 08:09:17,16,17.204,5426.2226070381,0,0,0.162183732224,332.4, 1.4, 0.7,0,0,1024,1024,1165,1024,332.9,0,99,4.302,4.298,4.303,4.299,0,0,84.11,10,Assisted_Takeoff,
0.369206149843702,36.9087386216862,5426.2226070381,0,0,0.177312669716,2000,2017-11-06 08:09:17,16,17.204,5426.2226070381,0,0,0.177312669716,332.3, 1.4, 0.7,0,0,1024,1024,1232,1024,332.9,0,99,4.302,4.298,4.303,4.299,0,0,84.11,10,Assisted_Takeoff,
0.36920612079104,36.9087385992054,5426.2226070381,0,0,0.18985728954,2100,2017-11-06 08:09:17,16,17.012,5426.2226070381,0,0,0.18985728954,332.4, 1.5, 0.7,0,0,1024,1024,1222,1024,332.9,0,99,4.293,4.288,4.292,4.288,0,0,84.11,10,Assisted_Takeoff,
0.369206105648546,36.9087385869286,5426.2226070381,0,0,0.196611882932,2200,2017-11-06 08:09:17,16,17.012,5426.2226070381,0,0,0.196611882932,332.4, 1.4, 0.7,0,0,1024,1024,1215,1024,332.8,0,99,4.293,4.288,4.292,4.288,0,0,84.11,10,Assisted_Takeoff,
0.369206096567121,36.908738583288,5426.2226070381,0,0,0.199542657304,2300,2017-11-06 08:09:17,16,17.012,5426.2226070381,0,0,0.199542657304,332.3, 1.4, 0.7,0,0,1024,1024,1209,1024,332.8,0,99,4.293,4.288,4.292,4.288,0,0,84.11,10,Assisted_Takeoff,
0.369206091601588,36.9087385810584,5426.2226070381,0,0,0.201226056308,2400,2017-11-06 08:09:17,16,17.012,5426.2226070381,0,0,0.201226056308,332.3, 1.4, 0.7,0,0,1024,1024,1220,1024,332.8,0,99,4.293,4.288,4.292,4.288,0,0,84.11,10,Assisted_Takeoff,
0.369206091557213,36.9087385887235,5426.2226070381,0,0,0.198921266208,2500,2017-11-06 08:09:17,16,17.012,5426.2226070381,0,0,0.201226056308,332.4, 1.5, 0.7,0,0,1024,1024,1245,1024,332.8,0,99,4.293,4.288,4.292,4.288,0,0,84.11,10,Assisted_Takeoff,
0.369206087147387,36.9087385941103,5426.2226070381,0,0,0.198223103456,2600,2017-11-06 08:09:17,16,17.012,5426.2226070381,0,0,0.201226056308,332.6, 1.3, 0.2,0,0,1024,1024,1252,1024,332.8,0,99,4.293,4.288,4.292,4.288,0,0,84.11,10,Assisted_Takeoff,
0.369206079680157,36.9087385953185,5426.2226070381,0,0,0.19944390402,2700,2017-11-06 08:09:17,16,17.012,5426.2226070381,0,0,0.201226056308,332.7, 1.3, 0,0,0,1024,1024,1290,1024,332.8,0,99,4.293,4.288,4.292,4.288,0,0,84.11,10,Assisted_Takeoff,
0.36920605672561,36.9087385687115,5426.2226070381,0,0,0.212219166896,2800,2017-11-06 08:09:18,16,17.012,5426.2226070381,0,0,0.212219166896,332.8, 0.8, 0.1,0,0,1024,1024,1291,1024,332.8,0,99,4.293,4.288,4.292,4.288,0,0,84.11,6,GPS_Atti,Obstacle Avoided. Revise Flight Route
0.369206037459896,36.9087385378344,5426.2226070381,0,0,0.225464902228,2900,2017-11-06 08:09:18,16,17.012,5426.2226070381,0,0,0.225464902228,332.8, 0.4, 0,0,0,1024,1024,1295,1024,332.8,0,99,4.293,4.288,4.292,4.288,0,0,84.11,6,GPS_Atti,
0.36920601828049,36.9087384975861,5426.5506910381,0.328084,0,0.241482619276,3000,2017-11-06 08:09:18,16,17.012,5426.5506910381,0.328084,0,0.241482619276,332.7, 0.3, 0,0,0,1024,1024,1301,1024,332.8,0,99,4.293,4.288,4.292,4.288,0,0,84.11,6,GPS_Atti,
0.369206014440619,36.9087384320466,5426.5506910381,0.328084,0,0.262141084504,3100,2017-11-06 08:09:18,16,16.984,5426.5506910381,0.328084,0,0.262141084504,332.7, 0.1, 0.4,0,0,1024,1024,1307,1024,332.8,0,99,4.29,4.282,4.279,4.273,0,0,84.11,6,GPS_Atti,
0.369206020933225,36.9087383418273,5426.8787750381,0.656168,0,0.2893290775,3200,2017-11-06 08:09:18,16,16.984,5426.8787750381,0.656168,0,0.2893290775,332.6, 0.3, 0.7,0,0,1024,1024,1316,1024,332.8,0,99,4.29,4.282,4.279,4.273,0,0,84.11,6,GPS_Atti,Home Point Recorded. RTH Altitude:  30m.
0.369206029528967,36.9087382458656,5427.2068590381,0.984252,0,0.319190298928,3300,2017-11-06 08:09:18,16,16.984,5427.2068590381,0.984252,0,0.319190298928,332.6, 0.8, 0.9,0,0,1024,1024,1328,1024,332.8,0,99,4.29,4.282,4.279,4.273,0,0,84.11,6,GPS_Atti,
0.369206015323236,36.9087381635994,5427.5349430381,1.312336,0,0.348671271,3400,2017-11-06 08:09:18,16,16.984,5427.5349430381,1.312336,0,0.348671271,332.6, 0.6, 0.9,0,0,1024,1024,1326,1024,332.8,0,99,4.29,4.282,4.279,4.273,0,0,84.11,6,GPS_Atti,
0.369205984621774,36.908738084364,5428.1911110381,1.968504,0,0.37964568144,3500,2017-11-06 08:09:18,16,16.984,5428.1911110381,1.968504,0,0.37964568144,332.6, 0.1, 0.5,0,0,1024,1024,1315,1024,332.8,0,99,4.29,4.282,4.279,4.273,0,0,84.11,6,GPS_Atti,
0.369205941325519,36.9087379933679,5428.5191950381,2.296588,0,0.41639437028,3600,2017-11-06 08:09:18,16,16.984,5428.5191950381,2.296588,0,0.41639437028,332.7, 0, 0.5,0,0,1024,1024,1316,1024,332.8,0,99,4.29,4.282,4.279,4.273,0,0,84.11,6,GPS_Atti,
0.369205900738181,36.90873791063,5428.8472790381,2.624672,0,0.44998689104,3700,2017-11-06 08:09:18,15,16.984,5428.8472790381,2.624672,0,0.44998689104,332.8, 0.3, 0.5,0,0,1024,1024,1330,1024,332.8,0,99,4.29,4.282,4.279,4.273,0,0,84.11,6,GPS_Atti,
0.369205876545203,36.9087378434076,5429.5034470381,3.28084,0,0.47599082888,3800,2017-11-06 08:09:19,15,16.984,5429.5034470381,3.28084,0,0.47599082888,332.8, 0.2, 1,0,0,1024,1024,1331,1024,332.8,0,99,4.29,4.282,4.279,4.273,0,0,84.11,6,GPS_Atti,
0.369205858309887,36.9087377555473,5430.1596150381,3.937008,0,0.5080708824,3900,2017-11-06 08:09:19,15,16.984,5430.1596150381,3.937008,0,0.5080708824,332.8, 0.1, 1.5,0,0,1024,1024,1317,1024,332.8,0,99,4.29,4.282,4.279,4.273,0,0,84.11,6,GPS_Atti,
0.36920585124244,36.9087376343432,5430.4876990381,4.265092,0,0.5500164218,4000,2017-11-06 08:09:19,15,16.984,5430.4876990381,4.265092,0,0.5500164218,332.8, 0, 1.6,0,0,1024,1024,1311,1024,332.8,0,99,4.29,4.282,4.279,4.273,0,0,84.11,6,GPS_Atti,
0.369205845095064,36.9087375206971,5431.1438670381,4.92126,0,0.5895997564,4100,2017-11-06 08:09:19,15,16.71,5431.1438670381,4.92126,0,0.5895997564,332.7, -0.3, 2,0,0,1024,1024,1306,1024,332.8,0,99,4.203,4.2,4.192,4.2,0,0,84.11,6,GPS_Atti,
0.369205848293735,36.9087374247467,5431.8000350381,5.577428,0,0.62221786768,4200,2017-11-06 08:09:19,15,16.71,5431.8000350381,5.577428,0,0.62221786768,332.6, -0.5, 2,0,0,1024,1024,1305,1024,332.8,0,99,4.203,4.2,4.192,4.2,0,0,84.11,6,GPS_Atti,
0.369205873756493,36.908737334476,5432.1281190381,5.905512,0,0.650672593,4300,2017-11-06 08:09:19,15,16.71,5432.1281190381,5.905512,0,0.650672593,332.7, 0, 1.6,0,0,1024,1024,1309,1024,332.8,0,99,4.203,4.2,4.192,4.2,0,0,84.11,6,GPS_Atti,
0.369205925017467,36.9087372447807,5432.7842870381,6.56168,0,0.67699149148,4400,2017-11-06 08:09:19,15,16.71,5432.7842870381,6.56168,0,0.67699149148,332.8, 0.9, 1.3,0,0,1024,1024,1311,1024,332.8,0,99,4.203,4.2,4.192,4.2,0,0,84.11,6,GPS_Atti,
0.369206002373849,36.9087371522231,5433.4404550381,7.217848,0,0.70333663668,4500,2017-11-06 08:09:19,15,16.71,5433.4404550381,7.217848,0,0.70333663668,332.8, 1.5, 0.9,0,0,1024,1024,1311,1024,332.8,0,99,4.203,4.2,4.192,4.2,0,0,84.11,6,GPS_Atti,
0.369206109196926,36.9087370599728,5433.7685390381,7.545932,0,0.72963585012,4600,2017-11-06 08:09:19,15,16.71,5433.7685390381,7.545932,0,0.72963585012,332.8, 1.8, 0.6,0,0,1024,1024,1316,1024,332.8,0,99,4.203,4.2,4.192,4.2,0,0,84.11,6,GPS_Atti,
0.369206198521557,36.9087369637697,5434.4247070381,8.2021,0,0.76055120544,4700,2017-11-06 08:09:19,15,16.71,5434.4247070381,8.2021,0,0.76055120544,332.8, 1.8, 0.7,0,0,1024,1024,1329,1024,332.8,0,99,4.203,4.2,4.192,4.2,0,0,84.11,6,GPS_Atti,
0.369206252807366,36.9087368660812,5434.7527910381,8.530184,0,0.79445212516,4800,2017-11-06 08:09:20,15,16.71,5434.7527910381,8.530184,0,0.79445212516,332.8, 1.7, 1,0,0,1024,1024,1331,1024,332.8,0,99,4.203,4.2,4.192,4.2,0,0,84.11,6,GPS_Atti,
0.369206288421029,36.9087367676732,5435.0808750381,8.858268,0,0.82954070896,4900,2017-11-06 08:09:20,15,16.71,5435.0808750381,8.858268,0,0.82954070896,332.8, 1.7, 1.1,0,0,1024,1024,1332,1024,332.8,0,99,4.203,4.2,4.192,4.2,0,0,84.11,6,GPS_Atti,
0.369206310333372,36.908736677062,5435.7370430381,9.514436,0,0.86222443704,5000,2017-11-06 08:09:20,15,16.71,5435.7370430381,9.514436,0,0.86222443704,332.8, 1.6, 1.3,0,0,1024,1024,1333,1024,332.8,0,99,4.203,4.2,4.192,4.2,0,0,84.11,6,GPS_Atti,
0.369206305651595,36.9087366055635,5436.3932110381,10.170604,0,0.88835632764,5100,2017-11-06 08:09:20,16,16.793,5436.3932110381,10.170604,0,0.88835632764,332.7, 1.4, 1.3,0,0,1024,1024,1334,1024,332.8,0,99,4.203,4.2,4.192,4.2,0,0,84.11,6,GPS_Atti,
0.369206287332822,36.9087365613737,5436.7212950381,10.498688,0,0.90474412344,5200,2017-11-06 08:09:20,16,16.793,5436.7212950381,10.498688,0,0.90474412344,332.7, 1.1, 1.1,0,0,1024,1024,1332,1024,332.8,0,99,4.203,4.2,4.192,4.2,0,0,84.11,6,GPS_Atti,
0.369206256280837,36.9087365150909,5437.3774630381,11.154856,0,0.92218506888,5300,2017-11-06 08:09:20,16,16.793,5437.3774630381,11.154856,0,0.92218506888,332.7, 0.9, 1,0,0,1024,1024,1329,1024,332.8,0,99,4.203,4.2,4.192,4.2,0,0,84.11,6,GPS_Atti,
0.369206238303223,36.908736450629,5437.7055470381,11.48294,0,0.94605317988,5400,2017-11-06 08:09:20,16,16.793,5437.7055470381,11.48294,0,0.94605317988,332.7, 0.9, 0.9,0,0,1024,1024,1329,1024,332.8,0,99,4.203,4.2,4.192,4.2,0,0,84.11,6,GPS_Atti,
0.369206217067092,36.908736400348,5438.3617150381,12.139108,0,0.96486551644,5500,2017-11-06 08:09:20,15,16.793,5438.3617150381,12.139108,0,0.96486551644,332.6, 0.9, 1,0,0,1024,1024,1329,1024,332.8,0,99,4.203,4.2,4.192,4.2,0,0,84.11,6,GPS_Atti,
0.369206212241198,36.9087363671326,5439.0178830381,12.795276,0,0.97707680292,5600,2017-11-06 08:09:20,15,16.793,5439.0178830381,12.795276,0,0.97707680292,332.6, 1.1, 1.2,0,0,1024,1024,1327,1024,332.8,0,99,4.203,4.2,4.192,4.2,0,0,84.11,6,GPS_Atti,
0.369206190521012,36.9087363268115,5439.3459670381,13.12336,0,0.99232942808,5700,2017-11-06 08:09:20,16,16.793,5439.3459670381,13.12336,0,0.99232942808,332.6, 1.2, 1.1,0,0,1024,1024,1327,1024,332.8,0,99,4.203,4.2,4.192,4.2,0,0,84.11,6,GPS_Atti,
0.369206161572977,36.9087362625027,5440.0021350381,13.779528,0,1.01657155484,5800,2017-11-06 08:09:21,16,16.793,5440.0021350381,13.779528,0,1.01657155484,332.6, 1.2, 1,0,0,1024,1024,1327,1024,332.8,0,99,4.203,4.2,4.192,4.2,0,0,84.11,6,GPS_Atti,
0.369206121277537,36.9087362141285,5440.6583030381,14.435696,0,1.03549543996,5900,2017-11-06 08:09:21,16,16.793,5440.6583030381,14.435696,0,1.03549543996,332.6, 0.9, 1.1,0,0,1024,1024,1332,1024,332.8,0,99,4.203,4.2,4.192,4.2,0,0,84.11,6,GPS_Atti,
0.369206100628868,36.9087361886263,5440.9863870381,14.76378,0,1.04551512532,6000,2017-11-06 08:09:21,16,16.793,5440.9863870381,14.76378,0,1.04551512532,332.5, 1, 1,0,0,1024,1024,1333,1024,332.7,0,99,4.203,4.2,4.192,4.2,0,0,84.11,6,GPS_Atti,
0.369206081534547,36.9087361676401,5441.6425550381,15.419948,0,1.05387470564,6100,2017-11-06 08:09:21,16,16.738,5441.6425550381,15.419948,0,1.05387470564,332.5, 1.2, 0.9,0,0,1024,1024,1337,1024,332.7,0,99,4.201,4.199,4.193,4.199,0,0,84.11,6,GPS_Atti,
0.369206074684498,36.908736131723,5442.2987230381,16.076116,0,1.06717195016,6200,2017-11-06 08:09:21,16,16.738,5442.2987230381,16.076116,0,1.06717195016,332.5, 1.4, 0.8,0,0,1024,1024,1337,1024,332.7,0,99,4.201,4.199,4.193,4.199,0,0,84.11,6,GPS_Atti,
0.369206043417559,36.9087361070442,5442.6268070381,16.4042,0,1.07743769852,6300,2017-11-06 08:09:21,16,16.738,5442.6268070381,16.4042,0,1.07743769852,332.6, 1.6, 1.1,0,0,1024,1024,1364,1024,332.7,0,99,4.201,4.199,4.193,4.199,0,0,84.11,6,GPS_Atti,
0.369205995017353,36.9087360928633,5443.2829750381,17.060368,0,1.08483599272,6400,2017-11-06 08:09:21,16,16.738,5443.2829750381,17.060368,0,1.08483599272,332.7, 1.3, 1.1,0,0,1024,1024,1371,1024,332.7,0,99,4.201,4.199,4.193,4.199,0,0,84.11,6,GPS_Atti,
0.369205937330946,36.9087360700704,5443.9391430381,17.716536,0,1.0961122398,6500,2017-11-06 08:09:21,16,16.738,5443.9391430381,17.716536,0,1.0961122398,332.7, 0.9, 0.9,0,0,1024,1024,1371,1024,332.8,0,99,4.201,4.199,4.193,4.199,0,0,84.11,6,GPS_Atti,
0.369205899022615,36.9087360099975,5444.2672270381,18.04462,0,1.11996722744,6600,2017-11-06 08:09:21,16,16.738,5444.2672270381,18.04462,0,1.11996722744,332.7, 0.7, 1.1,0,0,1024,1024,1372,1024,332.7,0,99,4.201,4.199,4.193,4.199,0,0,84.11,6,GPS_Atti,
0.369205858197524,36.9087359373812,5444.9233950381,18.700788,0,1.14858271392,6700,2017-11-06 08:09:21,16,16.738,5444.9233950381,18.700788,0,1.14858271392,332.7, 1, 1.4,0,0,1024,1024,1371,1024,332.7,0,99,4.201,4.199,4.193,4.199,0,0,84.11,6,GPS_Atti,
0.369205822598924,36.908735867366,5445.5795630381,19.356956,0,1.17601053632,6800,2017-11-06 08:09:22,16,16.738,5445.5795630381,19.356956,0,1.17601053632,332.7, 1.2, 1.6,0,0,1024,1024,1368,1024,332.7,0,99,4.201,4.199,4.193,4.199,0,0,84.11,6,GPS_Atti,
0.369205782257481,36.9087358016231,5446.2357310381,20.013124,0,1.20228678388,6900,2017-11-06 08:09:22,16,16.738,5446.2357310381,20.013124,0,1.20228678388,332.7, 1.5, 1.3,0,0,1024,1043,1364,1024,332.7,0,99,4.201,4.199,4.193,4.199,0,0,84.11,6,GPS_Atti,
0.369205742093539,36.9087357465629,5446.8918990381,20.669292,0,1.22480975048,7000,2017-11-06 08:09:22,16,16.738,5446.8918990381,20.669292,0,1.22480975048,332.6, 1.3, 1.3,0,0,1024,1210,1362,1024,332.7,0,99,4.201,4.199,4.193,4.199,0,0,84.11,6,GPS_Atti,
0.369205699770686,36.9087357083477,5447.5480670381,21.32546,0,1.2415682812,7100,2017-11-06 08:09:22,16,16.683,5447.5480670381,21.32546,0,1.2415682812,332.6, 1, 1.6,0,0,1024,1289,1360,1024,332.7,0,99,4.193,4.19,4.181,4.184,0,0,84.11,6,GPS_Atti,
0.369205674721553,36.9087356881125,5448.2042350381,21.981628,0,1.25069557808,7200,2017-11-06 08:09:22,16,16.683,5448.2042350381,21.981628,0,1.25069557808,332.6, 0.8, 4.2,0,0,1024,1320,1358,1024,332.7,0,99,4.193,4.19,4.181,4.184,0,0,84.11,6,GPS_Atti,
0.36920566050483,36.9087357040117,5448.8604030381,22.637796,0,1.24613849132,7300,2017-11-06 08:09:22,16,16.683,5448.8604030381,22.637796,0,1.25069557808,332.6, 0.6, 7.6,0,0,1024,1322,1358,1024,332.7,0,99,4.193,4.19,4.181,4.184,0,0,84.11,6,GPS_Atti,
0.369205691710295,36.9087357915117,5449.5165710381,23.293964,0.50107456,1.21251316216,7400,2017-11-06 08:09:22,16,16.683,5449.5165710381,23.293964,0.50107456,1.25069557808,332.6, 0.4, 9.5,0,0,1024,1335,1358,1024,332.7,0,99,4.193,4.19,4.181,4.184,0,0,84.11,6,GPS_Atti,
0.369205796955003,36.9087359951919,5450.1727390381,23.950132,0.80753534,1.1319390126,7500,2017-11-06 08:09:22,16,16.683,5450.1727390381,23.950132,0.80753534,1.25069557808,332.6, 0.5, 10.4,0,0,1024,1336,1357,1024,332.7,0,99,4.193,4.19,4.181,4.184,0,0,84.11,6,GPS_Atti,
0.369205990634396,36.9087362957202,5450.8289070381,24.6063,0.99991218,1.01179793264,7600,2017-11-06 08:09:22,16,16.683,5450.8289070381,24.6063,0.99991218,1.25069557808,332.7, 0.6, 11.9,0,0,1024,1339,1356,1024,332.7,0,99,4.193,4.19,4.181,4.184,0,0,84.11,6,GPS_Atti,
0.369206276376243,36.9087367421497,5451.4850750381,25.262468,1.50098674,0.83906826832,7700,2017-11-06 08:09:22,16,16.683,5451.4850750381,25.262468,1.50098674,1.25069557808,332.7, 0.6, 13.6,0,0,1024,1339,1356,1024,332.7,0,99,4.193,4.19,4.181,4.184,0,0,84.11,6,GPS_Atti,
0.369206669868972,36.9087373441742,5451.8131590381,25.590552,1.80297364,0.62604004628,7800,2017-11-06 08:09:23,16,16.683,5451.8131590381,25.590552,1.80297364,1.25069557808,332.8, 0.7, 15.5,0,0,1024,1393,1356,1024,332.7,0,99,4.193,4.19,4.181,4.184,0,0,84.11,6,GPS_Atti,
0.369207164709949,36.9087381469448,5452.4693270381,26.24672,2.3040482,0.4287073628,7900,2017-11-06 08:09:23,16,16.683,5452.4693270381,26.24672,2.3040482,1.25069557808,332.9, 0.9, 17.2,0,0,1024,1396,1355,1024,332.8,0,99,4.193,4.19,4.181,4.184,0,0,84.11,6,GPS_Atti,
0.369207750420544,36.9087391481733,5453.1254950381,26.902888,3.10710966,0.494504609,8000,2017-11-06 08:09:23,16,16.683,5453.1254950381,26.902888,3.10710966,1.25069557808,332.9, 1.1, 18.9,0,0,1024,1422,1355,1024,332.7,0,99,4.193,4.19,4.181,4.184,0,0,84.11,6,GPS_Atti,
0.369208451403193,36.9087403686104,5453.7816630381,27.559056,3.60594728,0.89213257448,8100,2017-11-06 08:09:23,16,16.71,5453.7816630381,27.559056,3.60594728,1.25069557808,332.9, 1, 19.8,0,0,1024,1455,1355,1024,332.8,0,99,4.191,4.187,4.181,4.188,0,0,84.11,6,GPS_Atti,
0.369209257706475,36.9087418701356,5454.4378310381,28.215224,4.30387256,1.46787078188,8200,2017-11-06 08:09:23,16,16.71,5454.4378310381,28.215224,4.30387256,1.46787078188,333, 1.3, 20.6,0,0,1024,1462,1355,1024,332.7,0,99,4.191,4.187,4.181,4.188,0,0,84.11,6,GPS_Atti,
0.369210184004096,36.908743582094,5455.0939990381,28.871392,4.80271018,2.1573819588,8300,2017-11-06 08:09:23,16,16.71,5455.0939990381,28.871392,4.80271018,2.1573819588,333.1, 1.4, 21.9,0,0,1024,1475,1355,1024,332.7,0,99,4.191,4.187,4.181,4.188,0,0,84.11,6,GPS_Atti,
0.369211200439031,36.908745626491,5455.7501670381,29.52756,5.60577164,2.97406833664,8400,2017-11-06 08:09:23,16,16.71,5455.7501670381,29.52756,5.60577164,2.97406833664,333, 1, 22.6,0,0,1024,1476,1356,1024,332.7,0,99,4.191,4.187,4.181,4.188,0,0,84.11,6,GPS_Atti,
0.369212372634559,36.9087479391077,5456.4063350381,30.183728,6.30369692,3.91076128,8500,2017-11-06 08:09:23,16,16.71,5456.4063350381,30.183728,6.30369692,3.91076128,332.9, 0.9, 23,0,0,1024,1311,1353,1024,332.7,0,99,4.191,4.187,4.181,4.188,0,0,84.11,6,GPS_Atti,
0.369213710954668,36.9087504861791,5457.0625030381,30.839896,6.80253454,4.9557416284,8600,2017-11-06 08:09:23,16,16.71,5457.0625030381,30.839896,6.80253454,4.9557416284,333.1, 1.2, 22.9,0,0,1024,1024,1351,1024,332.7,0,99,4.191,4.187,4.181,4.188,0,0,84.11,6,GPS_Atti,
0.3692151668809,36.9087533297406,5457.7186710381,31.496064,7.50269676,6.1169949464,8700,2017-11-06 08:09:23,16,16.71,5457.7186710381,31.496064,7.50269676,6.1169949464,333.2, 1.5, 19.4,0,0,1024,1024,1350,1024,332.7,0,99,4.191,4.187,4.181,4.188,0,0,84.11,6,GPS_Atti,
0.369216689648245,36.9087563875622,5458.3748390381,32.152232,7.90534596,7.3592850124,8800,2017-11-06 08:09:24,16,16.71,5458.3748390381,32.152232,7.90534596,7.3592850124,333, 1, 10.7,0,0,1024,1024,1350,1024,332.7,0,99,4.191,4.187,4.181,4.188,0,0,84.11,6,GPS_Atti,
0.369218219541254,36.9087595968013,5459.0310070381,32.8084,7.90534596,8.6518703556,8900,2017-11-06 08:09:24,16,16.71,5459.0310070381,32.8084,7.90534596,8.6518703556,332.7, 0.4, -3.7,0,0,1024,1024,1353,1024,332.7,0,99,4.191,4.187,4.181,4.188,0,0,84.11,6,GPS_Atti,
0.369219645116548,36.9087626734594,5459.6871750381,33.464568,7.2029468,9.884842836,9000,2017-11-06 08:09:24,16,16.71,5459.6871750381,33.464568,7.90534596,9.884842836,332.9, -0.1, -15.7,0,0,1024,1024,1353,1024,332.7,0,99,4.191,4.187,4.181,4.188,0,0,84.11,6,GPS_Atti,
0.369220847582393,36.9087654268337,5460.3433430381,34.120736,5.9055216,10.9761814536,9100,2017-11-06 08:09:24,16,16.683,5460.3433430381,34.120736,7.90534596,10.9761814536,332.8, -0.2, -22.8,0,0,1024,1024,1358,1024,332.8,0,99,4.191,4.187,4.181,4.188,0,0,84.11,6,GPS_Atti,
0.369221808815431,36.9087676836062,5460.9995110381,34.776904,4.70204788,11.867126364,9200,2017-11-06 08:09:24,16,16.683,5460.9995110381,34.776904,7.90534596,11.867126364,332.9, -0.4, -24.9,0,0,1024,1024,1364,1024,332.8,0,99,4.191,4.187,4.181,4.188,0,0,84.11,6,GPS_Atti,
0.369222427751168,36.9087693240925,5461.6556790381,35.433072,3.40685962,12.501476778,9300,2017-11-06 08:09:24,16,16.683,5461.6556790381,35.433072,7.90534596,12.501476778,333, -0.8, -21.8,0,0,1024,1024,1369,1024,332.7,0,99,4.191,4.187,4.181,4.188,0,0,84.11,6,GPS_Atti,
0.369222780237642,36.9087703681398,5462.3118470381,36.08924,2.40918438,12.898458418,9400,2017-11-06 08:09:24,16,16.683,5462.3118470381,36.08924,7.90534596,12.898458418,332.9, -0.5, -16.8,0,0,1024,1024,1372,1024,332.7,0,99,4.191,4.187,4.181,4.188,0,0,84.11,6,GPS_Atti,
0.369222990346,36.9087710685144,5462.9680150381,36.745408,1.70454828,13.1605319172,9500,2017-11-06 08:09:24,16,16.683,5462.9680150381,36.745408,7.90534596,13.1605319172,332.7, 0, -11.4,0,0,1024,1024,1381,1024,332.7,0,99,4.191,4.187,4.181,4.188,0,0,84.11,6,GPS_Atti,
0.369223013504916,36.9087712442842,5463.6241830381,37.401576,1.50098674,13.2213586908,9600,2017-11-06 08:09:24,16,16.683,5463.6241830381,37.401576,7.90534596,13.2213586908,332.6, 0.2, -7.5,0,0,1024,1024,1382,1024,332.7,0,99,4.191,4.187,4.181,4.188,0,0,84.11,6,GPS_Atti,
0.369223039456614,36.9087713448452,5464.2803510381,38.057744,1.20571066,13.2583337576,9700,2017-11-06 08:09:24,16,16.683,5464.2803510381,38.057744,7.90534596,13.2583337576,332.6, 0.2, -5.3,0,0,1024,1024,1387,1024,332.7,0,99,4.191,4.187,4.181,4.188,0,0,84.11,6,GPS_Atti,
0.369223157831465,36.9087715234135,5464.9365190381,38.713912,0.99991218,13.3360240488,9800,2017-11-06 08:09:25,16,16.683,5464.9365190381,38.713912,7.90534596,13.3360240488,332.6, 0.5, -4,0,0,1024,1024,1387,1024,332.7,0,99,4.191,4.187,4.181,4.188,0,0,84.11,6,GPS_Atti,
0.369223257994613,36.9087715829891,5465.5926870381,39.37008,0.70687304,13.3721132888,9900,2017-11-06 08:09:25,16,16.683,5465.5926870381,39.37008,7.90534596,13.3721132888,332.6, 1.1, -3.1,0,0,1024,1024,1388,1024,332.7,0,99,4.191,4.187,4.181,4.188,0,0,84.11,6,GPS_Atti,
0.369223348856088,36.9087716242829,5466.2488550381,40.026248,0.50107456,13.400755022,10000,2017-11-06 08:09:25,16,16.683,5466.2488550381,40.026248,7.90534596,13.400755022,332.7, 1.3, -2.3,0,0,1024,1024,1390,1024,332.7,0,99,4.191,4.187,4.181,4.188,0,0,84.11,6,GPS_Atti,
0.369223424383321,36.9087716213751,5466.9050230381,40.682416,0.31540854,13.412566046,10100,2017-11-06 08:09:25,16,16.738,5466.9050230381,40.682416,7.90534596,13.412566046,332.8, 0.9, -1.5,0,0,1024,1024,1391,1024,332.7,0,99,4.184,4.18,4.171,4.179,0,0,84.11,6,GPS_Atti,
0.369223471131063,36.9087716358306,5467.5611910381,41.338584,0.223694,13.4251316632,10200,2017-11-06 08:09:25,16,16.738,5467.5611910381,41.338584,7.90534596,13.4251316632,332.8, 0.2, -0.7,0,0,1024,1024,1393,1024,332.7,0,99,4.184,4.18,4.171,4.179,0,0,84.11,6,GPS_Atti,
0.369223499012466,36.9087716098681,5468.2173590381,41.994752,0,13.4214571224,10300,2017-11-06 08:09:25,16,16.738,5468.2173590381,41.994752,7.90534596,13.4251316632,332.8, 0.2, -0.1,0,0,1024,1024,1391,1024,332.7,0,99,4.184,4.18,4.171,4.179,0,0,84.11,6,GPS_Atti,
0.369223576428694,36.9087716304197,5468.8735270381,42.65092,0,13.4412405876,10400,2017-11-06 08:09:25,16,16.738,5468.8735270381,42.65092,7.90534596,13.4412405876,332.8, 0.6, 0,0,0,1024,1024,1392,1024,332.7,0,99,4.184,4.18,4.171,4.179,0,0,84.11,6,GPS_Atti,
0.369223654233306,36.9087716441086,5469.5296950381,43.307088,0,13.4589243152,10500,2017-11-06 08:09:25,16,16.738,5469.5296950381,43.307088,7.90534596,13.4589243152,332.8, 1.1, 0.1,0,0,1024,1024,1405,1024,332.7,0,99,4.184,4.18,4.171,4.179,0,0,84.11,6,GPS_Atti,
0.3692237039611,36.9087716409909,5469.8577790381,43.635172,0,13.4664046304,10600,2017-11-06 08:09:25,16,16.738,5469.8577790381,43.635172,7.90534596,13.4664046304,332.8, 1.2, 0.4,0,0,1024,1024,1420,1024,332.7,0,99,4.184,4.18,4.171,4.179,0,0,84.11,6,GPS_Atti,
0.369223769749423,36.9087716693195,5470.5139470381,44.29134,0,13.4868114552,10700,2017-11-06 08:09:25,16,16.738,5470.5139470381,44.29134,7.90534596,13.4868114552,332.7, 1.2, 0.9,0,0,1024,1024,1429,1024,332.7,0,99,4.184,4.18,4.171,4.179,0,0,84.11,6,GPS_Atti,
0.369223790467302,36.9087716747068,5471.1701150381,44.947508,0,13.4920936076,10800,2017-11-06 08:09:26,16,16.738,5471.1701150381,44.947508,7.90534596,13.4920936076,332.8, 1.1, 1.3,0,0,1024,1024,1449,1024,332.7,0,99,4.184,4.18,4.171,4.179,0,0,84.11,6,GPS_Atti,
0.369223824630429,36.908771722829,5472.1543670381,45.93176,0,13.513451876,10900,2017-11-06 08:09:26,16,16.738,5472.1543670381,45.93176,7.90534596,13.513451876,332.8, 0.8, 1.5,0,0,1024,1024,1469,1024,332.7,0,99,4.184,4.18,4.171,4.179,0,0,84.11,6,GPS_Atti,
0.369223818780244,36.9087717394407,5472.8105350381,46.587928,0,13.5177825848,11000,2017-11-06 08:09:26,16,16.738,5472.8105350381,46.587928,7.90534596,13.5177825848,332.8, 0.8, 1.7,0,0,1024,1024,1482,1024,332.7,0,99,4.184,4.18,4.171,4.179,0,0,84.11,6,GPS_Atti,
0.36922383208056,36.9087717987037,5473.7947870381,47.57218,0,13.5391736616,11100,2017-11-06 08:09:26,16,16.656,5473.7947870381,47.57218,7.90534596,13.5391736616,332.8, 0.8, 1.7,0,0,1024,1024,1496,1024,332.7,0,99,4.179,4.174,4.167,4.175,0,0,84.11,6,GPS_Atti,
0.369223827283978,36.908771841584,5474.4509550381,48.228348,0,13.552165788,11200,2017-11-06 08:09:26,16,16.656,5474.4509550381,48.228348,7.90534596,13.552165788,332.8, 0.9, 1.4,0,0,1024,1024,1491,1024,332.7,0,99,4.179,4.174,4.167,4.175,0,0,84.11,6,GPS_Atti,
0.369223823532043,36.9087719187199,5475.4352070381,49.2126,0,13.5763783872,11300,2017-11-06 08:09:26,16,16.656,5475.4352070381,49.2126,7.90534596,13.5763783872,332.8, 1, 1,0,0,1024,1024,1491,1024,332.7,0,99,4.179,4.174,4.167,4.175,0,0,84.11,6,GPS_Atti,
0.369223766617111,36.9087719658978,5476.4194590381,50.196852,0,13.5818901984,11400,2017-11-06 08:09:26,16,16.656,5476.4194590381,50.196852,7.90534596,13.5818901984,332.8, 0.7, 1,0,0,1024,1024,1484,1024,332.7,0,99,4.179,4.174,4.167,4.175,0,0,84.11,6,GPS_Atti,
0.369223681144971,36.9087720255033,5477.4037110381,51.181104,0,13.586614608,11500,2017-11-06 08:09:26,16,16.656,5477.4037110381,51.181104,7.90534596,13.586614608,332.7, 0, 1.1,0,0,1024,1024,1480,1024,332.7,0,99,4.179,4.174,4.167,4.175,0,0,84.11,6,GPS_Atti,
0.369223554918577,36.9087720432563,5478.3879630381,52.165356,0,13.5710634264,11600,2017-11-06 08:09:26,16,16.656,5478.3879630381,52.165356,7.90534596,13.586614608,332.7, -0.5, 1.5,0,0,1024,1024,1486,1024,332.7,0,99,4.179,4.174,4.167,4.175,0,0,84.11,6,GPS_Atti,
0.369223424558378,36.9087720705913,5479.3722150381,53.149608,0,13.5580384916,11700,2017-11-06 08:09:26,16,16.656,5479.3722150381,53.149608,7.90534596,13.586614608,332.7, -0.7, 2.1,0,0,1024,1024,1494,1024,332.7,0,99,4.179,4.174,4.167,4.175,0,0,84.11,6,GPS_Atti,
0.369223311874125,36.9087720853038,5480.3564670381,54.13386,0,13.5440293048,11800,2017-11-06 08:09:27,16,16.656,5480.3564670381,54.13386,7.90534596,13.586614608,332.7, -0.8, 2.1,0,0,1024,1024,1495,1024,332.7,0,99,4.179,4.174,4.167,4.175,0,0,84.11,6,GPS_Atti,
0.36922322254013,36.9087721062493,5481.6688030381,55.446196,0,13.5360240552,11900,2017-11-06 08:09:27,16,16.656,5481.6688030381,55.446196,7.90534596,13.586614608,332.6, -0.4, 2.1,0,0,1024,1024,1480,1024,332.7,0,99,4.179,4.174,4.167,4.175,0,0,84.11,6,GPS_Atti,
0.369223157756557,36.9087720992111,5482.6530550381,56.430448,0,13.5230319288,12000,2017-11-06 08:09:27,16,16.656,5482.6530550381,56.430448,7.90534596,13.586614608,332.7, 0, 2.2,0,0,1024,1024,1462,1024,332.7,0,99,4.179,4.174,4.167,4.175,0,0,84.11,6,GPS_Atti,
0.369223098516207,36.908772105395,5483.6373070381,57.4147,0,13.5152891464,12100,2017-11-06 08:09:27,16,16.573,5483.6373070381,57.4147,7.90534596,13.586614608,332.7, 0.6, 2.5,0,0,1024,1024,1449,1024,332.7,0,99,4.179,4.174,4.167,4.175,0,0,84.11,6,GPS_Atti,
0.369223029729104,36.9087721124461,5484.6215590381,58.398952,0,13.5062996448,12200,2017-11-06 08:09:27,16,16.573,5484.6215590381,58.398952,7.90534596,13.586614608,332.7, 0.4, 2.6,0,0,1024,1024,1455,1024,332.7,0,99,4.179,4.174,4.167,4.175,0,0,84.11,6,GPS_Atti,
0.36922295172338,36.9087721512217,5485.6058110381,59.383204,0,13.5062012196,12300,2017-11-06 08:09:27,16,16.573,5485.6058110381,59.383204,7.90534596,13.586614608,332.7, 0, 2.2,0,0,1024,1024,1455,1024,332.7,0,99,4.179,4.174,4.167,4.175,0,0,84.11,6,GPS_Atti,
0.369222871548568,36.9087721850575,5486.5900630381,60.367456,0,13.5041999072,12400,2017-11-06 08:09:27,16,16.573,5486.5900630381,60.367456,7.90534596,13.586614608,332.7, 0, 1.7,0,0,1024,1024,1448,1024,332.7,0,99,4.179,4.174,4.167,4.175,0,0,84.11,6,GPS_Atti,
0.369222783137901,36.9087722086304,5487.5743150381,61.351708,0,13.4975726104,12500,2017-11-06 08:09:27,16,16.573,5487.5743150381,61.351708,7.90534596,13.586614608,332.7, 0.1, 1.3,0,0,1024,1024,1448,1024,332.7,0,99,4.179,4.174,4.167,4.175,0,0,84.11,6,GPS_Atti,
0.369222688491921,36.9087721921,5488.5585670381,62.33596,0,13.4769033184,12600,2017-11-06 08:09:27,16,16.573,5488.5585670381,62.33596,7.90534596,13.586614608,332.7, 0.3, 1.7,0,0,1024,1024,1447,1024,332.7,0,99,4.179,4.174,4.167,4.175,0,0,84.11,6,GPS_Atti,
0.369222574646587,36.9087721866035,5489.2147350381,62.992128,0,13.4568245776,12700,2017-11-06 08:09:27,16,16.573,5489.2147350381,62.992128,7.90534596,13.586614608,332.7, 0.1, 2,0,0,1024,1024,1446,1024,332.7,0,99,4.179,4.174,4.167,4.175,0,0,84.11,6,GPS_Atti,
0.369222465358454,36.9087722018041,5490.1989870381,63.97638,0,13.444390194,12800,2017-11-06 08:09:28,16,16.573,5490.1989870381,63.97638,7.90534596,13.586614608,332.6, -0.2, 2,0,0,1024,1024,1447,1024,332.7,0,99,4.179,4.174,4.167,4.175,0,0,84.11,6,GPS_Atti,
0.369222354879928,36.9087722252185,5491.1832390381,64.960632,0,13.4345804824,12900,2017-11-06 08:09:28,16,16.573,5491.1832390381,64.960632,7.90534596,13.586614608,332.5, -0.6, 1.7,0,0,1024,1024,1447,1024,332.7,0,99,4.179,4.174,4.167,4.175,0,0,84.11,6,GPS_Atti,
0.36922226923273,36.9087722299635,5492.1674910381,65.944884,0,13.4226054164,13000,2017-11-06 08:09:28,16,16.573,5492.1674910381,65.944884,7.90534596,13.586614608,332.5, -0.6, 1.4,0,0,1024,1024,1447,1024,332.7,0,99,4.179,4.174,4.167,4.175,0,0,84.11,6,GPS_Atti,
0.369222185345066,36.9087722177371,5493.1517430381,66.929136,0,13.4054138148,13100,2017-11-06 08:09:28,16,16.601,5493.1517430381,66.929136,7.90534596,13.586614608,332.5, -0.4, 1.9,0,0,1024,1024,1447,1024,332.7,0,99,4.163,4.16,4.155,4.172,0,0,84.11,6,GPS_Atti,
0.369222130004839,36.9087721892094,5493.8079110381,67.585304,0,13.3873363864,13200,2017-11-06 08:09:28,16,16.601,5493.8079110381,67.585304,7.90534596,13.586614608,332.6, 0.1, 2.2,0,0,1024,1024,1447,1024,332.7,0,99,4.163,4.16,4.155,4.172,0,0,84.11,6,GPS_Atti,
0.369222082271889,36.9087721693408,5494.7921630381,68.569556,0,13.3733271996,13300,2017-11-06 08:09:28,16,16.601,5494.7921630381,68.569556,7.90534596,13.586614608,332.6, 0.4, 1.9,0,0,1024,1024,1447,1024,332.7,0,99,4.163,4.16,4.155,4.172,0,0,84.11,6,GPS_Atti,
0.369222045613172,36.908772152014,5495.7764150381,69.553808,0,13.3619098764,13400,2017-11-06 08:09:28,16,16.601,5495.7764150381,69.553808,7.90534596,13.586614608,332.7, 0.3, 1.8,0,0,1024,1024,1447,1024,332.7,0,99,4.163,4.16,4.155,4.172,0,0,84.11,6,GPS_Atti,
0.369221994927852,36.9087721433377,5496.4325830381,70.209976,0,13.3511487212,13500,2017-11-06 08:09:28,16,16.601,5496.4325830381,70.209976,7.90534596,13.586614608,332.7, 0, 2,0,0,1024,1024,1437,1024,332.7,0,99,4.163,4.16,4.155,4.172,0,0,84.11,6,GPS_Atti,
0.36922194317753,36.9087721325501,5497.4168350381,71.194228,0,13.339567356,13600,2017-11-06 08:09:28,16,16.601,5497.4168350381,71.194228,7.90534596,13.586614608,332.7, -0.3, 2.2,0,0,1024,1024,1424,1024,332.7,0,99,4.163,4.16,4.155,4.172,0,0,84.11,6,GPS_Atti,
0.369221879469544,36.9087721448344,5498.4010870381,72.17848,0,13.3337602692,13700,2017-11-06 08:09:28,16,16.601,5498.4010870381,72.17848,7.90534596,13.586614608,332.7, -0.5, 2.4,0,0,1024,1024,1423,1024,332.7,0,99,4.163,4.16,4.155,4.172,0,0,84.11,6,GPS_Atti,
0.369221814698184,36.9087721593306,5499.3853390381,73.162732,0,13.3285437336,13800,2017-11-06 08:09:29,16,16.601,5499.3853390381,73.162732,7.90534596,13.586614608,332.7, -0.5, 2.6,0,0,1024,1024,1424,1024,332.7,0,99,4.163,4.16,4.155,4.172,0,0,84.11,6,GPS_Atti,
0.36922176984758,36.9087721888496,5500.0415070381,73.8189,0,13.3314308728,13900,2017-11-06 08:09:29,16,16.601,5500.0415070381,73.8189,7.90534596,13.586614608,332.7, -0.3, 2.5,0,0,1024,1024,1424,1024,332.7,0,99,4.163,4.16,4.155,4.172,0,0,84.11,6,GPS_Atti,
0.369221770118716,36.9087721946396,5501.0257590381,74.803152,0,13.3333993768,14000,2017-11-06 08:09:29,16,16.601,5501.0257590381,74.803152,7.90534596,13.586614608,332.7, 0, 2.4,0,0,1024,1024,1434,1024,332.7,0,99,4.163,4.16,4.155,4.172,0,0,84.11,6,GPS_Atti,
0.369221770045436,36.9087722125446,5502.0100110381,75.787404,0,13.3393048888,14100,2017-11-06 08:09:29,16,16.628,5502.0100110381,75.787404,7.90534596,13.586614608,332.7, 0, 2.3,0,0,1024,1024,1471,1024,332.7,0,99,4.173,4.167,4.161,4.173,0,0,84.11,6,GPS_Atti,
0.369221765231755,36.9087722165786,5502.6661790381,76.443572,0,13.33989544,14200,2017-11-06 08:09:29,16,16.628,5502.6661790381,76.443572,7.90534596,13.586614608,332.8, 0, 2.4,0,0,1024,1024,1524,1024,332.7,0,99,4.173,4.167,4.161,4.173,0,0,84.11,6,GPS_Atti,
0.369221750222387,36.9087722380017,5503.6504310381,77.427824,0,13.3446854664,14300,2017-11-06 08:09:29,16,16.628,5503.6504310381,77.427824,7.90534596,13.586614608,332.7, 0.2, 2.3,0,0,1024,1024,1577,1024,332.7,0,99,4.173,4.167,4.161,4.173,0,0,84.11,6,GPS_Atti,
0.369221739433946,36.9087722501318,5504.3065990381,78.083992,0,13.3470476712,14400,2017-11-06 08:09:29,16,16.628,5504.3065990381,78.083992,7.90534596,13.586614608,332.7, 0.2, 1.7,0,0,1024,1024,1625,1007,332.7,0,99,4.173,4.167,4.161,4.173,0,0,84.11,6,GPS_Atti,
0.369221729287925,36.9087722686,5505.2908510381,79.068244,0,13.3516080388,14500,2017-11-06 08:09:29,16,16.628,5505.2908510381,79.068244,7.90534596,13.586614608,332.7, 0.4, 1.3,0,0,1024,1024,1644,988,332.7,0,99,4.173,4.167,4.161,4.173,0,0,84.11,6,GPS_Atti,
0.369221732904699,36.9087722614204,5506.6031870381,80.38058,0,13.3498035768,14600,2017-11-06 08:09:29,16,16.628,5506.6031870381,80.38058,7.90534596,13.586614608,332.8, 1.1, 1.6,0,0,1024,1024,1642,1008,332.7,0,99,4.173,4.167,4.161,4.173,0,0,84.11,6,GPS_Atti,
0.369221708029403,36.9087722579452,5507.9155230381,81.692916,0,13.3448495084,14700,2017-11-06 08:09:29,16,16.628,5507.9155230381,81.692916,7.90534596,13.586614608,332.7, 1, 2.3,0,0,1024,1024,1640,1022,332.7,0,99,4.173,4.167,4.161,4.173,0,0,84.11,6,GPS_Atti,
0.369221666717407,36.9087722559174,5509.2278590381,83.005252,0,13.3378613192,14800,2017-11-06 08:09:30,16,16.628,5509.2278590381,83.005252,7.90534596,13.586614608,332.7, 0.2, 2.7,0,0,1024,1024,1639,1024,332.7,0,99,4.173,4.167,4.161,4.173,0,0,84.11,6,GPS_Atti,
0.369221617885257,36.9087722797001,5510.8682790381,84.645672,0,13.3383206368,14900,2017-11-06 08:09:30,16,16.628,5510.8682790381,84.645672,7.90534596,13.586614608,332.7, -0.4, 2.7,0,0,1024,1024,1630,1024,332.7,0,99,4.173,4.167,4.161,4.173,0,0,84.11,6,GPS_Atti,
0.36922158847393,36.908772297072,5512.1806150381,85.958008,0,13.3396329728,15000,2017-11-06 08:09:30,16,16.628,5512.1806150381,85.958008,7.90534596,13.586614608,332.6, -0.9, 2.8,0,0,1024,1024,1630,1024,332.7,0,99,4.173,4.167,4.161,4.173,0,0,84.11,6,GPS_Atti,
0.369221598518987,36.9087723382394,5513.8210350381,87.598428,0,13.354823262,15100,2017-11-06 08:09:30,16,16.382,5513.8210350381,87.598428,7.90534596,13.586614608,332.7, -0.7, 2.7,0,0,1024,1024,1625,1024,332.7,0,98,4.127,4.122,4.106,4.119,0,0,84.11,6,GPS_Atti,
0.369221653540039,36.9087723891237,5515.1333710381,88.910764,0.223694,13.3800529216,15200,2017-11-06 08:09:30,16,16.382,5515.1333710381,88.910764,7.90534596,13.586614608,332.6, 0, 2,0,0,1024,1024,1617,1024,332.7,0,98,4.127,4.122,4.106,4.119,0,0,84.11,6,GPS_Atti,
0.369221723914874,36.9087724631184,5516.4457070381,90.2231,0.223694,13.4152891432,15300,2017-11-06 08:09:30,16,16.382,5516.4457070381,90.2231,7.90534596,13.586614608,332.6, 0.6, 1.7,0,0,1024,1024,1617,1024,332.7,0,98,4.127,4.122,4.106,4.119,0,0,84.11,6,GPS_Atti,
0.369221797202182,36.9087725391087,5518.0861270381,91.86352,0.223694,13.4516408504,15400,2017-11-06 08:09:30,16,16.382,5518.0861270381,91.86352,7.90534596,13.586614608,332.7, 1, 0.8,0,0,1024,1024,1610,1024,332.7,0,98,4.127,4.122,4.106,4.119,0,0,84.11,6,GPS_Atti,
0.369221847635093,36.9087726500269,5519.3984630381,93.175856,0.223694,13.4960962324,15500,2017-11-06 08:09:30,16,16.382,5519.3984630381,93.175856,7.90534596,13.586614608,332.7, 1.4, -0.1,0,0,1024,1024,1606,1020,332.7,0,98,4.127,4.122,4.106,4.119,0,0,84.11,6,GPS_Atti,
0.369221855216314,36.9087727397125,5520.7107990381,94.488192,0.223694,13.5269689368,15600,2017-11-06 08:09:30,16,16.382,5520.7107990381,94.488192,7.90534596,13.586614608,332.7, 1.4, -0.2,0,0,1024,1024,1601,1022,332.7,0,98,4.127,4.122,4.106,4.119,0,0,84.11,6,GPS_Atti,
0.369221812827917,36.9087728214585,5522.0231350381,95.800528,0,13.5476710372,15700,2017-11-06 08:09:30,16,16.382,5522.0231350381,95.800528,7.90534596,13.586614608,332.7, 1.1, 0,0,0,1024,1024,1586,1022,332.7,0,98,4.127,4.122,4.106,4.119,0,0,84.11,6,GPS_Atti,
0.369221749785964,36.9087728564548,5523.3354710381,97.112864,0,13.5497707748,15800,2017-11-06 08:09:31,16,16.382,5523.3354710381,97.112864,7.90534596,13.586614608,332.7, 0.8, 0.3,0,0,1024,1024,1582,1022,332.7,0,98,4.127,4.122,4.106,4.119,0,0,84.11,6,GPS_Atti,
0.369221666419402,36.9087728923869,5524.9758910381,98.753284,0,13.5491802236,15900,2017-11-06 08:09:31,16,16.382,5524.9758910381,98.753284,7.90534596,13.586614608,332.7, 0.6, 0.6,0,0,1024,1024,1585,1024,332.7,0,98,4.127,4.122,4.106,4.119,0,0,84.11,6,GPS_Atti,
0.369221598412324,36.9087729113218,5526.2882270381,100.06562,0,13.545276024,16000,2017-11-06 08:09:31,16,16.382,5526.2882270381,100.06562,7.90534596,13.586614608,332.8, 0.5, 0.4,0,0,1024,1024,1592,1024,332.7,0,98,4.127,4.122,4.106,4.119,0,0,84.11,6,GPS_Atti,
0.369221517061776,36.9087729228374,5527.6005630381,101.377956,0,13.5370083072,16100,2017-11-06 08:09:31,16,16.464,5527.6005630381,101.377956,7.90534596,13.586614608,332.8, 0.4, 0.5,0,0,1024,1024,1595,1023,332.7,0,98,4.127,4.122,4.106,4.119,0,0,84.11,6,GPS_Atti,
0.369221444940434,36.908772903228,5528.9128990381,102.690292,0,13.5197510888,16200,2017-11-06 08:09:31,16,16.464,5528.9128990381,102.690292,7.90534596,13.586614608,332.8, 0.3, 0.6,0,0,1024,1024,1598,1023,332.7,0,98,4.127,4.122,4.106,4.119,0,0,84.11,6,GPS_Atti,
0.369221361182231,36.9087728905304,5530.2252350381,104.002628,0,13.5031500384,16300,2017-11-06 08:09:31,16,16.464,5530.2252350381,104.002628,7.90534596,13.586614608,332.7, 0.4, 0.8,0,0,1024,1024,1599,1023,332.7,0,98,4.127,4.122,4.106,4.119,0,0,84.11,6,GPS_Atti,
0.369221279558918,36.9087728745547,5531.5375710381,105.314964,0,13.4857943948,16400,2017-11-06 08:09:31,16,16.464,5531.5375710381,105.314964,7.90534596,13.586614608,332.7, 0.7, 1.2,0,0,1024,1024,1597,1023,332.7,0,98,4.127,4.122,4.106,4.119,0,0,84.11,6,GPS_Atti,
0.369221198016214,36.9087728703986,5532.8499070381,106.6273,0,13.472441376,16500,2017-11-06 08:09:31,16,16.464,5532.8499070381,106.6273,7.90534596,13.586614608,332.8, 0.9, 1.3,0,0,1024,1024,1596,1024,332.7,-0.1,98,4.127,4.122,4.106,4.119,0,0,84.11,6,GPS_Atti,
0.369221134814674,36.9087728582535,5534.1622430381,107.939636,0,13.4591867824,16600,2017-11-06 08:09:31,16,16.464,5534.1622430381,107.939636,7.90534596,13.586614608,332.7, 1.1, 1.3,0,0,1024,1024,1596,1023,332.7,-0.2,98,4.127,4.122,4.106,4.119,0,0,84.11,6,GPS_Atti,
0.369221062937598,36.9087728698461,5535.4745790381,109.251972,0,13.452592294,16700,2017-11-06 08:09:31,16,16.464,5535.4745790381,109.251972,7.90534596,13.586614608,332.7, 0.7, 1.3,0,0,1024,1024,1597,1022,332.7,-0.6,98,4.127,4.122,4.106,4.119,0,0,84.11,6,GPS_Atti,
0.369220995717058,36.908772875621,5536.7869150381,110.564308,0,13.4447838948,16800,2017-11-06 08:09:32,16,16.464,5536.7869150381,110.564308,7.90534596,13.586614608,332.7, 0.3, 1.4,0,0,1024,1024,1596,1024,332.7,-1.3,98,4.127,4.122,4.106,4.119,0,0,84.11,6,GPS_Atti,
0.369220920109218,36.9087728974274,5538.0992510381,111.876644,0,13.4412077792,16900,2017-11-06 08:09:32,16,16.464,5538.0992510381,111.876644,7.90534596,13.586614608,332.7, 0.4, 1.5,0,0,1024,1024,1596,1024,332.7,-2.3,98,4.127,4.122,4.106,4.119,0,0,84.11,6,GPS_Atti,
0.369220844730174,36.9087729033243,5539.4115870381,113.18898,0,13.4323823196,17000,2017-11-06 08:09:32,16,16.464,5539.4115870381,113.18898,7.90534596,13.586614608,332.7, 0.2, 1.2,0,0,1024,1024,1596,1023,332.7,-3.4,98,4.127,4.122,4.106,4.119,0,0,84.11,6,GPS_Atti,
0.369220775351946,36.9087729005065,5540.7239230381,114.501316,0,13.4215227392,17100,2017-11-06 08:09:32,16,16.464,5540.7239230381,114.501316,7.90534596,13.586614608,332.7, 0.1, 1.1,0,0,1024,1024,1595,1024,332.7,-4.6,98,4.127,4.122,4.106,4.119,0,0,84.11,6,GPS_Atti,
0.36922072927838,36.9087728522494,5542.3643430381,116.141736,0,13.3987537096,17200,2017-11-06 08:09:32,16,16.464,5542.3643430381,116.141736,7.90534596,13.586614608,332.7, 0.3, 1.2,0,0,1024,1024,1594,1024,332.7,-6,98,4.127,4.122,4.106,4.119,0,0,84.11,6,GPS_Atti,
0.369220682323825,36.9087727943076,5543.6766790381,117.454072,0,13.3726054148,17300,2017-11-06 08:09:32,16,16.464,5543.6766790381,117.454072,7.90534596,13.586614608,332.7, 0.7, 1.7,0,0,1024,1024,1594,1024,332.7,-7.4,98,4.127,4.122,4.106,4.119,0,0,84.11,6,GPS_Atti,
0.369220630637013,36.9087727326957,5544.9890150381,118.766408,0,13.3445542328,17400,2017-11-06 08:09:32,16,16.464,5544.9890150381,118.766408,7.90534596,13.586614608,332.7, 0.7, 2.2,0,0,1024,1024,1593,1024,332.7,-7.4,98,4.127,4.122,4.106,4.119,0,0,84.11,6,GPS_Atti,
0.369220554481201,36.9087726807536,5546.3013510381,120.078744,0,13.316273392,17500,2017-11-06 08:09:32,16,16.464,5546.3013510381,120.078744,7.90534596,13.586614608,332.7, 0.2, 2.6,0,0,1024,1024,1590,1024,332.7,-8.8,98,4.127,4.122,4.106,4.119,0,0,84.11,6,GPS_Atti,
0.369220471638184,36.9087726205014,5547.9417710381,121.719164,0,13.2843180104,17600,2017-11-06 08:09:32,16,16.464,5547.9417710381,121.719164,7.90534596,13.586614608,332.7, -0.1, 2.7,0,0,1024,1024,1587,1024,332.7,-10.1,98,4.127,4.122,4.106,4.119,0,0,84.11,6,GPS_Atti,
0.369220403593651,36.908772584687,5549.2541070381,123.0315,0,13.2626972748,17700,2017-11-06 08:09:32,16,16.464,5549.2541070381,123.0315,7.90534596,13.586614608,332.7, 0, 2.5,0,0,1024,1024,1585,1024,332.7,-11.5,98,4.127,4.122,4.106,4.119,0,0,84.11,6,GPS_Atti,
0.369220368343538,36.9087725533757,5550.5664430381,124.343836,0,13.2471789016,17800,2017-11-06 08:09:33,16,16.464,5550.5664430381,124.343836,7.90534596,13.586614608,332.7, 0.6, 2.2,0,0,1024,1024,1584,1024,332.7,-12.9,98,4.127,4.122,4.106,4.119,0,0,84.11,6,GPS_Atti,
0.369220329852008,36.9087725101421,5551.8787790381,125.656172,0,13.2272313944,17900,2017-11-06 08:09:33,16,16.464,5551.8787790381,125.656172,7.90534596,13.586614608,332.6, 0.6, 2.2,0,0,1024,1024,1584,1024,332.7,-14.2,98,4.127,4.122,4.106,4.119,0,0,84.11,6,GPS_Atti,
0.36922027191767,36.9087724745269,5553.1911150381,126.968508,0.223694,13.2071198452,18000,2017-11-06 08:09:33,16,16.464,5553.1911150381,126.968508,7.90534596,13.586614608,332.6, 0.2, 3.1,0,0,1024,1024,1580,1024,332.7,-15.6,98,4.127,4.122,4.106,4.119,0,0,84.11,6,GPS_Atti,
0.369220212716403,36.9087724466544,5554.8315350381,128.608928,0,13.189468926,18100,2017-11-06 08:09:33,16,16.464,5554.8315350381,128.608928,7.90534596,13.586614608,332.7, 0, 3.8,0,0,1024,1024,1580,1024,332.7,-16.9,98,4.143,4.138,4.134,4.15,0,0,84.11,6,GPS_Atti,
0.369220167745293,36.9087724260044,5556.1438710381,129.921264,0,13.1762471408,18200,2017-11-06 08:09:33,16,16.464,5556.1438710381,129.921264,7.90534596,13.586614608,332.6, 0.1, 4,0,0,1024,1024,1580,1024,332.7,-18.3,98,4.143,4.138,4.134,4.15,0,0,84.11,6,GPS_Atti,
0.369220117249687,36.9087724394385,5557.4562070381,131.2336,0,13.1737537024,18300,2017-11-06 08:09:33,16,16.464,5557.4562070381,131.2336,7.90534596,13.586614608,332.5, 0.1, 3.9,0,0,1024,1024,1580,1024,332.7,-19.6,98,4.143,4.138,4.134,4.15,0,0,84.11,6,GPS_Atti,
0.369220077573464,36.9087724539368,5558.4404590381,132.217852,0,13.1731631512,18400,2017-11-06 08:09:33,16,16.464,5558.4404590381,132.217852,7.90534596,13.586614608,332.6, 0, 3.2,0,0,1024,1024,1580,1024,332.7,-20.9,98,4.143,4.138,4.134,4.15,0,0,84.11,6,GPS_Atti,
0.369220057515919,36.9087724995194,5559.7527950381,133.530188,0,13.1857943852,18500,2017-11-06 08:09:33,16,16.464,5559.7527950381,133.530188,7.90534596,13.586614608,332.6, 0, 3.1,0,0,1024,1024,1580,1024,332.7,-22.3,98,4.143,4.138,4.134,4.15,0,0,84.11,6,GPS_Atti,
0.369220092823027,36.9087725466137,5561.0651310381,134.842524,0,13.2065621024,18600,2017-11-06 08:09:33,16,16.464,5561.0651310381,134.842524,7.90534596,13.586614608,332.7, 0, 2.6,0,0,1024,1024,1580,1024,332.7,-23.6,98,4.143,4.138,4.134,4.15,0,0,84.11,6,GPS_Atti,
0.369220142109513,36.9087726268908,5562.3774670381,136.15486,0.223694,13.240485988,18700,2017-11-06 08:09:33,16,16.464,5562.3774670381,136.15486,7.90534596,13.586614608,332.7, 0.3, 1.9,0,0,1024,1024,1580,1024,332.7,-25,98,4.143,4.138,4.134,4.15,0,0,84.11,6,GPS_Atti,
0.369220200560882,36.9087726938665,5563.6898030381,137.467196,0.223694,13.271161842,18800,2017-11-06 08:09:34,16,16.464,5563.6898030381,137.467196,7.90534596,13.586614608,332.7, 1.1, 1.4,0,0,1024,1024,1579,1024,332.7,-25,98,4.143,4.138,4.134,4.15,0,0,84.11,6,GPS_Atti,
0.369220258268866,36.9087727657371,5564.6740550381,138.451448,0.223694,13.3034124992,18900,2017-11-06 08:09:34,16,16.464,5564.6740550381,138.451448,7.90534596,13.586614608,332.7, 1.8, 1.3,0,0,1024,1024,1580,1024,332.7,-26.4,98,4.143,4.138,4.134,4.15,0,0,84.11,6,GPS_Atti,
0.369220317755111,36.9087728120584,5565.9863910381,139.763784,0,13.3272970144,19000,2017-11-06 08:09:34,16,16.464,5565.9863910381,139.763784,7.90534596,13.586614608,332.7, 1.9, 1.2,0,0,1024,1024,1579,1024,332.7,-27.7,98,4.143,4.138,4.134,4.15,0,0,84.11,6,GPS_Atti,
0.369220343350994,36.9087728687369,5567.2987270381,141.07612,0,13.3500004272,19100,2017-11-06 08:09:34,16,16.491,5567.2987270381,141.07612,7.90534596,13.586614608,332.7, 1.7, 1.2,0,0,1024,1024,1578,1024,332.7,-29.1,98,4.143,4.141,4.135,4.146,0,0,84.11,6,GPS_Atti,
0.369220347509226,36.9087729039196,5568.6110630381,142.388456,0,13.3624348108,19200,2017-11-06 08:09:34,16,16.491,5568.6110630381,142.388456,7.90534596,13.586614608,332.7, 1.1, 1.1,0,0,1024,1024,1577,1024,332.7,-30.5,98,4.143,4.141,4.135,4.146,0,0,84.11,6,GPS_Atti,
0.369220325367273,36.9087729343251,5569.9233990381,143.700792,0,13.3696198504,19300,2017-11-06 08:09:34,16,16.491,5569.9233990381,143.700792,7.90534596,13.586614608,332.7, 0.7, 1.6,0,0,1024,1024,1577,1024,332.7,-31.9,98,4.143,4.141,4.135,4.146,0,0,84.11,6,GPS_Atti,
0.3692203109588,36.9087729337898,5571.2357350381,145.013128,0,13.367454496,19400,2017-11-06 08:09:34,16,16.491,5571.2357350381,145.013128,7.90534596,13.586614608,332.6, 0.5, 2.3,0,0,1024,1024,1577,1024,332.7,-33.3,98,4.143,4.141,4.135,4.146,0,0,84.11,6,GPS_Atti,
0.369220279496448,36.9087729485387,5572.5480710381,146.325464,0,13.3680778556,19500,2017-11-06 08:09:34,16,16.491,5572.5480710381,146.325464,7.90534596,13.586614608,332.6, 0.5, 2.7,0,0,1024,1024,1577,1024,332.7,-34.7,98,4.143,4.141,4.135,4.146,0,0,84.11,6,GPS_Atti,
0.369220247322466,36.9087729485108,5573.8604070381,147.6378,0,13.3636159132,19600,2017-11-06 08:09:34,16,16.491,5573.8604070381,147.6378,7.90534596,13.586614608,332.6, 0.6, 3.4,0,0,1024,1024,1577,1024,332.7,-36.1,98,4.143,4.141,4.135,4.146,0,0,84.11,6,GPS_Atti,
0.369220216702833,36.9087729702015,5575.1727430381,148.950136,0,13.3667327112,19700,2017-11-06 08:09:34,16,16.491,5575.1727430381,148.950136,7.90534596,13.586614608,332.7, 1.1, 3.6,0,0,1024,1024,1577,1024,332.7,-37.5,98,4.143,4.141,4.135,4.146,0,0,84.11,6,GPS_Atti,
0.369220201091755,36.9087729996178,5576.4850790381,150.262472,0,13.374508302,19800,2017-11-06 08:09:35,16,16.491,5576.4850790381,150.262472,7.90534596,13.586614608,332.8, 1.1, 2.9,0,0,1024,1024,1576,1024,332.7,-38.9,98,4.143,4.141,4.135,4.146,0,0,84.11,6,GPS_Atti,
0.3692201556028,36.9087730728138,5577.7974150381,151.574808,0,13.393045048,19900,2017-11-06 08:09:35,16,16.491,5577.7974150381,151.574808,7.90534596,13.586614608,332.8, 0.2, 2.5,0,0,1024,1024,1577,1024,332.7,-40.4,98,4.143,4.141,4.135,4.146,0,0,84.11,6,GPS_Atti,
0.369220110173284,36.9087731460013,5579.1097510381,152.887144,0,13.4116146024,20000,2017-11-06 08:09:35,16,16.491,5579.1097510381,152.887144,7.90534596,13.586614608,332.7, 0, 2.4,0,0,1024,1024,1577,1024,332.7,-41.8,98,4.143,4.141,4.135,4.146,0,0,84.11,6,GPS_Atti,
0.369220035766421,36.90877322791,5580.4220870381,154.19948,0,13.4292655216,20100,2017-11-06 08:09:35,16,16.546,5580.4220870381,154.19948,7.90534596,13.586614608,332.7, -0.3, 2.8,0,0,1024,1024,1575,1024,332.7,-43.3,98,4.143,4.139,4.13,4.142,0,0,84.11,6,GPS_Atti,
0.369219943503669,36.9087732801069,5581.7344230381,155.511816,0,13.4345148656,20200,2017-11-06 08:09:35,16,16.546,5581.7344230381,155.511816,7.90534596,13.586614608,332.6, -0.9, 2.8,0,0,1024,1024,1573,1024,332.7,-43.3,98,4.143,4.139,4.13,4.142,0,0,84.11,6,GPS_Atti,
0.369219826247559,36.9087733348476,5583.0467590381,156.824152,0,13.4374348132,20300,2017-11-06 08:09:35,16,16.546,5583.0467590381,156.824152,7.90534596,13.586614608,332.7, -1.2, 3.5,0,0,1024,1024,1572,1024,332.7,-44.7,98,4.143,4.139,4.13,4.142,0,0,84.11,6,GPS_Atti,
0.369219708831048,36.9087733566732,5584.3590950381,158.136488,0,13.42929833,20400,2017-11-06 08:09:35,16,16.546,5584.3590950381,158.136488,7.90534596,13.586614608,332.7, -1.5, 4.2,0,0,1024,1024,1573,1024,332.7,-46.1,98,4.143,4.139,4.13,4.142,0,0,84.11,6,GPS_Atti,
0.369219602750949,36.9087733901257,5585.6714310381,159.448824,0,13.4267720832,20500,2017-11-06 08:09:35,16,16.546,5585.6714310381,159.448824,7.90534596,13.586614608,332.6, -1.6, 4.2,0,0,1024,1024,1572,1024,332.7,-47.5,98,4.143,4.139,4.13,4.142,0,0,84.11,6,GPS_Atti,
0.369219545241635,36.9087734086217,5586.9837670381,160.76116,0,13.4255581724,20600,2017-11-06 08:09:35,16,16.546,5586.9837670381,160.76116,7.90534596,13.586614608,332.7, -1.1, 3.5,0,0,1024,1024,1572,1024,332.7,-49,98,4.143,4.139,4.13,4.142,0,0,84.11,6,GPS_Atti,
0.369219494191544,36.9087734515706,5588.2961030381,162.073496,0,13.4335306136,20700,2017-11-06 08:09:35,16,16.546,5588.2961030381,162.073496,7.90534596,13.586614608,332.7, -0.6, 3,0,0,1024,1024,1571,1024,332.7,-50.4,98,4.143,4.139,4.13,4.142,0,0,84.11,6,GPS_Atti,
0.369219451232377,36.9087734972517,5589.6084390381,163.385832,0,13.443569984,20800,2017-11-06 08:09:36,16,16.546,5589.6084390381,163.385832,7.90534596,13.586614608,332.7, -0.7, 3,0,0,1024,1024,1571,1024,332.7,-51.8,98,4.143,4.139,4.13,4.142,0,0,84.11,6,GPS_Atti,
0.369219398061238,36.9087735584225,5590.5926910381,164.370084,0,13.4575791708,20900,2017-11-06 08:09:36,16,16.546,5590.5926910381,164.370084,7.90534596,13.586614608,332.7, -0.8, 3.2,0,0,1024,1024,1570,1024,332.7,-53.2,98,4.143,4.139,4.13,4.142,0,0,84.11,6,GPS_Atti,
0.369219361405778,36.9087736087266,5591.9050270381,165.68242,0,13.4700791712,21000,2017-11-06 08:09:36,16,16.546,5591.9050270381,165.68242,7.90534596,13.586614608,332.7, -0.7, 3.5,0,0,1024,1024,1571,1024,332.7,-54.7,98,4.143,4.139,4.13,4.142,0,0,84.11,6,GPS_Atti,
0.369219320298966,36.9087736878838,5593.2173630381,166.994756,0,13.4918639488,21100,2017-11-06 08:09:36,16,16.464,5593.2173630381,166.994756,7.90534596,13.586614608,332.7, -0.9, 3.3,0,0,1024,1024,1571,1024,332.7,-56.1,98,4.143,4.139,4.13,4.142,0,0,84.11,6,GPS_Atti,
0.369219299032302,36.9087737689638,5594.5296990381,168.307092,0,13.516896758,21200,2017-11-06 08:09:36,16,16.464,5594.5296990381,168.307092,7.90534596,13.586614608,332.7, -1.1, 3,0,0,1024,1024,1571,1024,332.7,-57.5,98,4.143,4.139,4.13,4.142,0,0,84.11,6,GPS_Atti,
0.369219297791427,36.9087738860552,5595.8420350381,169.619428,0,13.5567917724,21300,2017-11-06 08:09:36,16,16.464,5595.8420350381,169.619428,7.90534596,13.586614608,332.7, -1, 2.4,0,0,1024,1024,1571,1024,332.7,-59,98,4.143,4.139,4.13,4.142,0,0,84.11,6,GPS_Atti,
0.369219329815593,36.9087740036368,5596.8262870381,170.60368,0,13.601050304,21400,2017-11-06 08:09:36,16,16.464,5596.8262870381,170.60368,7.90534596,13.601050304,332.7, -1, 2,0,0,1024,1024,1571,1024,332.7,-60.4,98,4.143,4.139,4.13,4.142,0,0,84.11,6,GPS_Atti,
0.36921937212501,36.9087741089856,5598.1386230381,171.916016,0,13.6424545048,21500,2017-11-06 08:09:36,16,16.464,5598.1386230381,171.916016,7.90534596,13.6424545048,332.6, -1, 2,0,0,1024,1024,1571,1024,332.7,-61.9,98,4.143,4.139,4.13,4.142,0,0,84.11,6,GPS_Atti,
0.369219368041687,36.9087742413397,5599.4509590381,173.228352,0,13.6872379708,21600,2017-11-06 08:09:36,16,16.464,5599.4509590381,173.228352,7.90534596,13.6872379708,332.7, -0.7, 2,0,0,1024,1024,1571,1024,332.7,-63.3,98,4.143,4.139,4.13,4.142,0,0,84.11,6,GPS_Atti,
0.369219386841259,36.9087743891685,5600.4352110381,174.212604,0,13.7402235368,21700,2017-11-06 08:09:36,16,16.464,5600.4352110381,174.212604,7.90534596,13.7402235368,332.7, -0.4, 0.9,0,0,1024,1024,1571,1024,332.7,-63.3,98,4.143,4.139,4.13,4.142,0,0,84.11,6,GPS_Atti,
0.369219428711811,36.9087745176469,5601.7475470381,175.52494,0,13.7895017536,21800,2017-11-06 08:09:37,16,16.464,5601.7475470381,175.52494,7.90534596,13.7895017536,332.8, -0.5, 0.5,0,0,1024,1024,1571,1024,332.7,-64.8,98,4.143,4.139,4.13,4.142,0,0,84.11,6,GPS_Atti,
0.369219435872079,36.9087746333122,5603.0598830381,176.837276,0,13.8300201276,21900,2017-11-06 08:09:37,16,16.464,5603.0598830381,176.837276,7.90534596,13.8300201276,332.8, -0.6, 1.4,0,0,1024,1024,1571,1024,332.7,-66.2,98,4.143,4.139,4.13,4.142,0,0,84.11,6,GPS_Atti,
0.369219429547203,36.908774708416,5604.0441350381,177.821528,0,13.8549545116,22000,2017-11-06 08:09:37,16,16.464,5604.0441350381,177.821528,7.90534596,13.8549545116,332.8, -0.6, 1.5,0,0,1024,1024,1571,1024,332.7,-67.7,98,4.143,4.139,4.13,4.142,0,0,84.11,6,GPS_Atti,
0.369219395235073,36.9087747962109,5605.3564710381,179.133864,0,13.8807747224,22100,2017-11-06 08:09:37,16,16.491,5605.3564710381,179.133864,7.90534596,13.8807747224,332.7, -0.8, 1.5,0,0,1024,1024,1571,1024,332.7,-69.1,98,4.143,4.141,4.131,4.143,0,0,85.91,6,GPS_Atti,
0.369219359796061,36.9087748512343,5606.6688070381,180.4462,0,13.8952432268,22200,2017-11-06 08:09:37,16,16.491,5606.6688070381,180.4462,7.90534596,13.8952432268,332.7, -1.2, 2,0,0,1024,1024,1571,1024,332.7,-70.6,98,4.143,4.141,4.131,4.143,0,0,85.91,6,GPS_Atti,
0.369219301633741,36.9087749010501,5607.9811430381,181.758536,0,13.9051185552,22300,2017-11-06 08:09:37,16,16.491,5607.9811430381,181.758536,7.90534596,13.9051185552,332.7, -1.5, 2.8,0,0,1024,1024,1571,1024,332.7,-72,98,4.143,4.141,4.131,4.143,0,0,85.91,6,GPS_Atti,
0.369219258211282,36.9087749308604,5609.2934790381,183.070872,0,13.9100070068,22400,2017-11-06 08:09:37,16,16.491,5609.2934790381,183.070872,7.90534596,13.9100070068,332.7, -1.5, 2.9,0,0,1024,1024,1571,1024,332.7,-73.5,98,4.143,4.141,4.131,4.143,0,0,85.91,6,GPS_Atti,
0.369219232135008,36.9087749821494,5610.6058150381,184.383208,0,13.9244427028,22500,2017-11-06 08:09:37,16,16.491,5610.6058150381,184.383208,7.90534596,13.9244427028,332.7, -1.2, 2.3,0,0,1024,1024,1571,1024,332.7,-74.9,98,4.143,4.141,4.131,4.143,0,0,85.91,6,GPS_Atti,
0.369219254781779,36.9087750284644,5611.9181510381,185.695544,0,13.9431106824,22600,2017-11-06 08:09:37,16,16.491,5611.9181510381,185.695544,7.90534596,13.9431106824,332.7, -0.8, 1.9,0,0,1024,1024,1571,1024,332.7,-76.4,98,4.143,4.141,4.131,4.143,0,0,85.91,6,GPS_Atti,
0.369219279283347,36.9087750875025,5613.2304870381,187.00788,0,13.9664046464,22700,2017-11-06 08:09:37,16,16.491,5613.2304870381,187.00788,7.90534596,13.9664046464,332.7, -0.4, 1.7,0,0,1024,1024,1571,1024,332.7,-77.8,98,4.143,4.141,4.131,4.143,0,0,85.91,6,GPS_Atti,
0.369219308005842,36.9087751348966,5614.2147390381,187.992132,0,13.98622092,22800,2017-11-06 08:09:38,16,16.491,5614.2147390381,187.992132,7.90534596,13.98622092,332.7, -0.4, 1.4,0,0,1024,1024,1571,1024,332.7,-79.3,98,4.143,4.141,4.131,4.143,0,0,85.91,6,GPS_Atti,
0.36921931595672,36.9087752034761,5615.5270750381,189.304468,0,14.0107616032,22900,2017-11-06 08:09:38,16,16.491,5615.5270750381,189.304468,7.90534596,14.0107616032,332.6, -0.6, 1.6,0,0,1024,1024,1571,1024,332.7,-80.8,98,4.143,4.141,4.131,4.143,0,0,85.91,6,GPS_Atti,
0.369219320604299,36.908775268105,5616.8394110381,190.616804,0,14.0335306328,23000,2017-11-06 08:09:38,16,16.491,5616.8394110381,190.616804,7.90534596,14.0335306328,332.6, -0.8, 1.3,0,0,1024,1024,1571,1024,332.7,-82.3,98,4.143,4.141,4.131,4.143,0,0,85.91,6,GPS_Atti,
0.369219314556258,36.9087753452495,5618.1517470381,191.92914,0,14.0593180352,23100,2017-11-06 08:09:38,16,16.464,5618.1517470381,191.92914,7.90534596,14.0593180352,332.7, -0.8, 1,0,0,1024,1024,1571,1024,332.7,-82.3,98,4.138,4.134,4.125,4.138,0,0,85.91,6,GPS_Atti,
