latitude,longitude,altitude(feet),ascent(feet),speed(mph),distance(feet),time(millisecond),datetime(utc),satellites,gpslevel,voltage(v),max_altitude(feet),max_ascent(feet),max_speed(mph),max_distance(feet), xSpeed(mph), ySpeed(mph), zSpeed(mph), compass_heading(degrees), pitch(degrees), roll(degrees),isPhoto,isVideo,rc_elevator,rc_aileron,rc_throttle,rc_rudder,gimbal_heading(degrees),gimbal_pitch(degrees),battery_percent,voltageCell1,voltageCell2,voltageCell3,voltageCell4,voltageCell5,voltageCell6,current(A),battery_temperature(f),flycStateRaw,flycState,message
0.305856189479275,36.8800514853307,5826.8907865261,0,0,0,0,2018-04-14 12:25:26,12,0,0,5826.8907865261,0,0,0,0,0,0,52.4, -3, 1.9,0,0,364,364,364,1684,57,0,99,4.3,4.298,4.301,4.3,0,0,0,84.11,41,Motors_Started,
0.305856167671052,36.8800514469549,5826.8907865261,0,0,0.0161041343736,100,2018-04-14 12:25:26,12,0,0,5826.8907865261,0,0,0.0161041343736,0,0,0,52.4, -3, 1.9,0,0,364,364,364,1684,57,0,99,4.3,4.298,4.301,4.3,0,0,0,84.11,41,Motors_Started,
0.305856140086177,36.880051423775,5826.8907865261,0,0,0.028794620344,200,2018-04-14 12:25:27,12,0,0,5826.8907865261,0,0,0.028794620344,0,0,0,52.3, -3, 1.9,0,0,364,364,364,1684,57,0,99,4.3,4.298,4.301,4.3,0,0,0,84.11,41,Motors_Started,
0.305856111900407,36.8800513748645,5826.8907865261,0,0,0.049249017324,300,2018-04-14 12:25:27,12,0,0,5826.8907865261,0,0,0.049249017324,0,0,0,52.4, -3, 1.9,0,0,364,364,364,1684,57,0,99,4.3,4.298,4.301,4.3,0,0,0,84.11,41,Motors_Started,
0.305856096147145,36.8800513315586,5826.8907865261,0,0,0.06562828294,400,2018-04-14 12:25:27,12,0,17.178,5826.8907865261,0,0,0.06562828294,0,0,0,52.3, -3, 1.9,0,0,751,689,452,1619,57,0,99,4.3,4.298,4.301,4.3,0,0,1.504,84.11,41,Motors_Started,Setting new Return-To-Home altitude to 30m (98 ft). Setting new Maximum Flight Altitude to 150m (492 ft)
0.305856083771429,36.8800513168193,5826.8907865261,0,0,0.072576117808,500,2018-04-14 12:25:27,12,0,17.178,5826.8907865261,0,0,0.072576117808,0,0,0,52.4, -3, 1.9,0,0,1024,1024,988,1128,56.9,0,99,4.3,4.298,4.301,4.3,0,0,1.504,84.11,41,Motors_Started,
0.305856076924941,36.8800513222889,5826.8907865261,0,0,0.072282810712,600,2018-04-14 12:25:27,12,0,17.178,5826.8907865261,0,0,0.072576117808,0,0,0,52.4, -3, 1.9,0,0,1024,1024,1024,1024,55.6,0,99,4.3,4.298,4.301,4.3,0,0,1.504,84.11,41,Motors_Started,
0.305856074238059,36.8800513086464,5826.8907865261,0,0,0.076962600888,700,2018-04-14 12:25:27,12,0,17.178,5826.8907865261,0,0,0.076962600888,0,0,0,52.4, -3, 1.9,0,0,1024,1024,1024,1024,54.4,0,99,4.3,4.298,4.301,4.3,0,0,1.504,84.11,41,Motors_Started,
0.305856073094892,36.8800512871067,5826.8907865261,0,0,0.083865488248,800,2018-04-14 12:25:27,12,0,17.178,5826.8907865261,0,0,0.083865488248,0,0,0,52.3, -3, 2,0,0,1024,1024,1024,1024,53.8,0,99,4.3,4.298,4.301,4.3,0,0,1.504,84.11,41,Motors_Started,
0.305856074882516,36.8800512438152,5826.8907865261,0,0,0.097531827268,900,2018-04-14 12:25:27,12,0,17.178,5826.8907865261,0,0,0.097531827268,0,0,0,52.3, -3, 2.1,0,0,1024,1024,1024,1024,53.6,0,99,4.3,4.298,4.301,4.3,0,0,1.504,84.11,41,Motors_Started,
0.3058560759264,36.8800512061288,5826.8907865261,0,0,0.109967851288,1000,2018-04-14 12:25:27,12,0,17.178,5826.8907865261,0,0,0.109967851288,0,0,0,52.3, -3.1, 2.1,0,0,1024,1024,1024,1024,53.4,0,99,4.3,4.298,4.301,4.3,0,0,1.504,84.11,41,Motors_Started,
0.305856078880855,36.8800511733586,5826.8907865261,0,0,0.120762142972,1100,2018-04-14 12:25:28,12,0,17.178,5826.8907865261,0,0,0.120762142972,0,0,0,52.3, -3, 2,0,0,1024,1024,1024,1024,53.2,0,99,4.3,4.298,4.301,4.3,0,0,1.504,84.11,41,Motors_Started,
0.305856083273227,36.8800511457625,5826.8907865261,0,0,0.12980807502,1200,2018-04-14 12:25:28,12,0,17.178,5826.8907865261,0,0,0.12980807502,0,0,0,52.4, -2.9, 1.9,0,0,1024,1024,1024,1024,53.2,0,99,4.3,4.298,4.301,4.3,0,0,1.504,84.11,41,Motors_Started,
0.305856086490981,36.8800511110497,5826.8907865261,0,0,0.141629597708,1300,2018-04-14 12:25:28,12,0,17.178,5826.8907865261,0,0,0.141629597708,0,0,0,52.3, -3.1, 2.1,0,0,1024,1024,1024,1024,53.1,0,99,4.3,4.298,4.301,4.3,0,0,1.504,84.11,41,Motors_Started,
0.305856089065093,36.8800510697207,5826.8907865261,0,0,0.155996067984,1400,2018-04-14 12:25:28,12,0,17.178,5826.8907865261,0,0,0.155996067984,0,0,0,52.3, -3.1, 2.1,0,0,1024,1024,1024,1024,53,0,99,4.299,4.298,4.301,4.299,0,0,1.608,84.11,41,Motors_Started,
0.305856091062125,36.8800510424409,5826.8907865261,0,0,0.165527236268,1500,2018-04-14 12:25:28,12,0,17.178,5826.8907865261,0,0,0.165527236268,0,0,0,52.4, -3.2, 2.2,0,0,1024,1024,1024,1024,53,0,99,4.299,4.298,4.301,4.299,0,0,1.608,84.11,10,Assisted_Takeoff,
0.305856096316656,36.8800510146067,5826.8907865261,0,0,0.17507218408,1600,2018-04-14 12:25:28,12,0,17.178,5826.8907865261,0,0,0.17507218408,0,0,0,52.3, -2.7, 1.7,0,0,1024,1024,1024,1024,53,0,99,4.299,4.298,4.301,4.299,0,0,1.608,84.11,10,Assisted_Takeoff,
0.305856099977347,36.8800509740045,5826.8907865261,0,0,0.189390754092,1700,2018-04-14 12:25:28,12,0,17.178,5826.8907865261,0,0,0.189390754092,0,0,0,52.3, -3, 2,0,0,1024,1024,1024,1024,52.9,0,99,4.299,4.298,4.301,4.299,0,0,1.608,84.11,10,Assisted_Takeoff,
0.305856103563384,36.8800509409372,5826.8907865261,0,0,0.201077106172,1800,2018-04-14 12:25:28,12,0,17.178,5826.8907865261,0,0,0.201077106172,0,0,0,52.3, -2.9, 1.9,0,0,1024,1024,1024,1024,52.9,0,99,4.299,4.298,4.301,4.299,0,0,1.608,84.11,10,Assisted_Takeoff,
0.305856108392281,36.8800509092167,5826.8907865261,0,0,0.21226378632,1900,2018-04-14 12:25:28,12,0,17.178,5826.8907865261,0,0,0.21226378632,0,0,0,52.3, -2.9, 1.9,0,0,1024,1024,1024,1024,52.9,0,99,4.299,4.298,4.301,4.299,0,0,1.608,84.11,10,Assisted_Takeoff,
0.305856111403935,36.8800509002163,5826.8907865261,0,0,0.215367789044,2000,2018-04-14 12:25:28,12,0,17.178,5826.8907865261,0,0,0.215367789044,0,0,0,52.3, -2.9, 1.9,0,0,1024,1024,1024,1024,52.9,0,99,4.299,4.298,4.301,4.299,0,0,1.608,84.11,10,Assisted_Takeoff,
0.30585611452439,36.8800508669177,5826.8907865261,0,0,0.227275597824,2100,2018-04-14 12:25:29,12,0,17.178,5826.8907865261,0,0,0.227275597824,0,0,0,52.3, -2.9, 1.9,0,0,1024,1024,1024,1024,52.8,0,99,4.299,4.298,4.301,4.299,0,0,1.608,84.11,10,Assisted_Takeoff,
0.305856116655972,36.8800508373962,5826.8907865261,0,0,0.237883537796,2200,2018-04-14 12:25:29,12,0,17.178,5826.8907865261,0,0,0.237883537796,0,0,0,52.3, -3, 1.9,0,0,1024,1024,1025,1024,52.8,0,99,4.299,4.298,4.301,4.299,0,0,1.608,84.11,10,Assisted_Takeoff,
0.30585611845754,36.8800507862118,5826.8907865261,0,0,0.256382226052,2300,2018-04-14 12:25:29,12,0,17.178,5826.8907865261,0,0,0.256382226052,0,0,0,52.3, -2.9, 1.9,0,0,1024,1024,1036,1024,52.8,0,99,4.299,4.298,4.301,4.299,0,0,1.608,84.11,10,Assisted_Takeoff,
0.305856120416151,36.8800507426018,5826.8907865261,0,0,0.272149286924,2400,2018-04-14 12:25:29,12,0,17.231,5826.8907865261,0,0,0.272149286924,0,0,0,52.3, -2.9, 1.9,0,0,1024,1024,1064,1024,52.8,0,99,4.271,4.294,4.296,4.292,0,0,3.898,84.11,10,Assisted_Takeoff,
0.305856120417627,36.8800506820048,5826.8907865261,0,0,0.29416995692,2500,2018-04-14 12:25:29,12,0,17.231,5826.8907865261,0,0,0.29416995692,0,0,0,52.3, -3, 1.9,0,0,1024,1024,1087,1024,52.8,0,99,4.271,4.294,4.296,4.292,0,0,3.898,84.11,10,Assisted_Takeoff,
0.30585612128345,36.880050630161,5826.8907865261,0,0,0.312994104504,2600,2018-04-14 12:25:29,12,0,17.231,5826.8907865261,0,0,0.312994104504,0,0,0,52.3, -2.9, 1.9,0,0,1024,1024,1130,1024,52.8,0,99,4.271,4.294,4.296,4.292,0,0,3.898,84.11,10,Assisted_Takeoff,
0.305856143705496,36.8800505678633,5826.8907865261,0,0,0.33514764852,2700,2018-04-14 12:25:29,12,0,17.231,5826.8907865261,0,0,0.33514764852,0,0,0,52.3, -2.9, 2,0,0,1024,1024,1156,1024,52.8,0,99,4.271,4.294,4.296,4.292,0,0,3.898,84.11,10,Assisted_Takeoff,
0.305856173492892,36.8800505139141,5826.8907865261,0,0,0.35446523444,2800,2018-04-14 12:25:29,12,0,17.231,5826.8907865261,0,0,0.35446523444,0,0,0,52.3, -3, 2,0,0,1024,1024,1184,1024,52.8,0,99,4.271,4.294,4.296,4.292,0,0,3.898,84.11,10,Assisted_Takeoff,
0.305856201593474,36.8800504514002,5826.8907865261,0,0,0.37725066824,2900,2018-04-14 12:25:29,12,0,17.231,5826.8907865261,0,0,0.37725066824,0,0,0,52.3, -3, 2,0,0,1024,1024,1211,1024,52.8,0,99,4.271,4.294,4.296,4.292,0,0,3.898,84.11,10,Assisted_Takeoff,
0.305856219993415,36.8800503945621,5826.8907865261,0,0,0.39811681064,3000,2018-04-14 12:25:29,12,0,17.231,5826.8907865261,0,0,0.39811681064,0,0,0,52.3, -2.8, 1.9,0,0,1024,1024,1234,1024,52.8,0,99,4.271,4.294,4.296,4.292,0,0,3.898,84.11,10,Assisted_Takeoff,
0.305856233616316,36.8800503504741,5826.8907865261,0,0,0.41436024948,3100,2018-04-14 12:25:30,12,0,17.231,5826.8907865261,0,0,0.41436024948,0,0,0,52.2, -2.4, 1.7,0,0,1024,1024,1245,1024,52.8,0,99,4.271,4.294,4.296,4.292,0,0,3.898,84.11,10,Assisted_Takeoff,
0.305856243166326,36.8800503195774,5826.8907865261,0,0,0.42576773016,3200,2018-04-14 12:25:30,12,0,17.231,5826.8907865261,0,0,0.42576773016,0,0,0,52.4, -2.2, 1.7,0,0,1024,1024,1246,1024,52.8,0,99,4.271,4.294,4.296,4.292,0,0,3.898,84.11,10,Assisted_Takeoff,
0.305856247140289,36.8800502761446,5826.8907865261,0,0,0.4416666808,3300,2018-04-14 12:25:30,12,0,17.231,5826.8907865261,0,0,0.4416666808,0,0,0,52.6, -0.7, 1.6,0,0,1024,1024,1246,1024,52.8,0,99,4.271,4.294,4.296,4.292,0,0,3.898,84.11,10,Assisted_Takeoff,
0.305856248360401,36.8800502527528,5826.8907865261,0,0,0.450213269,3400,2018-04-14 12:25:30,12,0,17.178,5826.8907865261,0,0,0.450213269,0,0,-0.223694,52.4, 1.5, 1,0,0,1024,1024,1246,1024,52.8,0,99,4.274,4.271,4.274,4.265,0,0,2.936,84.11,10,Assisted_Takeoff,
0.305856213760597,36.880050242905,5826.8907865261,0,0,0.4533792796,3500,2018-04-14 12:25:30,12,0,17.178,5826.8907865261,0,0,0.4533792796,0,0,-0.447388,52.3, 1.9, -0.1,0,0,1024,1024,1249,1024,52.7,0,99,4.274,4.271,4.274,4.265,0,0,2.936,84.11,6,P-GPS,Home Point Recorded. RTH Altitude:  30m.
0.305856162521912,36.8800502122866,5826.8907865261,0,0,0.464566944,3600,2018-04-14 12:25:30,12,0,17.178,5826.8907865261,0,0,0.464566944,0,0,-0.894776,52.3, 0.9, -0.6,0,0,1024,1024,1261,1024,52.7,0,99,4.274,4.271,4.274,4.265,0,0,2.936,84.11,6,P-GPS,
0.305856100371838,36.880050160416,5826.8907865261,0,0,0.48447836196,3700,2018-04-14 12:25:30,12,0,17.178,5826.8907865261,0,0,0.48447836196,0,0,-1.11847,52.3, 0.2, -0.3,0,0,1024,1024,1262,1024,52.7,0,99,4.274,4.271,4.274,4.265,0,0,2.936,84.11,6,P-GPS,
0.305856047467661,36.8800500930095,5827.2188705261,0.328084,0,0.51061681424,3800,2018-04-14 12:25:30,12,0,17.178,5827.2188705261,0.328084,0,0.51061681424,0,0,-1.342164,52.3, 0.6, 0.3,0,0,1024,1024,1264,1024,52.7,0,99,4.274,4.271,4.274,4.265,0,0,2.936,84.11,6,P-GPS,
0.305855972805642,36.8800500122591,5827.5469545261,0.656168,0,0.543225083,3900,2018-04-14 12:25:30,12,0,17.178,5827.5469545261,0.656168,0,0.543225083,0,0,-1.565858,52.3, 0.3, 0.1,0,0,1024,1024,1264,1024,52.7,0,99,4.274,4.271,4.274,4.265,0,0,2.936,84.11,6,P-GPS,
0.305855885085333,36.8800499088043,5827.5469545261,0.656168,0,0.5858103862,4000,2018-04-14 12:25:30,12,0,17.178,5827.5469545261,0.656168,0,0.5858103862,0,0,-1.789552,52.2, -0.1, -0.1,0,0,1024,1024,1269,1024,52.7,0,99,4.274,4.271,4.274,4.265,0,0,2.936,84.11,6,P-GPS,
0.305855810625291,36.8800497617609,5827.8750385261,0.984252,0,0.6438484458,4100,2018-04-14 12:25:31,12,0,17.178,5827.8750385261,0.984252,0,0.6438484458,0,0,-1.789552,52.2, -0.3, -0.4,0,0,1024,1024,1285,1024,52.7,0,99,4.274,4.271,4.274,4.265,0,0,2.936,84.11,6,P-GPS,
0.305855750012951,36.8800495927045,5828.2031225261,1.312336,0,0.70888453712,4200,2018-04-14 12:25:31,12,0,17.178,5828.2031225261,1.312336,0,0.70888453712,0,0,-2.013246,52.3, -0.5, -0.4,0,0,1024,1024,1305,1024,52.7,0,99,4.274,4.271,4.274,4.265,0,0,2.936,84.11,6,P-GPS,
0.305855708237256,36.8800494180575,5828.5312065261,1.64042,0,0.77439963108,4300,2018-04-14 12:25:31,11,0,17.178,5828.5312065261,1.64042,0,0.77439963108,0,0,-2.23694,52.4, -1, 0.2,0,0,1024,1024,1313,1024,52.7,0,99,4.274,4.271,4.274,4.265,0,0,2.936,84.11,6,P-GPS,
0.305855660719744,36.8800492587387,5828.8592905261,1.968504,0,0.83495081412,4400,2018-04-14 12:25:31,11,0,16.749,5828.8592905261,1.968504,0,0.83495081412,0,0,-2.23694,52.5, -1.7, -0.1,0,0,1024,1024,1306,1024,52.7,0,99,4.274,4.271,4.274,4.265,0,0,2.936,84.11,6,P-GPS,
0.305855610957778,36.8800491257543,5829.1873745261,2.296588,0,0.88637470028,4500,2018-04-14 12:25:31,12,0,16.749,5829.1873745261,2.296588,0,0.88637470028,0,0,-2.684328,52.6, -1.9, -0.1,0,0,1024,1024,1307,1024,52.7,0,99,4.274,4.271,4.274,4.265,0,0,2.936,84.11,6,P-GPS,
0.305855567416951,36.8800490071779,5829.5154585261,2.624672,0,0.93219163088,4600,2018-04-14 12:25:31,12,0,16.749,5829.5154585261,2.624672,0,0.93219163088,0,0,-2.908022,52.6, -2.2, -0.1,0,0,1024,1024,1321,1024,52.7,0,99,4.274,4.271,4.274,4.265,0,0,2.936,84.11,6,P-GPS,
0.305855540235015,36.880048900902,5830.1716265261,3.28084,0,0.9722113172,4700,2018-04-14 12:25:31,12,0,16.749,5830.1716265261,3.28084,0,0.9722113172,0,0,-3.131716,52.4, -2.4, -0.2,0,0,1024,1024,1344,1024,52.7,0,99,4.274,4.271,4.274,4.265,0,0,2.936,84.11,6,P-GPS,
0.305855536011098,36.8800487972458,5830.4997105261,3.608924,0,1.00929465172,4800,2018-04-14 12:25:31,12,0,16.749,5830.4997105261,3.608924,0,1.00929465172,0,0,-3.35541,52.4, -1.8, 0.2,0,0,1024,1024,1350,1024,52.7,0,99,4.274,4.271,4.274,4.265,0,0,2.936,84.11,6,P-GPS,
0.305855558990148,36.8800486907403,5831.1558785261,4.265092,0,1.04521656888,4900,2018-04-14 12:25:31,12,0,16.749,5831.1558785261,4.265092,0,1.04521656888,0,0,-3.579104,52.4, -0.7, 1.1,0,0,1024,1024,1346,1024,52.7,0,99,4.274,4.271,4.274,4.265,0,0,2.936,84.11,6,P-GPS,
0.305855552597818,36.8800485652575,5831.8120465261,4.92126,0,1.09041670156,5000,2018-04-14 12:25:31,12,0,16.749,5831.8120465261,4.92126,0,1.09041670156,0,0,-3.802798,52.3, -1.3, 1,0,0,1024,1024,1347,1024,52.7,0,99,4.274,4.271,4.274,4.265,0,0,2.936,84.11,6,P-GPS,
0.305855482562055,36.8800484122547,5832.1401305261,5.249344,0,1.1504757586,5100,2018-04-14 12:25:31,12,0,16.749,5832.1401305261,5.249344,0,1.1504757586,-0.223694,0,-3.802798,52.3, -1.9, 0.4,0,0,1024,1024,1360,1024,52.7,0,99,4.274,4.271,4.274,4.265,0,0,2.936,84.11,6,P-GPS,
0.305855366597326,36.8800482488296,5832.7962985261,5.905512,0.3131716,1.2183891466,5200,2018-04-14 12:25:32,12,0,16.749,5832.7962985261,5.905512,0.3131716,1.2183891466,-0.223694,-0.223694,-4.026492,52.3, -3, -0.1,0,0,1024,1024,1374,1024,52.7,0,99,4.274,4.271,4.274,4.265,0,0,2.936,84.11,6,P-GPS,
0.305855246083756,36.8800481144604,5833.4524665261,6.56168,0.3131716,1.2770997784,5300,2018-04-14 12:25:32,12,0,16.749,5833.4524665261,6.56168,0.3131716,1.2770997784,-0.223694,-0.223694,-4.026492,52.2, -3.6, -1,0,0,1024,1024,1381,1024,52.7,0,99,4.274,4.271,4.274,4.265,0,0,2.936,84.11,6,P-GPS,
0.305855141212115,36.8800479866721,5834.1086345261,7.217848,0.3131716,1.3325295702,5400,2018-04-14 12:25:32,12,0,16.722,5834.1086345261,7.217848,0.3131716,1.3325295702,-0.223694,-0.223694,-4.250186,52.2, -4.1, -1.1,0,0,1024,1024,1382,1024,52.7,0,99,4.209,4.203,4.21,4.197,0,0,14.216,84.11,6,P-GPS,
0.305855029871786,36.8800478155907,5834.7648025261,7.874016,0.3131716,1.40414046488,5500,2018-04-14 12:25:32,12,0,16.722,5834.7648025261,7.874016,0.3131716,1.40414046488,-0.223694,-0.223694,-4.250186,52.2, -4.9, -0.4,0,0,1024,1024,1386,1024,52.7,0,99,4.209,4.203,4.21,4.197,0,0,14.216,84.11,6,P-GPS,
0.305854917676625,36.8800476337349,5835.4209705261,8.530184,0.3131716,1.47986225208,5600,2018-04-14 12:25:32,12,0,16.722,5835.4209705261,8.530184,0.3131716,1.47986225208,-0.223694,-0.223694,-4.47388,52.3, -5.4, -0.4,0,0,1024,1024,1388,1024,52.7,0,99,4.209,4.203,4.21,4.197,0,0,14.216,84.11,6,P-GPS,
0.305854820006575,36.8800474999754,5836.0771385261,9.186352,0.223694,1.53748692584,5700,2018-04-14 12:25:32,12,0,16.722,5836.0771385261,9.186352,0.3131716,1.53748692584,-0.223694,0,-4.47388,52.3, -5.5, -0.8,0,0,1024,1024,1395,1024,52.7,0,99,4.209,4.203,4.21,4.197,0,0,14.216,84.11,6,P-GPS,
0.305854752915496,36.8800474023691,5836.7333065261,9.84252,0.223694,1.57916343636,5800,2018-04-14 12:25:32,12,0,16.722,5836.7333065261,9.84252,0.3131716,1.57916343636,-0.223694,0,-4.47388,52.3, -5.5, -0.7,0,0,1024,1024,1396,1024,52.7,0,99,4.209,4.203,4.21,4.197,0,0,14.216,84.11,6,P-GPS,
0.305854746510113,36.8800473496634,5837.3894745261,10.498688,0,1.59808404064,5900,2018-04-14 12:25:32,12,0,16.722,5837.3894745261,10.498688,0.3131716,1.59808404064,0,0,-4.697574,52.3, -5, -0.7,0,0,1024,1024,1406,1024,52.7,0,99,4.209,4.203,4.21,4.197,0,0,14.216,84.11,6,P-GPS,
0.305854766562111,36.8800473088028,5838.0456425261,11.154856,0,1.60979007776,6000,2018-04-14 12:25:32,12,0,16.722,5838.0456425261,11.154856,0.3131716,1.60979007776,0,0,-4.697574,52.3, -4.8, -0.7,0,0,1024,1024,1407,1024,52.7,0,99,4.209,4.203,4.21,4.197,0,0,14.216,84.11,6,P-GPS,
0.305854774687996,36.8800472546775,5838.7018105261,11.811024,0,1.62755254552,6100,2018-04-14 12:25:33,12,0,16.722,5838.7018105261,11.811024,0.3131716,1.62755254552,0,0,-4.921268,52.3, -4.9, -0.7,0,0,1024,1024,1409,1024,52.7,0,99,4.209,4.203,4.21,4.197,0,0,14.216,84.11,6,P-GPS,
0.305854769493972,36.8800471883399,5839.6860625261,12.795276,0,1.65111881924,6200,2018-04-14 12:25:33,12,0,16.722,5839.6860625261,12.795276,0.3131716,1.65111881924,0,0,-4.921268,52.3, -5.1, -0.9,0,0,1024,1024,1409,1024,52.7,0,99,4.209,4.203,4.21,4.197,0,0,14.216,84.11,6,P-GPS,
0.305854765068268,36.8800471137439,5840.3422305261,13.451444,0,1.67748036864,6300,2018-04-14 12:25:33,12,0,16.749,5840.3422305261,13.451444,0.3131716,1.67748036864,0,0,-4.921268,52.3, -5.2, -1,0,0,1024,1024,1425,1024,52.7,0,99,4.196,4.193,4.203,4.188,0,0,14.498,84.11,6,P-GPS,
0.305854836636245,36.880046983558,5841.6545665261,14.76378,0,1.71500661656,6500,2018-04-14 12:25:33,12,0,16.749,5841.6545665261,14.76378,0.3131716,1.71500661656,0,0,-5.144962,52.4, -4.8, -0.3,0,0,1024,1024,1446,1024,52.7,0,99,4.196,4.193,4.203,4.188,0,0,14.498,84.11,6,P-GPS,
0.305854915362963,36.8800469375585,5842.6388185261,15.748032,0,1.72311685304,6600,2018-04-14 12:25:33,12,0,16.749,5842.6388185261,15.748032,0.3131716,1.72311685304,0,0,-5.144962,52.4, -4.8, -0.1,0,0,1024,1024,1467,1024,52.7,0,99,4.196,4.193,4.203,4.188,0,0,14.498,84.11,6,P-GPS,
0.305854980027939,36.8800469028922,5843.2949865261,16.4042,0,1.72913063276,6700,2018-04-14 12:25:33,12,0,16.749,5843.2949865261,16.4042,0.3131716,1.72913063276,0,0,-5.368656,52.4, -4.8, -0.2,0,0,1024,1024,1490,1024,52.7,0,99,4.196,4.193,4.203,4.188,0,0,14.498,84.11,6,P-GPS,
0.305855045128347,36.8800468818642,5844.2792385261,17.388452,0,1.73066606588,6800,2018-04-14 12:25:33,12,0,16.749,5844.2792385261,17.388452,0.3131716,1.73066606588,0,0,-5.59235,52.3, -4.6, -0.2,0,0,1024,1024,1499,1024,52.7,0,99,4.196,4.193,4.203,4.188,0,0,14.498,84.11,6,P-GPS,
0.3058551368802,36.880046888973,5844.9354065261,18.04462,0,1.72036750912,6900,2018-04-14 12:25:33,12,0,16.749,5844.9354065261,18.04462,0.3131716,1.73066606588,0,0,-6.039738,52.4, -4.4, -0.1,0,0,1024,1024,1516,1024,52.7,0,99,4.196,4.193,4.203,4.188,0,0,14.498,84.11,6,P-GPS,
0.305855246383644,36.8800469098291,5845.9196585261,19.028872,0,1.70443903092,7000,2018-04-14 12:25:33,12,0,16.749,5845.9196585261,19.028872,0.3131716,1.73066606588,0,0,-6.263432,52.4, -4.3, -0.1,0,0,1024,1024,1534,1024,52.7,0,99,4.196,4.193,4.203,4.188,0,0,14.498,84.11,6,P-GPS,
0.305855345749547,36.8800469449911,5846.9039105261,20.013124,0,1.684875382,7100,2018-04-14 12:25:33,12,0,16.749,5846.9039105261,20.013124,0.3131716,1.73066606588,0,0,-6.71082,52.3, -4.2, -0.1,0,0,1024,1024,1547,1024,52.6,0,99,4.196,4.193,4.203,4.188,0,0,14.498,84.11,6,P-GPS,
0.305855443034735,36.8800469787414,5847.8881625261,20.997376,0,1.66660438404,7200,2018-04-14 12:25:34,12,0,16.749,5847.8881625261,20.997376,0.3131716,1.73066606588,0,0,-6.934514,52.4, -4, -0.2,0,0,1024,1024,1556,1024,52.7,0,99,4.196,4.193,4.203,4.188,0,0,14.498,84.11,6,P-GPS,
0.305855518287088,36.8800469879389,5848.8724145261,21.981628,0,1.65901908196,7300,2018-04-14 12:25:34,12,0,16.749,5848.8724145261,21.981628,0.3131716,1.73066606588,0,0,-7.381902,52.3, -3.8, -0.1,0,0,1024,1024,1570,1024,52.6,0,99,4.196,4.193,4.203,4.188,0,0,14.498,84.11,6,P-GPS,
0.305855594118267,36.8800469850397,5850.1847505261,23.293964,0,1.65621068292,7400,2018-04-14 12:25:34,12,0,16.668,5850.1847505261,23.293964,0.3131716,1.73066606588,0,0,-7.605596,52.4, -3.8, 0,0,0,1024,1024,1590,1024,52.6,0,99,4.196,4.193,4.203,4.188,0,0,16.482,84.11,6,P-GPS,
0.305855665177711,36.8800469985211,5851.1690025261,24.278216,0,1.64812669316,7500,2018-04-14 12:25:34,12,0,16.668,5851.1690025261,24.278216,0.3131716,1.73066606588,0,0,-7.82929,52.4, -3.6, 0,0,0,1024,1024,1625,1024,52.7,0,99,4.196,4.193,4.203,4.188,0,0,16.482,84.11,6,P-GPS,
0.30585574193592,36.88004701998,5852.4813385261,25.590552,0,1.6373196062,7600,2018-04-14 12:25:34,12,0,16.668,5852.4813385261,25.590552,0.3131716,1.73066606588,0,0,-8.052984,52.4, -3.5, -0.1,0,0,1024,1024,1671,1024,52.6,0,99,4.196,4.193,4.203,4.188,0,0,16.482,84.11,6,P-GPS,
0.305855813771012,36.8800470320413,5853.7936745261,26.902888,0,1.6305282674,7700,2018-04-14 12:25:34,12,0,16.668,5853.7936745261,26.902888,0.3131716,1.73066606588,0,0,-8.724066,52.4, -3, -0.6,0,0,1024,1024,1684,1024,52.6,0,99,4.196,4.193,4.203,4.188,0,0,16.482,84.11,6,P-GPS,
0.305855898650424,36.8800470190556,5855.1060105261,28.215224,0,1.63294624648,7800,2018-04-14 12:25:34,12,0,16.668,5855.1060105261,28.215224,0.3131716,1.73066606588,0,0,-9.171454,52.3, -2.8, -0.4,0,0,1024,1024,1684,1024,52.6,0,99,4.196,4.193,4.203,4.188,0,0,16.482,84.11,6,P-GPS,
0.305856174715497,36.8800468211693,5859.3711025261,32.480316,0,1.70169952952,8100,2018-04-14 12:25:35,12,0,16.668,5859.3711025261,32.480316,0.3131716,1.73066606588,0,0,-10.513618,52.4, -5.8, 0.1,0,0,1024,1024,1684,1024,52.6,0,99,4.196,4.193,4.203,4.188,0,0,16.482,84.11,6,P-GPS,
0.30585628934798,36.8800468378266,5861.0115225261,34.120736,0,1.69600727212,8200,2018-04-14 12:25:35,12,0,16.668,5861.0115225261,34.120736,0.3131716,1.73066606588,0,0,-10.737312,52.4, -5.3, -0.1,0,0,1024,1024,1684,1024,52.6,0,99,4.196,4.193,4.203,4.188,0,0,16.482,84.11,6,P-GPS,
0.305856449996728,36.8800469241911,5862.6519425261,35.761156,0.223694,1.66681763864,8300,2018-04-14 12:25:35,12,0,16.668,5862.6519425261,35.761156,0.3131716,1.73066606588,0,0.223694,-10.961006,52.4, -4.1, -0.5,0,0,1024,1024,1684,1024,52.6,0,99,4.196,4.193,4.203,4.188,0,0,16.482,84.11,6,P-GPS,
0.305857019031649,36.8800471931362,5867.5732025261,40.682416,0,1.59496068096,8600,2018-04-14 12:25:35,12,0,16.668,5867.5732025261,40.682416,0.3131716,1.73066606588,0,0,-11.1847,52.4, -3.1, 0.3,0,0,1024,1024,1657,1024,52.6,0,99,4.196,4.193,4.203,4.188,0,0,16.482,84.11,6,P-GPS,
0.305857166524809,36.8800472579385,5869.5417065261,42.65092,0,1.58299873832,8700,2018-04-14 12:25:35,12,0,16.668,5869.5417065261,42.65092,0.3131716,1.73066606588,0,0,-11.1847,52.5, -3.6, -0.2,0,0,1024,1024,1649,1024,52.6,0,99,4.196,4.193,4.203,4.188,0,0,16.482,84.11,6,P-GPS,
0.30585729384796,36.8800473049165,5871.1821265261,44.29134,0,1.5775262972,8800,2018-04-14 12:25:35,12,0,16.668,5871.1821265261,44.29134,0.3131716,1.73066606588,0,0,-11.1847,52.5, -4.2, -0.4,0,0,1024,1024,1672,1024,52.6,0,99,4.196,4.193,4.203,4.188,0,0,16.482,84.11,6,P-GPS,
0.3058574209014,36.8800473219437,5872.8225465261,45.93176,0,1.5840387646,8900,2018-04-14 12:25:35,12,0,16.668,5872.8225465261,45.93176,0.3131716,1.73066606588,0,0,-10.737312,52.5, -4.4, -0.4,0,0,1024,1024,1684,1024,52.6,0,99,4.196,4.193,4.203,4.188,0,0,16.482,84.11,6,P-GPS,
0.305857564176991,36.8800473337582,5874.1348825261,47.244096,0,1.59555779384,9000,2018-04-14 12:25:35,12,0,16.668,5874.1348825261,47.244096,0.3131716,1.73066606588,0,0,-10.737312,52.5, -3.3, -0.4,0,0,1024,1024,1684,1024,52.6,0,99,4.196,4.193,4.203,4.188,0,0,16.482,84.11,6,P-GPS,
0.305857691226564,36.8800473071348,5875.7753025261,48.884516,0,1.61986881824,9100,2018-04-14 12:25:35,12,0,16.668,5875.7753025261,48.884516,0.3131716,1.73066606588,0,0,-10.737312,52.5, -3.3, 0.3,0,0,1024,1024,1684,1024,52.6,0,99,4.196,4.193,4.203,4.188,0,0,16.482,84.11,6,P-GPS,
0.305857804690231,36.880047262398,5877.4157225261,50.524936,0,1.64957026276,9200,2018-04-14 12:25:36,12,0,16.668,5877.4157225261,50.524936,0.3131716,1.73066606588,0,0,-10.961006,52.4, -4.5, 0.1,0,0,1024,1024,1684,1024,52.6,0,99,4.196,4.193,4.203,4.188,0,0,16.482,84.11,6,P-GPS,
0.305857911555647,36.8800472128436,5879.0561425261,52.165356,0,1.68065294092,9300,2018-04-14 12:25:36,12,0,16.534,5879.0561425261,52.165356,0.3131716,1.73066606588,0,0,-10.961006,52.5, -5.1, -0.4,0,0,1024,1024,1684,1024,52.6,0,99,4.154,4.152,4.167,4.164,0,0,19.684,84.11,6,P-GPS,
0.30585821579845,36.8800471710365,5882.3369825261,55.446196,0,1.73901908452,9500,2018-04-14 12:25:36,12,0,16.534,5882.3369825261,55.446196,0.3131716,1.73901908452,0,0,-10.961006,52.4, -3.8, 0.2,0,0,1024,1024,1684,1024,52.6,0,99,4.154,4.152,4.167,4.164,0,0,19.684,84.11,6,P-GPS,
0.305858380156081,36.8800471706977,5883.9774025261,57.086616,0,1.76545609324,9600,2018-04-14 12:25:36,12,0,16.534,5883.9774025261,57.086616,0.3131716,1.76545609324,0,0,-10.961006,52.4, -3.2, 0.6,0,0,1024,1024,1684,1024,52.6,0,99,4.154,4.152,4.167,4.164,0,0,19.684,84.11,6,P-GPS,
0.30585851666793,36.8800471685774,5885.6178225261,58.727036,0,1.78923562156,9700,2018-04-14 12:25:36,12,0,16.534,5885.6178225261,58.727036,0.3131716,1.78923562156,0,0,-10.961006,52.4, -3.3, 0.5,0,0,1024,1024,1684,1024,52.6,-0.2,99,4.154,4.152,4.167,4.164,0,0,19.684,84.11,6,P-GPS,
0.305858627603439,36.8800471590711,5887.2582425261,60.367456,0,1.81181436244,9800,2018-04-14 12:25:36,12,0,16.534,5887.2582425261,60.367456,0.3131716,1.81181436244,0,0,-10.961006,52.4, -3.9, 0.2,0,0,1024,1024,1684,1024,52.6,-0.7,99,4.154,4.152,4.167,4.164,0,0,19.684,84.11,6,P-GPS,
0.305858728883699,36.8800471486291,5888.8986625261,62.007876,0,1.83352696156,9900,2018-04-14 12:25:36,12,0,16.534,5888.8986625261,62.007876,0.3131716,1.83352696156,0,0,-10.961006,52.4, -4, 0,0,0,1024,1024,1684,1024,52.6,-1.4,99,4.154,4.152,4.167,4.164,0,0,19.684,84.11,6,P-GPS,
0.305858831523303,36.8800471374778,5890.5390825261,63.648296,0,1.85620740848,10000,2018-04-14 12:25:36,12,0,16.534,5890.5390825261,63.648296,0.3131716,1.85620740848,0,0,-11.1847,52.4, -4, 0.1,0,0,1024,1024,1684,1024,52.6,-3,99,4.154,4.152,4.167,4.164,0,0,19.684,84.11,6,P-GPS,
0.305858922514239,36.8800471094637,5892.5075865261,65.6168,0,1.88232289488,10100,2018-04-14 12:25:37,12,0,16.534,5892.5075865261,65.6168,0.3131716,1.88232289488,0,0,-11.1847,52.4, -3.8, 0.1,0,0,1024,1024,1684,1024,52.6,-4.8,99,4.154,4.152,4.167,4.164,0,0,19.684,84.11,6,P-GPS,
0.305859009321704,36.8800470745892,5894.1480065261,67.25722,0,1.91000006112,10200,2018-04-14 12:25:37,12,0,16.534,5894.1480065261,67.25722,0.3131716,1.91000006112,0,0,-11.1847,52.5, -3.8, 0.3,0,0,1024,1024,1684,1024,52.6,-6.5,99,4.154,4.152,4.167,4.164,0,0,19.684,84.11,6,P-GPS,
0.305859108544018,36.8800470461581,5895.7884265261,68.89764,0,1.93839901216,10300,2018-04-14 12:25:37,12,0,16.534,5895.7884265261,68.89764,0.3131716,1.93839901216,0,0,-11.1847,52.4, -3.7, 0.7,0,0,1024,1024,1684,1024,52.6,-8.6,99,4.154,4.152,4.167,4.164,0,0,19.684,84.11,6,P-GPS,
0.305859202944916,36.8800470338452,5897.4288465261,70.53806,0,1.9612533436,10400,2018-04-14 12:25:37,12,0,16.561,5897.4288465261,70.53806,0.3131716,1.9612533436,0,0,-11.1847,52.5, -3.6, 0.4,0,0,1024,1024,1684,1024,52.6,-10.8,99,4.16,4.159,4.169,4.155,0,0,16.816,84.11,6,P-GPS,
0.305859285311206,36.8800470359222,5899.0692665261,72.17848,0,1.97763457772,10500,2018-04-14 12:25:37,12,0,16.561,5899.0692665261,72.17848,0.3131716,1.97763457772,0,0,-11.1847,52.5, -3.6, 0.2,0,0,1024,1024,1684,1024,52.6,-12.9,99,4.16,4.159,4.169,4.155,0,0,16.816,84.11,6,P-GPS,
0.305859350841014,36.8800470434099,5901.0377705261,74.146984,0,1.98916016864,10600,2018-04-14 12:25:37,12,0,16.561,5901.0377705261,74.146984,0.3131716,1.98916016864,0,0,-10.961006,52.5, -3.6, 0.1,0,0,1024,1024,1684,1024,52.6,-15,99,4.16,4.159,4.169,4.155,0,0,16.816,84.11,6,P-GPS,
0.305859397407999,36.8800470590635,5902.6781905261,75.787404,0,1.99443247852,10700,2018-04-14 12:25:37,12,0,16.561,5902.6781905261,75.787404,0.3131716,1.99443247852,0,0,-10.961006,52.5, -3.5, 0,0,0,1024,1024,1684,1024,52.6,-15.4,99,4.16,4.159,4.169,4.155,0,0,16.816,84.11,6,P-GPS,
0.305859432354407,36.8800470684521,5904.3186105261,77.427824,0,1.999179854,10800,2018-04-14 12:25:37,12,0,16.561,5904.3186105261,77.427824,0.3131716,1.999179854,0,0,-10.961006,52.5, -3.3, 0,0,0,1024,1024,1684,1024,52.6,-15.4,99,4.16,4.159,4.169,4.155,0,0,16.816,84.11,6,P-GPS,
0.305859459551457,36.8800470724577,5905.9590305261,79.068244,0,2.00389114024,10900,2018-04-14 12:25:37,12,0,16.561,5905.9590305261,79.068244,0.3131716,2.00389114024,0,0,-10.961006,52.5, -3.5, 0,0,0,1024,1024,1670,1024,52.6,-15.4,99,4.16,4.159,4.169,4.155,0,0,16.816,84.11,6,P-GPS,
0.305859482260516,36.8800470695403,5907.5994505261,80.708664,0,2.00968838452,11000,2018-04-14 12:25:37,12,0,16.561,5907.5994505261,80.708664,0.3131716,2.00968838452,0,0,-10.961006,52.5, -3.6, 0,0,0,1024,1024,1663,1024,52.6,-15.4,99,4.16,4.159,4.169,4.155,0,0,16.816,84.11,6,P-GPS,
0.305859508066875,36.8800470662054,5909.2398705261,82.349084,0,2.0163058388,11100,2018-04-14 12:25:37,12,0,16.561,5909.2398705261,82.349084,0.3131716,2.0163058388,0,0,-10.961006,52.5, -3.5, 0.3,0,0,1024,1024,1662,1024,52.6,-15.4,99,4.16,4.159,4.169,4.155,0,0,16.816,84.11,6,P-GPS,
0.30585952279493,36.8800470595897,5910.8802905261,83.989504,0,2.02146331928,11200,2018-04-14 12:25:38,12,0,16.561,5910.8802905261,83.989504,0.3131716,2.02146331928,0,0,-10.737312,52.5, -3.6, 0,0,0,1024,1024,1665,1024,52.6,-15.4,99,4.16,4.159,4.169,4.155,0,0,16.816,84.11,6,P-GPS,
0.305859509331769,36.8800470299981,5912.5207105261,85.629924,0,2.02715885752,11300,2018-04-14 12:25:38,12,0,16.561,5912.5207105261,85.629924,0.3131716,2.02715885752,0,0,-10.737312,52.4, -3.5, -0.5,0,0,1024,1024,1667,1024,52.6,-15.4,99,4.16,4.159,4.169,4.155,0,0,16.816,84.11,6,P-GPS,
0.305859486947992,36.8800469810796,5914.1611305261,87.270344,0,2.036663451,11400,2018-04-14 12:25:38,12,0,16.534,5914.1611305261,87.270344,0.3131716,2.036663451,0,0,-10.737312,52.4, -3.6, -0.7,0,0,1024,1024,1668,1024,52.6,-15.4,99,4.16,4.159,4.169,4.155,0,0,16.816,84.11,6,P-GPS,
0.305859464835758,36.8800469465547,5915.8015505261,88.910764,0,2.0421096454,11500,2018-04-14 12:25:38,12,0,16.534,5915.8015505261,88.910764,0.3131716,2.0421096454,0,0,-10.961006,52.4, -3.4, -0.6,0,0,1024,1024,1668,1024,52.6,-16,99,4.16,4.159,4.169,4.155,0,0,16.816,84.11,6,P-GPS,
0.305859449409915,36.8800468952948,5917.7700545261,90.879268,0,2.05403877964,11600,2018-04-14 12:25:38,12,0,16.534,5917.7700545261,90.879268,0.3131716,2.05403877964,0,0,-10.961006,52.4, -4.1, 0.2,0,0,1024,1024,1669,1024,52.6,-16.9,99,4.16,4.159,4.169,4.155,0,0,16.816,84.11,6,P-GPS,
0.305859404400537,36.8800468117524,5919.4104745261,92.519688,0,2.06961292712,11700,2018-04-14 12:25:38,12,0,16.534,5919.4104745261,92.519688,0.3131716,2.06961292712,0,0,-10.961006,52.3, -5.1, 1.1,0,0,1024,1024,1669,1024,52.6,-18.2,99,4.16,4.159,4.169,4.155,0,0,16.816,84.11,6,P-GPS,
0.305859341218946,36.8800467289304,5921.0508945261,94.160108,0,2.0817585968,11800,2018-04-14 12:25:38,12,0,16.534,5921.0508945261,94.160108,0.3131716,2.0817585968,0,0,-10.737312,52.3, -6, 1,0,0,1024,1024,1667,1024,52.6,-20,99,4.16,4.159,4.169,4.155,0,0,16.816,84.11,6,P-GPS,
0.305859249890921,36.8800466678618,5922.6913145261,95.800528,0,2.08230977792,11900,2018-04-14 12:25:38,12,0,16.534,5922.6913145261,95.800528,0.3131716,2.08230977792,0,0,-10.737312,52.4, -6.5, 0.3,0,0,1024,1024,1660,1024,52.6,-21.7,99,4.16,4.159,4.169,4.155,0,0,16.816,84.11,6,P-GPS,
0.305859177919396,36.8800466456631,5924.3317345261,97.440948,0,2.07523628688,12000,2018-04-14 12:25:38,12,0,16.534,5924.3317345261,97.440948,0.3131716,2.08230977792,0,0,-10.737312,52.4, -5.6, -0.1,0,0,1024,1024,1654,1024,52.6,-21.9,99,4.16,4.159,4.169,4.155,0,0,16.816,84.11,6,P-GPS,
0.305859091048015,36.8800466591504,5925.9721545261,99.081368,0,2.05454074816,12100,2018-04-14 12:25:39,13,0,16.534,5925.9721545261,99.081368,0.3131716,2.08230977792,0,0,-10.961006,52.4, -4.6, -0.4,0,0,1024,1024,1661,1024,52.6,-21.9,99,4.16,4.159,4.169,4.155,0,0,16.816,84.11,6,P-GPS,
0.305858996624319,36.880046676615,5927.6125745261,100.721788,0,2.03149940884,12200,2018-04-14 12:25:39,13,0,16.534,5927.6125745261,100.721788,0.3131716,2.08230977792,0,0,-10.737312,52.4, -4.8, -0.8,0,0,1024,1024,1661,1024,52.6,-21.9,99,4.16,4.159,4.169,4.155,0,0,16.816,84.11,6,P-GPS,
0.305858869450577,36.8800466923387,5929.2529945261,102.362208,0,2.00349743944,12300,2018-04-14 12:25:39,13,0,16.534,5929.2529945261,102.362208,0.3131716,2.08230977792,0,0,-10.737312,52.4, -5.1, -1,0,0,1024,1024,1649,1024,52.6,-21.9,99,4.16,4.159,4.169,4.155,0,0,16.816,84.11,6,P-GPS,
0.305858768717882,36.8800467089179,5930.8934145261,104.002628,0,1.9804954702,12400,2018-04-14 12:25:39,13,0,16.534,5930.8934145261,104.002628,0.3131716,2.08230977792,0,0,-10.513618,52.5, -5.1, -1,0,0,1024,1024,1634,1024,52.6,-21.9,99,4.158,4.155,4.172,4.157,0,0,15.956,84.11,6,P-GPS,
0.30585865746788,36.8800467254981,5932.5338345261,105.643048,0,1.95616147992,12500,2018-04-14 12:25:39,13,0,16.534,5932.5338345261,105.643048,0.3131716,2.08230977792,0,0,-10.289924,52.5, -5.1, -1.3,0,0,1024,1024,1622,1024,52.6,-21.9,99,4.158,4.155,4.172,4.157,0,0,15.956,84.11,6,P-GPS,
0.30585857724279,36.8800467379009,5934.1742545261,107.283468,0,1.93881895968,12600,2018-04-14 12:25:39,13,0,16.534,5934.1742545261,107.283468,0.3131716,2.08230977792,0,0,-10.289924,52.5, -5, -1.1,0,0,1024,1024,1624,1024,52.6,-21.9,99,4.158,4.155,4.172,4.157,0,0,15.956,84.11,6,P-GPS,
0.305858511437979,36.880046742103,5935.8146745261,108.923888,0,1.9267717152,12700,2018-04-14 12:25:39,13,0,16.534,5935.8146745261,108.923888,0.3131716,2.08230977792,0,0,-9.842536,52.5, -4.9, -1,0,0,1024,1024,1622,1024,52.6,-21.9,99,4.158,4.155,4.172,4.157,0,0,15.956,84.11,6,P-GPS,
0.305858467664183,36.8800467479944,5937.1270105261,110.236224,0,1.91786751544,12800,2018-04-14 12:25:39,13,0,16.534,5937.1270105261,110.236224,0.3131716,2.08230977792,0,0,-9.618842,52.5, -4.8, -1.1,0,0,1024,1024,1615,1024,52.6,-21.9,99,4.158,4.155,4.172,4.157,0,0,15.956,84.11,6,P-GPS,
0.305858403641704,36.8800467477803,5938.7674305261,111.876644,0,1.90792985108,12900,2018-04-14 12:25:39,13,0,16.534,5938.7674305261,111.876644,0.3131716,2.08230977792,0,0,-9.618842,52.5, -5.2, -0.9,0,0,1024,1024,1605,1024,52.6,-21.9,99,4.158,4.155,4.172,4.157,0,0,15.956,84.11,6,P-GPS,
0.30585834952281,36.8800467566459,5940.0797665261,113.18898,0,1.89671265912,13000,2018-04-14 12:25:39,13,0,16.534,5940.0797665261,113.18898,0.3131716,2.08230977792,0,0,-9.618842,52.5, -4.9, -0.9,0,0,1024,1024,1602,1024,52.6,-21.9,99,4.158,4.155,4.172,4.157,0,0,15.956,84.11,6,P-GPS,
0.305858275209786,36.88004676784,5941.3921025261,114.501316,0,1.8818734198,13100,2018-04-14 12:25:39,13,0,16.534,5941.3921025261,114.501316,0.3131716,2.08230977792,0,0,-9.171454,52.5, -4.5, -1,0,0,1024,1024,1602,1024,52.6,-21.9,99,4.158,4.155,4.172,4.157,0,0,15.956,84.11,6,P-GPS,
0.305858217325523,36.8800467829267,5943.0325225261,116.141736,0,1.86837604404,13200,2018-04-14 12:25:40,13,0,16.534,5943.0325225261,116.141736,0.3131716,2.08230977792,0,0,-9.171454,52.5, -4.5, -0.9,0,0,1024,1024,1604,1024,52.6,-21.9,99,4.158,4.155,4.172,4.157,0,0,15.956,84.11,6,P-GPS,
0.305858147545273,36.8800467833892,5944.3448585261,117.454072,0,1.8582841802,13300,2018-04-14 12:25:40,13,0,16.534,5944.3448585261,117.454072,0.3131716,2.08230977792,0,0,-9.171454,52.5, -5, -0.8,0,0,1024,1024,1609,1024,52.6,-21.9,99,4.158,4.155,4.172,4.157,0,0,15.956,84.11,6,P-GPS,
0.305858107182253,36.8800467926423,5945.6571945261,118.766408,0,1.84954730328,13400,2018-04-14 12:25:40,13,0,16.534,5945.6571945261,118.766408,0.3131716,2.08230977792,0,0,-9.171454,52.4, -4.7, -0.9,0,0,1024,1024,1612,1024,52.6,-21.9,99,4.158,4.155,4.172,4.157,0,0,15.956,84.11,6,P-GPS,
0.305858043808912,36.8800468016246,5946.9695305261,120.078744,0,1.8378773554,13500,2018-04-14 12:25:40,13,0,16.534,5946.9695305261,120.078744,0.3131716,2.08230977792,0,0,-9.171454,52.5, -4.1, -1.1,0,0,1024,1024,1615,1024,52.6,-22.1,99,4.158,4.155,4.172,4.157,0,0,15.956,84.11,6,P-GPS,
0.305857999154738,36.880046810124,5948.6099505261,121.719164,0,1.8290518958,13600,2018-04-14 12:25:40,13,0,16.534,5948.6099505261,121.719164,0.3131716,2.08230977792,0,0,-9.171454,52.4, -4.2, -1,0,0,1024,1024,1609,1024,52.6,-22.5,99,4.158,4.155,4.172,4.157,0,0,15.956,84.11,6,P-GPS,
0.305857946168835,36.8800468014222,5949.9222865261,123.0315,0,1.82513457284,13700,2018-04-14 12:25:40,13,0,16.534,5949.9222865261,123.0315,0.3131716,2.08230977792,0,0,-9.395148,52.4, -4.1, -1,0,0,1024,1024,1608,1024,52.6,-23.1,99,4.158,4.155,4.172,4.157,0,0,15.956,84.11,6,P-GPS,
0.305857934990585,36.8800467908362,5951.2346225261,124.343836,0,1.82732617396,13800,2018-04-14 12:25:40,13,0,16.534,5951.2346225261,124.343836,0.3131716,2.08230977792,0,0,-9.395148,52.5, -3.7, -0.1,0,0,1024,1024,1610,1024,52.6,-23.8,99,4.158,4.155,4.172,4.157,0,0,15.956,84.11,6,P-GPS,
0.305857885198467,36.8800467663668,5952.5469585261,125.656172,0,1.82947184332,13900,2018-04-14 12:25:40,13,0,16.534,5952.5469585261,125.656172,0.3131716,2.08230977792,0,0,-9.171454,52.4, -4, 0,0,0,1024,1024,1615,1024,52.6,-23.8,99,4.158,4.155,4.172,4.157,0,0,15.956,84.11,6,P-GPS,
0.305857846020547,36.8800467548344,5954.1873785261,127.296592,0,1.828658195,14000,2018-04-14 12:25:40,13,0,16.534,5954.1873785261,127.296592,0.3131716,2.08230977792,0,0,-9.171454,52.5, -4.1, -0.4,0,0,1024,1024,1613,1024,52.6,-24.6,99,4.158,4.155,4.172,4.157,0,0,15.956,84.11,6,P-GPS,
0.305857774885024,36.8800467672554,5955.4997145261,128.608928,0,1.81595150168,14100,2018-04-14 12:25:41,13,0,16.534,5955.4997145261,128.608928,0.3131716,2.08230977792,0,0,-9.395148,52.4, -4.1, -0.9,0,0,1024,1024,1614,1024,52.6,-25.6,99,4.158,4.155,4.172,4.157,0,0,15.956,84.11,6,P-GPS,
0.305857727680504,36.8800467895055,5956.8120505261,129.921264,0,1.80282158,14200,2018-04-14 12:25:41,13,0,16.534,5956.8120505261,129.921264,0.3131716,2.08230977792,0,0,-9.395148,52.4, -3.9, -1,0,0,1024,1024,1607,1024,52.6,-26.5,99,4.158,4.155,4.172,4.157,0,0,15.956,84.11,6,P-GPS,
0.305857666163996,36.8800467909487,5958.4524705261,131.561684,0,1.79545937504,14300,2018-04-14 12:25:41,13,0,16.534,5958.4524705261,131.561684,0.3131716,2.08230977792,0,0,-9.395148,52.4, -4, -0.7,0,0,1024,1024,1608,1024,52.6,-27,99,4.158,4.155,4.172,4.157,0,0,15.956,84.11,6,P-GPS,
0.305857630289986,36.8800467691407,5959.7648065261,132.87402,0,1.79918312844,14400,2018-04-14 12:25:41,13,0,16.642,5959.7648065261,132.87402,0.3131716,2.08230977792,0,0,-9.395148,52.4, -4, -0.3,0,0,1024,1024,1604,1024,52.6,-27.1,99,4.159,4.159,4.173,4.154,0,0,15.066,84.11,6,P-GPS,
0.305857561411079,36.8800467281104,5961.0771425261,134.186356,0,1.8063812914,14500,2018-04-14 12:25:41,13,0,16.642,5961.0771425261,134.186356,0.3131716,2.08230977792,0,0,-9.395148,52.4, -4.4, 0,0,0,1024,1024,1602,1024,52.6,-27.1,99,4.159,4.159,4.173,4.154,0,0,15.066,84.11,6,P-GPS,
0.305857499261921,36.8800466804081,5962.7175625261,135.826776,0,1.81701449384,14600,2018-04-14 12:25:41,13,0,16.642,5962.7175625261,135.826776,0.3131716,2.08230977792,0,0,-9.395148,52.4, -5.3, 0,0,0,1024,1024,1594,1024,52.6,-27.1,99,4.159,4.159,4.173,4.154,0,0,15.066,84.11,6,P-GPS,
0.305857429808988,36.8800466346318,5964.0298985261,137.139112,0,1.826689691,14700,2018-04-14 12:25:41,13,0,16.642,5964.0298985261,137.139112,0.3131716,2.08230977792,0,0,-9.171454,52.5, -5.7, -0.3,0,0,1024,1024,1586,1024,52.6,-27.1,99,4.159,4.159,4.173,4.154,0,0,15.066,84.11,6,P-GPS,
0.305857398292897,36.8800466044433,5965.3422345261,138.451448,0,1.83456698784,14800,2018-04-14 12:25:41,13,0,16.642,5965.3422345261,138.451448,0.3131716,2.08230977792,0,0,-9.395148,52.5, -5.4, -0.5,0,0,1024,1024,1595,1024,52.6,-27.1,99,4.159,4.159,4.173,4.154,0,0,15.066,84.11,6,P-GPS,
0.305857362145308,36.8800466061198,5966.9826545261,140.091868,0,1.83084651528,14900,2018-04-14 12:25:41,13,0,16.642,5966.9826545261,140.091868,0.3131716,2.08230977792,0,0,-9.171454,52.5, -5.2, -0.7,0,0,1024,1024,1613,1024,52.6,-27,99,4.159,4.159,4.173,4.154,0,0,15.066,84.11,6,P-GPS,
0.305857350165049,36.8800466255489,5968.2949905261,141.404204,0,1.8229331292,15000,2018-04-14 12:25:41,13,0,16.642,5968.2949905261,141.404204,0.3131716,2.08230977792,0,0,-9.171454,52.5, -4.9, -0.8,0,0,1024,1024,1615,1024,52.6,-27.1,99,4.159,4.159,4.173,4.154,0,0,15.066,84.11,6,P-GPS,
0.305857327032595,36.8800466585895,5969.6073265261,142.71654,0,1.80925530724,15100,2018-04-14 12:25:41,13,0,16.642,5969.6073265261,142.71654,0.3131716,2.08230977792,0,0,-8.94776,52.4, -4.7, -0.9,0,0,1024,1024,1599,1024,52.6,-27.1,99,4.159,4.159,4.173,4.154,0,0,15.066,84.11,6,P-GPS,
0.305857333241852,36.8800466833811,5970.9196625261,144.028876,0,1.80097774792,15200,2018-04-14 12:25:42,13,0,16.642,5970.9196625261,144.028876,0.3131716,2.08230977792,0,0,-9.171454,52.4, -4.6, -0.5,0,0,1024,1024,1598,1024,52.6,-27.1,99,4.159,4.159,4.173,4.154,0,0,15.066,84.11,6,P-GPS,
0.305857317635659,36.8800467045092,5972.2319985261,145.341212,0,1.79216213084,15300,2018-04-14 12:25:42,13,0,16.642,5972.2319985261,145.341212,0.3131716,2.08230977792,0,0,-9.171454,52.4, -4.8, -0.2,0,0,1024,1024,1607,1024,52.6,-27.1,99,4.159,4.159,4.173,4.154,0,0,15.066,84.11,6,P-GPS,
0.305857307671007,36.8800467266394,5973.5443345261,146.653548,0,1.78347118568,15400,2018-04-14 12:25:42,13,0,16.534,5973.5443345261,146.653548,0.3131716,2.08230977792,0,0,-8.94776,52.4, -4.9, -0.3,0,0,1024,1024,1638,1024,52.6,-27.1,98,4.151,4.149,4.159,4.142,0,0,16.468,84.11,6,P-GPS,
0.305857280050968,36.8800467538891,5975.1847545261,148.293968,0,1.77150268136,15500,2018-04-14 12:25:42,13,0,16.534,5975.1847545261,148.293968,0.3131716,2.08230977792,0,0,-9.171454,52.4, -4.8, -0.5,0,0,1024,1024,1654,1024,52.6,-27,98,4.151,4.149,4.159,4.142,0,0,16.468,84.11,6,P-GPS,
0.305857280373196,36.8800467910568,5976.4970905261,149.606304,0,1.7583169854,15600,2018-04-14 12:25:42,13,0,16.534,5976.4970905261,149.606304,0.3131716,2.08230977792,0,0,-9.171454,52.4, -4.4, -0.9,0,0,1024,1024,1652,1024,52.6,-27.1,98,4.151,4.149,4.159,4.142,0,0,16.468,84.11,6,P-GPS,
0.305857255855751,36.8800468433765,5977.8094265261,150.91864,0,1.73770674852,15700,2018-04-14 12:25:42,13,0,16.534,5977.8094265261,150.91864,0.3131716,2.08230977792,0,0,-9.618842,52.4, -3.6, -0.9,0,0,1024,1024,1652,1024,52.6,-27,98,4.151,4.149,4.159,4.142,0,0,16.468,84.11,6,P-GPS,
0.305857246811373,36.8800468888937,5979.4498465261,152.55906,0,1.72078089496,15800,2018-04-14 12:25:42,13,0,16.534,5979.4498465261,152.55906,0.3131716,2.08230977792,0,0,-9.842536,52.4, -4, -0.7,0,0,1024,1024,1653,1024,52.6,-27.1,98,4.151,4.149,4.159,4.142,0,0,16.468,84.11,6,P-GPS,
0.3058572194413,36.8800469285987,5980.7621825261,153.871396,0,1.70443903092,15900,2018-04-14 12:25:42,13,0,16.534,5980.7621825261,153.871396,0.3131716,2.08230977792,0,0,-10.06623,52.4, -4.8, -0.4,0,0,1024,1024,1666,1024,52.6,-27,98,4.151,4.149,4.159,4.142,0,0,16.468,84.11,6,P-GPS,
0.305857216069403,36.8800469768026,5982.4026025261,155.511816,0,1.68701448968,16000,2018-04-14 12:25:42,13,0,16.534,5982.4026025261,155.511816,0.3131716,2.08230977792,0,0,-10.06623,52.4, -4.7, -0.5,0,0,1024,1024,1675,1024,52.6,-27,98,4.151,4.149,4.159,4.142,0,0,16.468,84.11,6,P-GPS,
0.305857193129106,36.8800470265754,5983.7149385261,156.824152,0,1.6674541216,16100,2018-04-14 12:25:43,13,0,16.534,5983.7149385261,156.824152,0.3131716,2.08230977792,0,0,-10.289924,52.4, -4.2, -0.7,0,0,1024,1024,1684,1024,52.6,-27.1,98,4.151,4.149,4.159,4.142,0,0,16.468,84.11,6,P-GPS,
0.305857190545579,36.8800470705943,5985.3553585261,158.464572,0,1.65158141768,16200,2018-04-14 12:25:43,13,0,16.534,5985.3553585261,158.464572,0.3131716,2.08230977792,0,0,-10.737312,52.4, -4.1, -1,0,0,1024,1024,1684,1024,52.6,-27.1,98,4.151,4.149,4.159,4.142,0,0,16.468,84.11,6,P-GPS,
0.305857170609964,36.8800471127814,5986.9957785261,160.104992,0,1.63496724392,16300,2018-04-14 12:25:43,13,0,16.534,5986.9957785261,160.104992,0.3131716,2.08230977792,0,0,-10.737312,52.4, -4.2, -1.4,0,0,1024,1024,1684,1024,52.6,-27,98,4.151,4.149,4.159,4.142,0,0,16.468,84.11,6,P-GPS,
0.3058571824286,36.8800471525838,5988.6361985261,161.745412,0,1.62175858208,16400,2018-04-14 12:25:43,13,0,16.561,5988.6361985261,161.745412,0.3131716,2.08230977792,0,0,-10.961006,52.4, -4.2, -1.2,0,0,1024,1024,1673,1024,52.6,-27.1,98,4.151,4.149,4.159,4.142,0,0,16.468,84.11,6,P-GPS,
0.305857164181275,36.8800471808908,5990.2766185261,163.385832,0,1.61021002528,16500,2018-04-14 12:25:43,13,0,16.561,5990.2766185261,163.385832,0.3131716,2.08230977792,0,0,-10.961006,52.4, -4.5, -0.6,0,0,1024,1024,1642,1024,52.6,-27.1,98,4.151,4.149,4.159,4.142,0,0,16.468,84.11,6,P-GPS,
0.305857158816162,36.8800472143457,5991.9170385261,165.026252,0,1.59787406688,16600,2018-04-14 12:25:43,13,0,16.561,5991.9170385261,165.026252,0.3131716,2.08230977792,0,0,-10.961006,52.5, -4.7, -0.5,0,0,1024,1024,1631,1024,52.6,-27.1,98,4.151,4.149,4.159,4.142,0,0,16.468,84.11,6,P-GPS,
0.305857151642866,36.8800472322647,5993.5574585261,166.666672,0,1.59091868608,16700,2018-04-14 12:25:43,13,0,16.561,5993.5574585261,166.666672,0.3131716,2.08230977792,0,0,-10.737312,52.5, -4.9, -0.7,0,0,1024,1024,1634,1024,52.6,-27,98,4.151,4.149,4.159,4.142,0,0,16.468,84.11,6,P-GPS,
0.305857174755983,36.8800472546287,5995.1978785261,168.307092,0,1.58485241292,16800,2018-04-14 12:25:43,13,0,16.561,5995.1978785261,168.307092,0.3131716,2.08230977792,0,0,-10.513618,52.5, -4.5, -0.6,0,0,1024,1024,1626,1024,52.6,-27,98,4.151,4.149,4.159,4.142,0,0,16.468,84.11,6,P-GPS,
0.305857157622716,36.8800472899245,5996.8382985261,169.947512,0,1.5708990004,16900,2018-04-14 12:25:43,13,0,16.561,5996.8382985261,169.947512,0.3131716,2.08230977792,0,0,-10.289924,52.4, -4, -1,0,0,1024,1024,1634,1024,52.6,-27,98,4.151,4.149,4.159,4.142,0,0,16.468,84.11,6,P-GPS,
0.305857138920037,36.8800473308194,5998.1506345261,171.259848,0,1.55482944608,17000,2018-04-14 12:25:43,13,0,16.561,5998.1506345261,171.259848,0.3131716,2.08230977792,0,0,-10.06623,52.4, -4, -1.2,0,0,1024,1024,1635,1024,52.6,-27.1,98,4.151,4.149,4.159,4.142,0,0,16.468,84.11,6,P-GPS,
0.305857105929288,36.880047338275,5999.7910545261,172.900268,0,1.54953417032,17100,2018-04-14 12:25:43,13,0,16.561,5999.7910545261,172.900268,0.3131716,2.08230977792,0,0,-10.06623,52.5, -3.9, -1,0,0,1024,1024,1632,1024,52.6,-27,98,4.151,4.149,4.159,4.142,0,0,16.468,84.11,6,P-GPS,
0.305857104165989,36.8800473329868,6001.1033905261,174.212604,0,1.5512795772,17200,2018-04-14 12:25:44,13,0,16.561,6001.1033905261,174.212604,0.3131716,2.08230977792,0,0,-9.842536,52.5, -4.1, -0.7,0,0,1024,1024,1635,1024,52.6,-27.1,98,4.151,4.149,4.159,4.142,0,0,16.468,84.11,6,P-GPS,
0.30585710791711,36.8800473018402,6002.7438105261,175.853024,0,1.56267393452,17300,2018-04-14 12:25:44,13,0,16.561,6002.7438105261,175.853024,0.3131716,2.08230977792,0,0,-9.842536,52.5, -4.7, -0.6,0,0,1024,1024,1648,1024,52.6,-27.1,98,4.151,4.149,4.159,4.142,0,0,16.468,84.11,6,P-GPS,
0.305857137118367,36.8800472865018,6004.0561465261,177.16536,0,1.57044952532,17400,2018-04-14 12:25:44,13,0,16.427,6004.0561465261,177.16536,0.3131716,2.08230977792,0,0,-9.618842,52.4, -4.9, -0.8,0,0,1024,1024,1665,1024,52.6,-27.1,98,4.149,4.147,4.159,4.135,0,0,15.718,85.91,6,P-GPS,
0.305857138173192,36.880047280377,6005.3684825261,178.477696,0,1.57271330492,17500,2018-04-14 12:25:44,13,0,16.427,6005.3684825261,178.477696,0.3131716,2.08230977792,0,0,-9.842536,52.4, -4.6, -0.8,0,0,1024,1024,1684,1024,52.6,-27,98,4.149,4.147,4.159,4.135,0,0,15.718,85.91,6,P-GPS,
0.30585715497507,36.8800472961618,6007.0089025261,180.118116,0,1.56846133628,17600,2018-04-14 12:25:44,13,0,16.427,6007.0089025261,180.118116,0.3131716,2.08230977792,0,0,-10.06623,52.4, -3.9, -0.5,0,0,1024,1024,1684,1024,52.6,-27.1,98,4.149,4.147,4.159,4.135,0,0,15.718,85.91,6,P-GPS,
0.305857176490886,36.8800473319933,6008.6493225261,181.758536,0,1.55752301572,17700,2018-04-14 12:25:44,13,0,16.427,6008.6493225261,181.758536,0.3131716,2.08230977792,0,0,-10.289924,52.4, -3.3, -0.5,0,0,1024,1024,1684,1024,52.6,-27.1,98,4.149,4.147,4.159,4.135,0,0,15.718,85.91,6,P-GPS,
0.305857215220577,36.8800473755508,6009.9616585261,183.070872,0,1.54542655864,17800,2018-04-14 12:25:44,13,0,16.427,6009.9616585261,183.070872,0.3131716,2.08230977792,0,0,-10.513618,52.4, -3.4, -0.5,0,0,1024,1024,1684,1024,52.6,-27.1,98,4.149,4.147,4.159,4.135,0,0,15.718,85.91,6,P-GPS,
0.305857237776765,36.8800473888444,6011.6020785261,184.711292,0,1.54274283152,17900,2018-04-14 12:25:44,13,0,16.427,6011.6020785261,184.711292,0.3131716,2.08230977792,0,0,-10.737312,52.4, -4.4, -0.4,0,0,1024,1024,1684,1024,52.6,-27.1,98,4.149,4.147,4.159,4.135,0,0,15.718,85.91,6,P-GPS,
0.305857266694878,36.8800474006417,6013.2424985261,186.351712,0,1.54122708344,18000,2018-04-14 12:25:44,13,0,16.427,6013.2424985261,186.351712,0.3131716,2.08230977792,0,0,-10.961006,52.4, -4.8, -0.4,0,0,1024,1024,1684,1024,52.6,-27.1,98,4.149,4.147,4.159,4.135,0,0,15.718,85.91,6,P-GPS,
0.305857275855282,36.8800474182984,6014.8829185261,187.992132,0,1.5358596292,18100,2018-04-14 12:25:45,13,0,16.427,6014.8829185261,187.992132,0.3131716,2.08230977792,0,0,-10.737312,52.4, -4.4, -0.8,0,0,1024,1024,1684,1024,52.6,-27,98,4.149,4.147,4.159,4.135,0,0,15.718,85.91,6,P-GPS,
0.305857289246588,36.8800474434557,6016.5233385261,189.632552,0,1.52827104628,18200,2018-04-14 12:25:45,13,0,16.427,6016.5233385261,189.632552,0.3131716,2.08230977792,0,0,-10.961006,52.4, -3.8, -1.1,0,0,1024,1024,1684,1024,52.6,-27.1,98,4.149,4.147,4.159,4.135,0,0,15.718,85.91,6,P-GPS,
0.305857285134563,36.8800474654745,6018.1637585261,191.272972,0,1.52012472056,18300,2018-04-14 12:25:45,13,0,16.427,6018.1637585261,191.272972,0.3131716,2.08230977792,0,0,-10.961006,52.4, -3.9, -0.7,0,0,1024,1024,1684,1024,52.6,-27.1,98,4.149,4.147,4.159,4.135,0,0,15.718,85.91,6,P-GPS,
0.305857291393081,36.8800474929063,6019.8041785261,192.913392,0,1.51107616384,18400,2018-04-14 12:25:45,13,0,16.534,6019.8041785261,192.913392,0.3131716,2.08230977792,0,0,-11.1847,52.4, -4.1, -0.7,0,0,1024,1024,1684,1024,52.6,-27.1,98,4.142,4.138,4.154,4.141,0,0,16.26,85.91,6,P-GPS,
0.305857271706821,36.8800475015968,6021.4445985261,194.553812,0,1.50612209544,18500,2018-04-14 12:25:45,13,0,16.534,6021.4445985261,194.553812,0.3131716,2.08230977792,0,0,-11.1847,52.4, -4.4, -0.7,0,0,1024,1024,1684,1024,52.6,-27.1,98,4.142,4.138,4.154,4.141,0,0,16.26,85.91,6,P-GPS,
0.305857264476123,36.8800475081456,6023.0850185261,196.194232,0,1.50312668852,18600,2018-04-14 12:25:45,13,0,16.534,6023.0850185261,196.194232,0.3131716,2.08230977792,0,0,-10.961006,52.4, -4.4, -0.7,0,0,1024,1024,1684,1024,52.6,-27.1,98,4.142,4.138,4.154,4.141,0,0,16.26,85.91,6,P-GPS,
0.30585724295135,36.880047507371,6024.7254385261,197.834652,0,1.50136815828,18700,2018-04-14 12:25:45,13,0,16.534,6024.7254385261,197.834652,0.3131716,2.08230977792,0,0,-11.1847,52.5, -4.2, -0.8,0,0,1024,1024,1684,1024,52.6,-27.1,98,4.142,4.138,4.154,4.141,0,0,16.26,85.91,6,P-GPS,
0.305857231452703,36.8800475124868,6026.3658585261,199.475072,0,1.49849414244,18800,2018-04-14 12:25:45,13,0,16.534,6026.3658585261,199.475072,0.3131716,2.08230977792,0,0,-11.1847,52.4, -4.3, -1.1,0,0,1024,1024,1684,1024,52.6,-27.1,98,4.142,4.138,4.154,4.141,0,0,16.26,85.91,6,P-GPS,
0.305857214332261,36.8800475053936,6028.0062785261,201.115492,0,1.49942918184,18900,2018-04-14 12:25:45,13,0,16.534,6028.0062785261,201.115492,0.3131716,2.08230977792,0,0,-10.961006,52.4, -4.4, -1.2,0,0,1024,1024,1684,1024,52.6,-27,98,4.142,4.138,4.154,4.141,0,0,16.26,85.91,6,P-GPS,
0.305857215538531,36.8800474975039,6029.9747825261,203.083996,0,1.50232616356,19000,2018-04-14 12:25:45,13,0,16.534,6029.9747825261,203.083996,0.3131716,2.08230977792,0,0,-11.1847,52.5, -4.5, -1,0,0,1024,1024,1684,1024,52.6,-27.1,98,4.142,4.138,4.154,4.141,0,0,16.26,85.91,6,P-GPS,
0.305857186549581,36.8800474517132,6031.6152025261,204.724416,0,1.51593836872,19100,2018-04-14 12:25:45,13,0,16.534,6031.6152025261,204.724416,0.3131716,2.08230977792,0,0,-10.961006,52.4, -4.6, -0.8,0,0,1024,1024,1684,1024,52.6,-27.1,98,4.142,4.138,4.154,4.141,0,0,16.26,85.91,6,P-GPS,
0.305857172561655,36.8800474155877,6033.2556225261,206.364836,0,1.52752957644,19200,2018-04-14 12:25:46,13,0,16.534,6033.2556225261,206.364836,0.3131716,2.08230977792,0,0,-10.961006,52.4, -4.7, -0.5,0,0,1024,1024,1680,1024,52.6,-27.1,98,4.142,4.138,4.154,4.141,0,0,16.26,85.91,6,P-GPS,
0.305857147292478,36.8800473840444,6034.5679585261,207.677172,0,1.53659453736,19300,2018-04-14 12:25:46,13,0,16.534,6034.5679585261,207.677172,0.3131716,2.08230977792,0,0,-10.961006,52.5, -4.5, -0.5,0,0,1024,1024,1666,1024,52.6,-27.1,98,4.142,4.138,4.154,4.141,0,0,16.26,85.91,6,P-GPS,
0.305857130814254,36.8800473783344,6036.2083785261,209.317592,0,1.5372703904,19400,2018-04-14 12:25:46,13,0,16.427,6036.2083785261,209.317592,0.3131716,2.08230977792,0,0,-10.961006,52.5, -4.6, -0.9,0,0,1024,1024,1637,1024,52.6,-27.1,98,4.133,4.13,4.141,4.124,0,0,18.016,85.91,6,P-GPS,
0.305857074252592,36.8800473695036,6037.8487985261,210.958012,0,1.5359416502,19500,2018-04-14 12:25:46,13,0,16.427,6037.8487985261,210.958012,0.3131716,2.08230977792,0,0,-10.961006,52.5, -4.9, -1.3,0,0,1024,1024,1589,1024,52.6,-27.1,98,4.133,4.13,4.141,4.124,0,0,18.016,85.91,6,P-GPS,
0.305857031104933,36.880047374522,6039.4892185261,212.598432,0,1.53091540332,19600,2018-04-14 12:25:46,13,0,16.427,6039.4892185261,212.598432,0.3131716,2.08230977792,0,0,-10.737312,52.5, -5, -1.5,0,0,1024,1024,1570,1024,52.6,-27.1,98,4.133,4.13,4.141,4.124,0,0,18.016,85.91,6,P-GPS,
0.305856987297652,36.8800473683431,6041.1296385261,214.238852,0,1.5300033298,19700,2018-04-14 12:25:46,13,0,16.427,6041.1296385261,214.238852,0.3131716,2.08230977792,0,0,-10.289924,52.5, -5.6, -1.5,0,0,1024,1024,1563,1024,52.6,-27.1,98,4.133,4.13,4.141,4.124,0,0,18.016,85.91,6,P-GPS,
0.305856971952417,36.8800473685674,6042.4419745261,215.551188,0,1.52886815916,19800,2018-04-14 12:25:46,13,0,16.427,6042.4419745261,215.551188,0.3131716,2.08230977792,0,0,-9.395148,52.5, -5.7, -1.3,0,0,1024,1024,1557,1024,52.6,-27.1,98,4.133,4.13,4.141,4.124,0,0,18.016,85.91,6,P-GPS,
0.305856942961025,36.8800473972528,6044.0823945261,217.191608,0,1.5166339068,19900,2018-04-14 12:25:46,13,0,16.427,6044.0823945261,217.191608,0.3131716,2.08230977792,0,0,-9.171454,52.5, -4.7, -1.2,0,0,1024,1024,1554,1024,52.6,-27.1,98,4.133,4.13,4.141,4.124,0,0,18.016,85.91,6,P-GPS,
0.305856919174649,36.8800474435713,6045.3947305261,218.503944,0,1.49845149152,20000,2018-04-14 12:25:46,13,0,16.427,6045.3947305261,218.503944,0.3131716,2.08230977792,0,0,-8.724066,52.5, -4.3, -1.2,0,0,1024,1024,1546,1024,52.6,-27.1,98,4.133,4.13,4.141,4.124,0,0,18.016,85.91,6,P-GPS,
0.305856861059249,36.8800474789897,6046.3789825261,219.488196,0,1.4820866616,20100,2018-04-14 12:25:47,13,0,16.427,6046.3789825261,219.488196,0.3131716,2.08230977792,0,0,-8.276678,52.4, -4.2, -1.3,0,0,1024,1024,1478,1024,52.6,-27.1,98,4.133,4.13,4.141,4.124,0,0,18.016,85.91,6,P-GPS,
0.305856745821595,36.8800475079154,6049.0036545261,222.112868,0,1.46526579492,20300,2018-04-14 12:25:47,13,0,16.427,6049.0036545261,222.112868,0.3131716,2.08230977792,0,0,-8.052984,52.4, -4.8, -1.3,0,0,1024,1024,1437,1024,52.6,-27.1,98,4.133,4.13,4.141,4.124,0,0,18.016,85.91,6,P-GPS,
0.305856697355336,36.8800475138186,6049.9879065261,223.09712,0,1.46078416748,20400,2018-04-14 12:25:47,13,0,16.427,6049.9879065261,223.09712,0.3131716,2.08230977792,0,0,-7.605596,52.4, -5.4, -1,0,0,1024,1024,1334,1024,52.6,-27.1,98,4.133,4.13,4.141,4.124,0,0,18.016,85.91,6,P-GPS,
0.305856619900941,36.8800475184082,6050.9721585261,224.081372,0,1.45580385236,20500,2018-04-14 12:25:47,13,0,16.427,6050.9721585261,224.081372,0.3131716,2.08230977792,0,0,-7.158208,52.5, -5.9, -1.1,0,0,1024,1024,1234,1024,52.6,-27.1,98,4.133,4.13,4.141,4.124,0,0,18.016,85.91,6,P-GPS,
0.305856541224196,36.8800475422797,6051.9564105261,225.065624,0,1.44431106984,20600,2018-04-14 12:25:47,13,0,16.427,6051.9564105261,225.065624,0.3131716,2.08230977792,0,0,-6.263432,52.6, -6.6, -2.1,0,0,1024,1024,1194,1024,52.6,-27.1,98,4.133,4.13,4.141,4.124,0,0,18.016,85.91,6,P-GPS,
0.305856429597923,36.8800475510757,6052.9406625261,226.049876,0,1.43806106964,20700,2018-04-14 12:25:47,13,0,16.427,6052.9406625261,226.049876,0.3131716,2.08230977792,0,0,-4.921268,52.7, -7.4, -2.4,0,0,1024,1024,1180,1024,52.6,-27.1,98,4.133,4.13,4.141,4.124,0,0,18.016,85.91,6,P-GPS,
0.305856339168087,36.8800475718671,6053.5968305261,226.706044,0,1.42884847092,20800,2018-04-14 12:25:47,13,0,16.427,6053.5968305261,226.706044,0.3131716,2.08230977792,0,0,-3.579104,52.6, -6.6, -2.3,0,0,1024,1024,1180,1024,52.6,-27,98,4.133,4.13,4.141,4.124,0,0,18.016,85.91,6,P-GPS,
0.305856246079816,36.8800476053161,6053.9249145261,227.034128,0,1.41575135764,20900,2018-04-14 12:25:47,13,0,16.427,6053.9249145261,227.034128,0.3131716,2.08230977792,0,0,-2.460634,52.5, -5.3, -1.9,0,0,1024,1024,1190,1024,52.5,-27,98,4.133,4.13,4.141,4.124,0,0,18.016,85.91,6,P-GPS,
0.305856164705909,36.8800476555594,6054.2529985261,227.362212,0,1.39729991348,21000,2018-04-14 12:25:47,13,0,16.427,6054.2529985261,227.362212,0.3131716,2.08230977792,0,0,-2.013246,52.5, -4.6, -2.1,0,0,1024,1024,1184,1024,52.5,-27.1,98,4.133,4.13,4.141,4.124,0,0,18.016,85.91,6,P-GPS,
0.30585605406973,36.8800477043237,6054.2529985261,227.362212,0,1.3803642174,21100,2018-04-14 12:25:48,13,0,16.427,6054.2529985261,227.362212,0.3131716,2.08230977792,0,0,-1.789552,52.4, -4.1, -2.3,0,0,1024,1024,1149,1024,52.5,-27.1,98,4.133,4.13,4.141,4.124,0,0,18.016,85.91,6,P-GPS,
0.305855939797387,36.8800477467234,6054.5810825261,227.690296,0,1.36704728784,21200,2018-04-14 12:25:48,13,0,16.427,6054.5810825261,227.690296,0.3131716,2.08230977792,0,0,-1.789552,52.3, -4.4, -2.6,0,0,1024,1024,1110,1024,52.5,-27.1,98,4.133,4.13,4.141,4.124,0,0,18.016,85.91,6,P-GPS,
0.305855787212286,36.8800477531603,6054.9091665261,228.01838,0,1.36954728792,21300,2018-04-14 12:25:48,13,0,16.427,6054.9091665261,228.01838,0.3131716,2.08230977792,0,0,-1.565858,52.4, -5.1, -2.7,0,0,1024,1024,1083,1024,52.5,-27.1,98,4.133,4.13,4.141,4.124,0,0,18.016,85.91,6,P-GPS,
0.305855644636162,36.8800477406397,6055.2372505261,228.346464,0,1.38061356124,21400,2018-04-14 12:25:48,13,0,16.776,6055.2372505261,228.346464,0.3131716,2.08230977792,0,0,-1.11847,52.4, -5.9, -2.4,0,0,1024,1024,1024,1024,52.5,-27.1,98,4.138,4.134,4.145,4.136,0,0,15.828,85.91,6,P-GPS,
0.305855499951057,36.8800477183875,6055.2372505261,228.346464,0,1.39718180324,21500,2018-04-14 12:25:48,13,0,16.776,6055.2372505261,228.346464,0.3131716,2.08230977792,0,0,-0.671082,52.4, -5.9, -2.6,0,0,1024,1024,1024,1024,52.5,-27.1,98,4.138,4.134,4.145,4.136,0,0,15.828,85.91,6,P-GPS,
0.305855394092604,36.8800477173367,6055.2372505261,228.346464,0,1.40502629168,21600,2018-04-14 12:25:48,13,0,16.776,6055.2372505261,228.346464,0.3131716,2.08230977792,0,0,-0.447388,52.4, -5.9, -2.6,0,0,1024,1024,1024,1024,52.5,-27.1,98,4.138,4.134,4.145,4.136,0,0,15.828,85.91,6,P-GPS,
0.30585529365722,36.8800477357868,6055.2372505261,228.346464,0,1.40650266968,21700,2018-04-14 12:25:48,13,0,16.776,6055.2372505261,228.346464,0.3131716,2.08230977792,0,0,0,52.4, -5.5, -2.3,0,0,1024,1024,1024,1024,52.5,-27,98,4.138,4.134,4.145,4.136,0,0,15.828,85.91,6,P-GPS,
0.305855215207694,36.8800477869358,6055.2372505261,228.346464,0,1.3953740604,21800,2018-04-14 12:25:48,13,0,16.776,6055.2372505261,228.346464,0.3131716,2.08230977792,0,0,0,52.4, -5.2, -2.2,0,0,1024,1024,1024,1024,52.5,-27.1,98,4.138,4.134,4.145,4.136,0,0,15.828,85.91,6,P-GPS,
0.305855100143343,36.8800478566596,6055.2372505261,228.346464,0,1.38227038544,21900,2018-04-14 12:25:48,13,0,16.776,6055.2372505261,228.346464,0.3131716,2.08230977792,0,0,-0.223694,52.4, -4.8, -2.3,0,0,1024,1024,1024,1024,52.5,-27,98,4.138,4.134,4.145,4.136,0,0,15.828,85.91,6,P-GPS,
0.305854976325239,36.8800479357114,6055.5653345261,228.674548,0,1.36860896768,22000,2018-04-14 12:25:48,13,0,16.776,6055.5653345261,228.674548,0.3131716,2.08230977792,0,0,-0.223694,52.3, -4.7, -2.8,0,0,1024,1024,1024,1024,52.5,-27.1,98,4.138,4.134,4.145,4.136,0,0,15.828,85.91,6,P-GPS,
