latitude,longitude,altitude(feet),ascent(feet),speed(mph),distance(feet),time(millisecond),datetime(utc),satellites,voltage(v),max_altitude(feet),max_ascent(feet),max_speed(mph),max_distance(feet),compass_heading(degrees), pitch(degrees), roll(degrees),isPhoto,isVideo,rc_elevator,rc_aileron,rc_throttle,rc_rudder,gimbal_heading(degrees),gimbal_pitch(degrees),battery_percent,voltageCell1,voltageCell2,voltageCell3,voltageCell4,voltageCell5,voltageCell6,battery_temperature(f),flycStateRaw,flycState,message
0.274939067292446,36.8768544091374,5902.8487203872,0,0,0,100,2017-11-07 11:46:10,14,0,5902.8487203872,0,0,0,146.3, -1, -0.7,0,0,1024,1024,1024,1024,150.8,0,100,4.307,4.311,4.307,4.309,0,0,87.71,41,Motors_Started,
0.274938880374351,36.8768545949268,5902.8487203872,0,0,0.096153874468,200,2017-11-07 11:46:10,14,0,5902.8487203872,0,0,0.096153874468,146.4, -1, -0.7,0,0,1024,1024,1024,1024,150.8,0,100,4.307,4.311,4.307,4.309,0,0,87.71,41,Motors_Started,
0.274938667388736,36.8768547686354,5902.8487203872,0,0,0.196192263496,300,2017-11-07 11:46:10,14,0,5902.8487203872,0,0,0.196192263496,146.3, -1, -0.7,0,0,1024,1024,1024,1024,150.8,0,100,4.307,4.311,4.307,4.309,0,0,87.71,41,Motors_Started,
0.274938483621681,36.8768549207465,5902.8487203872,0,0,0.283178158668,400,2017-11-07 11:46:10,14,0,5902.8487203872,0,0,0.283178158668,146.3, -1, -0.7,0,0,1024,1024,1024,1024,150.8,0,100,4.307,4.311,4.307,4.309,0,0,87.71,41,Motors_Started,
0.274938320585328,36.8768550833691,5902.8487203872,0,0,0.3670603792,500,2017-11-07 11:46:10,14,0,5902.8487203872,0,0,0.3670603792,146.3, -1, -0.7,0,0,1024,1024,1024,1024,150.8,0,100,4.307,4.311,4.307,4.309,0,0,87.71,41,Motors_Started,
0.27493817391097,36.8768552386786,5902.8487203872,0,0,0.44479660216,600,2017-11-07 11:46:10,14,0,5902.8487203872,0,0,0.44479660216,146.3, -1, -0.7,0,0,1024,1024,1024,1024,150.8,0,100,4.307,4.311,4.307,4.309,0,0,87.71,41,Motors_Started,
0.274938020019959,36.8768553678959,5902.8487203872,0,0,0.51803151264,700,2017-11-07 11:46:10,14,0,5902.8487203872,0,0,0.51803151264,146.3, -1, -0.7,0,0,800,772,772,1381,150.8,0,100,4.307,4.311,4.307,4.309,0,0,87.71,41,Motors_Started,
0.274937870682281,36.8768554940296,5902.8487203872,0,0,0.58930119996,800,2017-11-07 11:46:10,14,0,5902.8487203872,0,0,0.58930119996,146.3, -1.1, -0.8,0,0,800,772,772,1381,150.8,0,100,4.307,4.311,4.307,4.309,0,0,87.71,41,Motors_Started,
0.274937747538125,36.8768555948167,5902.8487203872,0,0,0.6472933278,900,2017-11-07 11:46:10,14,17.207,5902.8487203872,0,0,0.6472933278,146.3, -1.1, -0.8,0,0,1024,1024,1024,1024,149.7,0,100,4.307,4.311,4.307,4.309,0,0,87.71,41,Motors_Started,Setting new Return-To-Home altitude to 30m (98 ft). Setting new Maximum Flight Altitude to 100m (328 ft)
0.274937625693874,36.8768557030267,5902.8487203872,0,0,0.70674542944,1000,2017-11-07 11:46:10,14,17.207,5902.8487203872,0,0,0.70674542944,146.3, -1.2, -0.8,0,0,1024,1024,1024,1024,148.3,0,100,4.307,4.311,4.307,4.309,0,0,87.71,41,Motors_Started,
0.274937530647908,36.8768557892991,5902.8487203872,0,0,0.7535761396,1100,2017-11-07 11:46:11,14,17.207,5902.8487203872,0,0,0.7535761396,146.3, -1, -0.7,0,0,1024,1024,1024,1024,147.7,0,100,4.307,4.311,4.307,4.309,0,0,87.71,41,Motors_Started,
0.274937447629426,36.876855863013,5902.8487203872,0,0,0.79408467108,1200,2017-11-07 11:46:11,14,17.207,5902.8487203872,0,0,0.79408467108,146.3, -1, -0.6,0,0,1024,1024,1024,1024,147.4,0,100,4.307,4.311,4.307,4.309,0,0,87.71,41,Motors_Started,
0.274937373640666,36.8768559363742,5902.8487203872,0,0,0.8320538324,1300,2017-11-07 11:46:11,14,17.207,5902.8487203872,0,0,0.8320538324,146.3, -1.2, -0.8,0,0,1024,1024,1024,1024,147.2,0,100,4.307,4.311,4.307,4.309,0,0,87.71,41,Motors_Started,
0.274937276321188,36.8768560268807,5902.8487203872,0,0,0.88053480508,1400,2017-11-07 11:46:11,14,17.207,5902.8487203872,0,0,0.88053480508,146.3, -1.2, -0.8,0,0,1024,1024,1024,1024,147.1,0,100,4.307,4.311,4.307,4.309,0,0,87.71,41,Motors_Started,
0.274937190538016,36.876856119624,5902.8487203872,0,0,0.92645344172,1500,2017-11-07 11:46:11,14,17.207,5902.8487203872,0,0,0.92645344172,146.3, -1.2, -0.7,0,0,1024,1024,1024,1024,147,0,100,4.307,4.311,4.307,4.309,0,0,87.71,10,Assisted_Takeoff,
0.2749371016551,36.8768562036878,5902.8487203872,0,0,0.9710794274,1600,2017-11-07 11:46:11,14,17.207,5902.8487203872,0,0,0.9710794274,146.3, -0.8, -0.5,0,0,1024,1024,1024,1024,146.9,0,100,4.307,4.311,4.307,4.309,0,0,87.71,10,Assisted_Takeoff,
0.274937053323696,36.8768562580282,5902.8487203872,0,0,0.9974737852,1700,2017-11-07 11:46:11,14,17.207,5902.8487203872,0,0,0.9974737852,146.3, -1.2, -0.8,0,0,1024,1024,1024,1024,146.8,0,100,4.307,4.311,4.307,4.309,0,0,87.71,10,Assisted_Takeoff,
0.274936995051049,36.8768563241222,5902.8487203872,0,0,1.02944885184,1800,2017-11-07 11:46:11,14,17.207,5902.8487203872,0,0,1.02944885184,146.3, -0.9, -0.6,0,0,1024,1024,1033,1024,146.8,0,100,4.307,4.311,4.307,4.309,0,0,87.71,10,Assisted_Takeoff,
0.274936972837037,36.8768563497616,5902.8487203872,0,0,1.04175200184,1900,2017-11-07 11:46:11,14,17.152,5902.8487203872,0,0,1.04175200184,146.3, -1, -0.6,0,0,1024,1024,1148,1024,146.8,0,100,4.306,4.31,4.305,4.305,0,0,87.71,10,Assisted_Takeoff,
0.274936930539019,36.8768564053953,5902.8487203872,0,0,1.06687667456,2000,2017-11-07 11:46:11,14,17.152,5902.8487203872,0,0,1.06687667456,146.3, -1.1, -0.9,0,0,1024,1024,1325,1024,146.8,0,100,4.306,4.31,4.305,4.305,0,0,87.71,10,Assisted_Takeoff,
0.274936917888451,36.8768564255975,5902.8487203872,0,0,1.07528218664,2100,2017-11-07 11:46:12,14,17.152,5902.8487203872,0,0,1.07528218664,146.2, -1.1, -0.8,0,0,1024,1024,1481,1023,146.7,0,100,4.306,4.31,4.305,4.305,0,0,87.71,10,Assisted_Takeoff,
0.274936886753823,36.8768564706107,5902.8487203872,0,0,1.09480974632,2200,2017-11-07 11:46:12,14,17.152,5902.8487203872,0,0,1.09480974632,146.3, -1.2, -0.8,0,0,1024,1024,1684,1021,146.7,0,100,4.306,4.31,4.305,4.305,0,0,87.71,10,Assisted_Takeoff,
0.274936873879345,36.8768564876163,5902.8487203872,0,0,1.10248691192,2300,2017-11-07 11:46:12,14,17.152,5902.8487203872,0,0,1.10248691192,146.3, -1.2, -0.8,0,0,1024,1024,1684,1024,146.7,0,100,4.306,4.31,4.305,4.305,0,0,87.71,10,Assisted_Takeoff,
0.274936840252384,36.8768565308141,5902.8487203872,0,0,1.12223756872,2400,2017-11-07 11:46:12,14,17.152,5902.8487203872,0,0,1.12223756872,147, -1, -0.1,0,0,1024,1024,1684,1024,146.7,0,100,4.306,4.31,4.305,4.305,0,0,87.71,10,Assisted_Takeoff,
0.274936788126299,36.8768566085031,5902.8487203872,0,0,1.15558074564,2500,2017-11-07 11:46:12,14,17.152,5902.8487203872,0,0,1.15558074564,147.5, 0.2, 2,0,0,1024,1024,1684,1024,146.7,0,100,4.306,4.31,4.305,4.305,0,0,87.71,10,Assisted_Takeoff,
0.274936681106995,36.8768566731867,5902.8487203872,0,0,1.20010830612,2600,2017-11-07 11:46:12,14,17.152,5902.8487203872,0,0,1.20010830612,147.4, 0.9, 2.5,0,0,1024,1024,1684,1024,146.8,0,100,4.306,4.31,4.305,4.305,0,0,87.71,6,GPS_Atti,
0.27493653784097,36.8768566597099,5902.8487203872,0,0.223694,1.23527563008,2700,2017-11-07 11:46:12,14,17.152,5902.8487203872,0,0.223694,1.23527563008,147.5, 1.1, 1.5,0,0,1024,1024,1684,1024,146.8,0,100,4.306,4.31,4.305,4.305,0,0,87.71,6,GPS_Atti,
0.274936348988284,36.8768566009924,5903.1768043872,0.328084,0.31540854,1.27401250796,2800,2017-11-07 11:46:12,14,17.152,5903.1768043872,0.328084,0.31540854,1.27401250796,147.5, 0.7, 0.5,0,0,1024,1024,1684,1024,146.9,0,100,4.306,4.31,4.305,4.305,0,0,87.71,6,GPS_Atti,
0.274936145944116,36.8768564833916,5903.5048883872,0.656168,0.50107456,1.30719492372,2900,2017-11-07 11:46:12,14,17.043,5903.5048883872,0.656168,0.50107456,1.30719492372,147.6, 0.3, 0,0,0,1024,1024,1684,1024,146.9,0,100,4.301,4.303,4.299,4.299,0,0,87.71,6,GPS_Atti,
0.274935881198205,36.876856353426,5903.8329723872,0.984252,0.50107456,1.36179138216,3000,2017-11-07 11:46:12,14,17.043,5903.8329723872,0.984252,0.50107456,1.36179138216,147.9, 0.9, -0.9,0,0,1024,1024,1684,1024,147,0,100,4.301,4.303,4.299,4.299,0,0,87.71,6,GPS_Atti,Home Point Recorded. RTH Altitude:  30m.
0.274935558577394,36.8768561693357,5904.4891403872,1.64042,0.70687304,1.43220477024,3100,2017-11-07 11:46:13,14,17.043,5904.4891403872,1.64042,0.70687304,1.43220477024,147.8, 1.6, -2.8,0,0,1024,1024,1684,1024,147.1,0,100,4.301,4.303,4.299,4.299,0,0,87.71,6,GPS_Atti,
0.274935193334097,36.8768559862647,5905.1453083872,2.296588,0.70687304,1.5260499176,3200,2017-11-07 11:46:13,14,17.043,5905.1453083872,2.296588,0.70687304,1.5260499176,147.7, 2.8, -2.9,0,0,1024,1024,1684,1024,147.1,0,100,4.301,4.303,4.299,4.299,0,0,87.71,6,GPS_Atti,
0.274934811936635,36.8768558207164,5906.1295603872,3.28084,0.80753534,1.63575464552,3300,2017-11-07 11:46:13,14,17.043,5906.1295603872,3.28084,0.80753534,1.63575464552,147.7, 4.6, -3.7,0,0,1024,1024,1684,1024,147.1,0,100,4.301,4.303,4.299,4.299,0,0,87.71,6,GPS_Atti,
0.274934482713298,36.8768556097087,5907.1138123872,4.265092,0.80753534,1.72908142016,3400,2017-11-07 11:46:13,14,17.043,5907.1138123872,4.265092,0.80753534,1.72908142016,147.6, 2, -4.4,0,0,1024,1024,1684,1024,147.2,0,100,4.301,4.303,4.299,4.299,0,0,87.71,6,GPS_Atti,
0.274934177422389,36.8768554108327,5908.4261483872,5.577428,0.80753534,1.82111554384,3500,2017-11-07 11:46:13,14,17.043,5908.4261483872,5.577428,0.80753534,1.82111554384,147.7, 0, -4.4,0,0,1024,1024,1684,1024,147.2,0,100,4.301,4.303,4.299,4.299,0,0,87.71,6,GPS_Atti,
0.274933797260916,36.8768552454616,5910.0665683872,7.217848,0.99991218,1.94682749012,3600,2017-11-07 11:46:13,14,17.043,5910.0665683872,7.217848,0.99991218,1.94682749012,147.5, 1.4, -5.4,0,0,1024,1024,1684,1024,147.2,0,100,4.301,4.303,4.299,4.299,0,0,87.71,6,GPS_Atti,
0.274933307010523,36.8768551012674,5911.3789043872,8.530184,0.99991218,2.11675203624,3700,2017-11-07 11:46:13,14,17.043,5911.3789043872,8.530184,0.99991218,2.11675203624,147.3, 3.6, -8,0,0,1024,1024,1684,1024,147.2,0,100,4.301,4.303,4.299,4.299,0,0,87.71,6,GPS_Atti,
0.274932830277029,36.8768549524716,5913.0193243872,10.170604,0.99991218,2.28418970564,3800,2017-11-07 11:46:13,14,17.043,5913.0193243872,10.170604,0.99991218,2.28418970564,147.3, 4.2, -9.6,0,0,1024,1024,1684,1024,147.2,0,100,4.301,4.303,4.299,4.299,0,0,87.71,6,GPS_Atti,
0.274932331908842,36.8768548605166,5914.6597443872,11.811024,0.80753534,2.46291346464,3900,2017-11-07 11:46:13,14,16.77,5914.6597443872,11.811024,0.99991218,2.46291346464,147.1, 5.7, -8.1,0,0,1024,1024,1684,1024,147.2,0,100,4.301,4.303,4.299,4.299,0,0,87.71,6,GPS_Atti,
0.274931453769603,36.8768544940246,5917.9405843872,15.091864,0.80753534,2.77796268732,4100,2017-11-07 11:46:14,14,16.77,5917.9405843872,15.091864,0.99991218,2.77796268732,147.4, 2.1, -6.5,0,0,1024,1024,1684,1024,147.2,0,100,4.301,4.303,4.299,4.299,0,0,87.71,6,GPS_Atti,
0.27493098105918,36.8768541899377,5919.5810043872,16.732284,0.94846256,2.95134195796,4200,2017-11-07 11:46:14,14,16.77,5919.5810043872,16.732284,0.99991218,2.95134195796,147.6, 0.8, -8.4,0,0,1024,1024,1684,1024,147.2,0,100,4.301,4.303,4.299,4.299,0,0,87.71,6,GPS_Atti,
0.274930389366496,36.876853850922,5921.5495083872,18.700788,1.11847,3.17268054772,4300,2017-11-07 11:46:14,14,16.77,5921.5495083872,18.700788,1.11847,3.17268054772,147.6, 1.8, -9.8,0,0,1024,1024,1684,1024,147.3,0,100,4.301,4.303,4.299,4.299,0,0,87.71,6,GPS_Atti,
0.274929805238749,36.8768535593791,5923.1899283872,20.341208,0.99991218,3.3934384288,4400,2017-11-07 11:46:14,14,16.77,5923.1899283872,20.341208,1.11847,3.3934384288,147.4, 2.7, -10.3,0,0,1024,1024,1684,1024,147.3,0,100,4.301,4.303,4.299,4.299,0,0,87.71,6,GPS_Atti,
0.274929212982624,36.8768533149975,5924.8303483872,21.981628,0.99991218,3.6174213756,4500,2017-11-07 11:46:14,14,16.77,5924.8303483872,21.981628,1.11847,3.6174213756,147.3, 3.8, -9.7,0,0,1024,1024,1684,1024,147.3,0,100,4.301,4.303,4.299,4.299,0,0,87.71,6,GPS_Atti,
0.274928658661102,36.8768531164466,5926.4707683872,23.622048,0.99991218,3.826771776,4600,2017-11-07 11:46:14,14,16.77,5926.4707683872,23.622048,1.11847,3.826771776,147.1, 4.9, -8.9,0,0,1024,1024,1684,1024,147.3,0,100,4.301,4.303,4.299,4.299,0,0,87.71,6,GPS_Atti,
0.274928080160443,36.8768528530785,5928.1111883872,25.262468,1.11847,4.0486549852,4700,2017-11-07 11:46:14,13,16.77,5928.1111883872,25.262468,1.11847,4.0486549852,147.1, 4.5, -8.7,0,0,1024,1024,1684,1024,147.3,0,100,4.301,4.303,4.299,4.299,0,0,87.71,6,GPS_Atti,
0.274927537616642,36.8768525879007,5930.0796923872,27.230972,1.11847,4.2587599788,4800,2017-11-07 11:46:14,13,16.77,5930.0796923872,27.230972,1.11847,4.2587599788,147.2, 3.7, -8.9,0,0,1024,1024,1684,1024,147.3,0,100,4.301,4.303,4.299,4.299,0,0,87.71,6,GPS_Atti,
0.274927001920448,36.8768523197245,5931.7201123872,28.871392,1.11847,4.4675526364,4900,2017-11-07 11:46:14,14,16.36,5931.7201123872,28.871392,1.11847,4.4675526364,147.3, 3.6, -9,0,0,1024,1024,1684,1024,147.3,0,100,4.163,4.173,4.18,4.172,0,0,87.71,6,GPS_Atti,
0.274926471070503,36.8768520744675,5933.3605323872,30.511812,1.11847,4.6739830892,5000,2017-11-07 11:46:14,14,16.36,5933.3605323872,30.511812,1.11847,4.6739830892,147.3, 3.6, -9.3,0,0,1024,1024,1684,1024,147.3,0,100,4.163,4.173,4.18,4.172,0,0,87.71,6,GPS_Atti,
0.274925971950789,36.8768518643417,5935.0009523872,32.152232,0.99991218,4.8671917568,5100,2017-11-07 11:46:15,14,16.36,5935.0009523872,32.152232,1.11847,4.8671917568,147.2, 4.1, -9.8,0,0,1024,1024,1684,1024,147.3,0,100,4.163,4.173,4.18,4.172,0,0,87.71,6,GPS_Atti,
0.274925476583011,36.8768516879818,5936.6413723872,33.792652,0.99991218,5.0569883508,5200,2017-11-07 11:46:15,14,16.36,5936.6413723872,33.792652,1.11847,5.0569883508,147.1, 4.9, -9.8,0,0,1024,1024,1684,1024,147.3,0,100,4.163,4.173,4.18,4.172,0,0,87.71,6,GPS_Atti,
0.274925041492087,36.8768515763683,5938.2817923872,35.433072,0.99991218,5.22063665,5300,2017-11-07 11:46:15,14,16.36,5938.2817923872,35.433072,1.11847,5.22063665,147.1, 5.3, -9.2,0,0,1024,1024,1684,1024,147.3,0,100,4.163,4.173,4.18,4.172,0,0,87.71,6,GPS_Atti,
0.274924624304276,36.8768514651605,5940.2502963872,37.401576,0.94846256,5.3778545028,5400,2017-11-07 11:46:15,14,16.36,5940.2502963872,37.401576,1.11847,5.3778545028,147.1, 4.9, -8.8,0,0,1024,1024,1684,1024,147.3,0,100,4.163,4.173,4.18,4.172,0,0,87.71,6,GPS_Atti,
0.274924264906686,36.8768513871333,5941.8907163872,39.041996,0.94846256,5.5120408588,5500,2017-11-07 11:46:15,14,16.36,5941.8907163872,39.041996,1.11847,5.5120408588,147.2, 4.1, -8.9,0,0,1024,1024,1684,1024,147.4,0,100,4.163,4.173,4.18,4.172,0,0,87.71,6,GPS_Atti,
0.274923886791761,36.8768512981063,5943.5311363872,40.682416,0.80753534,5.65370753,5600,2017-11-07 11:46:15,14,16.36,5943.5311363872,40.682416,1.11847,5.65370753,147.2, 3.6, -9.3,0,0,1024,1024,1684,1024,147.4,0,100,4.163,4.173,4.18,4.172,0,0,87.71,6,GPS_Atti,
0.27492355394595,36.8768512875549,5945.4996403872,42.65092,0.99991218,5.7734909984,5700,2017-11-07 11:46:15,14,16.36,5945.4996403872,42.65092,1.11847,5.7734909984,147.2, 3.9, -9.4,0,0,1024,1024,1684,1024,147.4,0,100,4.163,4.173,4.18,4.172,0,0,87.71,6,GPS_Atti,
0.274923189809588,36.8768512901781,5947.1400603872,44.29134,0.99991218,5.9036091128,5800,2017-11-07 11:46:15,14,16.36,5947.1400603872,44.29134,1.11847,5.9036091128,147.2, 4.5, -9.6,0,0,1024,1024,1684,1024,147.4,0,100,4.163,4.173,4.18,4.172,0,0,87.71,6,GPS_Atti,
0.274922871502525,36.8768513605217,5949.1085643872,46.259844,0.92161928,6.012795468,5900,2017-11-07 11:46:15,14,16.66,5949.1085643872,46.259844,1.11847,6.012795468,147.2, 4.9, -9.5,0,0,1024,1024,1684,1024,147.4,0,100,4.179,4.186,4.192,4.185,0,0,87.71,6,GPS_Atti,
0.274922537752928,36.8768514447845,5950.7489843872,47.900264,0.70687304,6.1270015084,6000,2017-11-07 11:46:15,14,16.66,5950.7489843872,47.900264,1.11847,6.1270015084,147.1, 5.3, -9,0,0,1024,1024,1684,1024,147.4,0,100,4.179,4.186,4.192,4.185,0,0,87.71,6,GPS_Atti,
0.27492223891717,36.8768515671496,5952.3894043872,49.540684,0.671082,6.2267718528,6100,2017-11-07 11:46:16,14,16.66,5952.3894043872,49.540684,1.11847,6.2267718528,147.1, 5.4, -8.1,0,0,1024,1024,1684,1024,147.4,0,100,4.179,4.186,4.192,4.185,0,0,87.71,6,GPS_Atti,
0.27492192864485,36.8768516918523,5954.3579083872,51.509188,0.671082,6.3311353732,6200,2017-11-07 11:46:16,14,16.66,5954.3579083872,51.509188,1.11847,6.3311353732,147.2, 5.3, -7.1,0,0,1024,1024,1684,1024,147.4,0,100,4.179,4.186,4.192,4.185,0,0,87.71,6,GPS_Atti,
0.274921600436848,36.8768518378883,5955.9983283872,53.149608,0.671082,6.441437214,6300,2017-11-07 11:46:16,14,16.66,5955.9983283872,53.149608,1.11847,6.441437214,147.2, 5.6, -6.8,0,0,1024,1024,1684,1024,147.4,0,100,4.179,4.186,4.192,4.185,0,0,87.71,6,GPS_Atti,
0.274920930859759,36.8768520791385,5959.6072523872,56.758532,0.671082,6.6714569064,6500,2017-11-07 11:46:16,14,16.66,5959.6072523872,56.758532,1.11847,6.6714569064,147.1, 6.4, -7.5,0,0,1024,1024,1684,1024,147.4,0,100,4.179,4.186,4.192,4.185,0,0,87.71,6,GPS_Atti,
0.274920630761957,36.8768521846856,5961.2476723872,58.398952,0.671082,6.7753283008,6600,2017-11-07 11:46:16,14,16.66,5961.2476723872,58.398952,1.11847,6.7753283008,147.1, 6.1, -7.5,0,0,1024,1024,1684,1024,147.4,0,100,4.179,4.186,4.192,4.185,0,0,87.71,6,GPS_Atti,
0.274920348998806,36.876852288225,5963.2161763872,60.367456,0.671082,6.8730645244,6700,2017-11-07 11:46:16,14,16.66,5963.2161763872,60.367456,1.11847,6.8730645244,147.1, 5.9, -7.6,0,0,1024,1024,1684,1024,147.4,0,100,4.179,4.186,4.192,4.185,0,0,87.71,6,GPS_Atti,
0.274920061259265,36.8768523931833,5964.8565963872,62.007876,0.671082,6.9732285696,6800,2017-11-07 11:46:16,14,16.66,5964.8565963872,62.007876,1.11847,6.9732285696,147.1, 6, -7.5,0,0,1024,1024,1684,1024,147.4,0,100,4.179,4.186,4.192,4.185,0,0,87.71,6,GPS_Atti,
0.274919778939186,36.8768525306356,5966.8251003872,63.97638,0.671082,7.0706367092,6900,2017-11-07 11:46:16,14,16.606,5966.8251003872,63.97638,1.11847,7.0706367092,147.1, 5.9, -7.1,0,0,1024,1024,1684,1024,147.4,0,100,4.168,4.174,4.181,4.175,0,0,87.71,6,GPS_Atti,
0.274919492308616,36.8768526592076,5968.7936043872,65.944884,0.671082,7.1704070536,7000,2017-11-07 11:46:16,14,16.606,5968.7936043872,65.944884,1.11847,7.1704070536,147.1, 5.9, -7,0,0,1024,1024,1684,1024,147.4,0,100,4.168,4.174,4.181,4.175,0,0,87.71,6,GPS_Atti,
0.274919203569211,36.8768527730379,5970.4340243872,67.585304,0.671082,7.271817818,7100,2017-11-07 11:46:17,14,16.606,5970.4340243872,67.585304,1.11847,7.271817818,147.1, 6, -7.3,0,0,1024,1024,1684,1024,147.4,0,100,4.168,4.174,4.181,4.175,0,0,87.71,6,GPS_Atti,
0.274918915886666,36.8768528643425,5972.4025283872,69.553808,0.671082,7.3737863252,7200,2017-11-07 11:46:17,14,16.606,5972.4025283872,69.553808,1.11847,7.3737863252,147.1, 5.8, -7.6,0,0,1024,1024,1684,1024,147.5,0,100,4.168,4.174,4.181,4.175,0,0,87.71,6,GPS_Atti,
0.274918636458704,36.8768529522186,5974.3710323872,71.522312,0.447388,7.473097352,7300,2017-11-07 11:46:17,14,16.606,5974.3710323872,71.522312,1.11847,7.473097352,147.2, 5.7, -7.2,0,0,1024,1024,1684,1024,147.5,0,100,4.168,4.174,4.181,4.175,0,0,87.71,6,GPS_Atti,
0.27491835523294,36.8768530284847,5976.0114523872,73.162732,0.671082,7.5735566728,7400,2017-11-07 11:46:17,14,16.606,5976.0114523872,73.162732,1.11847,7.5735566728,147.2, 5.7, -7.2,0,0,1024,1024,1684,1024,147.5,0,100,4.168,4.174,4.181,4.175,0,0,87.71,6,GPS_Atti,
0.274918086059289,36.8768531007875,5977.9799563872,75.131236,0.671082,7.6698493268,7500,2017-11-07 11:46:17,14,16.606,5977.9799563872,75.131236,1.11847,7.6698493268,147.2, 5.6, -7.6,0,0,1024,1024,1684,1024,147.5,0,100,4.168,4.174,4.181,4.175,0,0,87.71,6,GPS_Atti,
0.274917808679909,36.8768531610513,5979.9484603872,77.09974,0.671082,7.7695540544,7600,2017-11-07 11:46:17,14,16.606,5979.9484603872,77.09974,1.11847,7.7695540544,147.1, 6, -7.7,0,0,1024,1024,1684,1024,147.5,0,100,4.168,4.174,4.181,4.175,0,0,87.71,6,GPS_Atti,
0.27491753579015,36.8768532245515,5981.5888803872,78.74016,0.447388,7.8676511704,7700,2017-11-07 11:46:17,14,16.606,5981.5888803872,78.74016,1.11847,7.8676511704,147.1, 6.3, -8,0,0,1024,1024,1684,1024,147.5,0,100,4.168,4.174,4.181,4.175,0,0,87.71,6,GPS_Atti,
0.274917275160945,36.876853263297,5983.5573843872,80.708664,0.447388,7.9618440868,7800,2017-11-07 11:46:17,14,16.606,5983.5573843872,80.708664,1.11847,7.9618440868,147, 6.2, -8.3,0,0,1024,1024,1684,1024,147.5,0,100,4.168,4.174,4.181,4.175,0,0,87.71,6,GPS_Atti,
0.274917054014993,36.8768532870758,5985.1978043872,82.349084,0.447388,8.0419621996,7900,2017-11-07 11:46:17,14,16.551,5985.1978043872,82.349084,1.11847,8.0419621996,147, 6.1, -8.9,0,0,1024,1024,1684,1024,147.5,0,100,4.168,4.174,4.181,4.175,0,0,87.71,6,GPS_Atti,
0.274916853566565,36.8768533045989,5987.1663083872,84.317588,0.447388,8.114665614,8000,2017-11-07 11:46:17,14,16.551,5987.1663083872,84.317588,1.11847,8.114665614,147, 5.9, -8.6,0,0,1024,1024,1684,1024,147.5,0,100,4.168,4.174,4.181,4.175,0,0,87.71,6,GPS_Atti,
0.274916684193733,36.8768533444511,5988.8067283872,85.958008,0.223694,8.175689238,8100,2017-11-07 11:46:18,14,16.551,5988.8067283872,85.958008,1.11847,8.175689238,147, 5.9, -8.3,0,0,1024,1024,1684,1024,147.5,0,100,4.168,4.174,4.181,4.175,0,0,87.71,6,GPS_Atti,
0.274916529455727,36.8768533733785,5990.7752323872,87.926512,0.223694,8.2315947516,8200,2017-11-07 11:46:18,14,16.551,5990.7752323872,87.926512,1.11847,8.2315947516,147, 5.5, -8.1,0,0,1024,1024,1684,1024,147.5,0,100,4.168,4.174,4.181,4.175,0,0,87.71,6,GPS_Atti,
0.27491642943344,36.8768534143964,5992.4156523872,89.566932,0.223694,8.267388716,8300,2017-11-07 11:46:18,14,16.551,5992.4156523872,89.566932,1.11847,8.267388716,147.2, 5.1, -8.4,0,0,1024,1024,1684,1059,147.5,0,100,4.168,4.174,4.181,4.175,0,0,87.71,6,GPS_Atti,
0.27491632066478,36.876853455983,5994.3841563872,91.535436,0.223694,8.3063650952,8400,2017-11-07 11:46:18,14,16.551,5994.3841563872,91.535436,1.11847,8.3063650952,147.1, 5.6, -7.7,0,0,1024,1024,1684,1107,147.6,0,100,4.168,4.174,4.181,4.175,0,0,87.71,6,GPS_Atti,
0.274916219237146,36.8768535426394,5996.0245763872,93.175856,0.223694,8.3420934428,8500,2017-11-07 11:46:18,14,16.551,5996.0245763872,93.175856,1.11847,8.3420934428,147.2, 5.6, -7.9,0,0,1024,1024,1684,1053,147.9,0,100,4.168,4.174,4.181,4.175,0,0,87.71,6,GPS_Atti,
0.27491611118663,36.8768536120749,5997.9930803872,95.14436,0.223694,8.380577696,8600,2017-11-07 11:46:18,14,16.551,5997.9930803872,95.14436,1.11847,8.380577696,147.8, 6, -8.3,0,0,1024,1024,1684,1024,147.9,0,100,4.168,4.174,4.181,4.175,0,0,87.71,6,GPS_Atti,
0.274916046000017,36.8768537136809,5999.6335003872,96.78478,0,8.4031498752,8700,2017-11-07 11:46:18,14,16.551,5999.6335003872,96.78478,1.11847,8.4031498752,148.1, 6.4, -8.2,0,0,1024,1024,1684,1024,148,0,100,4.168,4.174,4.181,4.175,0,0,87.71,6,GPS_Atti,
0.274916000172346,36.8768537900484,6001.2739203872,98.4252,0,8.4190619492,8800,2017-11-07 11:46:18,14,16.551,6001.2739203872,98.4252,1.11847,8.4190619492,148.2, 5.9, -7.6,0,0,1024,1024,1684,1024,148,0,100,4.168,4.174,4.181,4.175,0,0,87.71,6,GPS_Atti,
0.274916005456647,36.876853898101,6003.2424243872,100.393704,0,8.41617481,8900,2017-11-07 11:46:18,14,16.606,6003.2424243872,100.393704,1.11847,8.4190619492,148.3, 5.8, -6.9,0,0,1024,1024,1684,1024,148,0,100,4.165,4.174,4.18,4.171,0,0,87.71,6,GPS_Atti,
0.274915989774731,36.8768539577251,6005.2109283872,102.362208,0,8.421424154,9000,2017-11-07 11:46:18,14,16.606,6005.2109283872,102.362208,1.11847,8.421424154,148.2, 5.6, -6.9,0,0,1024,1024,1684,1024,148,0,100,4.165,4.174,4.18,4.171,0,0,87.71,6,GPS_Atti,
0.274915972907308,36.8768539825309,6006.8513483872,104.002628,0,8.4273952828,9100,2017-11-07 11:46:19,15,16.606,6006.8513483872,104.002628,1.11847,8.4273952828,148.2, 5.1, -7.8,0,0,1024,1024,1684,1024,148.1,0,100,4.165,4.174,4.18,4.171,0,0,87.71,6,GPS_Atti,
0.27491591375408,36.8768539753835,6008.8198523872,105.971132,0.223694,8.4490488268,9200,2017-11-07 11:46:19,15,16.606,6008.8198523872,105.971132,1.11847,8.4490488268,148.3, 5.3, -8.8,0,0,1024,1024,1684,1024,148.1,0,100,4.165,4.174,4.18,4.171,0,0,87.71,6,GPS_Atti,
0.274915875832504,36.8768540070684,6010.4602723872,107.611552,0.223694,8.4626643128,9300,2017-11-07 11:46:19,15,16.606,6010.4602723872,107.611552,1.11847,8.4626643128,148.3, 5.8, -9,0,0,1024,1024,1684,1024,148.1,0,100,4.165,4.174,4.18,4.171,0,0,87.71,6,GPS_Atti,
0.274915825875099,36.8768540391098,6012.4287763872,109.580056,0.223694,8.4806761244,9400,2017-11-07 11:46:19,15,16.606,6012.4287763872,109.580056,1.11847,8.4806761244,148.2, 6.2, -9,0,0,1024,1024,1684,1024,148.1,0,100,4.165,4.174,4.18,4.171,0,0,87.71,6,GPS_Atti,
0.274915800529997,36.8768540910074,6014.0691963872,111.220476,0,8.489665626,9500,2017-11-07 11:46:19,15,16.606,6014.0691963872,111.220476,1.11847,8.489665626,148.2, 6.5, -8.5,0,0,1024,1024,1684,1024,148.1,0,100,4.165,4.174,4.18,4.171,0,0,87.71,6,GPS_Atti,
0.274915773895167,36.87685413272,6015.7096163872,112.860896,0,8.499180062,9600,2017-11-07 11:46:19,15,16.606,6015.7096163872,112.860896,1.11847,8.499180062,148.1, 6.5, -8.1,0,0,1024,1024,1684,1024,148.2,0,100,4.165,4.174,4.18,4.171,0,0,87.71,6,GPS_Atti,
0.274915770674105,36.8768541600125,6017.3500363872,114.501316,0,8.5002299308,9700,2017-11-07 11:46:19,15,16.606,6017.3500363872,114.501316,1.11847,8.5002299308,148.1, 6.6, -8.4,0,0,1024,1024,1684,1024,148.2,0,100,4.165,4.174,4.18,4.171,0,0,87.71,6,GPS_Atti,
0.274915747556714,36.8768541578332,6019.3185403872,116.46982,0,8.508694498,9800,2017-11-07 11:46:19,15,16.606,6019.3185403872,116.46982,1.11847,8.508694498,148.2, 6.4, -8.5,0,0,1024,1024,1684,1024,148.2,0,100,4.165,4.174,4.18,4.171,0,0,87.71,6,GPS_Atti,
0.274915763411245,36.8768541443581,6020.9589603872,118.11024,0,8.502953028,9900,2017-11-07 11:46:19,15,16.578,6020.9589603872,118.11024,1.11847,8.508694498,148.2, 6.1, -8.5,0,0,1024,1024,1684,1024,148.2,0,100,4.16,4.17,4.175,4.168,0,0,89.51,6,GPS_Atti,
0.274915765871824,36.876854122748,6022.9274643872,120.078744,0,8.5021656264,10000,2017-11-07 11:46:19,15,16.578,6022.9274643872,120.078744,1.11847,8.508694498,148.1, 6.2, -8.7,0,0,1024,1024,1684,1024,148.2,0,100,4.16,4.17,4.175,4.168,0,0,89.51,6,GPS_Atti,
0.274915800901282,36.8768541058932,6024.5678843872,121.719164,0,8.4894359672,10100,2017-11-07 11:46:20,15,16.578,6024.5678843872,121.719164,1.11847,8.508694498,148.1, 6.3, -8.9,0,0,1024,1024,1684,1024,148.2,0,100,4.16,4.17,4.175,4.168,0,0,89.51,6,GPS_Atti,
0.274915820027357,36.8768540873216,6026.2083043872,123.359584,0,8.4825790116,10200,2017-11-07 11:46:20,15,16.578,6026.2083043872,123.359584,1.11847,8.508694498,148.1, 6.3, -8.7,0,0,1024,1024,1684,1024,148.3,0,100,4.16,4.17,4.175,4.168,0,0,89.51,6,GPS_Atti,
0.274915895284268,36.8768540415678,6027.8487243872,125.000004,0,8.4553480396,10300,2017-11-07 11:46:20,15,16.578,6027.8487243872,125.000004,1.11847,8.508694498,148.2, 5.8, -8.7,0,0,1024,1024,1684,1024,148.3,0,100,4.16,4.17,4.175,4.168,0,0,89.51,6,GPS_Atti,
0.27491596219866,36.8768539844342,6029.8172283872,126.968508,0,8.4312994824,10400,2017-11-07 11:46:20,15,16.578,6029.8172283872,126.968508,1.11847,8.508694498,148.2, 5.4, -8.6,0,0,1024,1024,1684,1024,148.3,0,100,4.16,4.17,4.175,4.168,0,0,89.51,6,GPS_Atti,
0.274916061102206,36.8768539409138,6031.4576483872,128.608928,0,8.3955383264,10500,2017-11-07 11:46:20,15,16.578,6031.4576483872,128.608928,1.11847,8.508694498,148.2, 5.1, -8.9,0,0,1024,1024,1684,1024,148.3,0,100,4.16,4.17,4.175,4.168,0,0,89.51,6,GPS_Atti,
0.274916127630657,36.8768539103747,6033.0980683872,130.249348,0,8.3714897692,10600,2017-11-07 11:46:20,15,16.578,6033.0980683872,130.249348,1.11847,8.508694498,148.3, 4.9, -9.2,0,0,1024,1024,1684,1024,148.3,0,100,4.16,4.17,4.175,4.168,0,0,89.51,6,GPS_Atti,
0.274916204426448,36.8768539278045,6034.7384883872,131.889768,0,8.343340162,10700,2017-11-07 11:46:20,15,16.578,6034.7384883872,131.889768,1.11847,8.508694498,148.3, 5.1, -9.2,0,0,1024,1024,1684,1024,148.3,0,100,4.16,4.17,4.175,4.168,0,0,89.51,6,GPS_Atti,
0.274916247221956,36.8768539661724,6036.3789083872,133.530188,0,8.3274608964,10800,2017-11-07 11:46:20,15,16.578,6036.3789083872,133.530188,1.11847,8.508694498,148.3, 5.8, -8.3,0,0,1024,1024,1684,1024,148.4,0,100,4.16,4.17,4.175,4.168,0,0,89.51,6,GPS_Atti,
0.274916326129838,36.8768539930398,6038.0193283872,135.170608,0,8.2984910792,10900,2017-11-07 11:46:20,15,16.578,6038.0193283872,135.170608,1.11847,8.508694498,148.3, 5.9, -7.9,0,0,1024,1024,1684,1024,148.4,0,99,4.156,4.166,4.171,4.162,0,0,89.51,6,GPS_Atti,
0.274916371840261,36.8768539940366,6039.6597483872,136.811028,0,8.2817916036,11000,2017-11-07 11:46:20,15,16.578,6039.6597483872,136.811028,1.11847,8.508694498,148.2, 6, -7.9,0,0,1024,1024,1684,1024,148.4,0,99,4.156,4.166,4.171,4.162,0,0,89.51,6,GPS_Atti,
0.274916456773387,36.8768540009274,6041.3001683872,138.451448,0,8.2507876656,11100,2017-11-07 11:46:21,15,16.578,6041.3001683872,138.451448,1.11847,8.508694498,148.1, 6.1, -8.6,0,0,1024,1024,1684,1024,148.4,0,99,4.156,4.166,4.171,4.162,0,0,89.51,6,GPS_Atti,
0.274916515574871,36.8768539981154,6043.2686723872,140.419952,0,8.2293637804,11200,2017-11-07 11:46:21,15,16.578,6043.2686723872,140.419952,1.11847,8.508694498,148.1, 6, -9,0,0,1024,1024,1684,1024,148.4,0,99,4.156,4.166,4.171,4.162,0,0,89.51,6,GPS_Atti,
0.274916580914558,36.8768539704726,6044.9090923872,142.060372,0,8.205708924,11300,2017-11-07 11:46:21,15,16.578,6044.9090923872,142.060372,1.11847,8.508694498,148.1, 5.9, -9.2,0,0,1024,1024,1684,1024,148.4,0,99,4.156,4.166,4.171,4.162,0,0,89.51,6,GPS_Atti,
0.274916616882,36.8768539416339,6046.5495123872,143.700792,0,8.1927824144,11400,2017-11-07 11:46:21,15,16.578,6046.5495123872,143.700792,1.11847,8.508694498,148.1, 5.8, -9.1,0,0,1024,1024,1684,1024,148.4,0,99,4.156,4.166,4.171,4.162,0,0,89.51,6,GPS_Atti,
0.274916710571269,36.8768539303792,6048.1899323872,145.341212,0,8.1586944868,11500,2017-11-07 11:46:21,15,16.578,6048.1899323872,145.341212,1.11847,8.508694498,148.2, 5.6, -8.9,0,0,1024,1024,1684,1024,148.4,0,99,4.156,4.166,4.171,4.162,0,0,89.51,6,GPS_Atti,
0.274916780397319,36.8768539246242,6050.1584363872,147.309716,0,8.1332679768,11600,2017-11-07 11:46:21,15,16.578,6050.1584363872,147.309716,1.11847,8.508694498,148.2, 5.5, -8.9,0,0,1024,1024,1684,1024,148.4,0,99,4.156,4.166,4.171,4.162,0,0,89.51,6,GPS_Atti,
0.274916855660744,36.8768538988803,6051.7988563872,148.950136,0,8.1060370048,11700,2017-11-07 11:46:21,15,16.578,6051.7988563872,148.950136,1.11847,8.508694498,148.2, 5.6, -9.1,0,0,1024,1024,1684,1024,148.4,0,99,4.156,4.166,4.171,4.162,0,0,89.51,6,GPS_Atti,
0.274916894790624,36.8768538682218,6053.4392763872,150.590556,0,8.092027818,11800,2017-11-07 11:46:21,15,16.578,6053.4392763872,150.590556,1.11847,8.508694498,148.2, 5.9, -9.2,0,0,1024,1024,1684,1024,148.5,0,99,4.156,4.166,4.171,4.162,0,0,89.51,6,GPS_Atti,
0.274916982439994,36.8768538404357,6055.0796963872,152.230976,0,8.0603020952,11900,2017-11-07 11:46:21,15,16.469,6055.0796963872,152.230976,1.11847,8.508694498,148.1, 5.8, -9.3,0,0,1024,1024,1684,1024,148.5,0,99,4.156,4.166,4.171,4.162,0,0,89.51,6,GPS_Atti,
0.274917048364292,36.8768538158999,6057.0482003872,154.19948,0,8.0365160052,12000,2017-11-07 11:46:21,15,16.469,6057.0482003872,154.19948,1.11847,8.508694498,148.1, 5.8, -9.5,0,0,1024,1024,1684,1024,148.5,0,99,4.156,4.166,4.171,4.162,0,0,89.51,6,GPS_Atti,
0.27491715000851,36.8768537762886,6058.6886203872,155.8399,0,7.999836214,12100,2017-11-07 11:46:22,15,16.469,6058.6886203872,155.8399,1.11847,8.508694498,148.1, 5.6, -9.3,0,0,1024,1024,1684,1024,148.5,0,99,4.156,4.166,4.171,4.162,0,0,89.51,6,GPS_Atti,
0.27491722817545,36.8768537373303,6060.6571243872,157.808404,0,7.9717522236,12200,2017-11-07 11:46:22,15,16.469,6060.6571243872,157.808404,1.11847,8.508694498,148.1, 5.3, -8.9,0,0,1024,1024,1684,1024,148.5,0,99,4.156,4.166,4.171,4.162,0,0,89.51,6,GPS_Atti,
0.274917356050643,36.8768536747588,6062.2975443872,159.448824,0,7.925853272,12300,2017-11-07 11:46:22,15,16.469,6062.2975443872,159.448824,1.11847,8.508694498,148.2, 4.9, -9.3,0,0,1024,1024,1684,1024,148.5,0,99,4.156,4.166,4.171,4.162,0,0,89.51,6,GPS_Atti,
0.274917456553322,36.8768536186854,6063.9379643872,161.089244,0,7.889928074,12400,2017-11-07 11:46:22,15,16.469,6063.9379643872,161.089244,1.11847,8.508694498,148.2, 5, -9.2,0,0,1024,1024,1684,1024,148.5,0,99,4.156,4.166,4.171,4.162,0,0,89.51,6,GPS_Atti,
0.274917560421994,36.8768535464914,6065.5783843872,162.729664,0,7.8530842408,12500,2017-11-07 11:46:22,15,16.469,6065.5783843872,162.729664,1.11847,8.508694498,148.3, 4.6, -9.1,0,0,1024,1024,1684,1024,148.5,0,99,4.156,4.166,4.171,4.162,0,0,89.51,6,GPS_Atti,
0.274917620897518,36.8768534711458,6067.2188043872,164.370084,0,7.83218529,12600,2017-11-07 11:46:22,15,16.469,6067.2188043872,164.370084,1.11847,8.508694498,148.2, 4.5, -9.2,0,0,1024,1024,1684,1024,148.5,0,99,4.156,4.166,4.171,4.162,0,0,89.51,6,GPS_Atti,
0.274917698007598,36.8768534083668,6068.8592243872,166.010504,0.223694,7.80511836,12700,2017-11-07 11:46:22,15,16.469,6068.8592243872,166.010504,1.11847,8.508694498,148.2, 4.5, -10.2,0,0,1024,1024,1684,1024,148.5,0,99,4.156,4.166,4.171,4.162,0,0,89.51,6,GPS_Atti,
0.274917745453943,36.8768533522083,6070.4996443872,167.650924,0,7.7888125852,12800,2017-11-07 11:46:22,15,16.469,6070.4996443872,167.650924,1.11847,8.508694498,148.2, 4.5, -10.8,0,0,1024,1024,1684,1024,148.5,0,99,4.156,4.166,4.171,4.162,0,0,89.51,6,GPS_Atti,
0.274917828729312,36.8768532620768,6072.1400643872,169.291344,0,7.760170852,12900,2017-11-07 11:46:22,15,16.524,6072.1400643872,169.291344,1.11847,8.508694498,148.2, 4.5, -10.5,0,0,1024,1024,1684,1024,148.5,0,99,4.149,4.157,4.163,4.156,0,0,89.51,6,GPS_Atti,
0.274917887498227,36.8768531822632,6073.7804843872,170.931764,0,7.7403873868,13000,2017-11-07 11:46:22,15,16.524,6073.7804843872,170.931764,1.11847,8.508694498,148.1, 4.5, -10.6,0,0,1024,1024,1684,1024,148.5,0,99,4.149,4.157,4.163,4.156,0,0,89.51,6,GPS_Atti,
0.274917969527837,36.876853131363,6075.4209043872,172.572184,0,7.71161442,13100,2017-11-07 11:46:23,15,16.524,6075.4209043872,172.572184,1.11847,8.508694498,148.1, 4.6, -10.2,0,0,1024,1024,1684,1024,148.5,0,99,4.149,4.157,4.163,4.156,0,0,89.51,6,GPS_Atti,
0.274918032398802,36.8768531120431,6077.3894083872,174.540688,0,7.689140666,13200,2017-11-07 11:46:23,15,16.524,6077.3894083872,174.540688,1.11847,8.508694498,148.2, 4.8, -9.5,0,0,1024,1024,1684,1024,148.5,0,99,4.149,4.157,4.163,4.156,0,0,89.51,6,GPS_Atti,
0.274918140605649,36.8768530883558,6079.0298283872,176.181108,0,7.6502955204,13300,2017-11-07 11:46:23,15,16.524,6079.0298283872,176.181108,1.11847,8.508694498,148.2, 4.4, -9.3,0,0,1024,1024,1684,1024,148.5,0,99,4.149,4.157,4.163,4.156,0,0,89.51,6,GPS_Atti,
0.274918225317306,36.8768530709603,6080.6702483872,177.821528,0,7.6198493252,13400,2017-11-07 11:46:23,15,16.524,6080.6702483872,177.821528,1.11847,8.508694498,148.2, 4.1, -9.4,0,0,1024,1024,1684,1024,148.5,0,99,4.149,4.157,4.163,4.156,0,0,89.51,6,GPS_Atti,
0.274918309271736,36.8768530476507,6081.9825843872,179.133864,0,7.5898296392,13500,2017-11-07 11:46:23,15,16.524,6081.9825843872,179.133864,1.11847,8.508694498,148.2, 4.4, -9.6,0,0,1024,1024,1684,1024,148.5,0,99,4.149,4.157,4.163,4.156,0,0,89.51,6,GPS_Atti,
0.274918352811443,36.8768530395641,6083.6230043872,180.774284,0,7.5741800324,13600,2017-11-07 11:46:23,15,16.524,6083.6230043872,180.774284,1.11847,8.508694498,148.1, 5, -9.6,0,0,1024,1024,1684,1024,148.5,0,99,4.149,4.157,4.163,4.156,0,0,89.51,6,GPS_Atti,
0.274918412731669,36.8768530331114,6085.2634243872,182.414704,0,7.55249368,13700,2017-11-07 11:46:23,15,16.524,6085.2634243872,182.414704,1.11847,8.508694498,148.1, 5.2, -9.2,0,0,1024,1024,1684,1024,148.6,0,99,4.149,4.157,4.163,4.156,0,0,89.51,6,GPS_Atti,
0.274918463547264,36.87685303822,6086.9038443872,184.055124,0,7.5338913172,13800,2017-11-07 11:46:23,15,16.524,6086.9038443872,184.055124,1.11847,8.508694498,148.1, 4.6, -8.9,0,0,1024,1024,1684,1024,148.6,0,99,4.149,4.157,4.163,4.156,0,0,89.51,6,GPS_Atti,
0.274918529552984,36.876853010487,6088.5442643872,185.695544,0,7.5105317364,13900,2017-11-07 11:46:23,15,16.497,6088.5442643872,185.695544,1.11847,8.508694498,148.2, 4.1, -8.7,0,0,1024,1024,1684,1024,148.6,0,99,4.144,4.152,4.16,4.149,0,0,89.51,6,GPS_Atti,
0.274918556446737,36.876852974752,6090.1846843872,187.335964,0,7.50164066,14000,2017-11-07 11:46:23,15,16.497,6090.1846843872,187.335964,1.11847,8.508694498,148.2, 4.3, -9.2,0,0,1024,1024,1684,1024,148.6,0,99,4.144,4.152,4.16,4.149,0,0,89.51,6,GPS_Atti,
0.274918593756017,36.8768529318718,6091.8251043872,188.976384,0,7.489173468,14100,2017-11-07 11:46:24,15,16.497,6091.8251043872,188.976384,1.11847,8.508694498,148.2, 5.1, -10,0,0,1024,1024,1684,1024,148.6,0,99,4.144,4.152,4.16,4.149,0,0,89.51,6,GPS_Atti,
0.274918609788048,36.8768529035531,6093.4655243872,190.616804,0,7.484088166,14200,2017-11-07 11:46:24,15,16.497,6093.4655243872,190.616804,1.11847,8.508694498,148.1, 5.6, -10.1,0,0,1024,1024,1684,1024,148.6,0,99,4.144,4.152,4.16,4.149,0,0,89.51,6,GPS_Atti,
0.274918639912634,36.8768528366609,6095.4340283872,192.585308,0,7.4749674308,14300,2017-11-07 11:46:24,15,16.497,6095.4340283872,192.585308,1.11847,8.508694498,148.1, 5.4, -10.2,0,0,1024,1024,1684,1024,148.6,0,99,4.144,4.152,4.16,4.149,0,0,89.51,6,GPS_Atti,
0.274918652775713,36.8768527610863,6097.0744483872,194.225728,0,7.472441184,14400,2017-11-07 11:46:24,15,16.497,6097.0744483872,194.225728,1.11847,8.508694498,148.2, 4.4, -10.2,0,0,1024,1024,1684,1024,148.6,0,99,4.144,4.152,4.16,4.149,0,0,89.51,6,GPS_Atti,
0.274918666544207,36.8768526663124,6098.7148683872,195.866148,0,7.470308638,14500,2017-11-07 11:46:24,15,16.497,6098.7148683872,195.866148,1.11847,8.508694498,148.2, 4.3, -10.5,0,0,1024,1024,1684,1024,148.6,0,99,4.144,4.152,4.16,4.149,0,0,89.51,6,GPS_Atti,
0.274918647025677,36.87685258749,6100.3552883872,197.506568,0,7.4799214992,14600,2017-11-07 11:46:24,15,16.497,6100.3552883872,197.506568,1.11847,8.508694498,148.1, 5, -10.9,0,0,1024,1024,1684,1030,148.6,0,99,4.144,4.152,4.16,4.149,0,0,89.51,6,GPS_Atti,
0.274918637885221,36.8768525114234,6101.9957083872,199.146988,0,7.4857613944,14700,2017-11-07 11:46:24,15,16.497,6101.9957083872,199.146988,1.11847,8.508694498,148.1, 5.4, -11.1,0,0,1024,1024,1684,1043,148.6,0,99,4.144,4.152,4.16,4.149,0,0,89.51,6,GPS_Atti,
0.274918638502401,36.8768524498949,6103.6361283872,200.787408,0,7.4876314732,14800,2017-11-07 11:46:24,15,16.497,6103.6361283872,200.787408,1.11847,8.508694498,148, 4.9, -11,0,0,1024,1024,1684,1024,148.6,0,99,4.144,4.152,4.16,4.149,0,0,89.51,6,GPS_Atti,
0.274918671849677,36.8768523702893,6105.2765483872,202.427828,0,7.478346696,14900,2017-11-07 11:46:24,15,16.442,6105.2765483872,202.427828,1.11847,8.508694498,148.1, 4.2, -10.9,0,0,1024,1024,1684,1024,148.6,0,99,4.132,4.143,4.151,4.143,0,0,89.51,6,GPS_Atti,
0.274918699811689,36.8768523009138,6106.9169683872,204.068248,0,7.4707679556,15000,2017-11-07 11:46:24,15,16.442,6106.9169683872,204.068248,1.11847,8.508694498,148.2, 3.9, -10.9,0,0,1024,1024,1684,1024,148.6,0,99,4.132,4.143,4.151,4.143,0,0,89.51,6,GPS_Atti,
0.274918756129796,36.8768522664142,6108.2293043872,205.380584,0,7.4516406584,15100,2017-11-07 11:46:25,16,16.442,6108.2293043872,205.380584,1.11847,8.508694498,148.2, 4, -10.8,0,0,1024,1024,1684,1014,148.6,0,99,4.132,4.143,4.151,4.143,0,0,89.51,6,GPS_Atti,
0.274918796673167,36.876852271841,6109.8697243872,207.021004,0,7.4367128364,15200,2017-11-07 11:46:25,16,16.442,6109.8697243872,207.021004,1.11847,8.508694498,148.2, 4, -10.7,0,0,1024,1024,1684,1017,148.6,0,99,4.132,4.143,4.151,4.143,0,0,89.51,6,GPS_Atti,
0.27491886380577,36.8768523167223,6111.5101443872,208.661424,0,7.4106629668,15300,2017-11-07 11:46:25,16,16.442,6111.5101443872,208.661424,1.11847,8.508694498,148.1, 4.6, -10.5,0,0,1024,1024,1684,1010,148.6,0,99,4.132,4.143,4.151,4.143,0,0,89.51,6,GPS_Atti,
0.274918922310878,36.8768523722743,6112.8224803872,209.97376,0,7.3873690028,15400,2017-11-07 11:46:25,16,16.442,6112.8224803872,209.97376,1.11847,8.508694498,148, 4.6, -10.1,0,0,1024,1024,1669,1018,148.6,0,99,4.132,4.143,4.151,4.143,0,0,89.51,6,GPS_Atti,
0.274918992377938,36.876852435142,6114.4629003872,211.61418,0,7.3596459048,15500,2017-11-07 11:46:25,16,16.442,6114.4629003872,211.61418,1.11847,8.508694498,148.1, 4.1, -9.6,0,0,1024,1024,1647,1022,148.6,0,99,4.132,4.143,4.151,4.143,0,0,89.51,6,GPS_Atti,
0.274919043812341,36.8768524977759,6116.1033203872,213.2546,0,7.338746954,15600,2017-11-07 11:46:25,16,16.442,6116.1033203872,213.2546,1.11847,8.508694498,148.1, 3.7, -9.5,0,0,1024,1024,1672,1022,148.6,0,99,4.132,4.143,4.151,4.143,0,0,89.51,6,GPS_Atti,
0.274919111031253,36.8768525634321,6117.7437403872,214.89502,0,7.3121065332,15700,2017-11-07 11:46:25,16,16.442,6117.7437403872,214.89502,1.11847,8.508694498,148.1, 4, -10.4,0,0,1024,1024,1684,1021,148.6,0,99,4.132,4.143,4.151,4.143,0,0,89.51,6,GPS_Atti,
0.274919169702461,36.8768526336163,6119.3841603872,216.53544,0,7.2884844852,15800,2017-11-07 11:46:25,16,16.442,6119.3841603872,216.53544,1.11847,8.508694498,148.2, 4.2, -9.8,0,0,1024,1024,1647,1024,148.6,0,99,4.132,4.143,4.151,4.143,0,0,89.51,6,GPS_Atti,
0.274919253998865,36.8768527301975,6121.0245803872,218.17586,0,7.2547902584,15900,2017-11-07 11:46:25,16,16.497,6121.0245803872,218.17586,1.11847,8.508694498,148.2, 4, -8.4,0,0,1024,1024,1520,1024,148.6,0,99,4.132,4.143,4.151,4.143,0,0,89.51,6,GPS_Atti,
0.274919299432452,36.8768528198106,6122.6650003872,219.81628,0,7.235564536,16000,2017-11-07 11:46:25,16,16.497,6122.6650003872,219.81628,1.11847,8.508694498,148, 4.4, -9,0,0,1024,1024,1362,1024,148.6,0,99,4.132,4.143,4.151,4.143,0,0,89.51,6,GPS_Atti,
0.274919328067012,36.8768528718501,6124.3054203872,221.4567,0,7.2236550868,16100,2017-11-07 11:46:26,16,16.497,6124.3054203872,221.4567,1.11847,8.508694498,147.8, 5.1, -11.4,0,0,1024,1024,1271,1024,148.6,0,99,4.132,4.143,4.151,4.143,0,0,89.51,6,GPS_Atti,
0.274919323517139,36.8768528939657,6125.6177563872,222.769036,0,7.2246721472,16200,2017-11-07 11:46:26,16,16.497,6125.6177563872,222.769036,1.11847,8.508694498,147.8, 5.2, -13.2,0,0,1024,1024,1156,1024,148.6,0,99,4.132,4.143,4.151,4.143,0,0,89.51,6,GPS_Atti,
0.274919326476022,36.8768528977481,6126.6020083872,223.753288,0,7.2234910448,16300,2017-11-07 11:46:26,16,16.497,6126.6020083872,223.753288,1.11847,8.508694498,147.8, 5.1, -13.2,0,0,1024,1024,1080,1024,148.6,0,99,4.132,4.143,4.151,4.143,0,0,89.51,6,GPS_Atti,
0.274919293899,36.8768529039619,6127.5862603872,224.73754,0.223694,7.2351708352,16400,2017-11-07 11:46:26,16,16.497,6127.5862603872,224.73754,1.11847,8.508694498,147.8, 5, -12.8,0,0,1024,1024,1024,1024,148.6,0,99,4.132,4.143,4.151,4.143,0,0,89.51,6,GPS_Atti,
0.274919239139313,36.8768528796564,6128.2424283872,225.393708,0.223694,7.2557745104,16500,2017-11-07 11:46:26,16,16.497,6128.2424283872,225.393708,1.11847,8.508694498,147.7, 5.4, -12.6,0,0,1024,1024,1024,1024,148.6,0,99,4.132,4.143,4.151,4.143,0,0,89.51,6,GPS_Atti,
0.274919135755918,36.8768528381359,6128.2424283872,225.393708,0.223694,7.2945540392,16600,2017-11-07 11:46:26,16,16.497,6128.2424283872,225.393708,1.11847,8.508694498,147.7, 6, -12.8,0,0,1024,1024,1024,1024,148.6,0,99,4.132,4.143,4.151,4.143,0,0,89.51,6,GPS_Atti,
0.27491890370102,36.876852666634,6128.8985963872,226.049876,0.223694,7.3840881628,16800,2017-11-07 11:46:26,16,16.497,6128.8985963872,226.049876,1.11847,8.508694498,147.7, 6.1, -11.1,0,0,1024,1024,1024,1024,148.6,0,99,4.132,4.143,4.151,4.143,0,0,89.51,6,GPS_Atti,
0.274918847363371,36.8768525924999,6128.8985963872,226.049876,0.223694,7.4069556176,16900,2017-11-07 11:46:26,15,16.442,6128.8985963872,226.049876,1.11847,8.508694498,147.7, 6.4, -11,0,0,1024,1024,1024,1024,148.6,0,99,4.156,4.154,4.145,4.132,0,0,89.51,6,GPS_Atti,
0.274918791626619,36.87685255043,6129.2266803872,226.37796,0.223694,7.4285763532,17000,2017-11-07 11:46:26,15,16.442,6129.2266803872,226.37796,1.11847,8.508694498,147.6, 7.1, -10.5,0,0,1024,1024,1024,1024,148.6,0,99,4.156,4.154,4.145,4.132,0,0,89.51,6,GPS_Atti,
0.274918781141068,36.8768525354849,6129.2266803872,226.37796,0.223694,7.432907062,17100,2017-11-07 11:46:27,15,16.442,6129.2266803872,226.37796,1.11847,8.508694498,147.6, 6.7, -9.7,0,0,1024,1024,1024,1024,148.6,0,99,4.156,4.154,4.145,4.132,0,0,89.51,6,GPS_Atti,
0.274918767804111,36.8768525206727,6129.2266803872,226.37796,0,7.4382220228,17200,2017-11-07 11:46:27,15,16.442,6129.2266803872,226.37796,1.11847,8.508694498,147.7, 6.5, -9.4,0,0,1024,1024,1024,1024,148.6,0,99,4.156,4.154,4.145,4.132,0,0,89.51,6,GPS_Atti,
0.274918799169571,36.8768525167561,6129.2266803872,226.37796,0.223694,7.4269687416,17300,2017-11-07 11:46:27,15,16.442,6129.2266803872,226.37796,1.11847,8.508694498,147.7, 6.9, -9.4,0,0,1024,1024,1024,1024,148.6,0,99,4.156,4.154,4.145,4.132,0,0,89.51,6,GPS_Atti,
0.27491882924856,36.8768524963604,6129.2266803872,226.37796,0,7.4167325208,17400,2017-11-07 11:46:27,15,16.442,6129.2266803872,226.37796,1.11847,8.508694498,147.7, 6.8, -8.8,0,0,1024,1024,1024,1024,148.7,0,99,4.156,4.154,4.145,4.132,0,0,89.51,6,GPS_Atti,
0.27491887959842,36.8768524200636,6129.5547643872,226.706044,0,7.4011485308,17500,2017-11-07 11:46:27,16,16.442,6129.5547643872,226.706044,1.11847,8.508694498,147.8, 6.4, -8.9,0,0,1024,1024,1024,1024,148.6,0,99,4.156,4.154,4.145,4.132,0,0,89.51,6,GPS_Atti,
0.274918914408039,36.8768523030457,6129.5547643872,226.706044,0,7.3928151972,17600,2017-11-07 11:46:27,16,16.442,6129.5547643872,226.706044,1.11847,8.508694498,147.8, 6.2, -9,0,0,1024,1024,1024,1024,148.6,0,99,4.156,4.154,4.145,4.132,0,0,89.51,6,GPS_Atti,
0.274918939266237,36.8768521175563,6129.5547643872,226.706044,0,7.3911419688,17700,2017-11-07 11:46:27,16,16.442,6129.5547643872,226.706044,1.11847,8.508694498,147.8, 5.8, -9.2,0,0,1024,1024,1100,1024,148.6,0,99,4.156,4.154,4.145,4.132,0,0,89.51,6,GPS_Atti,
0.274918950276147,36.8768519186304,6129.8828483872,227.034128,0,7.3957023364,17800,2017-11-07 11:46:27,16,16.442,6129.8828483872,227.034128,1.11847,8.508694498,147.9, 5.6, -9.4,0,0,1024,1024,1120,1024,148.6,0,99,4.156,4.154,4.145,4.132,0,0,89.51,6,GPS_Atti,
0.274918952901198,36.8768516847064,6129.5547643872,226.706044,0,7.4057417068,17900,2017-11-07 11:46:27,16,16.77,6129.8828483872,227.034128,1.11847,8.508694498,147.9, 5.6, -9.5,0,0,1024,1024,1165,1024,148.7,0,99,4.185,4.191,4.194,4.191,0,0,89.51,6,GPS_Atti,
0.274918965580263,36.8768514709792,6129.8828483872,227.034128,0,7.4120409196,18000,2017-11-07 11:46:27,16,16.77,6129.8828483872,227.034128,1.11847,8.508694498,147.9, 5.3, -8.4,0,0,1024,1024,1165,1024,148.6,0,99,4.185,4.191,4.194,4.191,0,0,89.51,6,GPS_Atti,
0.274919000378483,36.8768512078901,6129.8828483872,227.034128,0,7.4139766152,18100,2017-11-07 11:46:28,16,16.77,6129.8828483872,227.034128,1.11847,8.508694498,147.9, 4.7, -8.7,0,0,1024,1024,1342,1024,148.7,0,99,4.185,4.191,4.194,4.191,0,0,89.51,6,GPS_Atti,
0.274919034862413,36.8768509381703,6129.8828483872,227.034128,0.223694,7.4177167728,18200,2017-11-07 11:46:28,16,16.77,6129.8828483872,227.034128,1.11847,8.508694498,148, 4.2, -9.1,0,0,1024,1024,1342,1024,148.6,0,99,4.185,4.191,4.194,4.191,0,0,89.51,6,GPS_Atti,
0.274919118655627,36.8768506695279,6130.2109323872,227.362212,0,7.405019922,18300,2017-11-07 11:46:28,16,16.77,6130.2109323872,227.362212,1.11847,8.508694498,148.1, 3.5, -8.5,0,0,1024,1024,1385,1024,148.6,0,99,4.185,4.191,4.194,4.191,0,0,89.51,6,GPS_Atti,
0.274919205109719,36.8768504343642,6130.5390163872,227.690296,0.223694,7.3903873756,18400,2017-11-07 11:46:28,16,16.77,6130.5390163872,227.690296,1.11847,8.508694498,148.2, 3.2, -8.2,0,0,1024,1024,1456,1024,148.6,0,99,4.185,4.191,4.194,4.191,0,0,89.51,6,GPS_Atti,
0.274919301407755,36.8768501887436,6131.1951843872,228.346464,0.223694,7.3741144092,18500,2017-11-07 11:46:28,16,16.77,6131.1951843872,228.346464,1.11847,8.508694498,148.2, 3.6, -9.1,0,0,1024,1024,1436,1024,148.6,0,99,4.185,4.191,4.194,4.191,0,0,89.51,6,GPS_Atti,
0.274919376386202,36.876849971299,6131.8513523872,229.002632,0.223694,7.3644031228,18600,2017-11-07 11:46:28,16,16.77,6131.8513523872,229.002632,1.11847,8.508694498,148.2, 3.8, -9.3,0,0,1024,1024,1400,1024,148.6,0,99,4.185,4.191,4.194,4.191,0,0,89.51,6,GPS_Atti,
0.274919471378226,36.8768497451618,6132.5075203872,229.6588,0.223694,7.3492784504,18700,2017-11-07 11:46:28,16,16.77,6132.5075203872,229.6588,1.11847,8.508694498,148, 4.3, -11.4,0,0,1024,1024,1400,1024,148.6,0,99,4.185,4.191,4.194,4.191,0,0,89.51,6,GPS_Atti,
0.274919537970186,36.8768495408078,6133.1636883872,230.314968,0.223694,7.3433073216,18800,2017-11-07 11:46:28,16,16.77,6133.1636883872,230.314968,1.11847,8.508694498,148, 4.3, -12.8,0,0,1024,1024,1460,1024,148.6,0,99,4.185,4.191,4.194,4.191,0,0,89.51,6,GPS_Atti,
0.274919657970224,36.8768493576251,6133.8198563872,230.971136,0,7.3173886856,18900,2017-11-07 11:46:28,16,16.66,6133.8198563872,230.971136,1.11847,8.508694498,148.2, 3.9, -11.9,0,0,1024,1024,1561,1024,148.6,0,99,4.168,4.173,4.171,4.141,0,0,89.51,6,GPS_Atti,
0.274919773006765,36.8768492402863,6134.8041083872,231.955388,0,7.287729892,19000,2017-11-07 11:46:28,16,16.66,6134.8041083872,231.955388,1.11847,8.508694498,148.2, 3.7, -10.6,0,0,1024,1024,1561,1024,148.6,0,99,4.168,4.173,4.171,4.141,0,0,89.51,6,GPS_Atti,
0.27491994049223,36.8768491285003,6135.4602763872,232.611556,0,7.2394687356,19100,2017-11-07 11:46:29,16,16.66,6135.4602763872,232.611556,1.11847,8.508694498,148.2, 3.7, -10.4,0,0,1024,1024,1606,1024,148.6,0,99,4.168,4.173,4.171,4.141,0,0,89.51,6,GPS_Atti,
0.274920078169028,36.8768490547451,6136.4445283872,233.595808,0,7.198327002,19200,2017-11-07 11:46:29,16,16.66,6136.4445283872,233.595808,1.11847,8.508694498,148.4, 3, -9.3,0,0,1024,1024,1604,1024,148.6,0,99,4.168,4.173,4.171,4.141,0,0,89.51,6,GPS_Atti,
0.274920242835656,36.8768489659769,6137.7568643872,234.908144,0,7.149442486,19300,2017-11-07 11:46:29,16,16.66,6137.7568643872,234.908144,1.11847,8.508694498,148.3, 3.2, -8.8,0,0,1024,1024,1602,1024,148.6,0,99,4.168,4.173,4.171,4.141,0,0,89.51,6,GPS_Atti,
0.274920320670394,36.8768488836994,6139.0692003872,236.22048,0,7.1306104644,19400,2017-11-07 11:46:29,16,16.66,6139.0692003872,236.22048,1.11847,8.508694498,148.1, 3.8, -11.6,0,0,1024,1024,1597,1024,148.6,0,99,4.168,4.173,4.171,4.141,0,0,89.51,6,GPS_Atti,
0.27492041434175,36.8768487931749,6140.3815363872,237.532816,0,7.107283692,19500,2017-11-07 11:46:29,16,16.66,6140.3815363872,237.532816,1.11847,8.508694498,148, 4.7, -13.9,0,0,1024,1024,1597,1024,148.6,0,99,4.168,4.173,4.171,4.141,0,0,89.51,6,GPS_Atti,
0.274920515261309,36.8768487756971,6141.6938723872,238.845152,0,7.0738847408,19600,2017-11-07 11:46:29,16,16.66,6141.6938723872,238.845152,1.11847,8.508694498,148.1, 4.6, -14,0,0,1024,1024,1580,1024,148.7,0,99,4.168,4.173,4.171,4.141,0,0,89.51,6,GPS_Atti,
0.274920735897558,36.8768487806547,6142.6781243872,239.829404,0,6.9963584916,19700,2017-11-07 11:46:29,16,16.66,6142.6781243872,239.829404,1.11847,8.508694498,148.1, 4.4, -12.5,0,0,1024,1024,1584,1023,148.7,0,99,4.168,4.173,4.171,4.141,0,0,89.51,6,GPS_Atti,
0.274920937383305,36.8768488468641,6143.9904603872,241.14174,0,6.9189962844,19800,2017-11-07 11:46:29,16,16.66,6143.9904603872,241.14174,1.11847,8.508694498,148.2, 3.8, -11.6,0,0,1024,1024,1570,1024,148.7,0,99,4.168,4.173,4.171,4.141,0,0,89.51,6,GPS_Atti,
0.274921191444996,36.8768488969302,6145.3027963872,242.454076,0,6.8250330268,19900,2017-11-07 11:46:29,16,16.524,6145.3027963872,242.454076,1.11847,8.508694498,148.3, 3.1, -11.1,0,0,1024,1024,1555,1024,148.7,0,99,4.168,4.173,4.171,4.141,0,0,89.51,6,GPS_Atti,
0.274921373107694,36.8768489835198,6146.2870483872,243.438328,0,6.7523952292,20000,2017-11-07 11:46:29,16,16.524,6146.2870483872,243.438328,1.11847,8.508694498,148.2, 3.1, -11.5,0,0,1024,1024,1556,1024,148.7,0,99,4.168,4.173,4.171,4.141,0,0,89.51,6,GPS_Atti,
0.274921575715439,36.8768490396063,6147.5993843872,244.750664,0,6.6757219984,20100,2017-11-07 11:46:30,16,16.524,6147.5993843872,244.750664,1.11847,8.508694498,148.3, 3.1, -12.2,0,0,1024,1024,1571,1024,148.7,0,99,4.168,4.173,4.171,4.141,0,0,89.51,6,GPS_Atti,
0.274921719865302,36.8768491403123,6148.5836363872,245.734916,0,6.6146983744,20200,2017-11-07 11:46:30,16,16.524,6148.5836363872,245.734916,1.11847,8.508694498,148.3, 2.9, -12.2,0,0,1024,1024,1572,1024,148.7,0,99,4.168,4.173,4.171,4.141,0,0,89.51,6,GPS_Atti,
0.274921878467605,36.8768492441886,6149.8959723872,247.047252,0,6.5483269812,20300,2017-11-07 11:46:30,16,16.524,6149.8959723872,247.047252,1.11847,8.508694498,148.4, 3.3, -10.9,0,0,1024,1024,1572,1024,148.7,0,99,4.168,4.173,4.171,4.141,0,0,89.51,6,GPS_Atti,
0.274921976055368,36.8768493987674,6151.2083083872,248.359588,0.223694,6.4981629376,20400,2017-11-07 11:46:30,16,16.524,6151.2083083872,248.359588,1.11847,8.508694498,148.2, 3.7, -10.8,0,0,1024,1024,1571,1024,148.7,0,99,4.168,4.173,4.171,4.141,0,0,89.51,6,GPS_Atti,
0.274922107259101,36.8768495317172,6152.1925603872,249.34384,0.223694,6.4386485,20500,2017-11-07 11:46:30,15,16.524,6152.1925603872,249.34384,1.11847,8.508694498,148.1, 4.5, -10.8,0,0,1024,1024,1559,1024,148.7,0,99,4.168,4.173,4.171,4.141,0,0,89.51,6,GPS_Atti,
0.274922203768835,36.8768497072519,6153.5048963872,250.656176,0.223694,6.3873361624,20600,2017-11-07 11:46:30,15,16.524,6153.5048963872,250.656176,1.11847,8.508694498,148, 5.1, -10.7,0,0,1024,1024,1556,1024,148.7,0,99,4.168,4.173,4.171,4.141,0,0,89.51,6,GPS_Atti,
0.274922348171106,36.8768498010144,6154.8172323872,251.968512,0,6.327428024,20700,2017-11-07 11:46:30,15,16.524,6154.8172323872,251.968512,1.11847,8.508694498,147.9, 4.7, -11.6,0,0,1024,1024,1556,1024,148.7,0,99,4.168,4.173,4.171,4.141,0,0,89.51,6,GPS_Atti,
0.274922483976822,36.8768498883777,6155.8014843872,252.952764,0,6.2711944264,20800,2017-11-07 11:46:30,15,16.524,6155.8014843872,252.952764,1.11847,8.508694498,148.1, 3.7, -11.8,0,0,1024,1024,1557,1024,148.7,0,99,4.168,4.173,4.171,4.141,0,0,89.51,6,GPS_Atti,
0.27492267252621,36.8768499641595,6157.1138203872,254.2651,0,6.1975723768,20900,2017-11-07 11:46:30,15,16.606,6157.1138203872,254.2651,1.11847,8.508694498,148.4, 2.7, -11,0,0,1024,1024,1551,1024,148.7,0,99,4.138,4.148,4.16,4.156,0,0,89.51,6,GPS_Atti,
0.274922822585696,36.8768500609557,6158.4261563872,255.577436,0,6.135498884,21000,2017-11-07 11:46:30,15,16.606,6158.4261563872,255.577436,1.11847,8.508694498,148.5, 2.2, -10.6,0,0,1024,1024,1541,1024,148.7,0,99,4.138,4.148,4.16,4.156,0,0,89.51,6,GPS_Atti,
0.274922973221651,36.8768501604867,6159.7384923872,256.889772,0.223694,6.0730644988,21100,2017-11-07 11:46:31,15,16.606,6159.7384923872,256.889772,1.11847,8.508694498,148.6, 2.5, -10.3,0,0,1024,1024,1460,1024,148.7,0,99,4.138,4.148,4.16,4.156,0,0,89.51,6,GPS_Atti,
0.274923028121383,36.8768503103453,6160.7227443872,257.874024,0.223694,6.0399280148,21200,2017-11-07 11:46:31,15,16.606,6160.7227443872,257.874024,1.11847,8.508694498,148.4, 3.2, -10.6,0,0,1024,1024,1305,1024,148.7,0,99,4.138,4.148,4.16,4.156,0,0,89.51,6,GPS_Atti,
0.274923081161433,36.8768504460962,6162.0350803872,259.18636,0.31540854,6.0090881188,21300,2017-11-07 11:46:31,15,16.606,6162.0350803872,259.18636,1.11847,8.508694498,148.1, 4.1, -12.2,0,0,1024,1024,1206,1024,148.7,0,99,4.138,4.148,4.16,4.156,0,0,89.51,6,GPS_Atti,
0.274923053940363,36.8768505746118,6163.0193323872,260.170612,0.223694,6.0076117408,21400,2017-11-07 11:46:31,15,16.606,6163.0193323872,260.170612,1.11847,8.508694498,147.9, 5, -15,0,0,1024,1024,1152,1024,148.7,0,99,4.138,4.148,4.16,4.156,0,0,89.51,6,GPS_Atti,
0.274923052833021,36.8768507140086,6163.6755003872,260.82678,0.50107456,5.996391268,21500,2017-11-07 11:46:31,15,16.606,6163.6755003872,260.82678,1.11847,8.508694498,147.7, 5.9, -15.6,0,0,1024,1024,1101,1024,148.7,0,99,4.138,4.148,4.16,4.156,0,0,89.51,6,GPS_Atti,
0.274922996589822,36.8768508618542,6164.0035843872,261.154864,0.447388,6.0045277512,21600,2017-11-07 11:46:31,15,16.606,6164.0035843872,261.154864,1.11847,8.508694498,147.6, 6.3, -14.7,0,0,1024,1024,1029,1024,148.7,0,99,4.138,4.148,4.16,4.156,0,0,89.51,6,GPS_Atti,
0.274922967893382,36.87685098845,6164.3316683872,261.482948,0.447388,6.0049870688,21700,2017-11-07 11:46:31,15,16.606,6164.3316683872,261.482948,1.11847,8.508694498,147.7, 6.4, -13.6,0,0,1024,1024,1024,1024,148.7,0,99,4.138,4.148,4.16,4.156,0,0,89.51,6,GPS_Atti,
0.274922891092706,36.876851100261,6164.6597523872,261.811032,0.447388,6.0240815576,21800,2017-11-07 11:46:31,15,16.606,6164.6597523872,261.811032,1.11847,8.508694498,147.7, 6.4, -12.8,0,0,1024,1024,1024,1024,148.7,0,99,4.138,4.148,4.16,4.156,0,0,89.51,6,GPS_Atti,
0.274922831595876,36.8768512105497,6164.6597523872,261.811032,0.447388,6.0374345764,21900,2017-11-07 11:46:31,15,16.442,6164.6597523872,261.811032,1.11847,8.508694498,147.8, 6.1, -11.7,0,0,1024,1024,1024,1024,148.7,0,99,4.139,4.149,4.156,4.151,0,0,89.51,6,GPS_Atti,
0.274922731713635,36.8768513232854,6164.6597523872,261.811032,0.50107456,6.0654201416,22000,2017-11-07 11:46:31,15,16.442,6164.6597523872,261.811032,1.11847,8.508694498,147.8, 6.5, -11.3,0,0,1024,1024,1024,1024,148.7,0,99,4.139,4.149,4.156,4.151,0,0,89.51,6,GPS_Atti,
0.274922687195233,36.8768514182304,6164.6597523872,261.811032,0.31540854,6.0750658112,22100,2017-11-07 11:46:32,15,16.442,6164.6597523872,261.811032,1.11847,8.508694498,147.8, 6.5, -10.8,0,0,1024,1024,1024,1024,148.7,0,99,4.139,4.149,4.156,4.151,0,0,89.51,6,GPS_Atti,
0.274922630641002,36.8768514988757,6164.6597523872,261.811032,0.31540854,6.0901904836,22200,2017-11-07 11:46:32,15,16.442,6164.6597523872,261.811032,1.11847,8.508694498,147.8, 6.6, -10.4,0,0,1024,1024,1024,1024,148.7,0,99,4.139,4.149,4.156,4.151,0,0,89.51,6,GPS_Atti,
0.2749225561804,36.8768516082019,6164.6597523872,261.811032,0.31540854,6.1101379908,22400,2017-11-07 11:46:32,15,16.442,6164.6597523872,261.811032,1.11847,8.508694498,147.8, 6.6, -10.1,0,0,1024,1024,1024,1024,148.7,0,99,4.139,4.149,4.156,4.151,0,0,89.51,6,GPS_Atti,
0.274922556825264,36.8768516268823,6164.6597523872,261.811032,0.223694,6.108760038,22500,2017-11-07 11:46:32,15,16.442,6164.6597523872,261.811032,1.11847,8.508694498,147.8, 6.6, -9.6,0,0,1024,1024,1024,1024,148.7,0,99,4.139,4.149,4.156,4.151,0,0,89.51,6,GPS_Atti,
0.274922552382869,36.8768516157381,6164.6597523872,261.811032,0,6.1110238176,22600,2017-11-07 11:46:32,15,16.442,6164.6597523872,261.811032,1.11847,8.508694498,147.8, 6.4, -9.6,0,0,1024,1024,1024,1024,148.7,0,99,4.139,4.149,4.156,4.151,0,0,89.51,6,GPS_Atti,
0.274922610687678,36.8768515769613,6164.6597523872,261.811032,0,6.0924542632,22700,2017-11-07 11:46:32,15,16.442,6164.6597523872,261.811032,1.11847,8.508694498,147.9, 6, -9.8,0,0,1024,1024,1024,1024,148.7,0,99,4.139,4.149,4.156,4.151,0,0,89.51,6,GPS_Atti,
0.274922660514807,36.8768515210413,6164.6597523872,261.811032,0,6.0780513756,22800,2017-11-07 11:46:32,15,16.442,6164.6597523872,261.811032,1.11847,8.508694498,147.9, 5.4, -9.7,0,0,1024,1024,1024,1024,148.7,0,99,4.139,4.149,4.156,4.151,0,0,89.51,6,GPS_Atti,
0.274922766927108,36.8768514560592,6164.6597523872,261.811032,0,6.0439962564,22900,2017-11-07 11:46:32,15,16.66,6164.6597523872,261.811032,1.11847,8.508694498,148, 4.7, -9.7,0,0,1024,1024,1024,1024,148.7,0,98,4.139,4.149,4.156,4.151,0,0,89.51,6,GPS_Atti,
0.274922849376856,36.8768513886928,6164.6597523872,261.811032,0,6.0188322136,23000,2017-11-07 11:46:32,15,16.66,6164.6597523872,261.811032,1.11847,8.508694498,148, 4.2, -9.8,0,0,1024,1024,1024,1024,148.7,0,98,4.139,4.149,4.156,4.151,0,0,89.51,6,GPS_Atti,
0.274922957271042,36.8768513288776,6164.6597523872,261.811032,0,5.9842193516,23100,2017-11-07 11:46:33,15,16.66,6164.6597523872,261.811032,1.11847,8.508694498,148, 4.2, -9.5,0,0,1024,1024,1024,1024,148.7,0,98,4.139,4.149,4.156,4.151,0,0,89.51,6,GPS_Atti,
0.274923015149198,36.8768512674575,6164.6597523872,261.811032,0,5.9677167264,23200,2017-11-07 11:46:33,15,16.66,6164.6597523872,261.811032,1.11847,8.508694498,147.9, 4.6, -9.2,0,0,1024,1024,1024,1024,148.8,0,98,4.139,4.149,4.156,4.151,0,0,89.51,6,GPS_Atti,
0.274923092418866,36.8768511837026,6164.6597523872,261.811032,0,5.946030374,23300,2017-11-07 11:46:33,16,16.66,6164.6597523872,261.811032,1.11847,8.508694498,148, 4.7, -9,0,0,1024,1024,1024,1024,148.7,0,98,4.139,4.149,4.156,4.151,0,0,89.51,6,GPS_Atti,
0.274923146958712,36.8768510806432,6164.3316683872,261.482948,0,5.9341209248,23400,2017-11-07 11:46:33,16,16.66,6164.6597523872,261.811032,1.11847,8.508694498,148, 4.4, -9,0,0,1024,1024,1024,1024,148.7,0,98,4.139,4.149,4.156,4.151,0,0,89.51,6,GPS_Atti,
