latitude,longitude,altitude(feet),ascent(feet),speed(mph),distance(feet),time(millisecond),datetime(utc),satellites,voltage(v),max_altitude(feet),max_ascent(feet),max_speed(mph),max_distance(feet),compass_heading(degrees), pitch(degrees), roll(degrees),isPhoto,isVideo,rc_elevator,rc_aileron,rc_throttle,rc_rudder,gimbal_heading(degrees),gimbal_pitch(degrees),battery_percent,voltageCell1,voltageCell2,voltageCell3,voltageCell4,voltageCell5,voltageCell6,battery_temperature(f),flycStateRaw,flycState,message
0.356698197484656,36.8968498357407,5808.7949034011,0,0,0,0,2017-11-14 07:28:37,17,0,5808.7949034011,0,0,0,317.6, 1.9, 2.3,0,0,1024,1024,1024,1024,322.1,-89.9,99,4.304,4.305,4.302,4.3,0,0,75.11,6,GPS_Atti,
0.356698178203065,36.8968498645938,5808.7949034011,0,0,0.0126611224524,100,2017-11-14 07:28:37,17,0,5808.7949034011,0,0,0.0126611224524,317.6, 1.9, 2.3,0,0,1024,1024,1024,1024,322.1,-89.9,99,4.304,4.305,4.302,4.3,0,0,75.11,41,Motors_Started,
0.356698158873944,36.8968498804536,5808.7949034011,0,0,0.0215537736556,200,2017-11-14 07:28:37,17,0,5808.7949034011,0,0,0.0215537736556,317.6, 1.9, 2.3,0,0,1024,1024,1024,1024,322.1,-90,99,4.304,4.305,4.302,4.3,0,0,75.11,41,Motors_Started,
0.356698127219638,36.8968498959403,5808.7949034011,0,0,0.033757875096,300,2017-11-14 07:28:37,17,0,5808.7949034011,0,0,0.033757875096,317.6, 1.9, 2.3,0,0,1024,1024,1024,1024,322.1,-89.9,99,4.304,4.305,4.302,4.3,0,0,75.11,41,Motors_Started,
0.356698121243554,36.8968498975521,5808.7949034011,0,0,0.035809712432,400,2017-11-14 07:28:38,17,0,5808.7949034011,0,0,0.035809712432,317.6, 1.9, 2.3,0,0,1024,1024,1024,1024,322.1,-89.9,99,4.304,4.305,4.302,4.3,0,0,75.11,41,Motors_Started,
0.356698110415012,36.8968499035169,5808.7949034011,0,0,0.040256891052,500,2017-11-14 07:28:38,17,0,5808.7949034011,0,0,0.040256891052,317.6, 1.9, 2.3,0,0,1024,1024,1024,1024,322.1,-90,99,4.304,4.305,4.302,4.3,0,0,75.11,41,Motors_Started,Setting new Return-To-Home altitude to 30m (98 ft). Setting new Maximum Flight Altitude to 120m (394 ft)
0.356698095381726,36.8968499249979,5808.7949034011,0,0,0.049479332292,600,2017-11-14 07:28:38,17,0,5808.7949034011,0,0,0.049479332292,317.6, 1.9, 2.3,0,0,1024,1024,1024,1024,322.1,-90,99,4.304,4.305,4.302,4.3,0,0,75.11,41,Motors_Started,
0.356698068502019,36.8968499556395,5808.7949034011,0,0,0.06425033014,700,2017-11-14 07:28:38,17,0,5808.7949034011,0,0,0.06425033014,317.6, 1.9, 2.3,0,0,1024,1024,1024,1024,322.1,-90,99,4.304,4.305,4.302,4.3,0,0,75.11,41,Motors_Started,
0.356698062216632,36.8968499741544,5808.7949034011,0,0,0.070610566564,800,2017-11-14 07:28:38,17,0,5808.7949034011,0,0,0.070610566564,317.6, 1.9, 2.3,0,0,1024,1024,1024,1024,322.1,-90,99,4.304,4.305,4.302,4.3,0,0,75.11,41,Motors_Started,
0.356698053041775,36.8968499915767,5808.7949034011,0,0,0.077523296444,900,2017-11-14 07:28:38,17,0,5808.7949034011,0,0,0.077523296444,317.7, 1.9, 2.3,0,0,1024,1024,1024,1024,322.1,-90,99,4.304,4.305,4.302,4.3,0,0,75.11,41,Motors_Started,
0.356698062868112,36.8968499956466,5808.7949034011,0,0,0.076261813464,1000,2017-11-14 07:28:38,17,0,5808.7949034011,0,0,0.077523296444,317.6, 1.9, 2.3,0,0,1024,1024,1024,1024,322.1,-90,99,4.304,4.305,4.302,4.3,0,0,75.11,41,Motors_Started,
0.356698064122522,36.8968500036488,5808.7949034011,0,0,0.078232285968,1100,2017-11-14 07:28:38,17,0,5808.7949034011,0,0,0.078232285968,317.6, 1.9, 2.3,0,0,757,758,836,1207,322.1,-90,99,4.304,4.305,4.302,4.3,0,0,75.11,41,Motors_Started,
0.356698052408209,36.8968499982048,5808.7949034011,0,0,0.079467522228,1200,2017-11-14 07:28:38,17,0,5808.7949034011,0,0,0.079467522228,317.7, 1.9, 2.3,0,0,975,1024,1019,1024,321.4,-90,99,4.304,4.305,4.302,4.3,0,0,75.11,41,Motors_Started,
0.356698029204103,36.8968499991919,5808.7949034011,0,0,0.085590882004,1300,2017-11-14 07:28:38,17,0,5808.7949034011,0,0,0.085590882004,317.7, 1.9, 2.3,0,0,1024,1024,1024,1024,320.1,-90,99,4.304,4.305,4.302,4.3,0,0,75.11,41,Motors_Started,
0.35669799236758,36.8968499891711,5808.7949034011,0,0,0.09345636782,1400,2017-11-14 07:28:38,18,0,5808.7949034011,0,0,0.09345636782,317.7, 2, 2.3,0,0,1024,1024,1024,1024,319.2,-90,99,4.304,4.305,4.302,4.3,0,0,75.11,41,Motors_Started,
0.356697952733391,36.8968499861488,5808.7949034011,0,0,0.104810698892,1500,2017-11-14 07:28:39,18,17.176,5808.7949034011,0,0,0.104810698892,317.7, 1.9, 2.3,0,0,1024,1024,1024,1024,318.8,-89.9,99,4.304,4.305,4.302,4.3,0,0,75.11,41,Motors_Started,
0.356697897230218,36.8968500011885,5808.7949034011,0,0,0.12507710374,1600,2017-11-14 07:28:39,18,17.176,5808.7949034011,0,0,0.12507710374,317.7, 1.9, 2.3,0,0,1024,1024,1024,1024,318.6,-90,99,4.304,4.305,4.302,4.3,0,0,75.11,10,Assisted_Takeoff,
0.356697847689186,36.8968500268807,5808.7949034011,0,0,0.145432747436,1700,2017-11-14 07:28:39,18,17.176,5808.7949034011,0,0,0.145432747436,317.7, 1.9, 2.3,0,0,1024,1024,1024,1024,318.4,-89.9,99,4.304,4.305,4.302,4.3,0,0,75.11,10,Assisted_Takeoff,
0.356697785064522,36.8968500442361,5808.7949034011,0,0,0.168605976524,1800,2017-11-14 07:28:39,18,17.176,5808.7949034011,0,0,0.168605976524,317.7, 1.9, 2.3,0,0,1024,1024,1024,1024,318.3,-89.9,99,4.304,4.305,4.302,4.3,0,0,75.11,10,Assisted_Takeoff,
0.356697730023726,36.8968500593203,5808.7949034011,0,0,0.189056108412,1900,2017-11-14 07:28:39,18,17.176,5808.7949034011,0,0,0.189056108412,317.7, 1.9, 2.3,0,0,1024,1024,1024,1024,318.3,-90,99,4.304,4.305,4.302,4.3,0,0,75.11,10,Assisted_Takeoff,
0.356697666956329,36.8968500649581,5808.7949034011,0,0,0.210855977876,2000,2017-11-14 07:28:39,18,17.176,5808.7949034011,0,0,0.210855977876,317.7, 1.9, 2.3,0,0,1024,1024,1024,1024,318.2,-90,99,4.304,4.305,4.302,4.3,0,0,75.11,10,Assisted_Takeoff,
0.356697609944912,36.896850072524,5808.7949034011,0,0,0.231116149128,2100,2017-11-14 07:28:39,18,17.176,5808.7949034011,0,0,0.231116149128,317.7, 1.9, 2.3,0,0,1024,1024,1024,1024,318.2,-90,99,4.304,4.305,4.302,4.3,0,0,75.11,10,Assisted_Takeoff,
0.356697548075643,36.8968500706504,5808.7949034011,0,0,0.251960966068,2200,2017-11-14 07:28:39,18,17.176,5808.7949034011,0,0,0.251960966068,317.7, 1.9, 2.3,0,0,1024,1024,1024,1024,318.1,-89.9,99,4.304,4.305,4.302,4.3,0,0,75.11,10,Assisted_Takeoff,
0.356697490986264,36.896850073775,5808.7949034011,0,0,0.272001977208,2300,2017-11-14 07:28:39,18,17.176,5808.7949034011,0,0,0.272001977208,317.7, 1.9, 2.3,0,0,1024,1024,1025,1024,318.1,-90,99,4.304,4.305,4.302,4.3,0,0,75.11,10,Assisted_Takeoff,
0.356697430591143,36.8968500675998,5808.7949034011,0,0,0.292308408304,2400,2017-11-14 07:28:40,18,17.176,5808.7949034011,0,0,0.292308408304,317.7, 1.9, 2.3,0,0,1024,1024,1064,1024,318.1,-90,99,4.304,4.305,4.302,4.3,0,0,75.11,10,Assisted_Takeoff,
0.356697375019678,36.8968500672304,5808.7949034011,0,0,0.311734590028,2500,2017-11-14 07:28:40,18,17.23,5808.7949034011,0,0,0.311734590028,317.7, 1.9, 2.3,0,0,1024,1024,1094,1024,318,-89.9,99,4.264,4.27,4.295,4.293,0,0,75.11,10,Assisted_Takeoff,
0.356697317937423,36.8968500591212,5808.7949034011,0,0,0.33108924944,2600,2017-11-14 07:28:40,18,17.23,5808.7949034011,0,0,0.33108924944,317.7, 1.9, 2.3,0,0,1024,1024,1139,1024,318,-89.9,99,4.264,4.27,4.295,4.293,0,0,75.11,10,Assisted_Takeoff,
0.356697263492841,36.8968500569002,5808.7949034011,0,0,0.35019029992,2700,2017-11-14 07:28:40,18,17.23,5808.7949034011,0,0,0.35019029992,317.7, 1.9, 2.3,0,0,1024,1024,1159,1024,318,-89.9,99,4.264,4.27,4.295,4.293,0,0,75.11,10,Assisted_Takeoff,
0.356697208523696,36.8968500484238,5808.7949034011,0,0,0.36907153412,2800,2017-11-14 07:28:40,18,17.23,5808.7949034011,0,0,0.36907153412,317.7, 1.9, 2.3,0,0,1024,1024,1159,1024,318,-90,99,4.264,4.27,4.295,4.293,0,0,75.11,10,Assisted_Takeoff,
0.356697102044221,36.8968500383083,5808.7949034011,0,0,0.4064468634,3000,2017-11-14 07:28:40,18,17.23,5808.7949034011,0,0,0.4064468634,317.7, 1.9, 2.3,0,0,1024,1024,1177,1024,318,-90,99,4.264,4.27,4.295,4.293,0,0,75.11,10,Assisted_Takeoff,
0.356697050010347,36.896850035393,5808.7949034011,0,0,0.42494423932,3100,2017-11-14 07:28:40,18,17.23,5808.7949034011,0,0,0.42494423932,317.7, 1.9, 2.2,0,0,1024,1024,1177,1024,318,-89.9,99,4.264,4.27,4.295,4.293,0,0,75.11,10,Assisted_Takeoff,
0.356697024643057,36.8968500571256,5808.7949034011,0,0,0.4354658932,3200,2017-11-14 07:28:40,18,17.23,5808.7949034011,0,0,0.4354658932,317.7, 2.1, 2.2,0,0,1024,1024,1271,1024,318,-89.9,99,4.264,4.27,4.295,4.293,0,0,75.11,10,Assisted_Takeoff,
0.356697001292187,36.8968500870033,5808.7949034011,0,0,0.44595473868,3300,2017-11-14 07:28:40,18,17.23,5808.7949034011,0,0,0.44595473868,317.7, 2.1, 2.1,0,0,1024,1024,1288,1024,318,-89.9,99,4.264,4.27,4.295,4.293,0,0,75.11,10,Assisted_Takeoff,
0.356696974464794,36.8968501146059,5808.7949034011,0,0,0.45767061832,3400,2017-11-14 07:28:41,18,17.23,5808.7949034011,0,0,0.45767061832,317.7, 2.6, 1.5,0,0,1024,1024,1291,1024,317.9,-89.9,99,4.264,4.27,4.295,4.293,0,0,75.11,10,Assisted_Takeoff,
0.356696924818422,36.8968501612738,5808.7949034011,0,0,0.4792815114,3500,2017-11-14 07:28:41,18,17.069,5808.7949034011,0,0,0.4792815114,317.8, 3.3, 0,0,0,1024,1024,1296,1024,317.9,-89.9,99,4.285,4.285,4.279,4.275,0,0,75.11,10,Assisted_Takeoff,
0.356696819069101,36.8968502290099,5808.7949034011,0,0.223694,0.5229823002,3600,2017-11-14 07:28:41,18,17.069,5808.7949034011,0,0.223694,0.5229823002,317.9, 2.2, -0.1,0,0,1024,1024,1296,1024,317.9,-90,99,4.285,4.285,4.279,4.275,0,0,75.11,6,GPS_Atti,Home Point Recorded. RTH Altitude:  30m.
0.356696650976837,36.8968503028885,5808.7949034011,0,0.223694,0.58942259104,3700,2017-11-14 07:28:41,18,17.069,5808.7949034011,0,0.223694,0.58942259104,317.9, 0.5, 0.1,0,0,1024,1024,1301,1024,317.9,-90,99,4.285,4.285,4.279,4.275,0,0,75.11,6,GPS_Atti,
0.356696457303142,36.8968503727722,5808.7949034011,0,0.223694,0.66444884016,3800,2017-11-14 07:28:41,18,17.069,5808.7949034011,0,0.223694,0.66444884016,317.9, -0.1, -1,0,0,1024,1024,1349,1024,317.9,-90,99,4.285,4.285,4.279,4.275,0,0,75.11,6,GPS_Atti,
0.35669622950174,36.8968503971738,5809.1229874011,0.328084,0.223694,0.74666340972,3900,2017-11-14 07:28:41,18,17.069,5809.1229874011,0.328084,0.223694,0.74666340972,318, -1.5, -0.7,0,0,1024,1024,1349,1024,318,-90,99,4.285,4.285,4.279,4.275,0,0,75.11,6,GPS_Atti,
0.356695931401632,36.8968503280861,5809.4510714011,0.656168,0.31540854,0.84606630004,4000,2017-11-14 07:28:41,18,17.069,5809.4510714011,0.656168,0.31540854,0.84606630004,317.9, -1.9, 1.1,0,0,1024,1024,1389,1024,318,-90,99,4.285,4.285,4.279,4.275,0,0,75.11,6,GPS_Atti,
0.356695639560041,36.8968501927054,5809.7791554011,0.984252,0.31540854,0.94229989892,4100,2017-11-14 07:28:41,18,17.069,5809.7791554011,0.984252,0.31540854,0.94229989892,317.9, -0.6, 2.7,0,0,1024,1024,1400,1024,317.9,-90,99,4.285,4.285,4.279,4.275,0,0,75.11,6,GPS_Atti,
0.356695378855113,36.8968500104636,5810.1072394011,1.312336,0.31540854,1.030347802,4200,2017-11-14 07:28:41,18,17.069,5810.1072394011,1.312336,0.31540854,1.030347802,317.8, -0.2, 3.8,0,0,1024,1024,1414,1024,317.9,-90,99,4.285,4.285,4.279,4.275,0,0,75.11,6,GPS_Atti,
0.356695150394598,36.8968498383631,5810.7634074011,1.968504,0.31540854,1.1117290382,4300,2017-11-14 07:28:41,18,17.069,5810.7634074011,1.968504,0.31540854,1.1117290382,317.8, -0.1, 4.3,0,0,1024,1024,1437,1024,317.9,-90,99,4.285,4.285,4.279,4.275,0,0,75.11,6,GPS_Atti,
0.356694973053383,36.896849664616,5811.0914914011,2.296588,0.223694,1.17808730804,4400,2017-11-14 07:28:42,18,17.069,5811.0914914011,2.296588,0.31540854,1.17808730804,317.8, 0.2, 3.8,0,0,1024,1024,1457,1024,317.9,-90,99,4.285,4.285,4.279,4.275,0,0,75.11,6,GPS_Atti,
0.356694806246572,36.8968495354196,5811.7476594011,2.952756,0.223694,1.24213258568,4500,2017-11-14 07:28:42,18,16.534,5811.7476594011,2.952756,0.31540854,1.24213258568,318.2, 0.8, 3.6,0,0,1024,1024,1497,1024,318,-90,99,4.285,4.285,4.279,4.275,0,0,75.11,6,GPS_Atti,
0.356694624172691,36.8968494747302,5812.7319114011,3.937008,0.223694,1.31035765348,4600,2017-11-14 07:28:42,18,16.534,5812.7319114011,3.937008,0.31540854,1.31035765348,318, -0.5, 4.1,0,0,1024,1024,1551,1024,317.9,-90,99,4.285,4.285,4.279,4.275,0,0,75.11,6,GPS_Atti,
0.356694440801755,36.8968494742827,5813.3880794011,4.593176,0.223694,1.3769521438,4700,2017-11-14 07:28:42,18,16.534,5813.3880794011,4.593176,0.31540854,1.3769521438,317.8, -1.7, 2.8,0,0,1024,1024,1551,1024,317.9,-90,99,4.285,4.285,4.279,4.275,0,0,75.11,6,GPS_Atti,
0.356694296995087,36.8968494366983,5814.3723314011,5.577428,0.223694,1.43051841848,4800,2017-11-14 07:28:42,18,16.534,5814.3723314011,5.577428,0.31540854,1.43051841848,317.9, -2.3, 1.7,0,0,1024,1024,1677,1024,318,-90,99,4.285,4.285,4.279,4.275,0,0,75.11,6,GPS_Atti,
0.356694138040226,36.8968493429526,5815.6846674011,6.889764,0.223694,1.49195870916,4900,2017-11-14 07:28:42,18,16.534,5815.6846674011,6.889764,0.31540854,1.49195870916,318, -2, 2.3,0,0,1024,1024,1684,1046,318,-90,99,4.285,4.285,4.279,4.275,0,0,75.11,6,GPS_Atti,
0.356693971394631,36.8968491944893,5816.6689194011,7.874016,0.223694,1.55953417064,5000,2017-11-14 07:28:42,18,16.534,5816.6689194011,7.874016,0.31540854,1.55953417064,317.9, -1.7, 3.4,0,0,1024,1024,1684,1053,318,-90,99,4.285,4.285,4.279,4.275,0,0,75.11,6,GPS_Atti,
0.356693798696517,36.8968490469423,5817.9812554011,9.186352,0.223694,1.63049217816,5100,2017-11-14 07:28:42,18,16.534,5817.9812554011,9.186352,0.31540854,1.63049217816,318, -2, 4.8,0,0,1024,1024,1684,1024,318,-90,99,4.285,4.285,4.279,4.275,0,0,75.11,6,GPS_Atti,
0.356693680286247,36.896848882571,5819.6216754011,10.826772,0,1.68438653684,5200,2017-11-14 07:28:42,18,16.534,5819.6216754011,10.826772,0.31540854,1.68438653684,318.1, -2.5, 5.4,0,0,1024,1024,1684,1038,317.9,-90,99,4.285,4.285,4.279,4.275,0,0,75.11,6,GPS_Atti,
0.356693622984559,36.8968487468183,5820.9340114011,12.139108,0,1.71563653784,5300,2017-11-14 07:28:42,18,16.534,5820.9340114011,12.139108,0.31540854,1.71563653784,318, -2.5, 4.1,0,0,1024,1024,1684,1046,318,-90,99,4.285,4.285,4.279,4.275,0,0,75.11,6,GPS_Atti,
0.356693646524125,36.8968486069668,5822.5744314011,13.779528,0,1.71987210228,5400,2017-11-14 07:28:43,18,16.534,5822.5744314011,13.779528,0.31540854,1.71987210228,318, -1.6, 3.4,0,0,1024,1024,1684,1050,318,-89.9,99,4.285,4.285,4.279,4.275,0,0,75.11,6,GPS_Atti,
0.35669366868969,36.8968484679247,5824.2148514011,15.419948,0,1.72604336232,5500,2017-11-14 07:28:43,18,16.374,5824.2148514011,15.419948,0.31540854,1.72604336232,318, -0.8, 4.3,0,0,1024,1024,1684,1052,318,-90,99,4.152,4.167,4.132,4.138,0,0,75.11,6,GPS_Atti,
0.356693707723493,36.8968483074134,5825.8552714011,17.060368,0,1.73038719448,5600,2017-11-14 07:28:43,18,16.374,5825.8552714011,17.060368,0.31540854,1.73038719448,318, -0.9, 4.2,0,0,1024,1024,1684,1053,318,-90,99,4.152,4.167,4.132,4.138,0,0,75.11,6,GPS_Atti,
0.356693745767608,36.8968481602015,5827.4956914011,18.700788,0,1.73543640724,5700,2017-11-14 07:28:43,18,16.374,5827.4956914011,18.700788,0.31540854,1.73543640724,318.3, -1.2, 3.2,0,0,1024,1024,1684,1050,318,-90,99,4.152,4.167,4.132,4.138,0,0,75.11,6,GPS_Atti,
0.356693790991127,36.8968480052487,5829.1361114011,20.341208,0,1.74089900584,5800,2017-11-14 07:28:43,18,16.374,5829.1361114011,20.341208,0.31540854,1.74089900584,318.6, -0.6, 3.3,0,0,1024,1024,1684,1052,318,-90,99,4.152,4.167,4.132,4.138,0,0,75.11,6,GPS_Atti,
0.356693814662596,36.896847847002,5830.7765314011,21.981628,0,1.75598430816,5900,2017-11-14 07:28:43,18,16.374,5830.7765314011,21.981628,0.31540854,1.75598430816,318.8, 0, 3.9,0,0,1024,1024,1684,1061,318,-90,99,4.152,4.167,4.132,4.138,0,0,75.11,6,GPS_Atti,
0.356693805703711,36.8968476924617,5832.4169514011,23.622048,0,1.78295937464,6000,2017-11-14 07:28:43,18,16.374,5832.4169514011,23.622048,0.31540854,1.78295937464,319, -0.5, 4.4,0,0,1024,1024,1684,1051,318,-90,99,4.152,4.167,4.132,4.138,0,0,75.11,6,GPS_Atti,
0.356693770584281,36.8968475568977,5834.0573714011,25.262468,0,1.81658142296,6100,2017-11-14 07:28:43,18,16.374,5834.0573714011,25.262468,0.31540854,1.81658142296,319.2, -1.2, 4.7,0,0,1024,1024,1684,1044,318.1,-90,99,4.152,4.167,4.132,4.138,0,0,75.11,6,GPS_Atti,
0.356693715760678,36.8968474357447,5835.3697074011,26.574804,0,1.85484257904,6200,2017-11-14 07:28:43,18,16.374,5835.3697074011,26.574804,0.31540854,1.85484257904,319.3, -1.8, 4.5,0,0,1024,1024,1684,1032,318.1,-90,99,4.152,4.167,4.132,4.138,0,0,75.11,6,GPS_Atti,
0.356693660957431,36.8968473216041,5837.0101274011,28.215224,0,1.8923228952,6300,2017-11-14 07:28:43,18,16.374,5837.0101274011,28.215224,0.31540854,1.8923228952,319.2, -2.2, 4.4,0,0,1024,1024,1684,1024,318.1,-90,99,4.152,4.167,4.132,4.138,0,0,75.11,6,GPS_Atti,
0.356693608600921,36.8968472120794,5838.6505474011,29.855644,0,1.92857289636,6400,2017-11-14 07:28:44,18,16.374,5838.6505474011,29.855644,0.31540854,1.92857289636,319.3, -1.8, 4.6,0,0,1024,1024,1684,1024,318.2,-90,99,4.152,4.167,4.132,4.138,0,0,75.11,6,GPS_Atti,
0.35669357857567,36.896847107465,5840.2909674011,31.496064,0,1.95722447208,6500,2017-11-14 07:28:44,18,16.454,5840.2909674011,31.496064,0.31540854,1.95722447208,319.3, -1.2, 4.5,0,0,1024,1024,1684,1024,318.2,-90,99,4.11,4.134,4.098,4.114,0,0,75.11,6,GPS_Atti,
0.35669358177882,36.8968470199148,5841.6033034011,32.8084,0,1.97266082428,6600,2017-11-14 07:28:44,18,16.454,5841.6033034011,32.8084,0.31540854,1.97266082428,319.3, -1.1, 4.4,0,0,1024,1024,1684,1026,318.2,-90,99,4.11,4.134,4.098,4.114,0,0,75.11,6,GPS_Atti,
0.356693606639867,36.896846940673,5843.2437234011,34.44882,0,1.98019363292,6700,2017-11-14 07:28:44,18,16.454,5843.2437234011,34.44882,0.31540854,1.98019363292,319.2, -1.2, 3.8,0,0,1024,1024,1684,1028,318.3,-90,99,4.11,4.134,4.098,4.114,0,0,75.11,6,GPS_Atti,
0.356693617125011,36.896846826226,5844.8841434011,36.08924,0,1.99957683564,6800,2017-11-14 07:28:44,18,16.454,5844.8841434011,36.08924,0.31540854,1.99957683564,319.3, -0.7, 3.3,0,0,1024,1024,1684,1025,318.3,-90,99,4.11,4.134,4.098,4.114,0,0,75.11,6,GPS_Atti,
0.356693610385695,36.8968466914874,5846.1964794011,37.401576,0.223694,2.02901581296,6900,2017-11-14 07:28:44,18,16.454,5846.1964794011,37.401576,0.31540854,2.02901581296,319.3, -0.6, 4.2,0,0,1024,1024,1684,1024,318.3,-90,99,4.11,4.134,4.098,4.114,0,0,75.11,6,GPS_Atti,
0.356693590005719,36.8968465544933,5847.8368994011,39.041996,0,2.06374022352,7000,2017-11-14 07:28:44,18,16.454,5847.8368994011,39.041996,0.31540854,2.06374022352,319.3, -0.2, 4.7,0,0,1024,1024,1684,1024,318.4,-90,99,4.11,4.134,4.098,4.114,0,0,75.11,6,GPS_Atti,
0.356693576420425,36.8968464443287,5849.4773194011,40.682416,0,2.0913058412,7100,2017-11-14 07:28:44,18,16.454,5849.4773194011,40.682416,0.31540854,2.0913058412,319.3, 0, 4.8,0,0,1024,1024,1684,1024,318.4,-90,99,4.11,4.134,4.098,4.114,0,0,75.11,6,GPS_Atti,
0.356693551749498,36.8968463363486,5850.7896554011,41.994752,0,2.12203418864,7200,2017-11-14 07:28:44,18,16.454,5850.7896554011,41.994752,0.31540854,2.12203418864,319.3, -0.1, 4.3,0,0,1024,1024,1684,1024,318.4,-90,99,4.11,4.134,4.098,4.114,0,0,75.11,6,GPS_Atti,
0.356693514849771,36.8968462313172,5852.4300754011,43.635172,0,2.15596135508,7300,2017-11-14 07:28:44,18,16.454,5852.4300754011,43.635172,0.31540854,2.15596135508,319.3, -0.4, 4.4,0,0,1024,1024,1684,1024,318.4,-90,99,4.11,4.134,4.098,4.114,0,0,75.11,6,GPS_Atti,
0.356693466246418,36.8968461154783,5854.0704954011,45.275592,0,2.19590886292,7400,2017-11-14 07:28:45,18,16.454,5854.0704954011,45.275592,0.31540854,2.19590886292,319.2, -0.6, 5.1,0,0,1024,1024,1684,1024,318.4,-90,99,4.11,4.134,4.098,4.114,0,0,75.11,6,GPS_Atti,
0.356693427539932,36.8968460114666,5855.7109154011,46.916012,0,2.23056765668,7500,2017-11-14 07:28:45,18,16.347,5855.7109154011,46.916012,0.31540854,2.23056765668,319.2, -1, 5.2,0,0,1024,1024,1684,1024,318.5,-90,99,4.119,4.142,4.104,4.113,0,0,75.11,6,GPS_Atti,
0.356693371438815,36.896845871788,5857.3513354011,48.556432,0,2.27857290756,7600,2017-11-14 07:28:45,18,16.347,5857.3513354011,48.556432,0.31540854,2.27857290756,319.1, -0.4, 4.7,0,0,1024,1024,1684,1024,318.5,-90,99,4.119,4.142,4.104,4.113,0,0,75.11,6,GPS_Atti,
0.356693336727717,36.8968457234012,5858.9917554011,50.196852,0.223694,2.3229659536,7700,2017-11-14 07:28:45,18,16.347,5858.9917554011,50.196852,0.31540854,2.3229659536,319.1, 0.8, 4.1,0,0,1024,1024,1684,1024,318.5,-90,99,4.119,4.142,4.104,4.113,0,0,75.11,6,GPS_Atti,
0.356693301375826,36.8968455602576,5860.6321754011,51.837272,0.223694,2.37154863232,7800,2017-11-14 07:28:45,18,16.347,5860.6321754011,51.837272,0.31540854,2.37154863232,319.3, 1.3, 4.7,0,0,1024,1024,1684,1024,318.5,-90,99,4.119,4.142,4.104,4.113,0,0,75.11,6,GPS_Atti,
0.356693134722903,36.8968452270697,5863.9130154011,55.118112,0.223694,2.4978347256,8000,2017-11-14 07:28:45,18,16.347,5863.9130154011,55.118112,0.31540854,2.4978347256,319.3, 0.2, 7.7,0,0,1024,1024,1684,1024,318.5,-90,99,4.119,4.142,4.104,4.113,0,0,75.11,6,GPS_Atti,
0.356693058714059,36.8968450871201,5865.5534354011,56.758532,0.223694,2.55278551476,8100,2017-11-14 07:28:45,18,16.347,5865.5534354011,56.758532,0.31540854,2.55278551476,319.3, 0.9, 7.4,0,0,1024,1024,1684,1024,318.5,-90,99,4.119,4.142,4.104,4.113,0,0,75.11,6,GPS_Atti,
0.356693014724901,36.8968449912601,5867.1938554011,58.398952,0,2.58834982036,8200,2017-11-14 07:28:45,18,16.347,5867.1938554011,58.398952,0.31540854,2.58834982036,319.4, 0.9, 6.8,0,0,1024,1024,1684,1024,318.5,-90,99,4.119,4.142,4.104,4.113,0,0,75.11,6,GPS_Atti,
0.356692984508715,36.896844922636,5869.1623594011,60.367456,0,2.61352370568,8300,2017-11-14 07:28:45,18,16.347,5869.1623594011,60.367456,0.31540854,2.61352370568,319.4, 0.8, 5.9,0,0,1024,1024,1684,1024,318.6,-90,99,4.119,4.142,4.104,4.113,0,0,75.11,6,GPS_Atti,
0.356692964796808,36.8968448213034,5870.8027794011,62.007876,0,2.64420612136,8400,2017-11-14 07:28:46,18,16.347,5870.8027794011,62.007876,0.31540854,2.64420612136,319.3, 2.1, 5.4,0,0,1024,1024,1684,1024,318.6,-90,99,4.119,4.142,4.104,4.113,0,0,75.11,6,GPS_Atti,
0.356692908623225,36.8968447126758,5872.7712834011,63.97638,0.223694,2.68646334056,8500,2017-11-14 07:28:46,18,16.427,5872.7712834011,63.97638,0.31540854,2.68646334056,319.3, 1.7, 6,0,0,1024,1024,1684,1024,318.6,-90,99,4.119,4.142,4.104,4.113,0,0,75.11,6,GPS_Atti,
0.356692803507572,36.8968445951415,5874.4117034011,65.6168,0.223694,2.743848513,8600,2017-11-14 07:28:46,18,16.427,5874.4117034011,65.6168,0.31540854,2.743848513,319.3, 1.1, 7.3,0,0,1024,1024,1684,1024,318.6,-90,99,4.119,4.142,4.104,4.113,0,0,75.11,6,GPS_Atti,
0.356692694870816,36.8968444855302,5876.3802074011,67.585304,0.223694,2.80014116572,8700,2017-11-14 07:28:46,18,16.427,5876.3802074011,67.585304,0.31540854,2.80014116572,319.3, 0.9, 8.6,0,0,1024,1024,1684,1024,318.6,-90,99,4.119,4.142,4.104,4.113,0,0,75.11,6,GPS_Atti,
0.356692577615521,36.8968443933676,5878.0206274011,69.225724,0,2.85426190236,8800,2017-11-14 07:28:46,18,16.427,5878.0206274011,69.225724,0.31540854,2.85426190236,319.4, 1.1, 8.5,0,0,1024,1024,1684,1024,318.6,-90,99,4.119,4.142,4.104,4.113,0,0,75.11,6,GPS_Atti,
0.356692475300384,36.8968443349329,5879.9891314011,71.194228,0,2.89592857036,8900,2017-11-14 07:28:46,18,16.427,5879.9891314011,71.194228,0.31540854,2.89592857036,319.5, 1.7, 8,0,0,1024,1024,1684,1024,318.6,-90,99,4.119,4.142,4.104,4.113,0,0,75.11,6,GPS_Atti,
0.356692361466449,36.8968442959599,5881.9576354011,73.162732,0,2.93578093384,9000,2017-11-14 07:28:46,18,16.427,5881.9576354011,73.162732,0.31540854,2.93578093384,319.4, 1.3, 8.1,0,0,1024,1024,1684,914,318.4,-90,99,4.119,4.142,4.104,4.113,0,0,75.11,6,GPS_Atti,
0.356692260637268,36.8968442902177,5883.5980554011,74.803152,0,2.96399943868,9100,2017-11-14 07:28:46,18,16.427,5883.5980554011,74.803152,0.31540854,2.96399943868,319.1, 0, 8.4,0,0,1024,1024,1684,889,318.4,-90,99,4.119,4.142,4.104,4.113,0,0,75.11,6,GPS_Atti,
0.356692170223615,36.8968442993376,5885.5665594011,76.771656,0,2.9859416966,9200,2017-11-14 07:28:46,18,16.427,5885.5665594011,76.771656,0.31540854,2.9859416966,318, 0.1, 8.1,0,0,1024,1024,1684,843,317.8,-90,99,4.119,4.142,4.104,4.113,0,0,75.11,6,GPS_Atti,
0.356692127409379,36.8968443285359,5887.5350634011,78.74016,0,2.99029537128,9300,2017-11-14 07:28:46,18,16.427,5887.5350634011,78.74016,0.31540854,2.99029537128,316.3, 1.3, 7.3,0,0,1024,1024,1684,801,316.8,-90,99,4.119,4.142,4.104,4.113,0,0,75.11,6,GPS_Atti,
0.35669208567236,36.8968443780815,5889.1754834011,80.38058,0,2.98952109304,9400,2017-11-14 07:28:47,18,16.427,5889.1754834011,80.38058,0.31540854,2.99029537128,313.6, 1.5, 6.9,0,0,1024,1024,1684,753,315.4,-90,99,4.119,4.142,4.104,4.113,0,0,75.11,6,GPS_Atti,
0.356692058349512,36.8968444507672,5891.1439874011,82.349084,0,2.97940954416,9500,2017-11-14 07:28:47,18,16.454,5891.1439874011,82.349084,0.31540854,2.99029537128,310.1, 0.9, 6.8,0,0,1024,1024,1684,734,313.5,-90,99,4.111,4.133,4.096,4.111,0,0,75.11,6,GPS_Atti,
0.356692044771546,36.8968445621973,5893.1124914011,84.317588,0,2.95651912348,9600,2017-11-14 07:28:47,18,16.454,5893.1124914011,84.317588,0.31540854,2.99029537128,305.9, 1.3, 5.8,0,0,1024,1024,1684,703,310.7,-89.9,99,4.111,4.133,4.096,4.111,0,0,75.11,6,GPS_Atti,
0.356692071733693,36.896844674008,5894.7529114011,85.958008,0,2.92260836124,9700,2017-11-14 07:28:47,18,16.454,5894.7529114011,85.958008,0.31540854,2.99029537128,301.1, 1.9, 5.2,0,0,1024,1024,1684,706,306.6,-89.9,99,4.111,4.133,4.096,4.111,0,0,75.11,6,GPS_Atti,
0.356692079358068,36.8968447566051,5896.7214154011,87.926512,0,2.90113854428,9800,2017-11-14 07:28:47,18,16.454,5896.7214154011,87.926512,0.31540854,2.99029537128,295.7, 2.8, 4.4,0,0,1024,1024,1684,706,301.6,-89.9,99,4.111,4.133,4.096,4.111,0,0,75.11,6,GPS_Atti,
0.3566920884456,36.8968448099478,5898.6899194011,89.895016,0,2.8861877564,9900,2017-11-14 07:28:47,18,16.454,5898.6899194011,89.895016,0.31540854,2.99029537128,290.2, 3, 4.5,0,0,1024,1024,1684,704,296,-89.9,99,4.111,4.133,4.096,4.111,0,0,75.11,6,GPS_Atti,
0.356692063111082,36.8968448201023,5900.6584234011,91.86352,0,2.89098434448,10000,2017-11-14 07:28:47,18,16.454,5900.6584234011,91.86352,0.31540854,2.99029537128,284.7, 3.8, 4.8,0,0,1024,1024,1684,704,290.1,-89.9,99,4.111,4.133,4.096,4.111,0,0,75.11,6,GPS_Atti,
0.35669205859215,36.8968448110547,5902.2988434011,93.50394,0,2.89435048632,10100,2017-11-14 07:28:47,18,16.454,5902.2988434011,93.50394,0.31540854,2.99029537128,279.2, 4.9, 5.2,0,0,1024,1024,1684,706,284.2,-89.9,99,4.111,4.133,4.096,4.111,0,0,75.11,6,GPS_Atti,
0.356692047852562,36.8968448086899,5904.2673474011,95.472444,0,2.89792988276,10200,2017-11-14 07:28:47,18,16.454,5904.2673474011,95.472444,0.31540854,2.99029537128,273.6, 5.3, 4.6,0,0,1024,1024,1684,704,278.2,-89.9,99,4.111,4.133,4.096,4.111,0,0,75.11,6,GPS_Atti,
0.35669208263694,36.8968448150831,5906.2358514011,97.440948,0.223694,2.88663395064,10300,2017-11-14 07:28:47,18,16.454,5906.2358514011,97.440948,0.31540854,2.99029537128,268.1, 5.9, 3.3,0,0,1024,1024,1684,701,272.2,-89.9,99,4.111,4.133,4.096,4.111,0,0,75.11,6,GPS_Atti,
0.356692126749045,36.8968448458054,5908.2043554011,99.409452,0,2.86708342508,10400,2017-11-14 07:28:48,18,16.454,5908.2043554011,99.409452,0.31540854,2.99029537128,262.6, 6.6, 2.2,0,0,1024,1024,1684,701,272.2,-89.9,99,4.111,4.133,4.096,4.111,0,0,75.11,6,GPS_Atti,
0.356692179473177,36.8968448996513,5910.1728594011,101.377956,0,2.83975074704,10500,2017-11-14 07:28:48,18,16.347,5910.1728594011,101.377956,0.31540854,2.99029537128,257, 6.9, 1.4,0,0,1024,1024,1684,703,266.3,-89.9,99,4.122,4.145,4.111,4.125,0,0,75.11,6,GPS_Atti,
0.356692215425149,36.8968449766013,5911.8132794011,103.018376,0,2.81183407948,10600,2017-11-14 07:28:48,18,16.347,5911.8132794011,103.018376,0.31540854,2.99029537128,251.5, 6.1, 1.4,0,0,1024,1024,1684,701,260.6,-90,99,4.122,4.145,4.111,4.125,0,0,75.11,6,GPS_Atti,
0.356692253559236,36.8968450623618,5913.7817834011,104.98688,0,2.78135179504,10700,2017-11-14 07:28:48,18,16.347,5913.7817834011,104.98688,0.31540854,2.99029537128,245.9, 5.3, 1.6,0,0,1024,1024,1684,701,254.5,-90,99,4.122,4.145,4.111,4.125,0,0,75.11,6,GPS_Atti,
0.356692321205614,36.8968451084203,5915.7502874011,106.955384,0.223694,2.75158801456,10800,2017-11-14 07:28:48,18,16.347,5915.7502874011,106.955384,0.31540854,2.99029537128,240.4, 5.1, 1.3,0,0,1024,1024,1684,700,248.4,-89.9,99,4.122,4.145,4.111,4.125,0,0,75.11,6,GPS_Atti,
0.356692410537166,36.8968450997072,5917.3907074011,108.595804,0.223694,2.7282809272,10900,2017-11-14 07:28:48,18,16.347,5917.3907074011,108.595804,0.31540854,2.99029537128,235, 5.9, -0.3,0,0,1024,1024,1684,703,242.5,-89.9,99,4.122,4.145,4.111,4.125,0,0,75.11,6,GPS_Atti,
0.356692548897096,36.896845019348,5919.3592114011,110.564308,0.223694,2.70833342,11000,2017-11-14 07:28:48,18,16.347,5919.3592114011,110.564308,0.31540854,2.99029537128,229.6, 7.1, -1,0,0,1024,1024,1684,703,236.7,-89.9,99,4.122,4.145,4.111,4.125,0,0,75.11,6,GPS_Atti,
0.356692696156473,36.896844927261,5921.3277154011,112.532812,0.223694,2.6899279076,11100,2017-11-14 07:28:48,18,16.347,5921.3277154011,112.532812,0.31540854,2.99029537128,224.1, 7.1, -3,0,0,1024,1024,1684,703,231,-89.9,99,4.122,4.145,4.111,4.125,0,0,75.11,6,GPS_Atti,
0.356692879851469,36.896844821882,5923.2962194011,114.501316,0.223694,2.66652239504,11200,2017-11-14 07:28:48,18,16.347,5923.2962194011,114.501316,0.31540854,2.99029537128,218.7, 6.9, -3.8,0,0,1024,1024,1684,708,225.2,-89.9,99,4.122,4.145,4.111,4.125,0,0,75.11,6,GPS_Atti,
0.356693037887074,36.8968447445492,5925.2647234011,116.46982,0.223694,2.64460966468,11300,2017-11-14 07:28:48,18,16.347,5925.2647234011,116.46982,0.31540854,2.99029537128,213.3, 6.6, -4.8,0,0,1024,1024,1684,705,219.5,-90,99,4.122,4.145,4.111,4.125,0,0,75.11,6,GPS_Atti,
0.356693213040475,36.8968446871189,5927.2332274011,118.438324,0.223694,2.61452108104,11400,2017-11-14 07:28:49,18,16.347,5927.2332274011,118.438324,0.31540854,2.99029537128,208, 5.7, -4.6,0,0,1024,1024,1684,703,213.7,-90,99,4.122,4.145,4.111,4.125,0,0,75.11,6,GPS_Atti,
0.356693361495536,36.896844656055,5929.2017314011,120.406828,0.223694,2.58541346856,11500,2017-11-14 07:28:49,18,16.374,5929.2017314011,120.406828,0.31540854,2.99029537128,202.7, 4.9, -5.2,0,0,1024,1024,1684,704,207.9,-90,99,4.122,4.145,4.111,4.125,0,0,75.11,6,GPS_Atti,
0.356693521799156,36.8968446434395,5930.8421514011,122.047248,0,2.54927501596,11600,2017-11-14 07:28:49,18,16.374,5930.8421514011,122.047248,0.31540854,2.99029537128,197.4, 4.1, -5.9,0,0,1024,1024,1684,707,202.1,-90,99,4.122,4.145,4.111,4.125,0,0,75.11,6,GPS_Atti,
0.356693641143746,36.8968446611492,5932.8106554011,124.015752,0,2.51549220648,11700,2017-11-14 07:28:49,18,16.374,5932.8106554011,124.015752,0.31540854,2.99029537128,192.1, 3.8, -6.3,0,0,1024,1024,1684,702,202.1,-90,99,4.122,4.145,4.111,4.125,0,0,75.11,6,GPS_Atti,
0.35669376367235,36.8968447505383,5934.4510754011,125.656172,0,2.46150270344,11800,2017-11-14 07:28:49,18,16.374,5934.4510754011,125.656172,0.31540854,2.99029537128,186.9, 3.5, -6.2,0,0,1024,1024,1684,703,196.5,-90,99,4.122,4.145,4.111,4.125,0,0,75.11,6,GPS_Atti,
0.356693866359586,36.8968448814434,5936.4195794011,127.624676,0,2.4008859036,11900,2017-11-14 07:28:49,18,16.374,5936.4195794011,127.624676,0.31540854,2.99029537128,181.6, 2.3, -5.7,0,0,1024,1024,1684,704,190.5,-89.9,99,4.122,4.145,4.111,4.125,0,0,75.11,6,GPS_Atti,
0.356693960474692,36.8968450180805,5938.0599994011,129.265096,0.223694,2.3407645106,12000,2017-11-14 07:28:49,18,16.374,5938.0599994011,129.265096,0.31540854,2.99029537128,176.1, 1.8, -5.6,0,0,1024,1024,1684,703,184.7,-89.9,99,4.122,4.145,4.111,4.125,0,0,75.11,6,GPS_Atti,
0.356693999749912,36.8968451772074,5939.7004194011,130.905516,0.447388,2.28787408896,12100,2017-11-14 07:28:49,18,16.374,5939.7004194011,130.905516,0.447388,2.99029537128,170.7, 2.2, -4.9,0,0,1024,1024,1684,702,178.8,-90,99,4.122,4.145,4.111,4.125,0,0,75.11,6,GPS_Atti,
0.356694041319202,36.896845359957,5941.6689234011,132.87402,0.447388,2.22843839152,12200,2017-11-14 07:28:49,18,16.374,5941.6689234011,132.87402,0.447388,2.99029537128,165.2, 2.5, -4,0,0,1024,1024,1684,716,172.8,-90,99,4.122,4.145,4.111,4.125,0,0,75.11,6,GPS_Atti,
0.356694068307811,36.896845551696,5943.3093434011,134.51444,0.447388,2.17085308784,12300,2017-11-14 07:28:49,18,16.374,5943.3093434011,134.51444,0.447388,2.99029537128,159.8, 2.5, -3.7,0,0,1024,1024,1684,694,167,-90,99,4.122,4.145,4.111,4.125,0,0,75.11,6,GPS_Atti,
0.356694114793781,36.8968457190123,5944.9497634011,136.15486,0.223694,2.11534455588,12400,2017-11-14 07:28:50,18,16.374,5944.9497634011,136.15486,0.447388,2.99029537128,154.5, 2.2, -3.9,0,0,1024,1024,1684,673,161.2,-90,99,4.122,4.145,4.111,4.125,0,0,75.11,6,GPS_Atti,
0.356694158827721,36.8968458636159,5946.9182674011,138.123364,0.223694,2.0667323496,12500,2017-11-14 07:28:50,18,16.4,5946.9182674011,138.123364,0.447388,2.99029537128,149.4, 1.4, -4.1,0,0,1024,1024,1684,708,155.1,-89.9,99,4.123,4.136,4.096,4.115,0,0,75.11,6,GPS_Atti,
0.356694229712667,36.8968459776653,5948.5586874011,139.763784,0.223694,2.01915032708,12600,2017-11-14 07:28:50,18,16.4,5948.5586874011,139.763784,0.447388,2.99029537128,143.5, 0, -4.5,0,0,1024,1024,1684,727,149.1,-90,99,4.123,4.136,4.096,4.115,0,0,75.11,6,GPS_Atti,
0.356694275865619,36.896846119099,5950.5271914011,141.732288,0.223694,1.97126646728,12700,2017-11-14 07:28:50,18,16.4,5950.5271914011,141.732288,0.447388,2.99029537128,138, 0, -4.3,0,0,1024,1024,1684,747,143.1,-90,99,4.123,4.136,4.096,4.115,0,0,75.11,6,GPS_Atti,
0.356694320711746,36.8968462229534,5952.1676114011,143.372708,0.223694,1.93339573116,12800,2017-11-14 07:28:50,18,16.4,5952.1676114011,143.372708,0.447388,2.99029537128,132.8, 0.1, -4.1,0,0,1024,1024,1684,1024,137.7,-90,99,4.123,4.136,4.096,4.115,0,0,75.11,6,GPS_Atti,
0.356694352156999,36.8968463465329,5953.8080314011,145.013128,0.223694,1.89443247532,12900,2017-11-14 07:28:50,18,16.4,5953.8080314011,145.013128,0.447388,2.99029537128,127.8, 1.1, -3.2,0,0,1024,1024,1684,1024,133.5,-90,99,4.123,4.136,4.096,4.115,0,0,75.11,6,GPS_Atti,
0.356694414877741,36.8968464021269,5955.7765354011,146.981632,0,1.86385504652,13000,2017-11-14 07:28:50,18,16.4,5955.7765354011,146.981632,0.447388,2.99029537128,125.6, 0.9, -2.8,0,0,1024,1024,1684,1024,133.5,-90,99,4.123,4.136,4.096,4.115,0,0,75.11,6,GPS_Atti,
0.356694472015363,36.8968464074472,5957.4169554011,148.622052,0,1.84715557092,13100,2017-11-14 07:28:50,18,16.4,5957.4169554011,148.622052,0.447388,2.99029537128,125.6, -0.7, -3.2,0,0,1024,1024,1684,1024,130.8,-90,99,4.123,4.136,4.096,4.115,0,0,75.11,6,GPS_Atti,
0.356694533752524,36.8968463089301,5959.3854594011,150.590556,0,1.85539047932,13200,2017-11-14 07:28:50,18,16.4,5959.3854594011,150.590556,0.447388,2.99029537128,125.7, -2.5, -4.2,0,0,1024,1024,1684,1024,129.5,-90,99,4.123,4.136,4.096,4.115,0,0,75.11,6,GPS_Atti,
0.356694556497816,36.8968462247558,5961.0258794011,152.230976,0,1.8709154142,13300,2017-11-14 07:28:50,18,16.4,5961.0258794011,152.230976,0.447388,2.99029537128,125.9, -3.7, -4.7,0,0,1024,1024,1684,1024,128.8,-90,99,4.123,4.136,4.096,4.115,0,0,75.11,6,GPS_Atti,
0.35669453540051,36.8968461242182,5962.9943834011,154.19948,0,1.90232289552,13400,2017-11-14 07:28:51,18,16.4,5962.9943834011,154.19948,0.447388,2.99029537128,125.8, -3.3, -4.7,0,0,1024,1024,1684,1024,128.3,-90,99,4.123,4.136,4.096,4.115,0,0,75.11,6,GPS_Atti,
0.356694449016848,36.8968460678885,5964.6348034011,155.8399,0,1.93910439276,13500,2017-11-14 07:28:51,18,16.32,5964.6348034011,155.8399,0.447388,2.99029537128,125.8, -2.2, -5.3,0,0,1024,1024,1684,1024,128,-90,99,4.113,4.131,4.093,4.108,0,0,75.11,6,GPS_Atti,
0.356694346445639,36.8968460129316,5966.6033074011,157.808404,0.223694,1.97975071952,13600,2017-11-14 07:28:51,18,16.32,5966.6033074011,157.808404,0.447388,2.99029537128,125.7, -1.9, -6.2,0,0,1024,1024,1684,1024,127.8,-90,99,4.113,4.131,4.093,4.108,0,0,75.11,6,GPS_Atti,
0.356694233904281,36.896845984339,5968.2437274011,159.448824,0.223694,2.0163550514,13700,2017-11-14 07:28:51,18,16.32,5968.2437274011,159.448824,0.447388,2.99029537128,125.6, -2, -7.1,0,0,1024,1024,1684,1024,127.6,-90,99,4.113,4.131,4.093,4.108,0,0,75.11,6,GPS_Atti,
0.356694129163171,36.8968459328942,5970.2122314011,161.417328,0.223694,2.05688654876,13800,2017-11-14 07:28:51,18,16.32,5970.2122314011,161.417328,0.447388,2.99029537128,125.6, -1.6, -7.3,0,0,1024,1024,1684,1024,127.4,-90,99,4.113,4.131,4.093,4.108,0,0,75.11,6,GPS_Atti,
0.356694037608385,36.8968459071384,5971.8526514011,163.057748,0.223694,2.08755912192,13900,2017-11-14 07:28:51,18,16.32,5971.8526514011,163.057748,0.447388,2.99029537128,125.6, -1.6, -6.9,0,0,1024,1024,1684,1024,127.3,-90,99,4.113,4.131,4.093,4.108,0,0,75.11,6,GPS_Atti,
0.356693920190245,36.8968458584741,5973.8211554011,165.026252,0,2.13096135428,14000,2017-11-14 07:28:51,18,16.32,5973.8211554011,165.026252,0.447388,2.99029537128,125.6, -1.9, -6.3,0,0,1024,1024,1684,1024,127.2,-90,99,4.113,4.131,4.093,4.108,0,0,75.11,6,GPS_Atti,
0.356693800225625,36.8968458321122,5975.4615754011,166.666672,0.223694,2.16968182796,14100,2017-11-14 07:28:51,18,16.32,5975.4615754011,166.666672,0.447388,2.99029537128,125.6, -2.3, -5.9,0,0,1024,1024,1684,1024,127.2,-90,99,4.113,4.131,4.093,4.108,0,0,75.11,6,GPS_Atti,
0.356693667039262,36.8968458051497,5977.1019954011,168.307092,0.223694,2.21238196056,14200,2017-11-14 07:28:51,18,16.32,5977.1019954011,168.307092,0.447388,2.99029537128,125.6, -2.1, -6.4,0,0,1024,1024,1684,1024,127.2,-90,99,4.113,4.131,4.093,4.108,0,0,75.11,6,GPS_Atti,
0.356693540387437,36.8968458107936,5978.7424154011,169.947512,0.223694,2.24577106924,14300,2017-11-14 07:28:51,18,16.32,5978.7424154011,169.947512,0.447388,2.99029537128,125.6, -1.3, -6.8,0,0,1024,1024,1684,1024,127.1,-90,99,4.113,4.131,4.093,4.108,0,0,75.11,6,GPS_Atti,
0.356693395962775,36.8968457852805,5980.3828354011,171.587932,0.223694,2.29188655628,14400,2017-11-14 07:28:52,18,16.32,5980.3828354011,171.587932,0.447388,2.99029537128,125.5, -0.6, -7.1,0,0,1024,1024,1684,1024,127.1,-90,99,4.113,4.131,4.093,4.108,0,0,75.11,6,GPS_Atti,
0.356693276977664,36.8968457622097,5982.0232554011,173.228352,0,2.33059718744,14500,2017-11-14 07:28:52,18,16.374,5982.0232554011,173.228352,0.447388,2.99029537128,125.6, -1.3, -7.8,0,0,1024,1024,1684,1024,127,-90,99,4.119,4.141,4.105,4.119,0,0,76.91,6,GPS_Atti,
0.356693162091755,36.8968457275721,5983.9917594011,175.196856,0,2.37100401288,14600,2017-11-14 07:28:52,18,16.374,5983.9917594011,175.196856,0.447388,2.99029537128,125.7, -1.7, -7.8,0,0,1024,1024,1684,1024,127,-90,99,4.119,4.141,4.105,4.119,0,0,76.91,6,GPS_Atti,
0.356693091677022,36.8968457485846,5985.3040954011,176.509192,0,2.38616805536,14700,2017-11-14 07:28:52,18,16.374,5985.3040954011,176.509192,0.447388,2.99029537128,125.7, -1.5, -6.4,0,0,1024,1024,1684,1024,126.9,-90,99,4.119,4.141,4.105,4.119,0,0,76.91,6,GPS_Atti,
0.356693028856945,36.8968457757028,5987.2725994011,178.477696,0,2.39797907936,14800,2017-11-14 07:28:52,17,16.374,5987.2725994011,178.477696,0.447388,2.99029537128,125.6, -1.5, -5.4,0,0,1024,1024,1684,1024,126.9,-90,99,4.119,4.141,4.105,4.119,0,0,76.91,6,GPS_Atti,
0.356692967969017,36.8968458040976,5988.9130194011,180.118116,0,2.40915033956,14900,2017-11-14 07:28:52,17,16.374,5988.9130194011,180.118116,0.447388,2.99029537128,125.7, -2, -6.3,0,0,1024,1024,1684,1024,126.9,-90,99,4.119,4.141,4.105,4.119,0,0,76.91,6,GPS_Atti,
0.356692886824874,36.896845818043,5990.5534394011,181.758536,0,2.42958997276,15000,2017-11-14 07:28:52,17,16.374,5990.5534394011,181.758536,0.447388,2.99029537128,125.6, -1.3, -6.8,0,0,1024,1024,1684,1024,126.8,-90,99,4.119,4.141,4.105,4.119,0,0,76.91,6,GPS_Atti,
0.356692821455468,36.8968458543092,5992.1938594011,183.398956,0,2.44075467128,15100,2017-11-14 07:28:52,17,16.374,5992.1938594011,183.398956,0.447388,2.99029537128,125.7, -1, -6.8,0,0,1024,1024,1684,1024,126.8,-90,99,4.119,4.141,4.105,4.119,0,0,76.91,6,GPS_Atti,
0.356692738362484,36.896845894528,5993.8342794011,185.039376,0,2.45656503924,15200,2017-11-14 07:28:52,18,16.374,5993.8342794011,185.039376,0.447388,2.99029537128,125.6, -0.6, -6.7,0,0,1024,1024,1684,1024,126.8,-90,99,4.119,4.141,4.105,4.119,0,0,76.91,6,GPS_Atti,
0.356692677504275,36.896845949772,5995.4746994011,186.679796,0,2.46294627304,15300,2017-11-14 07:28:52,18,16.374,5995.4746994011,186.679796,0.447388,2.99029537128,125.6, -0.5, -6.3,0,0,1024,1024,1684,1024,126.7,-90,99,4.119,4.141,4.105,4.119,0,0,76.91,6,GPS_Atti,
0.356692605134596,36.8968459851723,5997.1151194011,188.320216,0,2.47723433124,15400,2017-11-14 07:28:53,18,16.374,5997.1151194011,188.320216,0.447388,2.99029537128,125.7, -0.9, -6.2,0,0,1024,1024,1684,1024,126.7,-90,99,4.119,4.141,4.105,4.119,0,0,76.91,6,GPS_Atti,
0.356692557216003,36.8968460242009,5998.7555394011,189.960636,0,2.48365493512,15500,2017-11-14 07:28:53,18,16.347,5998.7555394011,189.960636,0.447388,2.99029537128,125.7, -1.4, -6.2,0,0,1024,1024,1684,1024,126.7,-90,99,4.119,4.141,4.105,4.119,0,0,76.91,6,GPS_Atti,
0.356692472098863,36.8968460596936,6000.3959594011,191.601056,0,2.50229338716,15600,2017-11-14 07:28:53,18,16.347,6000.3959594011,191.601056,0.447388,2.99029537128,125.8, -1.3, -6.3,0,0,1024,1024,1684,1024,126.7,-90,99,4.119,4.141,4.105,4.119,0,0,76.91,6,GPS_Atti,
0.356692402084728,36.8968461082537,6002.0363794011,193.241476,0,2.51402895184,15700,2017-11-14 07:28:53,18,16.347,6002.0363794011,193.241476,0.447388,2.99029537128,125.6, -1, -6.6,0,0,1024,1024,1684,1024,126.7,-90,99,4.119,4.141,4.105,4.119,0,0,76.91,6,GPS_Atti,
0.356692328599564,36.8968461808394,6003.6767994011,194.881896,0,2.5225230466,15800,2017-11-14 07:28:53,18,16.347,6003.6767994011,194.881896,0.447388,2.99029537128,125.6, -0.8, -6.7,0,0,1024,1024,1684,1024,126.7,-90,99,4.119,4.141,4.105,4.119,0,0,76.91,6,GPS_Atti,
0.356692300206829,36.8968462620843,6005.3172194011,196.522316,0,2.51583341384,15900,2017-11-14 07:28:53,18,16.347,6005.3172194011,196.522316,0.447388,2.99029537128,125.6, -1, -6.3,0,0,1024,1024,1684,1024,126.7,-90,99,4.119,4.141,4.105,4.119,0,0,76.91,6,GPS_Atti,
0.356692268772974,36.8968463337173,6006.9576394011,198.162736,0,2.5122540174,16000,2017-11-14 07:28:53,18,16.347,6006.9576394011,198.162736,0.447388,2.99029537128,125.7, -1.4, -6.2,0,0,1024,1024,1684,1024,126.6,-90,99,4.119,4.141,4.105,4.119,0,0,76.91,6,GPS_Atti,
0.356692259612977,36.8968464034223,6008.5980594011,199.803156,0,2.50230979136,16100,2017-11-14 07:28:53,18,16.347,6008.5980594011,199.803156,0.447388,2.99029537128,125.7, -1.5, -6,0,0,1024,1024,1684,1024,126.6,-90,99,4.119,4.141,4.105,4.119,0,0,76.91,6,GPS_Atti,
0.356692250177772,36.8968464380713,6010.5665634011,201.77166,0,2.49899614296,16200,2017-11-14 07:28:53,18,16.347,6010.5665634011,201.77166,0.447388,2.99029537128,125.8, -1.6, -6.1,0,0,1024,1024,1684,1024,126.6,-90,99,4.119,4.141,4.105,4.119,0,0,76.91,6,GPS_Atti,
0.356692258847608,36.8968464739315,6012.2069834011,203.41208,0,2.4897802634,16300,2017-11-14 07:28:53,18,16.347,6012.2069834011,203.41208,0.447388,2.99029537128,125.8, -2.1, -5.9,0,0,1024,1024,1684,1024,126.6,-90,99,4.119,4.141,4.105,4.119,0,0,76.91,6,GPS_Atti,
0.356692247424074,36.8968465145349,6013.8474034011,205.0525,0,2.4861549352,16400,2017-11-14 07:28:53,18,16.347,6013.8474034011,205.0525,0.447388,2.99029537128,125.8, -2.1, -5.9,0,0,1024,1024,1684,1024,126.5,-90,99,4.119,4.141,4.105,4.119,0,0,76.91,6,GPS_Atti,
0.356692222770246,36.8968465915049,6015.4878234011,206.69292,0.223694,2.48048892452,16500,2017-11-14 07:28:54,18,16.347,6015.4878234011,206.69292,0.447388,2.99029537128,125.7, -0.9, -5.8,0,0,1024,1024,1684,1024,126.5,-90,99,4.105,4.126,4.086,4.101,0,0,76.91,6,GPS_Atti,
0.356692218653539,36.8968466306489,6017.4563274011,208.661424,0,2.47502960676,16600,2017-11-14 07:28:54,18,16.347,6017.4563274011,208.661424,0.447388,2.99029537128,125.7, -0.3, -5,0,0,1024,1024,1684,1024,126.5,-90,99,4.105,4.126,4.086,4.101,0,0,76.91,6,GPS_Atti,
0.356692214787613,36.8968466518274,6019.0967474011,210.301844,0,2.47263459356,16700,2017-11-14 07:28:54,18,16.347,6019.0967474011,210.301844,0.447388,2.99029537128,125.7, -1, -5.6,0,0,1024,1024,1684,1024,126.5,-90,99,4.105,4.126,4.086,4.101,0,0,76.91,6,GPS_Atti,
0.356692181316575,36.8968466401558,6020.7371674011,211.942264,0,2.4854167462,16800,2017-11-14 07:28:54,18,16.347,6020.7371674011,211.942264,0.447388,2.99029537128,125.7, -1.4, -6.8,0,0,1024,1024,1684,1024,126.5,-90,99,4.105,4.126,4.086,4.101,0,0,76.91,6,GPS_Atti,
0.356692133810793,36.8968466621132,6022.3775874011,213.582684,0,2.49701123476,16900,2017-11-14 07:28:54,18,16.347,6022.3775874011,213.582684,0.447388,2.99029537128,125.8, -0.8, -7.2,0,0,1024,1024,1684,1024,126.5,-90,99,4.105,4.126,4.086,4.101,0,0,76.91,6,GPS_Atti,
0.35669209765038,36.8968466686243,6024.0180074011,215.223104,0,2.5076116288,17000,2017-11-14 07:28:54,18,16.347,6024.0180074011,215.223104,0.447388,2.99029537128,125.6, 0.1, -7,0,0,1024,1024,1684,1024,126.5,-90,99,4.105,4.126,4.086,4.101,0,0,76.91,6,GPS_Atti,
0.356692078808468,36.8968466808248,6025.6584274011,216.863524,0,2.51167330872,17100,2017-11-14 07:28:54,18,16.347,6025.6584274011,216.863524,0.447388,2.99029537128,125.5, 0.4, -6.4,0,0,1024,1024,1684,1024,126.4,-90,99,4.105,4.126,4.086,4.101,0,0,76.91,6,GPS_Atti,
0.356692099637081,36.8968466269106,6027.2988474011,218.503944,0,2.51401910932,17200,2017-11-14 07:28:54,18,16.347,6027.2988474011,218.503944,0.447388,2.99029537128,125.6, -0.3, -6.2,0,0,1024,1024,1684,1024,126.4,-90,99,4.105,4.126,4.086,4.101,0,0,76.91,6,GPS_Atti,
0.356692106133759,36.8968465663015,6029.2673514011,220.472448,0,2.52230323032,17300,2017-11-14 07:28:54,18,16.347,6029.2673514011,220.472448,0.447388,2.99029537128,125.6, -1.2, -6.8,0,0,1024,1024,1684,1024,126.4,-90,99,4.105,4.126,4.086,4.101,0,0,76.91,6,GPS_Atti,
0.356692105314651,36.8968464785723,6030.9077714011,222.112868,0,2.5378609736,17400,2017-11-14 07:28:55,18,16.347,6030.9077714011,222.112868,0.447388,2.99029537128,125.7, -1.5, -8.1,0,0,1024,1024,1684,1024,126.4,-90,99,4.105,4.126,4.086,4.101,0,0,76.91,6,GPS_Atti,
0.356692086118553,36.8968464334525,6032.5481914011,223.753288,0,2.55196202392,17500,2017-11-14 07:28:55,18,16.347,6032.5481914011,223.753288,0.447388,2.99029537128,125.6, -0.8, -8.8,0,0,1024,1024,1684,1024,126.4,-90,99,4.105,4.126,4.086,4.101,0,0,76.91,6,GPS_Atti,
0.356692120974583,36.8968464267447,6034.5166954011,225.721792,0,2.54205388712,17600,2017-11-14 07:28:55,18,16.347,6034.5166954011,225.721792,0.447388,2.99029537128,125.6, -0.3, -7.8,0,0,1024,1024,1684,1024,126.4,-90,99,4.105,4.126,4.086,4.101,0,0,76.91,6,GPS_Atti,
0.356692168206787,36.8968464443191,6036.1571154011,227.362212,0,2.52389115688,17700,2017-11-14 07:28:55,18,16.347,6036.1571154011,227.362212,0.447388,2.99029537128,125.6, -0.2, -6.6,0,0,1024,1024,1684,1024,126.4,-90,99,4.105,4.126,4.086,4.101,0,0,76.91,6,GPS_Atti,
0.356692210738487,36.8968464442562,6037.7975354011,229.002632,0,2.51038721944,17800,2017-11-14 07:28:55,18,16.347,6037.7975354011,229.002632,0.447388,2.99029537128,125.7, -0.6, -7.2,0,0,1024,1024,1684,1024,126.4,-90,99,4.105,4.126,4.086,4.101,0,0,76.91,6,GPS_Atti,
0.356692214942315,36.8968464444652,6039.4379554011,230.643052,0,2.50901582832,17900,2017-11-14 07:28:55,18,16.347,6039.4379554011,230.643052,0.447388,2.99029537128,125.8, -1.1, -7.8,0,0,1024,1024,1684,1024,126.4,-90,99,4.105,4.126,4.086,4.101,0,0,76.91,6,GPS_Atti,
0.356692243397746,36.8968464626279,6041.0783754011,232.283472,0,2.49671595916,18000,2017-11-14 07:28:55,18,16.347,6041.0783754011,232.283472,0.447388,2.99029537128,125.8, -1, -7.5,0,0,1024,1024,1684,1024,126.4,-90,99,4.105,4.126,4.086,4.101,0,0,76.91,6,GPS_Atti,
0.356692246127832,36.8968465145218,6042.7187954011,233.923892,0,2.48656832104,18100,2017-11-14 07:28:55,18,16.347,6042.7187954011,233.923892,0.447388,2.99029537128,125.6, -0.2, -6.8,0,0,1024,1024,1684,1024,126.3,-89.9,99,4.105,4.126,4.086,4.101,0,0,76.91,6,GPS_Atti,
0.356692244230695,36.896846560254,6044.6872994011,235.892396,0,2.47908800584,18200,2017-11-14 07:28:55,18,16.347,6044.6872994011,235.892396,0.447388,2.99029537128,125.5, 0.6, -7,0,0,1024,1024,1684,1024,126.3,-90,99,4.105,4.126,4.086,4.101,0,0,76.91,6,GPS_Atti,
0.356692219853702,36.8968465856185,6046.3277194011,237.532816,0,2.48245086684,18300,2017-11-14 07:28:55,18,16.347,6046.3277194011,237.532816,0.447388,2.99029537128,125.4, 0.8, -7.8,0,0,1024,1024,1684,1024,126.3,-90,99,4.105,4.126,4.086,4.101,0,0,76.91,6,GPS_Atti,
0.356692253812459,36.896846559261,6047.9681394011,239.173236,0,2.47620086664,18400,2017-11-14 07:28:56,18,16.347,6047.9681394011,239.173236,0.447388,2.99029537128,125.4, 0.4, -8,0,0,1024,1024,1684,1024,126.3,-90,99,4.105,4.126,4.086,4.101,0,0,76.91,6,GPS_Atti,
0.356692287729691,36.8968465314504,6049.6085594011,240.813656,0,2.47030519716,18500,2017-11-14 07:28:56,18,16.32,6049.6085594011,240.813656,0.447388,2.99029537128,125.5, 0, -8,0,0,1024,1024,1684,1024,126.3,-90,99,4.104,4.124,4.084,4.099,0,0,76.91,6,GPS_Atti,
0.356692347170339,36.8968464887844,6051.2489794011,242.454076,0,2.45909128604,18600,2017-11-14 07:28:56,18,16.32,6051.2489794011,242.454076,0.447388,2.99029537128,125.6, -0.4, -8.2,0,0,1024,1024,1684,1024,126.3,-90,99,4.104,4.124,4.084,4.099,0,0,76.91,6,GPS_Atti,
0.356692386282307,36.8968464797435,6052.8893994011,244.094496,0,2.44836293924,18700,2017-11-14 07:28:56,18,16.32,6052.8893994011,244.094496,0.447388,2.99029537128,125.6, -0.3, -8.4,0,0,1024,1024,1684,1024,126.3,-90,99,4.104,4.124,4.084,4.099,0,0,76.91,6,GPS_Atti,
0.356692465457254,36.8968465072262,6054.5298194011,245.734916,0,2.4183399724,18800,2017-11-14 07:28:56,18,16.32,6054.5298194011,245.734916,0.447388,2.99029537128,125.7, -0.3, -8,0,0,1024,1024,1684,1024,126.3,-90,99,4.104,4.124,4.084,4.099,0,0,76.91,6,GPS_Atti,
0.356692531571267,36.8968465843788,6056.1702394011,247.375336,0.223694,2.38337606052,18900,2017-11-14 07:28:56,18,16.32,6056.1702394011,247.375336,0.447388,2.99029537128,125.6, 0.5, -7.3,0,0,1024,1024,1684,1024,126.3,-89.9,99,4.104,4.124,4.084,4.099,0,0,76.91,6,GPS_Atti,
0.356692630321739,36.8968466476302,6057.8106594011,249.015756,0.223694,2.34064311952,19000,2017-11-14 07:28:56,18,16.32,6057.8106594011,249.015756,0.447388,2.99029537128,125.5, 1.2, -7,0,0,1024,1024,1684,1024,126.3,-90,99,4.104,4.124,4.084,4.099,0,0,76.91,6,GPS_Atti,
0.35669273146521,36.8968467039743,6059.4510794011,250.656176,0,2.29840558536,19100,2017-11-14 07:28:56,18,16.32,6059.4510794011,250.656176,0.447388,2.99029537128,125.6, 0.9, -6.4,0,0,1024,1024,1684,1024,126.3,-90,99,4.104,4.124,4.084,4.099,0,0,76.91,6,GPS_Atti,
0.356692894195211,36.8968467327353,6061.0914994011,252.296596,0,2.2417651636,19200,2017-11-14 07:28:56,18,16.32,6061.0914994011,252.296596,0.447388,2.99029537128,125.6, 0.5, -5.8,0,0,1024,1024,1684,1024,126.3,-90,99,4.104,4.124,4.084,4.099,0,0,76.91,6,GPS_Atti,
0.35669303624031,36.8968467577563,6062.7319194011,253.937016,0,2.19250007016,19300,2017-11-14 07:28:56,18,16.32,6062.7319194011,253.937016,0.447388,2.99029537128,125.6, 0.2, -5.6,0,0,1024,1024,1684,1024,126.3,-90,99,4.104,4.124,4.084,4.099,0,0,76.91,6,GPS_Atti,
0.356693230580852,36.896846728931,6064.3723394011,255.577436,0,2.13747054084,19400,2017-11-14 07:28:56,18,16.32,6064.3723394011,255.577436,0.447388,2.99029537128,125.7, -0.1, -5.6,0,0,1024,1024,1684,1024,126.2,-90,99,4.104,4.124,4.084,4.099,0,0,76.91,6,GPS_Atti,
0.356693402566929,36.8968466926776,6066.0127594011,257.217856,0,2.09175859712,19500,2017-11-14 07:28:57,18,16.24,6066.0127594011,257.217856,0.447388,2.99029537128,125.7, -0.8, -6.1,0,0,1024,1024,1684,1024,126.3,-90,98,4.097,4.117,4.076,4.096,0,0,76.91,6,GPS_Atti,
0.356693595078729,36.8968466408329,6067.6531794011,258.858276,0,2.04410767696,19600,2017-11-14 07:28:57,18,16.24,6067.6531794011,258.858276,0.447388,2.99029537128,125.7, -1.1, -6.1,0,0,1024,1024,1684,1024,126.2,-90,98,4.097,4.117,4.076,4.096,0,0,76.91,6,GPS_Atti,
0.356693739297393,36.8968466244014,6068.9655154011,260.170612,0,2.00460636336,19700,2017-11-14 07:28:57,18,16.24,6068.9655154011,260.170612,0.447388,2.99029537128,125.6, -0.8, -6.1,0,0,1024,1024,1684,1024,126.2,-90,98,4.097,4.117,4.076,4.096,0,0,76.91,6,GPS_Atti,
0.356693909728714,36.8968466163564,6070.9340194011,262.139116,0,1.9562500626,19800,2017-11-14 07:28:57,18,16.24,6070.9340194011,262.139116,0.447388,2.99029537128,125.6, -0.7, -5.8,0,0,1024,1024,1684,1024,126.2,-90,98,4.097,4.117,4.076,4.096,0,0,76.91,6,GPS_Atti,
0.356694051874369,36.8968466359513,6072.2463554011,263.451452,0,1.91065294828,19900,2017-11-14 07:28:57,18,16.24,6072.2463554011,263.451452,0.447388,2.99029537128,125.6, -0.7, -5.3,0,0,1024,1024,1684,1024,126.2,-90,98,4.097,4.117,4.076,4.096,0,0,76.91,6,GPS_Atti,
0.356694238159813,36.8968466472632,6074.2148594011,265.419956,0,1.85472118796,20000,2017-11-14 07:28:57,18,16.24,6074.2148594011,265.419956,0.447388,2.99029537128,125.6, -0.4, -5.5,0,0,1024,1024,1684,1024,126.2,-90,98,4.097,4.117,4.076,4.096,0,0,76.91,6,GPS_Atti,
0.356694386692225,36.8968466664571,6075.5271954011,266.732292,0,1.80834651456,20100,2017-11-14 07:28:57,18,16.24,6075.5271954011,266.732292,0.447388,2.99029537128,125.6, -0.3, -5.6,0,0,1024,1024,1684,1024,126.2,-90,98,4.097,4.117,4.076,4.096,0,0,76.91,6,GPS_Atti,
0.356694568610996,36.8968466601363,6077.1676154011,268.372712,0,1.75934716916,20200,2017-11-14 07:28:57,18,16.24,6077.1676154011,268.372712,0.447388,2.99029537128,125.6, -0.5, -5.4,0,0,1024,1024,1684,1024,126.2,-90,98,4.097,4.117,4.076,4.096,0,0,76.91,6,GPS_Atti,
0.356694718632214,36.8968466617899,6078.8080354011,270.013132,0,1.7181266954,20300,2017-11-14 07:28:57,18,16.24,6078.8080354011,270.013132,0.447388,2.99029537128,125.7, -1, -5.1,0,0,1024,1024,1684,1024,126.2,-90,98,4.097,4.117,4.076,4.096,0,0,76.91,6,GPS_Atti,
0.356694917074806,36.896846624713,6080.4484554011,271.653552,0,1.67479007984,20400,2017-11-14 07:28:57,18,16.24,6080.4484554011,271.653552,0.447388,2.99029537128,125.7, -1.3, -4.9,0,0,1024,1024,1684,1024,126.2,-90,98,4.097,4.117,4.076,4.096,0,0,76.91,6,GPS_Atti,
0.356695065794897,36.8968466065846,6082.0888754011,273.293972,0,1.64119427824,20500,2017-11-14 07:28:58,18,16.4,6082.0888754011,273.293972,0.447388,2.99029537128,125.7, -1.2, -5,0,0,1024,1024,1684,1024,126.2,-90,98,4.097,4.117,4.076,4.096,0,0,76.91,6,GPS_Atti,
0.356695249331935,36.8968465837442,6083.7292954011,274.934392,0,1.60146330584,20600,2017-11-14 07:28:58,18,16.4,6083.7292954011,274.934392,0.447388,2.99029537128,125.7, -0.7, -5.1,0,0,1024,1024,1684,1024,126.2,-90,98,4.097,4.117,4.076,4.096,0,0,76.91,6,GPS_Atti,
0.356695376016735,36.8968465928309,6085.3697154011,276.574812,0,1.5682907326,20700,2017-11-14 07:28:58,18,16.4,6085.3697154011,276.574812,0.447388,2.99029537128,125.6, -0.8, -5.2,0,0,1024,1024,1684,1024,126.2,-90,98,4.097,4.117,4.076,4.096,0,0,76.91,6,GPS_Atti,
0.356695532064824,36.8968465646463,6087.0101354011,278.215232,0,1.53947839572,20800,2017-11-14 07:28:58,18,16.4,6087.0101354011,278.215232,0.447388,2.99029537128,125.6, -0.9, -5.2,0,0,1024,1024,1684,1024,126.2,-90,98,4.097,4.117,4.076,4.096,0,0,76.91,6,GPS_Atti,
0.356695640888444,36.8968465604948,6088.6505554011,279.855652,0,1.51590556032,20900,2017-11-14 07:28:58,18,16.4,6088.6505554011,279.855652,0.447388,2.99029537128,125.6, -0.6, -5.1,0,0,1024,1024,1684,1024,126.1,-90,98,4.097,4.117,4.076,4.096,0,0,76.91,6,GPS_Atti,
0.356695793175234,36.8968465723827,6090.2909754011,281.496072,0,1.47886815756,21000,2017-11-14 07:28:58,18,16.4,6090.2909754011,281.496072,0.447388,2.99029537128,125.6, -0.4, -4.9,0,0,1024,1024,1684,1024,126.2,-90,98,4.097,4.117,4.076,4.096,0,0,76.91,6,GPS_Atti,
0.356695903632998,36.896846613685,6092.2594794011,283.464576,0,1.44302498056,21100,2017-11-14 07:28:58,18,16.4,6092.2594794011,283.464576,0.447388,2.99029537128,125.5, -0.1, -4.9,0,0,1024,1024,1684,1024,126.1,-90,98,4.097,4.117,4.076,4.096,0,0,76.91,6,GPS_Atti,
0.356696067038803,36.8968466032518,6093.8998994011,285.104996,0,1.41246067512,21200,2017-11-14 07:28:58,18,16.4,6093.8998994011,285.104996,0.447388,2.99029537128,125.5, -0.1, -4.6,0,0,1024,1024,1684,1024,126.1,-89.9,98,4.097,4.117,4.076,4.096,0,0,76.91,6,GPS_Atti,
0.3566961898475,36.896846596279,6095.5403194011,286.745416,0,1.3904692046,21300,2017-11-14 07:28:58,18,16.4,6095.5403194011,286.745416,0.447388,2.99029537128,125.6, -0.3, -4.4,0,0,1024,1024,1684,1024,126.1,-90,98,4.097,4.117,4.076,4.096,0,0,76.91,6,GPS_Atti,
0.356696365934814,36.8968465850803,6097.1807394011,288.385836,0,1.36128285196,21400,2017-11-14 07:28:59,18,16.4,6097.1807394011,288.385836,0.447388,2.99029537128,125.5, -0.6, -3.9,0,0,1024,1024,1684,1024,126.1,-90,98,4.097,4.117,4.076,4.096,0,0,76.91,6,GPS_Atti,
0.356696483416056,36.8968465857018,6098.8211594011,290.026256,0,1.34056106652,21500,2017-11-14 07:28:59,18,16.267,6098.8211594011,290.026256,0.447388,2.99029537128,125.5, -0.4, -4.2,0,0,1024,1024,1684,1024,126.1,-90,98,4.086,4.109,4.07,4.088,0,0,76.91,6,GPS_Atti,
0.356696631564359,36.896846538102,6100.4615794011,291.666676,0,1.33187996388,21600,2017-11-14 07:28:59,18,16.267,6100.4615794011,291.666676,0.447388,2.99029537128,125.6, -0.6, -5.3,0,0,1024,1024,1684,1024,126.1,-90,98,4.086,4.109,4.07,4.088,0,0,76.91,6,GPS_Atti,
0.356696730874406,36.8968464952548,6102.1019994011,293.307096,0,1.33104334968,21700,2017-11-14 07:28:59,18,16.267,6102.1019994011,293.307096,0.447388,2.99029537128,125.7, -1.5, -5.7,0,0,1024,1024,1684,1024,126.1,-90,98,4.086,4.109,4.07,4.088,0,0,76.91,6,GPS_Atti,
0.356696878327363,36.8968464467892,6103.7424194011,294.947516,0,1.3268045044,21800,2017-11-14 07:28:59,18,16.267,6103.7424194011,294.947516,0.447388,2.99029537128,125.6, -0.9, -5.5,0,0,1024,1024,1684,1024,126.1,-90,98,4.086,4.109,4.07,4.088,0,0,76.91,6,GPS_Atti,
0.356696971516293,36.8968464238145,6105.3828394011,296.587936,0,1.32273954364,21900,2017-11-14 07:28:59,18,16.267,6105.3828394011,296.587936,0.447388,2.99029537128,125.5, -0.2, -4.9,0,0,1024,1024,1684,1024,126.1,-90,98,4.086,4.109,4.07,4.088,0,0,76.91,6,GPS_Atti,
0.356697096572649,36.8968463479172,6107.3513434011,298.55644,0,1.33439308732,22000,2017-11-14 07:28:59,18,16.267,6107.3513434011,298.55644,0.447388,2.99029537128,125.5, -0.3, -4.6,0,0,1024,1024,1684,1024,126.1,-90,98,4.086,4.109,4.07,4.088,0,0,76.91,6,GPS_Atti,
0.356697154870537,36.8968462495974,6108.9917634011,300.19686,0,1.36255253704,22100,2017-11-14 07:28:59,18,16.267,6108.9917634011,300.19686,0.447388,2.99029537128,125.6, -0.9, -4.9,0,0,1024,1024,1684,1024,126.1,-90,98,4.086,4.109,4.07,4.088,0,0,76.91,6,GPS_Atti,
0.356697231754671,36.8968460848793,6110.6321834011,301.83728,0.223694,1.41310371976,22200,2017-11-14 07:28:59,18,16.267,6110.6321834011,301.83728,0.447388,2.99029537128,125.7, -1.8, -6.1,0,0,1024,1024,1684,1024,126.1,-90,98,4.086,4.109,4.07,4.088,0,0,76.91,6,GPS_Atti,
0.356697241321169,36.8968459296987,6112.6006874011,303.805784,0.223694,1.46716868212,22300,2017-11-14 07:28:59,18,16.267,6112.6006874011,303.805784,0.447388,2.99029537128,125.8, -2.1, -6.9,0,0,1024,1024,1684,1024,126.1,-90,98,4.086,4.109,4.07,4.088,0,0,76.91,6,GPS_Atti,
0.356697294552357,36.896845738986,6114.2411074011,305.446204,0.223694,1.5305446684,22400,2017-11-14 07:29:00,18,16.267,6114.2411074011,305.446204,0.447388,2.99029537128,125.8, -2.4, -7.5,0,0,1024,1024,1684,1024,126.1,-90,98,4.086,4.109,4.07,4.088,0,0,76.91,6,GPS_Atti,
0.356697296713709,36.8968455890373,6115.8815274011,307.086624,0.223694,1.58384847588,22500,2017-11-14 07:29:00,18,16.267,6115.8815274011,307.086624,0.447388,2.99029537128,125.8, -2.3, -7.7,0,0,1024,1024,1684,1024,126.1,-90,98,4.092,4.114,4.073,4.091,0,0,76.91,6,GPS_Atti,
0.356697350071101,36.8968454456845,6117.5219474011,308.727044,0.223694,1.63124677136,22600,2017-11-14 07:29:00,18,16.267,6117.5219474011,308.727044,0.447388,2.99029537128,125.7, -1.8, -7.5,0,0,1024,1024,1684,1024,126,-90,98,4.092,4.114,4.073,4.091,0,0,76.91,6,GPS_Atti,
0.356697350496329,36.8968453420201,6119.1623674011,310.367464,0.223694,1.66836947596,22700,2017-11-14 07:29:00,18,16.267,6119.1623674011,310.367464,0.447388,2.99029537128,125.7, -1.6, -7.9,0,0,1024,1024,1684,1024,126.1,-90,98,4.092,4.114,4.073,4.091,0,0,76.91,6,GPS_Atti,
0.356697389029385,36.8968452192204,6120.8027874011,312.007884,0.223694,1.70993443792,22800,2017-11-14 07:29:00,18,16.267,6120.8027874011,312.007884,0.447388,2.99029537128,125.8, -1.8, -8.2,0,0,1024,1024,1684,1024,126,-90,98,4.092,4.114,4.073,4.091,0,0,76.91,6,GPS_Atti,
