latitude,longitude,altitude(feet),ascent(feet),speed(mph),distance(feet),time(millisecond),datetime(utc),satellites,gpslevel,voltage(v),max_altitude(feet),max_ascent(feet),max_speed(mph),max_distance(feet), xSpeed(mph), ySpeed(mph), zSpeed(mph), compass_heading(degrees), pitch(degrees), roll(degrees),isPhoto,isVideo,rc_elevator,rc_aileron,rc_throttle,rc_rudder,gimbal_heading(degrees),gimbal_pitch(degrees),battery_percent,voltageCell1,voltageCell2,voltageCell3,voltageCell4,voltageCell5,voltageCell6,current(A),battery_temperature(f),flycStateRaw,flycState,message
0.0376306236020058,36.8793436973862,5995.2969605503,0,0,0,0,2018-04-11 06:38:46,13,0,0,5995.2969605503,0,0,0,0,0,0,156.4, -1, -0.9,0,0,364,364,364,1684,160.9,0,99,4.287,4.286,4.266,4.287,0,0,0,71.51,41,Motors_Started,
0.0376306070984638,36.8793436563576,5995.2969605503,0,0,0.0161349086528,100,2018-04-11 06:38:46,13,0,0,5995.2969605503,0,0,0.0161349086528,0,0,0,156.4, -1, -0.9,0,0,364,364,364,1684,160.9,0,99,4.287,4.286,4.266,4.287,0,0,0,71.51,41,Motors_Started,
0.0376305616873055,36.8793436090209,5995.2969605503,0,0,0.039366471076,200,2018-04-11 06:38:46,13,0,0,5995.2969605503,0,0,0.039366471076,0,0,0,156.4, -1, -0.8,0,0,364,364,364,1684,160.9,0,99,4.287,4.286,4.266,4.287,0,0,0,71.51,41,Motors_Started,
0.0376305223004105,36.8793435619663,5995.2969605503,0,0,0.061702101712,300,2018-04-11 06:38:46,13,0,0,5995.2969605503,0,0,0.061702101712,0,0,0,156.4, -0.9, -0.9,0,0,364,364,364,1684,160.9,0,99,4.287,4.286,4.266,4.287,0,0,0,71.51,41,Motors_Started,
0.0376304906520085,36.8793435090344,5995.2969605503,0,0,0.084115160172,400,2018-04-11 06:38:46,13,0,0,5995.2969605503,0,0,0.084115160172,0,0,0,156.4, -0.9, -0.8,0,0,364,364,364,1684,160.9,0,99,4.287,4.286,4.266,4.287,0,0,0,71.51,41,Motors_Started,
0.037630467360832,36.8793434580125,5995.2969605503,0,0,0.104292654256,500,2018-04-11 06:38:46,13,0,0,5995.2969605503,0,0,0.104292654256,0,0,0,156.3, -0.9, -0.9,0,0,364,364,364,1684,160.9,0,99,4.287,4.286,4.266,4.287,0,0,0,71.51,41,Motors_Started,
0.0376304540636708,36.8793434036318,5995.2969605503,0,0,0.1237450827,600,2018-04-11 06:38:47,13,0,17.077,5995.2969605503,0,0,0.1237450827,0,0,0,156.4, -0.9, -0.9,0,0,364,364,364,1684,160.9,0,99,4.287,4.286,4.266,4.287,0,0,1.474,71.51,41,Motors_Started,Setting new Return-To-Home altitude to 30m (98 ft). Setting new Maximum Flight Altitude to 150m (492 ft)
0.0376304425293765,36.8793433516248,5995.2969605503,0,0,0.142402563612,700,2018-04-11 06:38:47,13,0,17.077,5995.2969605503,0,0,0.142402563612,0,0,0,156.3, -0.9, -0.9,0,0,364,364,364,1684,160.9,0,99,4.287,4.286,4.266,4.287,0,0,1.474,71.51,41,Motors_Started,
0.0376304094017367,36.8793432956998,5995.2969605503,0,0,0.166090228412,800,2018-04-11 06:38:47,13,0,17.077,5995.2969605503,0,0,0.166090228412,0,0,0,156.4, -0.9, -0.9,0,0,364,364,364,1684,160.9,0,99,4.287,4.286,4.266,4.287,0,0,1.474,71.51,41,Motors_Started,
0.0376303766387412,36.8793432419978,5995.2969605503,0,0,0.189007880064,900,2018-04-11 06:38:47,13,0,17.077,5995.2969605503,0,0,0.189007880064,0,0,0,156.3, -0.9, -0.8,0,0,396,364,394,1660,160.9,0,99,4.287,4.286,4.266,4.287,0,0,1.474,71.51,41,Motors_Started,
0.0376303560626643,36.8793431869271,5995.2969605503,0,0,0.210270347936,1000,2018-04-11 06:38:47,13,0,17.077,5995.2969605503,0,0,0.210270347936,0,0,0,156.4, -0.9, -0.9,0,0,554,484,512,1531,160.8,0,99,4.287,4.286,4.266,4.287,0,0,1.474,71.51,41,Motors_Started,
0.0376303398990854,36.8793431341661,5995.2969605503,0,0,0.230087933872,1100,2018-04-11 06:38:47,13,0,17.077,5995.2969605503,0,0,0.230087933872,0,0,0,156.3, -0.9, -0.9,0,0,797,759,588,1423,160.4,0,99,4.287,4.286,4.266,4.287,0,0,1.474,71.51,41,Motors_Started,
0.0376303338794404,36.8793431150163,5995.2969605503,0,0,0.237318577148,1200,2018-04-11 06:38:47,13,0,17.077,5995.2969605503,0,0,0.237318577148,0,0,0,156.3, -0.9, -0.8,0,0,852,770,1135,894,160.4,0,99,4.287,4.286,4.266,4.287,0,0,1.474,71.51,41,Motors_Started,
0.0376303270436905,36.879343095854,5995.2969605503,0,0,0.244690624628,1300,2018-04-11 06:38:47,13,0,17.077,5995.2969605503,0,0,0.244690624628,0,0,0,156.3, -0.9, -0.9,0,0,1024,1024,1034,1024,160,0,99,4.287,4.286,4.266,4.287,0,0,1.474,71.51,41,Motors_Started,
0.0376303311425349,36.8793431044402,5995.2969605503,0,0,0.241219495908,1400,2018-04-11 06:38:47,13,0,17.077,5995.2969605503,0,0,0.244690624628,0,0,0,156.3, -0.9, -0.8,0,0,1024,1024,1024,1024,158.6,0,99,4.287,4.286,4.266,4.287,0,0,1.474,71.51,41,Motors_Started,
0.03763033031269,36.8793431041921,5995.2969605503,0,0,0.241434719012,1500,2018-04-11 06:38:48,13,0,17.077,5995.2969605503,0,0,0.244690624628,0,0,0,156.5, -0.9, -0.8,0,0,1024,1024,1024,1024,157.9,0,99,4.287,4.286,4.266,4.287,0,0,1.474,71.51,10,Assisted_Takeoff,
0.0376303364893272,36.8793431289872,5995.2969605503,0,0,0.232335309272,1600,2018-04-11 06:38:48,13,0,17.077,5995.2969605503,0,0,0.244690624628,0,0,0,156.2, -0.9, -0.9,0,0,1024,1024,1024,1024,157.5,0,99,4.287,4.286,4.266,4.287,0,0,2.228,71.51,10,Assisted_Takeoff,
0.0376303386788719,36.8793431382134,5995.2969605503,0,0,0.228971792104,1700,2018-04-11 06:38:48,13,0,17.077,5995.2969605503,0,0,0.244690624628,0,0,0,156.3, -1, -0.8,0,0,1024,1024,1024,1024,157.3,0,99,4.287,4.286,4.266,4.287,0,0,2.228,71.51,10,Assisted_Takeoff,
0.0376303464636993,36.8793431641971,5995.2969605503,0,0,0.219242789168,1800,2018-04-11 06:38:48,13,0,17.077,5995.2969605503,0,0,0.244690624628,0,0,0,156.2, -1, -0.9,0,0,1024,1024,1024,1024,157.1,0,99,4.287,4.286,4.266,4.287,0,0,2.228,71.51,10,Assisted_Takeoff,
0.0376303497088829,36.8793431793868,5995.2969605503,0,0,0.21378445566,1900,2018-04-11 06:38:48,13,0,17.077,5995.2969605503,0,0,0.244690624628,0,0,0,156.2, -0.9, -0.9,0,0,1024,1024,1024,1024,157,0,99,4.287,4.286,4.266,4.287,0,0,2.228,71.51,10,Assisted_Takeoff,
0.0376303915612422,36.8793431736413,5995.2969605503,0,0,0.209002303276,2000,2018-04-11 06:38:48,13,0,17.077,5995.2969605503,0,0,0.244690624628,0,0,0,156.2, -0.9, -0.9,0,0,1024,1024,1024,1024,156.9,0,99,4.287,4.286,4.266,4.287,0,0,2.228,71.51,10,Assisted_Takeoff,
0.0376304248292589,36.8793431591411,5995.2969605503,0,0,0.209341542132,2100,2018-04-11 06:38:48,13,0,17.077,5995.2969605503,0,0,0.244690624628,0,0,0,156.2, -0.9, -0.9,0,0,1024,1024,1024,1024,156.9,0,99,4.287,4.286,4.266,4.287,0,0,2.228,71.51,10,Assisted_Takeoff,
0.0376304259629613,36.8793431531914,5995.2969605503,0,0,0.211237867652,2200,2018-04-11 06:38:48,13,0,17.077,5995.2969605503,0,0,0.244690624628,0,0,0,156.2, -0.9, -0.9,0,0,1024,1024,1024,1024,156.8,0,99,4.287,4.286,4.266,4.287,0,0,2.228,71.51,10,Assisted_Takeoff,
0.0376304175629891,36.8793431484228,5995.2969605503,0,0,0.213931437292,2300,2018-04-11 06:38:48,13,0,17.077,5995.2969605503,0,0,0.244690624628,0,0,0,156.2, -1, -0.9,0,0,1024,1024,1024,1024,156.8,0,99,4.287,4.286,4.266,4.287,0,0,2.228,71.51,10,Assisted_Takeoff,
0.0376304398837402,36.8793431511338,5995.2969605503,0,0,0.210269691768,2400,2018-04-11 06:38:48,13,0,17.077,5995.2969605503,0,0,0.244690624628,0,0,0,156.2, -1, -0.9,0,1,1024,1024,1024,1024,156.7,0,99,4.287,4.286,4.266,4.287,0,0,2.228,71.51,10,Assisted_Takeoff,
0.0376304626124165,36.8793431524918,5995.2969605503,0,0,0.2072998754,2500,2018-04-11 06:38:48,13,0,17.077,5995.2969605503,0,0,0.244690624628,0,0,0,156.2, -1, -0.9,0,1,1024,1024,1024,1024,156.7,0,99,4.287,4.286,4.266,4.287,0,0,2.228,71.51,10,Assisted_Takeoff,
0.0376305134849561,36.879343159341,5995.2969605503,0,0,0.200374678328,2600,2018-04-11 06:38:49,13,0,16.783,5995.2969605503,0,0,0.244690624628,0,0,0,156.2, -1, -0.9,0,1,1024,1024,1024,1024,156.7,0,99,4.27,4.265,4.242,4.259,0,0,2.228,71.51,10,Assisted_Takeoff,
0.0376305571006912,36.8793431643678,5995.2969605503,0,0,0.195979008896,2700,2018-04-11 06:38:49,13,0,16.783,5995.2969605503,0,0,0.244690624628,0,0,0,156.2, -1, -0.9,0,1,1024,1024,1024,1024,156.7,0,99,4.27,4.265,4.242,4.259,0,0,2.228,71.51,10,Assisted_Takeoff,
0.0376305950850126,36.8793431732699,5995.2969605503,0,0,0.191506239724,2800,2018-04-11 06:38:49,13,0,16.783,5995.2969605503,0,0,0.244690624628,0,0,0,156.2, -1, -0.9,0,1,1024,1024,1024,1024,156.7,0,99,4.27,4.265,4.242,4.259,0,0,2.228,71.51,10,Assisted_Takeoff,
0.037630619653309,36.8793431807389,5995.2969605503,0,0,0.18850394304,2900,2018-04-11 06:38:49,13,0,16.783,5995.2969605503,0,0,0.244690624628,0,0,0,156.2, -1, -0.9,0,1,1024,1024,1024,1024,156.6,0,99,4.27,4.265,4.242,4.259,0,0,2.228,71.51,10,Assisted_Takeoff,
0.0376306651704688,36.8793431900151,5995.2969605503,0,0,0.185734257912,3000,2018-04-11 06:38:49,13,0,16.783,5995.2969605503,0,0,0.244690624628,0,0,0,156.2, -1, -0.9,0,1,1024,1024,1024,1024,156.6,0,99,4.27,4.265,4.242,4.259,0,0,2.228,71.51,10,Assisted_Takeoff,
0.0376307049024858,36.8793431978757,5995.2969605503,0,0,0.184644362864,3100,2018-04-11 06:38:49,13,0,16.783,5995.2969605503,0,0,0.244690624628,0,0,0,156.2, -1, -0.9,0,1,1024,1024,1024,1024,156.6,0,99,4.27,4.265,4.242,4.259,0,0,2.228,71.51,10,Assisted_Takeoff,
0.0376307341234439,36.8793432051023,5995.2969605503,0,0,0.184080386468,3200,2018-04-11 06:38:49,13,0,16.783,5995.2969605503,0,0,0.244690624628,0,0,0,156.2, -1, -0.9,0,1,1024,1024,1024,1024,156.6,0,99,4.27,4.265,4.242,4.259,0,0,2.228,71.51,10,Assisted_Takeoff,
0.0376307539130619,36.8793432119735,5995.2969605503,0,0,0.183373037364,3300,2018-04-11 06:38:49,13,0,16.783,5995.2969605503,0,0,0.244690624628,0,0,0,156.2, -1, -0.9,0,1,1024,1024,1024,1024,156.6,0,99,4.27,4.265,4.242,4.259,0,0,2.228,71.51,10,Assisted_Takeoff,
0.0376307919855474,36.8793432167656,5995.2969605503,0,0,0.185804467888,3400,2018-04-11 06:38:49,13,0,16.783,5995.2969605503,0,0,0.244690624628,0,0,0,156.2, -1, -0.9,0,1,1024,1024,1024,1024,156.6,0,99,4.27,4.265,4.242,4.259,0,0,2.228,71.51,10,Assisted_Takeoff,
0.0376308277170302,36.8793432224377,5995.2969605503,0,0,0.188609586088,3500,2018-04-11 06:38:49,13,0,16.783,5995.2969605503,0,0,0.244690624628,0,0,0,156.2, -1, -0.9,0,1,1024,1024,1024,1024,156.6,0,99,4.27,4.265,4.242,4.259,0,0,2.228,71.51,10,Assisted_Takeoff,
0.0376308508475998,36.8793432249926,5995.2969605503,0,0,0.191257880136,3600,2018-04-11 06:38:50,13,0,17.051,5995.2969605503,0,0,0.244690624628,0,0,0,156.2, -1, -0.9,0,1,1024,1024,1024,1024,156.6,0,99,4.28,4.277,4.256,4.277,0,0,2.422,71.51,10,Assisted_Takeoff,
0.0376308663261508,36.8793432289302,5995.2969605503,0,0,0.192496069152,3700,2018-04-11 06:38:50,13,0,17.051,5995.2969605503,0,0,0.244690624628,0,0,0,156.1, -1, -0.9,0,1,1024,1024,1024,1024,156.6,0,99,4.28,4.277,4.256,4.277,0,0,2.422,71.51,10,Assisted_Takeoff,
0.0376308984809671,36.8793432293643,5995.2969605503,0,0,0.198030518148,3800,2018-04-11 06:38:50,13,0,17.051,5995.2969605503,0,0,0.244690624628,0,0,0,156.1, -1, -0.9,0,1,1024,1024,1024,1024,156.5,0,99,4.28,4.277,4.256,4.277,0,0,2.422,71.51,10,Assisted_Takeoff,
0.0376309301028623,36.8793432321475,5995.2969605503,0,0,0.203267066872,3900,2018-04-11 06:38:50,13,0,17.051,5995.2969605503,0,0,0.244690624628,0,0,0,156.1, -1, -0.9,0,1,1024,1024,1024,1024,156.5,0,99,4.28,4.277,4.256,4.277,0,0,2.422,71.51,10,Assisted_Takeoff,
0.0376309493637925,36.8793432317359,5995.2969605503,0,0,0.207339573564,4000,2018-04-11 06:38:50,13,0,17.051,5995.2969605503,0,0,0.244690624628,0,0,0,156.1, -1, -0.9,0,1,1024,1024,1024,1024,156.5,0,99,4.28,4.277,4.256,4.277,0,0,2.422,71.51,10,Assisted_Takeoff,
0.0376309616908973,36.8793432345266,5995.2969605503,0,0,0.209126975196,4100,2018-04-11 06:38:50,13,0,17.051,5995.2969605503,0,0,0.244690624628,0,0,0,156.1, -1, -0.9,0,1,1024,1024,1024,1024,156.5,0,99,4.28,4.277,4.256,4.277,0,0,2.422,71.51,10,Assisted_Takeoff,
0.0376309623127594,36.8793432038013,5995.2969605503,0,0,0.218407815388,4200,2018-04-11 06:38:50,13,0,17.051,5995.2969605503,0,0,0.244690624628,0,0,0,156.1, -1, -0.9,0,1,1024,1024,1024,1024,156.5,0,99,4.28,4.277,4.256,4.277,0,0,2.422,71.51,10,Assisted_Takeoff,
0.0376309627269058,36.8793431763491,5995.2969605503,0,0,0.22681923298,4300,2018-04-11 06:38:50,13,0,17.051,5995.2969605503,0,0,0.244690624628,0,0,0,156.1, -1, -0.9,0,1,1024,1024,1024,1024,156.5,0,99,4.28,4.277,4.256,4.277,0,0,2.422,71.51,10,Assisted_Takeoff,
0.0376309836750694,36.8793431470512,5995.2969605503,0,0,0.239948170408,4400,2018-04-11 06:38:50,13,0,17.051,5995.2969605503,0,0,0.244690624628,0,0,0,156.1, -1, -0.9,0,1,1024,1024,1024,1024,156.5,0,99,4.28,4.277,4.256,4.277,0,0,2.422,71.51,10,Assisted_Takeoff,
0.0376310073245163,36.8793431303814,5995.2969605503,0,0,0.249792002744,4500,2018-04-11 06:38:50,13,0,17.051,5995.2969605503,0,0,0.249792002744,0,0,0,156.1, -1, -0.9,0,1,1024,1024,1024,1024,156.5,0,99,4.28,4.277,4.256,4.277,0,0,2.422,71.51,10,Assisted_Takeoff,
0.0376310542461454,36.8793431458361,5995.2969605503,0,0,0.255306438616,4600,2018-04-11 06:38:51,13,0,17.051,5995.2969605503,0,0,0.255306438616,0,0,0,156.1, -1, -0.9,0,1,1024,1024,1024,1024,156.5,0,99,4.281,4.279,4.259,4.28,0,0,1.906,71.51,10,Assisted_Takeoff,
0.0376310931252713,36.8793431677109,5995.2969605503,0,0,0.258247383592,4700,2018-04-11 06:38:51,13,0,17.051,5995.2969605503,0,0,0.258247383592,0,0,0,156.1, -1, -0.9,0,1,1024,1024,1024,1024,156.5,0,99,4.281,4.279,4.259,4.28,0,0,1.906,71.51,10,Assisted_Takeoff,
0.0376311213118557,36.8793431593429,5995.2969605503,0,0,0.267413722468,4800,2018-04-11 06:38:51,13,0,17.051,5995.2969605503,0,0,0.267413722468,0,0,0,156.1, -1, -0.9,0,1,1024,1024,1024,1024,156.5,0,99,4.281,4.279,4.259,4.28,0,0,1.906,71.51,10,Assisted_Takeoff,
0.0376311397804971,36.8793431466904,5995.2969605503,0,0,0.275384195164,4900,2018-04-11 06:38:51,13,0,17.051,5995.2969605503,0,0,0.275384195164,0,0,0,156.1, -1, -0.9,0,1,1024,1024,1024,1024,156.5,0,99,4.281,4.279,4.259,4.28,0,0,1.906,71.51,10,Assisted_Takeoff,
0.0376311468673073,36.8793431327936,5995.2969605503,0,0,0.2808563082,5000,2018-04-11 06:38:51,13,0,17.051,5995.2969605503,0,0,0.2808563082,0,0,0,156.1, -1, -0.9,0,1,1024,1024,1024,1024,156.5,0,99,4.281,4.279,4.259,4.28,0,0,1.906,71.51,10,Assisted_Takeoff,
0.037631150620489,36.8793431270179,5995.2969605503,0,0,0.283332686232,5100,2018-04-11 06:38:51,13,0,17.051,5995.2969605503,0,0,0.283332686232,0,0,0,156.1, -1, -0.9,0,1,1024,1024,1024,1024,156.5,0,99,4.281,4.279,4.259,4.28,0,0,1.906,71.51,10,Assisted_Takeoff,
0.037631145678365,36.8793431214523,5995.2969605503,0,0,0.283613526136,5200,2018-04-11 06:38:51,13,0,17.051,5995.2969605503,0,0,0.283613526136,0,0,0,156.1, -1, -0.9,0,1,1024,1024,1024,1024,156.5,0,99,4.281,4.279,4.259,4.28,0,0,1.906,71.51,10,Assisted_Takeoff,
0.0376311407974604,36.8793431208822,5995.2969605503,0,0,0.28257546836,5300,2018-04-11 06:38:51,13,0,17.051,5995.2969605503,0,0,0.283613526136,0,0,0,156.1, -1.1, -0.9,0,1,1024,1024,1024,1024,156.5,0,99,4.281,4.279,4.259,4.28,0,0,1.906,71.51,10,Assisted_Takeoff,
0.0376311588083818,36.8793431195539,5995.2969605503,0,0,0.2873605735,5400,2018-04-11 06:38:51,13,0,17.051,5995.2969605503,0,0,0.2873605735,0,0,0,156.1, -1, -0.9,0,1,1024,1024,1024,1024,156.5,0,99,4.281,4.279,4.259,4.28,0,0,1.906,71.51,10,Assisted_Takeoff,
0.0376311790498389,36.8793431222801,5995.2969605503,0,0,0.291712935844,5500,2018-04-11 06:38:52,13,0,17.051,5995.2969605503,0,0,0.291712935844,0,0,0,156.1, -1.1, -0.9,0,1,1024,1024,1024,1024,156.5,0,99,4.281,4.279,4.259,4.28,0,0,1.906,71.51,10,Assisted_Takeoff,
0.0376312238690704,36.8793431237843,5995.2969605503,0,0,0.30292159762,5600,2018-04-11 06:38:52,13,0,17.077,5995.2969605503,0,0,0.30292159762,0,0,0,156.1, -1.1, -0.9,0,1,1024,1024,1024,1024,156.5,0,99,4.281,4.279,4.259,4.28,0,0,1.906,71.51,10,Assisted_Takeoff,
0.0376312610442587,36.8793431288598,5995.2969605503,0,0,0.311632555904,5700,2018-04-11 06:38:52,13,0,17.077,5995.2969605503,0,0,0.311632555904,0,0,0,156.1, -1.1, -0.9,0,1,1024,1024,1024,1024,156.5,0,99,4.281,4.279,4.259,4.28,0,0,1.906,71.51,10,Assisted_Takeoff,
0.0376312912227355,36.8793431318572,5995.2969605503,0,0,0.319225732,5800,2018-04-11 06:38:52,13,0,17.077,5995.2969605503,0,0,0.319225732,0,0,0,156.1, -1.1, -0.9,0,1,1024,1024,1024,1024,156.5,0,99,4.281,4.279,4.259,4.28,0,0,1.906,71.51,10,Assisted_Takeoff,
0.0376313098400741,36.8793431381481,5995.2969605503,0,0,0.322983278052,5900,2018-04-11 06:38:52,13,0,17.077,5995.2969605503,0,0,0.322983278052,0,0,0,156.1, -1.1, -0.9,0,1,1024,1024,1024,1024,156.5,0,99,4.281,4.279,4.259,4.28,0,0,1.906,71.51,10,Assisted_Takeoff,
0.0376313481862154,36.879343141291,5995.2969605503,0,0,0.33324476132,6000,2018-04-11 06:38:52,13,0,17.077,5995.2969605503,0,0,0.33324476132,0,0,0,156.1, -1.1, -0.9,0,1,1024,1024,1024,1024,156.5,0,99,4.281,4.279,4.259,4.28,0,0,1.906,71.51,10,Assisted_Takeoff,
0.0376313841570675,36.8793431475634,5995.2969605503,0,0,0.3424048666,6100,2018-04-11 06:38:52,13,0,17.077,5995.2969605503,0,0,0.3424048666,0,0,0,156.1, -1, -0.9,0,1,1024,1024,1024,1024,156.5,0,99,4.281,4.279,4.259,4.28,0,0,1.906,71.51,10,Assisted_Takeoff,
0.0376314127268961,36.8793431492699,5995.2969605503,0,0,0.35055119232,6200,2018-04-11 06:38:52,13,0,17.077,5995.2969605503,0,0,0.35055119232,0,0,0,156.1, -1, -0.9,0,1,1024,1024,1024,1024,156.5,0,99,4.281,4.279,4.259,4.28,0,0,1.906,71.51,10,Assisted_Takeoff,
0.0376314289492007,36.8793431548663,5995.2969605503,0,0,0.3542815074,6300,2018-04-11 06:38:52,13,0,17.077,5995.2969605503,0,0,0.3542815074,0,0,0,156.1, -1, -0.9,0,1,1024,1024,1024,1024,156.5,0,99,4.281,4.279,4.259,4.28,0,0,1.906,71.51,10,Assisted_Takeoff,
0.0376314365139847,36.8793431546508,5995.2969605503,0,0,0.35661746548,6400,2018-04-11 06:38:52,13,0,17.077,5995.2969605503,0,0,0.35661746548,0,0,0,156.1, -1.1, -0.9,0,1,1024,1024,1024,1024,156.5,0,99,4.281,4.279,4.259,4.28,0,0,1.906,71.51,10,Assisted_Takeoff,
0.0376314400700484,36.8793431596662,5995.2969605503,0,0,0.35668964396,6500,2018-04-11 06:38:52,13,0,17.077,5995.2969605503,0,0,0.35668964396,0,0,0,156.1, -1.1, -0.9,0,1,1024,1024,1024,1024,156.5,0,99,4.281,4.279,4.259,4.28,0,0,1.906,71.51,10,Assisted_Takeoff,
0.0376314355274529,36.8793431290812,5995.2969605503,0,0,0.36158793808,6600,2018-04-11 06:38:53,14,0,17.051,5995.2969605503,0,0,0.36158793808,0,0,0,156.1, -1.1, -0.9,0,1,1024,1024,1024,1024,156.5,0,99,4.281,4.279,4.259,4.28,0,0,1.906,71.51,10,Assisted_Takeoff,
0.0376314306581,36.879343103701,5995.2969605503,0,0,0.36554135028,6700,2018-04-11 06:38:53,14,0,17.051,5995.2969605503,0,0,0.36554135028,0,0,0,156.1, -1.1, -0.9,0,1,1024,1024,1024,1024,156.5,0,99,4.281,4.279,4.259,4.28,0,0,1.906,71.51,10,Assisted_Takeoff,
0.0376314200987094,36.8793430737728,5995.2969605503,0,0,0.36907481496,6800,2018-04-11 06:38:53,14,0,17.051,5995.2969605503,0,0,0.36907481496,0,0,0,156.1, -1.1, -0.9,0,1,1024,1024,1024,1024,156.5,0,99,4.281,4.279,4.259,4.28,0,0,1.906,71.51,10,Assisted_Takeoff,
0.0376314098715213,36.8793430581155,5995.2969605503,0,0,0.36972114044,6900,2018-04-11 06:38:53,14,0,17.051,5995.2969605503,0,0,0.36972114044,0,0,0,156.1, -1.1, -0.9,0,1,1024,1024,1024,1024,156.5,0,99,4.281,4.279,4.259,4.28,0,0,1.906,71.51,10,Assisted_Takeoff,
0.0376313975408925,36.879343040706,5995.2969605503,0,0,0.37031825332,7000,2018-04-11 06:38:53,14,0,17.051,5995.2969605503,0,0,0.37031825332,0,0,0,156.1, -1.1, -0.9,0,1,1024,1024,1024,1024,156.5,0,99,4.281,4.279,4.259,4.28,0,0,1.906,71.51,10,Assisted_Takeoff,
0.0376313856059247,36.8793430330372,5995.2969605503,0,0,0.36884187532,7100,2018-04-11 06:38:53,14,0,17.051,5995.2969605503,0,0,0.37031825332,0,0,0,156.1, -1.1, -0.9,0,1,1024,1024,1024,1024,156.5,0,99,4.281,4.279,4.259,4.28,0,0,1.906,71.51,10,Assisted_Takeoff,
0.0376314054741119,36.8793430558687,5995.2969605503,0,0,0.3689960748,7200,2018-04-11 06:38:53,13,0,17.051,5995.2969605503,0,0,0.37031825332,0,0,0,156.1, -1.1, -0.9,0,1,1024,1024,1024,1024,156.5,0,99,4.281,4.279,4.259,4.28,0,0,1.906,71.51,10,Assisted_Takeoff,
0.0376314231915317,36.8793430838351,5995.2969605503,0,0,0.36771982804,7300,2018-04-11 06:38:53,13,0,17.051,5995.2969605503,0,0,0.37031825332,0,0,0,156.1, -1.1, -0.9,0,1,1024,1024,1024,1024,156.5,0,99,4.281,4.279,4.259,4.28,0,0,1.906,71.51,10,Assisted_Takeoff,
0.0376314418939565,36.8793431090394,5995.2969605503,0,0,0.36771326636,7400,2018-04-11 06:38:53,13,0,17.051,5995.2969605503,0,0,0.37031825332,0,0,0,156.1, -1.1, -0.9,0,1,1024,1024,1024,1024,156.4,0,99,4.281,4.279,4.259,4.28,0,0,1.906,71.51,10,Assisted_Takeoff,
0.0376314504698515,36.8793431298397,5995.2969605503,0,0,0.36590880436,7500,2018-04-11 06:38:54,13,0,17.051,5995.2969605503,0,0,0.37031825332,0,0,0,156.1, -1.1, -0.9,0,1,1024,1024,1024,1024,156.4,0,99,4.281,4.279,4.259,4.28,0,0,1.906,71.51,10,Assisted_Takeoff,
0.037631489127738,36.8793431744528,5995.2969605503,0,0,0.3689468622,7600,2018-04-11 06:38:54,13,0,17.051,5995.2969605503,0,0,0.37031825332,0,0,0,156.1, -1.1, -0.9,0,1,1024,1024,1024,1024,156.4,0,99,4.28,4.279,4.258,4.28,0,0,1.91,71.51,10,Assisted_Takeoff,
0.0376315204337087,36.8793432191302,5995.2969605503,0,0,0.37082678352,7700,2018-04-11 06:38:54,13,0,17.051,5995.2969605503,0,0,0.37082678352,0,0,0,156.1, -1.1, -0.9,0,1,1024,1024,1024,1024,156.4,0,99,4.28,4.279,4.258,4.28,0,0,1.91,71.51,10,Assisted_Takeoff,
0.0376315502631896,36.8793432541581,5995.2969605503,0,0,0.37477691488,7800,2018-04-11 06:38:54,13,0,17.051,5995.2969605503,0,0,0.37477691488,0,0,0,156.1, -1.1, -0.9,0,1,1024,1024,1024,1024,156.4,0,99,4.28,4.279,4.258,4.28,0,0,1.91,71.51,10,Assisted_Takeoff,
0.0376315652616677,36.879343283361,5995.2969605503,0,0,0.37530513012,7900,2018-04-11 06:38:54,13,0,17.051,5995.2969605503,0,0,0.37530513012,0,0,0,156.1, -1.1, -0.9,0,1,1024,1024,1024,1024,156.4,0,99,4.28,4.279,4.258,4.28,0,0,1.91,71.51,10,Assisted_Takeoff,
0.0376315772823833,36.8793432990672,5995.2969605503,0,0,0.37708006456,8000,2018-04-11 06:38:54,13,0,17.051,5995.2969605503,0,0,0.37708006456,0,0,0,156.1, -1.1, -0.9,0,1,1024,1024,1024,1024,156.4,0,99,4.28,4.279,4.258,4.28,0,0,1.91,71.51,10,Assisted_Takeoff,
0.0376315815899739,36.8793433164596,5995.2969605503,0,0,0.37613846348,8100,2018-04-11 06:38:54,13,0,17.051,5995.2969605503,0,0,0.37708006456,0,0,0,156, -1.1, -0.9,0,1,1024,1024,1024,1024,156.4,0,99,4.28,4.279,4.258,4.28,0,0,1.91,71.51,10,Assisted_Takeoff,
0.0376315831949072,36.8793433191548,5995.2969605503,0,0,0.37632219052,8200,2018-04-11 06:38:54,13,0,17.051,5995.2969605503,0,0,0.37708006456,0,0,0,156, -1.1, -1,0,1,1024,1024,1037,1024,156.4,0,99,4.28,4.279,4.258,4.28,0,0,1.91,71.51,10,Assisted_Takeoff,
0.0376315803528654,36.8793433286456,5995.2969605503,0,0,0.374097781,8300,2018-04-11 06:38:54,13,0,17.051,5995.2969605503,0,0,0.37708006456,0,0,0,156, -1.1, -1,0,1,1024,1024,1141,1024,156.4,0,99,4.28,4.279,4.258,4.28,0,0,1.91,71.51,10,Assisted_Takeoff,
0.0376315770324172,36.8793433242708,5995.2969605503,0,0,0.37354659988,8400,2018-04-11 06:38:54,13,0,17.051,5995.2969605503,0,0,0.37708006456,0,0,0,156.1, -1.1, -1,0,1,1024,1024,1141,1024,156.4,0,99,4.28,4.279,4.258,4.28,0,0,1.91,71.51,10,Assisted_Takeoff,
0.037631570856238,36.8793433297004,5995.2969605503,0,0,0.37072835832,8500,2018-04-11 06:38:54,13,0,17.051,5995.2969605503,0,0,0.37708006456,0,0,0,156, -1.1, -1,0,1,1024,1024,1274,1024,156.4,0,99,4.28,4.279,4.258,4.28,0,0,1.91,71.51,10,Assisted_Takeoff,
0.0376315363165846,36.8793433215167,5995.2969605503,0,0,0.36013452596,8600,2018-04-11 06:38:55,13,0,17.051,5995.2969605503,0,0,0.37708006456,0,0,0,156, -1.1, -0.9,0,1,1024,1024,1421,1024,156.4,0,99,4.28,4.278,4.258,4.28,0,0,1.91,71.51,10,Assisted_Takeoff,
0.0376314998402024,36.8793433239295,5995.2969605503,0,0,0.34751969616,8700,2018-04-11 06:38:55,13,0,17.051,5995.2969605503,0,0,0.37708006456,0,0,0,156.1, -0.9, -0.9,0,1,1024,1024,1492,1024,156.4,0,99,4.28,4.278,4.258,4.28,0,0,1.91,71.51,10,Assisted_Takeoff,
0.0376314697829429,36.8793433175299,5995.2969605503,0,0,0.33840880348,8800,2018-04-11 06:38:55,13,0,17.051,5995.2969605503,0,0,0.37708006456,0,0,0,155.9, -0.7, -1,0,1,1024,1024,1511,1024,156.4,0,99,4.28,4.278,4.258,4.28,0,0,1.91,71.51,10,Assisted_Takeoff,
0.0376314475005874,36.8793433253394,5995.2969605503,0,0,0.32982612604,8900,2018-04-11 06:38:55,13,0,17.051,5995.2969605503,0,0,0.37708006456,0,0,0,155.9, 1.2, -0.8,0,1,1024,1024,1518,1024,156.4,0,99,4.28,4.278,4.258,4.28,0,0,1.91,71.51,10,Assisted_Takeoff,
0.0376314772527172,36.8793433234491,5995.2969605503,0,0,0.3400262576,9000,2018-04-11 06:38:55,13,0,17.051,5995.2969605503,0,0,0.37708006456,0,0,-0.223694,155.8, 4.5, -0.5,0,1,1024,1024,1530,1024,156.4,0,99,4.28,4.278,4.258,4.28,0,0,1.91,71.51,10,Assisted_Takeoff,
0.0376315869094898,36.8793432983612,5995.2969605503,0,0.223694,0.38041995968,9100,2018-04-11 06:38:55,13,0,17.051,5995.2969605503,0,0.223694,0.38041995968,0.223694,0,-0.447388,155.9, 4.1, -1,0,1,1024,1024,1538,1024,156.4,0,99,4.28,4.278,4.258,4.28,0,0,1.91,71.51,6,P-GPS,
0.0376318131967445,36.879343236456,5995.2969605503,0,0.447388,0.46546589416,9200,2018-04-11 06:38:55,13,0,17.051,5995.2969605503,0,0.447388,0.46546589416,0.447388,0,-1.11847,155.7, 1.4, 0.1,0,1,1024,1024,1542,1024,156.4,0,99,4.28,4.278,4.258,4.28,0,0,1.91,71.51,6,P-GPS,
0.0376320819023191,36.8793431650447,5995.2969605503,0,0.447388,0.56640093676,9300,2018-04-11 06:38:55,13,0,17.051,5995.2969605503,0,0.447388,0.56640093676,0.447388,0,-2.013246,155.6, 0.1, 1.2,0,1,1024,1024,1545,1024,156.4,0,99,4.28,4.278,4.258,4.28,0,0,1.91,71.51,6,P-GPS,
0.0376324075426722,36.8793430268534,5995.9531285503,0.656168,0.4921268,0.69532810624,9400,2018-04-11 06:38:55,14,0,17.051,5995.9531285503,0.656168,0.4921268,0.69532810624,0.447388,-0.223694,-2.684328,155.6, -0.7, 1.5,0,1,1024,1024,1545,1024,156.4,0,99,4.28,4.278,4.258,4.28,0,0,1.91,71.51,6,P-GPS,
0.0376327260836203,36.879342834686,5996.2812125503,0.984252,0.6263432,0.82915356984,9500,2018-04-11 06:38:56,14,0,17.051,5996.2812125503,0.984252,0.6263432,0.82915356984,0.447388,-0.447388,-3.579104,155.5, -1.4, 0.6,0,1,1024,1024,1546,1024,156.4,0,99,4.28,4.278,4.258,4.28,0,0,1.91,71.51,6,P-GPS,
0.0376330471529311,36.879342599089,5996.9373805503,1.64042,0.6263432,0.97079071348,9600,2018-04-11 06:38:56,14,0,16.73,5996.9373805503,1.64042,0.6263432,0.97079071348,0.447388,-0.447388,-4.47388,155.5, -2.4, -0.7,0,1,1024,1024,1545,1024,156.4,0,99,4.28,4.278,4.258,4.28,0,0,1.91,71.51,6,P-GPS,
0.0376333586484162,36.879342362036,5997.5935485503,2.296588,0.8052984,1.11046263396,9700,2018-04-11 06:38:56,14,0,16.73,5997.5935485503,2.296588,0.8052984,1.11046263396,0.671082,-0.447388,-5.368656,155.6, -4.2, -1.8,0,1,1024,1024,1548,1024,156.3,0,99,4.28,4.278,4.258,4.28,0,0,1.91,71.51,6,P-GPS,Home Point Recorded. RTH Altitude:  30m.
0.0376337101364503,36.8793421109217,5998.5778005503,3.28084,0.4921268,1.26616801952,9800,2018-04-11 06:38:56,14,0,16.73,5998.5778005503,3.28084,0.8052984,1.26616801952,0.447388,-0.223694,-6.263432,155.7, -5.6, -1.7,0,1,1024,1024,1542,1024,156.3,0,99,4.28,4.278,4.258,4.28,0,0,1.91,71.51,6,P-GPS,
0.0376339967609137,36.8793419279866,5999.5620525503,4.265092,0.4921268,1.38973429644,9900,2018-04-11 06:38:56,14,0,16.73,5999.5620525503,4.265092,0.8052984,1.38973429644,0.447388,-0.223694,-7.158208,155.7, -5.2, -1.1,0,1,1024,1024,1544,1024,156.3,0,99,4.28,4.278,4.258,4.28,0,0,1.91,71.51,6,P-GPS,
0.0376341421614213,36.8793417496389,6000.5463045503,5.249344,0.3131716,1.46730975824,10000,2018-04-11 06:38:56,13,0,16.73,6000.5463045503,5.249344,0.8052984,1.46730975824,0.223694,-0.223694,-7.605596,155.7, -4.5, -0.7,0,1,1024,1024,1544,1024,156.3,0,99,4.28,4.278,4.258,4.28,0,0,1.91,71.51,6,P-GPS,
0.0376342389638676,36.8793416079418,6001.8586405503,6.56168,0.3131716,1.5235072666,10100,2018-04-11 06:38:56,13,0,16.73,6001.8586405503,6.56168,0.8052984,1.5235072666,0.223694,-0.223694,-8.052984,155.8, -4.4, -0.4,0,1,1024,1024,1545,1024,156.3,0,99,4.28,4.278,4.258,4.28,0,0,1.91,71.51,6,P-GPS,
0.037634197094944,36.8793413560208,6003.1709765503,7.874016,0.3131716,1.55871724148,10200,2018-04-11 06:38:56,13,0,16.73,6003.1709765503,7.874016,0.8052984,1.55871724148,0.223694,-0.223694,-8.276678,155.8, -4.1, -0.4,0,1,1024,1024,1545,1024,156.3,0,99,4.28,4.278,4.258,4.28,0,0,1.91,71.51,6,P-GPS,
0.037634135589632,36.8793411358311,6004.1552285503,8.858268,0.223694,1.58596789852,10300,2018-04-11 06:38:56,13,0,16.73,6004.1552285503,8.858268,0.8052984,1.58596789852,0,-0.223694,-8.500372,155.8, -3.2, -0.4,0,1,1024,1024,1536,1024,156.3,0,99,4.28,4.278,4.258,4.28,0,0,1.91,71.51,6,P-GPS,
0.0376339516194283,36.879340835107,6005.4675645503,10.170604,0,1.60153220348,10400,2018-04-11 06:38:56,14,0,16.73,6005.4675645503,10.170604,0.8052984,1.60153220348,0,0,-8.500372,155.7, -2.6, -0.5,0,1,1024,1024,1542,1024,156.3,0,99,4.28,4.278,4.258,4.28,0,0,1.91,71.51,6,P-GPS,
0.037633564320893,36.8793402330058,6008.0922365503,12.795276,0,1.65794952812,10600,2018-04-11 06:38:57,13,0,16.194,6008.0922365503,12.795276,0.8052984,1.65794952812,0,0,-8.276678,155.8, -2.2, -1.1,0,1,1024,1024,1542,1024,156.3,0,99,4.141,4.125,4.11,4.127,0,0,12.134,71.51,6,P-GPS,
0.037633376828365,36.8793399396285,6009.4045725503,14.107612,0,1.69962603864,10700,2018-04-11 06:38:57,13,0,16.194,6009.4045725503,14.107612,0.8052984,1.69962603864,0,0,-8.052984,155.8, -1.8, -0.9,0,1,1024,1024,1536,1024,156.3,0,99,4.141,4.125,4.11,4.127,0,0,12.134,71.51,6,P-GPS,
0.0376331590589919,36.8793396784452,6010.3888245503,15.091864,0,1.73372380876,10800,2018-04-11 06:38:57,14,0,16.194,6010.3888245503,15.091864,0.8052984,1.73372380876,0,0,-8.052984,155.7, -1.5, -0.8,0,1,1024,1024,1537,1024,156.3,0,99,4.141,4.125,4.11,4.127,0,0,12.134,71.51,6,P-GPS,
0.0376329940292204,36.8793394706548,6011.7011605503,16.4042,0.223694,1.7680774844,10900,2018-04-11 06:38:57,14,0,16.194,6011.7011605503,16.4042,0.8052984,1.7680774844,0,-0.223694,-7.82929,155.8, -1.9, -1.1,0,1,1024,1024,1535,1024,156.3,0,99,4.141,4.125,4.11,4.127,0,0,12.134,71.51,6,P-GPS,
0.0376328616876123,36.879339212543,6012.6854125503,17.388452,0.223694,1.8287238118,11000,2018-04-11 06:38:57,14,0,16.194,6012.6854125503,17.388452,0.8052984,1.8287238118,0,-0.223694,-7.605596,155.8, -2.7, -1,0,1,1024,1024,1515,1024,156.3,0,99,4.141,4.125,4.11,4.127,0,0,12.134,71.51,6,P-GPS,
0.0376327553803455,36.8793389742051,6013.9977485503,18.700788,0,1.89064310512,11100,2018-04-11 06:38:57,14,0,16.194,6013.9977485503,18.700788,0.8052984,1.89064310512,0,0,-7.605596,155.8, -3, -1.1,0,1,1024,1024,1515,1024,156.3,0,99,4.141,4.125,4.11,4.127,0,0,12.134,71.51,6,P-GPS,
0.0376326816731027,36.8793387550383,6014.9820005503,19.68504,0,1.95330714912,11200,2018-04-11 06:38:57,14,0,16.194,6014.9820005503,19.68504,0.8052984,1.95330714912,0,0,-7.381902,155.8, -2.7, -1.5,0,1,1024,1024,1515,1024,156.3,0,99,4.141,4.125,4.11,4.127,0,0,12.134,71.51,6,P-GPS,
0.0376326171708431,36.8793385785967,6015.9662525503,20.669292,0,2.00422578592,11300,2018-04-11 06:38:57,14,0,16.194,6015.9662525503,20.669292,0.8052984,2.00422578592,0,0,-7.381902,155.8, -2.6, -1.3,0,1,1024,1024,1521,1024,156.2,0,99,4.141,4.125,4.11,4.127,0,0,12.134,71.51,6,P-GPS,
0.0376326671066711,36.879338451269,6017.2785885503,21.981628,0.223694,2.05412736232,11400,2018-04-11 06:38:57,14,0,16.194,6017.2785885503,21.981628,0.8052984,2.05412736232,0.223694,0,-7.158208,155.8, -3, -1.6,0,1,1024,1024,1534,1024,156.2,0,99,4.141,4.125,4.11,4.127,0,0,12.134,71.51,6,P-GPS,
0.0376326991992312,36.8793383486542,6018.2628405503,22.96588,0.223694,2.09326450268,11500,2018-04-11 06:38:57,14,0,16.194,6018.2628405503,22.96588,0.8052984,2.09326450268,0.223694,0,-7.158208,155.8, -3.4, -1.4,0,1,1024,1024,1529,1024,156.2,0,99,4.141,4.125,4.11,4.127,0,0,12.134,71.51,6,P-GPS,
0.0376327358905171,36.879338243144,6019.2470925503,23.950132,0,2.13399613128,11600,2018-04-11 06:38:58,14,0,16.515,6019.2470925503,23.950132,0.8052984,2.13399613128,0,0,-7.158208,155.8, -3.6, -0.9,0,1,1024,1024,1517,1024,156.2,0,99,4.128,4.117,4.108,4.132,0,0,16.192,71.51,6,P-GPS,
0.0376327122748223,36.8793381386381,6020.5594285503,25.262468,0,2.16654862576,11700,2018-04-11 06:38:58,14,0,16.515,6020.5594285503,25.262468,0.8052984,2.16654862576,0,0,-7.381902,155.8, -3.5, -0.8,0,1,1024,1024,1533,1024,156.2,0,99,4.128,4.117,4.108,4.132,0,0,16.192,71.51,6,P-GPS,
0.0376327021943468,36.8793379903144,6021.5436805503,26.24672,0,2.2160269738,11800,2018-04-11 06:38:58,13,0,16.515,6021.5436805503,26.24672,0.8052984,2.2160269738,0,0,-7.381902,155.8, -3.3, -1.2,0,1,1024,1024,1541,1024,156.2,0,99,4.128,4.117,4.108,4.132,0,0,16.192,71.51,6,P-GPS,
0.0376326425297872,36.8793378583158,6022.5279325503,27.230972,0,2.25413064956,11900,2018-04-11 06:38:58,13,0,16.515,6022.5279325503,27.230972,0.8052984,2.25413064956,0,0,-7.381902,155.8, -3, -1.4,0,1,1024,1024,1545,1024,156.2,0,99,4.128,4.117,4.108,4.132,0,0,16.192,71.51,6,P-GPS,
0.0376326152116214,36.8793377731555,6023.8402685503,28.543308,0,2.28032487612,12000,2018-04-11 06:38:58,14,0,16.515,6023.8402685503,28.543308,0.8052984,2.28032487612,0,0,-7.381902,155.9, -2.9, -1.4,0,1,1024,1024,1552,1024,156.2,0,99,4.128,4.117,4.108,4.132,0,0,16.192,71.51,6,P-GPS,
0.0376325482538718,36.8793377207117,6024.8245205503,29.52756,0,2.2908629342,12100,2018-04-11 06:38:58,14,0,16.515,6024.8245205503,29.52756,0.8052984,2.2908629342,0,0,-7.605596,155.8, -2.8, -1.5,0,1,1024,1024,1567,1024,156.2,0,99,4.128,4.117,4.108,4.132,0,0,16.192,71.51,6,P-GPS,
0.0376324703400528,36.8793376494752,6025.8087725503,30.511812,0,2.30715558564,12200,2018-04-11 06:38:58,14,0,16.515,6025.8087725503,30.511812,0.8052984,2.30715558564,0,0,-7.605596,155.8, -2.3, -1.3,0,1,1024,1024,1569,1024,156.2,0,99,4.128,4.117,4.108,4.132,0,0,16.192,71.51,6,P-GPS,
0.0376323491451439,36.879337590783,6027.1211085503,31.824148,0,2.31522973288,12300,2018-04-11 06:38:58,14,0,16.515,6027.1211085503,31.824148,0.8052984,2.31522973288,0,0,-7.82929,155.8, -1.5, -1.3,0,1,1024,1024,1551,1024,156.2,0,99,4.128,4.117,4.108,4.132,0,0,16.192,71.51,6,P-GPS,
0.0376321884589413,36.8793375422751,6028.4334445503,33.136484,0,2.31712933924,12400,2018-04-11 06:38:58,14,0,16.515,6028.4334445503,33.136484,0.8052984,2.31712933924,0,0,-8.052984,155.8, -1.5, -1.3,0,1,1024,1024,1543,1024,156.2,0,99,4.128,4.117,4.108,4.132,0,0,16.192,71.51,6,P-GPS,
0.0376320245333566,36.8793375065867,6029.4176965503,34.120736,0,2.31582028408,12500,2018-04-11 06:38:58,14,0,16.515,6029.4176965503,34.120736,0.8052984,2.31712933924,0,0,-8.052984,155.8, -2, -1.1,0,1,1024,1024,1542,1024,156.2,0,99,4.128,4.117,4.108,4.132,0,0,16.192,71.51,6,P-GPS,
0.037631865546639,36.8793374363854,6030.7300325503,35.433072,0,2.32882881468,12600,2018-04-11 06:38:59,14,0,16.328,6030.7300325503,35.433072,0.8052984,2.32882881468,0,0,-8.052984,155.8, -2.1, -1,0,1,1024,1024,1540,1024,156.2,0,99,4.111,4.092,4.08,4.109,0,0,16.49,71.51,6,P-GPS,
0.0376317062182534,36.8793373662473,6031.7142845503,36.417324,0,2.3434383952,12700,2018-04-11 06:38:59,14,0,16.328,6031.7142845503,36.417324,0.8052984,2.3434383952,0,0,-8.052984,155.8, -2.2, -1.1,0,1,1024,1024,1544,1024,156.2,0,99,4.111,4.092,4.08,4.109,0,0,16.49,71.51,6,P-GPS,
0.0376315664692607,36.8793372849314,6033.0266205503,37.72966,0,2.36473432764,12800,2018-04-11 06:38:59,14,0,16.328,6033.0266205503,37.72966,0.8052984,2.36473432764,0,0,-7.82929,155.8, -2.1, -1.5,0,1,1024,1024,1555,1024,156.2,0,99,4.111,4.092,4.08,4.109,0,0,16.49,71.51,6,P-GPS,
0.0376314260586109,36.879337224786,6034.3389565503,39.041996,0,2.37960309452,12900,2018-04-11 06:38:59,14,0,16.328,6034.3389565503,39.041996,0.8052984,2.37960309452,0,0,-7.82929,155.8, -2, -1.4,0,1,1024,1024,1557,1024,156.2,0,99,4.111,4.092,4.08,4.109,0,0,16.49,71.51,6,P-GPS,
0.0376312878565382,36.879337137157,6035.3232085503,40.026248,0,2.40573498512,13000,2018-04-11 06:38:59,14,0,16.328,6035.3232085503,40.026248,0.8052984,2.40573498512,0,0,-7.82929,155.8, -1.9, -1.3,0,1,1024,1024,1557,1024,156.2,0,99,4.111,4.092,4.08,4.109,0,0,16.49,71.51,6,P-GPS,
0.0376311391513325,36.8793370618191,6036.6355445503,41.338584,0,2.42827763676,13100,2018-04-11 06:38:59,14,0,16.328,6036.6355445503,41.338584,0.8052984,2.42827763676,0,0,-7.82929,155.8, -1.7, -1.3,0,1,1024,1024,1556,1024,156.2,0,99,4.111,4.092,4.08,4.109,0,0,16.49,71.51,6,P-GPS,
0.037631025615301,36.8793370088202,6037.6197965503,42.322836,0,2.44472120684,13200,2018-04-11 06:38:59,13,0,16.328,6037.6197965503,42.322836,0.8052984,2.44472120684,0,0,-8.052984,155.8, -2, -1.4,0,1,1024,1024,1549,1024,156.2,0,99,4.111,4.092,4.08,4.109,0,0,16.49,71.51,6,P-GPS,
0.0376309034519514,36.8793369777208,6038.9321325503,43.635172,0,2.4537894486,13300,2018-04-11 06:38:59,13,0,16.328,6038.9321325503,43.635172,0.8052984,2.4537894486,0,0,-8.052984,155.9, -2.2, -1.1,0,1,1024,1024,1552,1024,156.2,0,99,4.111,4.092,4.08,4.109,0,0,16.49,71.51,6,P-GPS,
0.037630864529799,36.8793369412386,6040.2444685503,44.947508,0,2.46654207368,13400,2018-04-11 06:38:59,14,0,16.328,6040.2444685503,44.947508,0.8052984,2.46654207368,0,0,-8.052984,155.8, -2, -0.9,0,1,1024,1024,1560,1024,156.2,0,99,4.111,4.092,4.08,4.109,0,0,16.49,71.51,6,P-GPS,
0.0376308078159914,36.8793368964879,6041.5568045503,46.259844,0,2.48221464636,13500,2018-04-11 06:39:00,14,0,16.328,6041.5568045503,46.259844,0.8052984,2.48221464636,0,0,-8.052984,155.8, -1.6, -1,0,1,1024,1024,1554,1024,156.2,0,99,4.111,4.092,4.08,4.109,0,0,16.49,71.51,6,P-GPS,
0.0376308347981678,36.8793368576328,6042.5410565503,47.244096,0,2.4966700274,13600,2018-04-11 06:39:00,14,0,16.328,6042.5410565503,47.244096,0.8052984,2.4966700274,0,0,-8.052984,155.7, -1.7, -1.5,0,1,1024,1024,1556,1024,156.2,0,99,4.111,4.092,4.08,4.109,0,0,16.49,71.51,6,P-GPS,
0.0376308342007738,36.8793368184939,6043.8533925503,48.556432,0,2.51093511972,13700,2018-04-11 06:39:00,14,0,16.328,6043.8533925503,48.556432,0.8052984,2.51093511972,0,0,-8.052984,155.8, -1.8, -1.7,0,1,1024,1024,1558,1024,156.2,0,99,4.111,4.092,4.08,4.109,0,0,16.49,71.51,6,P-GPS,
0.0376308613123562,36.8793367810381,6045.1657285503,49.868768,0,2.52491477896,13800,2018-04-11 06:39:00,14,0,16.328,6045.1657285503,49.868768,0.8052984,2.52491477896,0,0,-8.052984,155.8, -2.1, -1.6,0,1,1024,1024,1558,1024,156.2,0,99,4.111,4.092,4.08,4.109,0,0,16.49,71.51,6,P-GPS,
0.0376308466680392,36.8793367445649,6046.1499805503,50.85302,0,2.53803813896,13900,2018-04-11 06:39:00,14,0,16.328,6046.1499805503,50.85302,0.8052984,2.53803813896,0,0,-8.052984,155.8, -2.4, -1.6,0,1,1024,1024,1559,1024,156.2,0,99,4.111,4.092,4.08,4.109,0,0,16.49,71.51,6,P-GPS,
0.0376308544189238,36.879336744717,6047.4623165503,52.165356,0,2.5380742282,14000,2018-04-11 06:39:00,14,0,16.328,6047.4623165503,52.165356,0.8052984,2.5380742282,0,0,-8.276678,155.8, -2.2, -1.6,0,1,1024,1024,1559,1024,156.2,0,99,4.111,4.092,4.08,4.109,0,0,16.49,71.51,6,P-GPS,
0.0376308277414393,36.8793367521981,6048.7746525503,53.477692,0,2.53504273204,14100,2018-04-11 06:39:00,14,0,16.328,6048.7746525503,53.477692,0.8052984,2.5380742282,0,0,-8.052984,155.8, -1.9, -1.3,0,1,1024,1024,1555,1024,156.2,0,99,4.111,4.092,4.08,4.109,0,0,16.49,71.51,6,P-GPS,
0.0376308155004234,36.8793367462414,6050.0869885503,54.790028,0,2.53708669536,14200,2018-04-11 06:39:00,14,0,16.328,6050.0869885503,54.790028,0.8052984,2.5380742282,0,0,-8.276678,155.8, -1.4, -1.2,0,1,1024,1024,1562,1024,156.2,0,99,4.111,4.092,4.08,4.109,0,0,16.49,71.51,6,P-GPS,
0.0376307964868954,36.8793367219225,6051.3993245503,56.102364,0,2.54577435968,14300,2018-04-11 06:39:00,14,0,16.328,6051.3993245503,56.102364,0.8052984,2.54577435968,0,0,-8.500372,155.8, -2.1, -0.9,0,1,1024,1024,1552,1024,156.2,0,99,4.111,4.092,4.08,4.109,0,0,16.49,71.51,6,P-GPS,
0.0376307538581114,36.8793366618466,6052.7116605503,57.4147,0,2.56735244436,14400,2018-04-11 06:39:00,14,0,16.328,6052.7116605503,57.4147,0.8052984,2.56735244436,0,0,-8.500372,155.8, -2.4, -1.7,0,1,1024,1024,1552,1024,156.2,0,99,4.111,4.092,4.08,4.109,0,0,16.49,71.51,6,P-GPS,
0.0376306795351386,36.8793366042223,6053.6959125503,58.398952,0,2.58801517468,14500,2018-04-11 06:39:00,14,0,16.328,6053.6959125503,58.398952,0.8052984,2.58801517468,0,0,-8.500372,155.8, -2, -2,0,1,1024,1024,1547,1024,156.2,0,99,4.111,4.092,4.08,4.109,0,0,16.49,71.51,6,P-GPS,
0.0376305796803904,36.8793365545524,6055.0082485503,59.711288,0,2.60610900728,14600,2018-04-11 06:39:01,15,0,16.435,6055.0082485503,59.711288,0.8052984,2.60610900728,0,0,-8.500372,155.8, -1.6, -1.5,0,1,1024,1024,1567,1024,156.2,0,99,4.107,4.103,4.09,4.11,0,0,16.72,71.51,6,P-GPS,
0.0376304730949141,36.8793365118839,6056.3205845503,61.023624,0,2.62220152748,14700,2018-04-11 06:39:01,15,0,16.435,6056.3205845503,61.023624,0.8052984,2.62220152748,0,0,-8.500372,155.9, -1.6, -1.2,0,1,1024,1024,1554,1024,156.2,0,99,4.107,4.103,4.09,4.11,0,0,16.72,71.51,6,P-GPS,
0.0376303435277166,36.8793364257933,6057.6329205503,62.33596,0,2.6550033658,14800,2018-04-11 06:39:01,15,0,16.435,6057.6329205503,62.33596,0.8052984,2.6550033658,0,0,-8.276678,155.8, -1.3, -1.7,0,1,1024,1024,1548,1024,156.1,0,99,4.107,4.103,4.09,4.11,0,0,16.72,71.51,6,P-GPS,
0.0376302212398164,36.8793363468936,6058.9452565503,63.648296,0,2.68583670012,14900,2018-04-11 06:39:01,15,0,16.435,6058.9452565503,63.648296,0.8052984,2.68583670012,0,0,-8.276678,155.8, -1.1, -1.8,0,1,1024,1024,1554,1024,156.2,0,99,4.107,4.103,4.09,4.11,0,0,16.72,71.51,6,P-GPS,
0.0376300814056866,36.8793362656645,6060.2575925503,64.960632,0,2.71866478516,15000,2018-04-11 06:39:01,15,0,16.435,6060.2575925503,64.960632,0.8052984,2.71866478516,0,0,-8.052984,155.8, -1.5, -1.7,0,1,1024,1024,1587,1024,156.1,0,99,4.107,4.103,4.09,4.11,0,0,16.72,71.51,6,P-GPS,
0.0376299605683738,36.8793362102926,6061.5699285503,66.272968,0,2.74235244996,15100,2018-04-11 06:39:01,15,0,16.435,6061.5699285503,66.272968,0.8052984,2.74235244996,0,0,-8.276678,155.7, -1.2, -1.4,0,1,1024,1024,1594,1024,156.1,0,99,4.107,4.103,4.09,4.11,0,0,16.72,71.51,6,P-GPS,
0.0376298583388835,36.8793361274737,6062.8822645503,67.585304,0,2.77595481324,15200,2018-04-11 06:39:01,15,0,16.435,6062.8822645503,67.585304,0.8052984,2.77595481324,0,0,-8.500372,155.8, -1.2, -1.3,0,1,1024,1024,1607,1024,156.1,0,99,4.107,4.103,4.09,4.11,0,0,16.72,71.51,6,P-GPS,
0.0376297886094204,36.8793360454769,6064.1946005503,68.89764,0,2.8083662316,15300,2018-04-11 06:39:01,15,0,16.435,6064.1946005503,68.89764,0.8052984,2.8083662316,0,0,-8.724066,155.8, -2.2, -1.1,0,1,1024,1024,1607,1024,156.1,0,99,4.107,4.103,4.09,4.11,0,0,16.72,71.51,6,P-GPS,
0.0376297376707762,36.8793359016839,6065.5069365503,70.209976,0,2.8625657084,15400,2018-04-11 06:39:01,15,0,16.435,6065.5069365503,70.209976,0.8052984,2.8625657084,0,0,-9.171454,155.8, -2.8, -0.6,0,1,1024,1024,1605,1024,156.1,0,99,4.107,4.103,4.09,4.11,0,0,16.72,71.51,6,P-GPS,
0.037629670276909,36.8793357624728,6067.1473565503,71.850396,0,2.91586623504,15500,2018-04-11 06:39:01,15,0,16.435,6067.1473565503,71.850396,0.8052984,2.91586623504,0,0,-9.171454,155.9, -3.2, -0.9,0,1,1024,1024,1614,1024,156.1,0,99,4.107,4.103,4.09,4.11,0,0,16.72,71.51,6,P-GPS,
0.0376295778221028,36.8793355947751,6068.4596925503,73.162732,0,2.98075468856,15600,2018-04-11 06:39:02,15,0,16.355,6068.4596925503,73.162732,0.8052984,2.98075468856,0,0,-9.171454,155.9, -3, -1.3,0,1,1024,1024,1640,1024,156.1,0,98,4.114,4.095,4.085,4.101,0,0,16.904,71.51,6,P-GPS,
0.0376294532911228,36.8793354531799,6070.1001125503,74.803152,0,3.03804799748,15700,2018-04-11 06:39:02,15,0,16.355,6070.1001125503,74.803152,0.8052984,3.03804799748,0,0,-9.618842,155.8, -2.2, -1.8,0,1,1024,1024,1684,1024,156.1,0,98,4.114,4.095,4.085,4.101,0,0,16.904,71.51,6,P-GPS,
0.0376293353605317,36.8793353088741,6071.4124485503,76.115488,0,3.0964239836,15800,2018-04-11 06:39:02,15,0,16.355,6071.4124485503,76.115488,0.8052984,3.0964239836,0,0,-9.842536,155.8, -1.5, -1.8,0,1,1024,1024,1684,1024,156.1,0,98,4.114,4.095,4.085,4.101,0,0,16.904,71.51,6,P-GPS,
0.0376292179275319,36.8793351983061,6073.0528685503,77.755908,0,3.14300863076,15900,2018-04-11 06:39:02,15,0,16.355,6073.0528685503,77.755908,0.8052984,3.14300863076,0,0,-10.289924,155.8, -1.2, -1.8,0,1,1024,1024,1684,1024,156.1,0,98,4.114,4.095,4.085,4.101,0,0,16.904,71.51,6,P-GPS,
0.0376291619736873,36.8793350800899,6074.6932885503,79.396328,0,3.18892070572,16000,2018-04-11 06:39:02,15,0,16.355,6074.6932885503,79.396328,0.8052984,3.18892070572,0,0,-10.513618,155.8, -1.9, -1.7,0,1,1024,1024,1684,1024,156.1,0,98,4.114,4.095,4.085,4.101,0,0,16.904,71.51,6,P-GPS,
0.0376291014290555,36.8793349755727,6076.3337085503,81.036748,0,3.23024616636,16100,2018-04-11 06:39:02,15,0,16.355,6076.3337085503,81.036748,0.8052984,3.23024616636,0,0,-10.737312,155.8, -2.4, -1.9,0,1,1024,1024,1684,1024,156.1,0,98,4.114,4.095,4.085,4.101,0,0,16.904,71.51,6,P-GPS,
0.0376290516251314,36.8793348408955,6077.9741285503,82.677168,0,3.2817914436,16200,2018-04-11 06:39:02,15,0,16.355,6077.9741285503,82.677168,0.8052984,3.2817914436,0,0,-10.961006,155.8, -2.7, -2,0,1,1024,1024,1684,1024,156.1,0,98,4.114,4.095,4.085,4.101,0,0,16.904,71.51,6,P-GPS,
0.0376289780583419,36.8793347323744,6079.9426325503,84.645672,0,3.3255250408,16300,2018-04-11 06:39:02,15,0,16.355,6079.9426325503,84.645672,0.8052984,3.3255250408,0,0,-10.737312,155.9, -3.3, -1.3,0,1,1024,1024,1684,1023,156.1,0,98,4.114,4.095,4.085,4.101,0,0,16.904,71.51,6,P-GPS,
0.0376289413859866,36.8793346269087,6081.5830525503,86.286092,0,3.3657809476,16400,2018-04-11 06:39:02,15,0,16.355,6081.5830525503,86.286092,0.8052984,3.3657809476,0,0,-11.1847,155.9, -3.2, -1.1,0,1,1024,1024,1684,1024,156.1,0,98,4.114,4.095,4.085,4.101,0,0,16.904,71.51,6,P-GPS,
0.0376288636839671,36.8793345361525,6083.2234725503,87.926512,0,3.4035762244,16500,2018-04-11 06:39:02,15,0,16.355,6083.2234725503,87.926512,0.8052984,3.4035762244,0,0,-11.1847,155.9, -2.9, -1.8,0,1,1024,1024,1684,1024,156.1,0,98,4.114,4.095,4.085,4.101,0,0,16.904,71.51,6,P-GPS,
0.0376288015594393,36.8793344125653,6084.8638925503,89.566932,0,3.4521654648,16600,2018-04-11 06:39:03,15,0,16.167,6084.8638925503,89.566932,0.8052984,3.4521654648,0,0,-10.961006,156, -2.5, -1.8,0,1,1024,1024,1684,1022,156.1,0,98,4.114,4.095,4.085,4.101,0,0,19.972,71.51,6,P-GPS,
0.0376287021461901,36.8793343119461,6086.8323965503,91.535436,0,3.4953085108,16700,2018-04-11 06:39:03,15,0,16.167,6086.8323965503,91.535436,0.8052984,3.4953085108,0,0,-10.961006,155.9, -2.1, -1.6,0,1,1024,1024,1684,1020,156.1,0,98,4.114,4.095,4.085,4.101,0,0,19.972,71.51,6,P-GPS,
0.0376286428862989,36.879334227942,6088.4728165503,93.175856,0,3.529691714,16800,2018-04-11 06:39:03,15,0,16.167,6088.4728165503,93.175856,0.8052984,3.529691714,0,0,-10.961006,155.9, -1.8, -1.7,0,1,1024,1024,1684,1019,156.1,0,98,4.114,4.095,4.085,4.101,0,0,19.972,71.51,6,P-GPS,
0.0376285633563509,36.8793341716002,6090.1132365503,94.816276,0,3.5558400088,16900,2018-04-11 06:39:03,15,0,16.167,6090.1132365503,94.816276,0.8052984,3.5558400088,0,0,-10.961006,155.9, -1.8, -2,0,1,1024,1024,1684,1022,156.1,-3.9,98,4.114,4.095,4.085,4.101,0,0,19.972,71.51,6,P-GPS,
0.037628515814132,36.8793340983189,6091.7536565503,96.456696,0,3.5856628444,17000,2018-04-11 06:39:03,15,0,16.167,6091.7536565503,96.456696,0.8052984,3.5856628444,0,0,-10.961006,155.9, -1.8, -2.1,0,1,1024,1024,1684,1023,156.1,-9.5,98,4.114,4.095,4.085,4.101,0,0,19.972,71.51,6,P-GPS,
0.0376284409486584,36.8793340445594,6093.3940765503,98.097116,0,3.610728462,17100,2018-04-11 06:39:03,15,0,16.167,6093.3940765503,98.097116,0.8052984,3.610728462,0,0,-10.961006,155.9, -1.9, -1.9,0,1,1024,1024,1684,1023,156.1,-15.1,98,4.114,4.095,4.085,4.101,0,0,19.972,71.51,6,P-GPS,
0.0376284211384336,36.8793340009895,6095.0344965503,99.737536,0,3.6278544468,17200,2018-04-11 06:39:03,15,0,16.167,6095.0344965503,99.737536,0.8052984,3.6278544468,0,0,-11.1847,155.9, -2.1, -1.5,0,1,1024,1024,1684,1023,156.1,-20.8,98,4.114,4.095,4.085,4.101,0,0,19.972,71.51,6,P-GPS,
0.0376283831741116,36.8793339755454,6097.0030005503,101.70604,0,3.6399935548,17300,2018-04-11 06:39:03,15,0,16.167,6097.0030005503,101.70604,0.8052984,3.6399935548,0,0,-11.1847,155.8, -2.5, -1.7,0,1,1024,1024,1684,1024,156.1,-20.8,98,4.114,4.095,4.085,4.101,0,0,19.972,71.51,6,P-GPS,
0.0376283724876514,36.8793339160573,6098.6434205503,103.34646,0,3.6620079912,17400,2018-04-11 06:39:03,15,0,16.167,6098.6434205503,103.34646,0.8052984,3.6620079912,0,0,-11.1847,155.8, -2.2, -2,0,1,1024,1024,1684,1024,156.1,-26.4,98,4.114,4.095,4.085,4.101,0,0,19.972,71.51,6,P-GPS,
0.0376283317409293,36.8793338774537,6100.6119245503,105.314964,0,3.6790683592,17500,2018-04-11 06:39:03,15,0,16.167,6100.6119245503,105.314964,0.8052984,3.6790683592,0,0,-11.1847,155.9, -2.3, -1.7,0,1,1024,1024,1684,1024,156.1,-28.2,98,4.114,4.095,4.085,4.101,0,0,19.972,71.51,6,P-GPS,
0.0376283456529299,36.8793338545618,6102.2523445503,106.955384,0,3.6860565484,17600,2018-04-11 06:39:04,15,0,16.194,6102.2523445503,106.955384,0.8052984,3.6860565484,0,0,-10.961006,155.9, -2.2, -1.4,0,1,1024,1024,1684,1024,156.1,-28.2,98,4.055,4.052,4.05,4.075,0,0,19.972,71.51,6,P-GPS,
0.0376283218548493,36.8793338565231,6103.8927645503,108.595804,0,3.687336076,17700,2018-04-11 06:39:04,15,0,16.194,6103.8927645503,108.595804,0.8052984,3.687336076,0,0,-11.1847,155.8, -2.2, -1.5,0,1,1024,1024,1684,1023,156.1,-28.2,98,4.055,4.052,4.05,4.075,0,0,19.972,71.51,6,P-GPS,
0.037628342735776,36.8793338605912,6105.5331845503,110.236224,0,3.6841536612,17800,2018-04-11 06:39:04,15,0,16.194,6105.5331845503,110.236224,0.8052984,3.687336076,0,0,-11.1847,155.8, -2, -1.3,0,1,1024,1024,1684,1023,156.1,-28.2,98,4.055,4.052,4.05,4.075,0,0,19.972,71.51,6,P-GPS,
0.037628332332258,36.8793338702328,6107.5016885503,112.204728,0,3.681594606,17900,2018-04-11 06:39:04,15,0,16.194,6107.5016885503,112.204728,0.8052984,3.687336076,0,0,-10.961006,155.8, -1.9, -1.8,0,1,1024,1024,1684,1023,156.1,-28.2,98,4.055,4.052,4.05,4.075,0,0,19.972,71.51,6,P-GPS,
0.0376283436582895,36.8793338508577,6109.1421085503,113.845148,0,3.6875329264,18000,2018-04-11 06:39:04,15,0,16.194,6109.1421085503,113.845148,0.8052984,3.6875329264,0,0,-10.961006,155.8, -1.8, -1.7,0,1,1024,1024,1684,1023,156.1,-28.2,98,4.055,4.052,4.05,4.075,0,0,19.972,71.51,6,P-GPS,
0.0376283256452563,36.8793338423253,6110.7825285503,115.485568,0,3.6920604856,18100,2018-04-11 06:39:04,15,0,16.194,6110.7825285503,115.485568,0.8052984,3.6920604856,0,0,-10.961006,155.8, -1.8, -1.3,0,1,1024,1024,1684,1023,156.1,-28.2,98,4.055,4.052,4.05,4.075,0,0,19.972,71.51,6,P-GPS,
0.0376283536241632,36.8793338209546,6112.4229485503,117.125988,0,3.6973754464,18200,2018-04-11 06:39:04,15,0,16.194,6112.4229485503,117.125988,0.8052984,3.6973754464,0,0,-10.961006,155.9, -2, -1.3,0,1,1024,1024,1684,1024,156.1,-28.2,98,4.055,4.052,4.05,4.075,0,0,19.972,71.51,6,P-GPS,
0.0376283522888392,36.8793338152817,6114.0633685503,118.766408,0,3.699475184,18300,2018-04-11 06:39:04,15,0,16.194,6114.0633685503,118.766408,0.8052984,3.699475184,0,0,-11.1847,155.9, -2.4, -1.3,0,1,1024,1024,1684,1023,156.1,-28.3,98,4.055,4.052,4.05,4.075,0,0,19.972,71.51,6,P-GPS,
0.0376283504643712,36.8793337753175,6116.0318725503,120.734912,0,3.7138452632,18400,2018-04-11 06:39:04,15,0,16.194,6116.0318725503,120.734912,0.8052984,3.7138452632,0,0,-11.408394,155.9, -2.6, -1.4,0,1,1024,1024,1684,1024,156.1,-28.2,98,4.055,4.052,4.05,4.075,0,0,19.972,71.51,6,P-GPS,
0.0376283029653061,36.8793337515199,6117.6722925503,122.375332,0,3.72621403,18500,2018-04-11 06:39:04,15,0,16.194,6117.6722925503,122.375332,0.8052984,3.72621403,0,0,-10.961006,155.9, -2.2, -1.6,0,1,1024,1024,1684,1024,156.1,-28.2,98,4.055,4.052,4.05,4.075,0,0,19.972,71.51,6,P-GPS,
0.0376282548834615,36.8793337316534,6119.3127125503,124.015752,0,3.7373032692,18600,2018-04-11 06:39:05,15,0,16.194,6119.3127125503,124.015752,0.8052984,3.7373032692,0,0,-10.961006,155.8, -1.9, -1.5,0,1,1024,1024,1684,1024,156.1,-28.3,98,4.081,4.068,4.058,4.079,0,0,17.826,71.51,6,P-GPS,
0.0376281920159561,36.8793337383166,6120.9531325503,125.656172,0,3.7402888336,18700,2018-04-11 06:39:05,15,0,16.194,6120.9531325503,125.656172,0.8052984,3.7402888336,0,0,-11.1847,155.8, -2.1, -1.4,0,1,1024,1024,1684,1024,156.1,-28.3,98,4.081,4.068,4.058,4.079,0,0,17.826,71.51,6,P-GPS,
0.0376281727883072,36.8793337476958,6122.5935525503,127.296592,0.223694,3.7386484136,18800,2018-04-11 06:39:05,15,0,16.194,6122.5935525503,127.296592,0.8052984,3.7402888336,0,0.223694,-10.961006,155.9, -2.4, -0.7,0,1,1024,1024,1684,1023,156.1,-28.3,98,4.081,4.068,4.058,4.079,0,0,17.826,71.51,6,P-GPS,
0.0376281246622911,36.879333771912,6124.5620565503,129.265096,0,3.7343177048,18900,2018-04-11 06:39:05,15,0,16.194,6124.5620565503,129.265096,0.8052984,3.7402888336,0,0,-11.1847,155.8, -2.1, -0.5,0,1,1024,1024,1684,1024,156.1,-28.2,98,4.081,4.068,4.058,4.079,0,0,17.826,71.51,6,P-GPS,
0.0376280681125377,36.8793337956978,6126.2024765503,130.905516,0,3.7310040564,19000,2018-04-11 06:39:05,15,0,16.194,6126.2024765503,130.905516,0.8052984,3.7402888336,0,0,-11.1847,155.8, -1.9, -0.6,0,1,1024,1024,1684,1023,156.1,-28.2,98,4.081,4.068,4.058,4.079,0,0,17.826,71.51,6,P-GPS,
0.0376279791730333,36.8793338197331,6127.8428965503,132.545936,0,3.7307743976,19100,2018-04-11 06:39:05,15,0,16.194,6127.8428965503,132.545936,0.8052984,3.7402888336,0,0,-11.1847,155.8, -1.6, -0.8,0,1,1024,1024,1684,1023,156.1,-28.2,98,4.081,4.068,4.058,4.079,0,0,17.826,71.51,6,P-GPS,
0.0376279029486231,36.8793338126449,6129.8114005503,134.51444,0,3.7405513008,19200,2018-04-11 06:39:05,15,0,16.194,6129.8114005503,134.51444,0.8052984,3.7405513008,0,0,-11.1847,155.7, -0.9, -1.1,0,1,1024,1024,1684,1023,156.1,-28.2,98,4.081,4.068,4.058,4.079,0,0,17.826,71.51,6,P-GPS,
0.03762780760282,36.879333800358,6131.4518205503,136.15486,0,3.7542324036,19300,2018-04-11 06:39:05,15,0,16.194,6131.4518205503,136.15486,0.8052984,3.7542324036,0,0,-11.1847,155.7, -0.8, -1.6,0,1,1024,1024,1684,1022,156.1,-28.2,98,4.081,4.068,4.058,4.079,0,0,17.826,71.51,6,P-GPS,
0.0376278005030077,36.87933377393,6133.0922405503,137.79528,0,3.7642389656,19400,2018-04-11 06:39:05,15,0,16.194,6133.0922405503,137.79528,0.8052984,3.7642389656,0,0,-11.1847,155.7, -1, -1.8,0,1,1024,1024,1684,1022,156.1,-28.2,98,4.081,4.068,4.058,4.079,0,0,17.826,71.51,6,P-GPS,
0.0376278021169993,36.8793337672507,6134.7326605503,139.4357,0,3.76640432,19500,2018-04-11 06:39:06,15,0,16.194,6134.7326605503,139.4357,0.8052984,3.76640432,0,0,-10.961006,155.8, -1.5, -1.3,0,1,1024,1024,1684,1022,156.1,-28.3,98,4.081,4.068,4.058,4.079,0,0,17.826,71.51,6,P-GPS,
0.0376278523805517,36.8793337635541,6136.3730805503,141.07612,0,3.7627297792,19600,2018-04-11 06:39:06,15,0,16.221,6136.3730805503,141.07612,0.8052984,3.76640432,0,0,-11.1847,155.8, -2, -0.8,0,1,1024,1024,1684,1022,156.1,-28.3,98,4.08,4.068,4.057,4.078,0,0,17.636,71.51,6,P-GPS,
0.0376278665689807,36.8793337629439,6138.0135005503,142.71654,0,3.7615814852,19700,2018-04-11 06:39:06,15,0,16.221,6138.0135005503,142.71654,0.8052984,3.76640432,0,0,-10.961006,155.8, -2.2, -0.6,0,1,1024,1024,1684,1022,156.1,-28.3,98,4.08,4.068,4.057,4.078,0,0,17.636,71.51,6,P-GPS,
0.0376279073218095,36.8793337748668,6139.6539205503,144.35696,0,3.7534121936,19800,2018-04-11 06:39:06,15,0,16.221,6139.6539205503,144.35696,0.8052984,3.76640432,0,0,-10.961006,155.8, -2.1, -0.8,0,1,1024,1024,1684,1022,156.1,-28.3,98,4.08,4.068,4.057,4.078,0,0,17.636,71.51,6,P-GPS,
0.0376279137502957,36.8793337855392,6141.2943405503,145.99738,0,3.7490486764,19900,2018-04-11 06:39:06,15,0,16.221,6141.2943405503,145.99738,0.8052984,3.76640432,0,0,-10.961006,155.8, -2.1, -1.1,0,1,1024,1024,1684,1022,156.1,-28.2,98,4.08,4.068,4.057,4.078,0,0,17.636,71.51,6,P-GPS,
0.0376279191394275,36.8793337620778,6142.9347605503,147.6378,0,3.7567914588,20000,2018-04-11 06:39:06,15,0,16.221,6142.9347605503,147.6378,0.8052984,3.76640432,0,0,-10.961006,155.8, -2.1, -1.3,0,1,1024,1024,1684,1023,156.1,-28.3,98,4.08,4.068,4.057,4.078,0,0,17.636,71.51,6,P-GPS,
0.0376279009151037,36.8793337370062,6144.5751805503,149.27822,0,3.7673557636,20100,2018-04-11 06:39:06,15,0,16.221,6144.5751805503,149.27822,0.8052984,3.7673557636,0,0,-11.1847,155.8, -2.2, -1,0,1,1024,1024,1684,1023,156.1,-28.3,98,4.08,4.068,4.057,4.078,0,0,17.636,71.51,6,P-GPS,
0.037627944506921,36.8793336532623,6146.5436845503,151.246724,0,3.7927166568,20200,2018-04-11 06:39:06,15,0,16.221,6146.5436845503,151.246724,0.8052984,3.7927166568,0,0,-11.1847,155.7, -2.4, -0.8,0,1,1024,1024,1684,1022,156,-28.3,98,4.08,4.068,4.057,4.078,0,0,17.636,71.51,6,P-GPS,
0.0376279714910523,36.8793335753679,6148.1841045503,152.887144,0,3.8176838492,20300,2018-04-11 06:39:06,15,0,16.221,6148.1841045503,152.887144,0.8052984,3.8176838492,0,0,-11.1847,155.7, -2.6, -0.9,0,1,1024,1024,1684,1022,156,-28.3,98,4.08,4.068,4.057,4.078,0,0,17.636,71.51,6,P-GPS,
0.0376280380797557,36.8793335039686,6149.8245245503,154.527564,0,3.8368439548,20400,2018-04-11 06:39:06,15,0,16.221,6149.8245245503,154.527564,0.8052984,3.8368439548,0,0,-11.1847,155.8, -2.8, -1,0,1,1024,1024,1684,1023,156,-28.3,98,4.08,4.068,4.057,4.078,0,0,17.636,71.51,6,P-GPS,
0.0376280834695788,36.879333454198,6151.4649445503,156.167984,0,3.8504266324,20500,2018-04-11 06:39:06,15,0,16.221,6151.4649445503,156.167984,0.8052984,3.8504266324,0,0,-11.1847,155.8, -3.2, -1.1,0,1,1024,1024,1684,1023,156,-28.3,98,4.08,4.068,4.057,4.078,0,0,17.636,71.51,6,P-GPS,
0.0376281293762293,36.8793333744687,6153.1053645503,157.808404,0,3.8747048484,20600,2018-04-11 06:39:07,16,0,16.221,6153.1053645503,157.808404,0.8052984,3.8747048484,0,0,-11.1847,155.8, -3.2, -0.9,0,1,1024,1024,1684,1024,156,-28.3,98,4.08,4.068,4.057,4.078,0,0,17.138,71.51,6,P-GPS,
0.0376281331918772,36.8793333050704,6155.0738685503,159.776908,0,3.8989830644,20700,2018-04-11 06:39:07,16,0,16.221,6155.0738685503,159.776908,0.8052984,3.8989830644,0,0,-11.1847,155.9, -3.3, -0.8,0,1,1024,1024,1684,1024,156,-28.3,98,4.08,4.068,4.057,4.078,0,0,17.138,71.51,6,P-GPS,
0.0376281019047862,36.879333223307,6156.7142885503,161.417328,0,3.9306431704,20800,2018-04-11 06:39:07,16,0,16.221,6156.7142885503,161.417328,0.8052984,3.9306431704,0,0,-11.1847,155.8, -3.1, -0.9,0,1,1024,1024,1684,1023,156,-28.2,98,4.08,4.068,4.057,4.078,0,0,17.138,71.51,6,P-GPS,
0.0376280238359597,36.8793331629495,6158.3547085503,163.057748,0,3.9587927776,20900,2018-04-11 06:39:07,16,0,16.221,6158.3547085503,163.057748,0.8052984,3.9587927776,0,0,-11.1847,155.8, -2.6, -1.4,0,1,1024,1024,1684,1024,156,-28.3,98,4.08,4.068,4.057,4.078,0,0,17.138,71.51,6,P-GPS,
0.0376279310899674,36.8793330960691,6159.9951285503,164.698168,0,3.9906825424,21000,2018-04-11 06:39:07,16,0,16.221,6159.9951285503,164.698168,0.8052984,3.9906825424,0,0,-11.1847,155.8, -2.6, -1.7,0,1,1024,1024,1684,1023,156,-28.3,98,4.08,4.068,4.057,4.078,0,0,17.138,71.51,6,P-GPS,
0.0376278298636494,36.8793330542721,6161.6355485503,166.338588,0,4.0146982912,21100,2018-04-11 06:39:07,16,0,16.221,6161.6355485503,166.338588,0.8052984,4.0146982912,0,0,-10.961006,155.9, -2.7, -1.4,0,1,1024,1024,1684,1022,156,-28.3,98,4.08,4.068,4.057,4.078,0,0,17.138,71.51,6,P-GPS,
0.0376277073511257,36.8793329843567,6163.2759685503,167.979008,0,4.0508859564,21200,2018-04-11 06:39:07,16,0,16.221,6163.2759685503,167.979008,0.8052984,4.0508859564,0,0,-10.961006,155.9, -2.4, -1.4,0,1,1024,1024,1684,1023,156,-28.3,98,4.08,4.068,4.057,4.078,0,0,17.138,71.51,6,P-GPS,
0.0376275703338478,36.8793329247251,6164.9163885503,169.619428,0,4.0852035428,21300,2018-04-11 06:39:07,16,0,16.221,6164.9163885503,169.619428,0.8052984,4.0852035428,0,0,-10.737312,155.8, -2.2, -1.6,0,1,1024,1024,1684,1023,156,-28.2,98,4.08,4.068,4.057,4.078,0,0,17.138,71.51,6,P-GPS,
0.0376274574641553,36.8793328589945,6166.5568085503,171.259848,0,4.1196523628,21400,2018-04-11 06:39:07,16,0,16.221,6166.5568085503,171.259848,0.8052984,4.1196523628,0,0,-10.961006,155.8, -2.1, -1.3,0,1,1024,1024,1684,1024,156,-28.2,98,4.08,4.068,4.057,4.078,0,0,17.138,71.51,6,P-GPS,
0.0376273472089296,36.8793328140232,6168.1972285503,172.900268,0,4.146817718,21500,2018-04-11 06:39:08,16,0,16.221,6168.1972285503,172.900268,0.8052984,4.146817718,0,0,-11.1847,155.8, -2.1, -1.2,0,1,1024,1024,1684,1023,156,-28.3,98,4.08,4.068,4.057,4.078,0,0,17.138,71.51,6,P-GPS,
0.0376272475436788,36.8793327473291,6169.8376485503,174.540688,0,4.1807087952,21600,2018-04-11 06:39:08,16,0,16.167,6169.8376485503,174.540688,0.8052984,4.1807087952,0,0,-11.1847,155.8, -2.5, -1.2,0,1,1024,1024,1684,1024,156,-28.3,98,4.08,4.068,4.057,4.078,0,0,17.138,71.51,6,P-GPS,
0.0376271265942578,36.8793326931274,6171.4780685503,176.181108,0,4.212762602,21700,2018-04-11 06:39:08,16,0,16.167,6171.4780685503,176.181108,0.8052984,4.212762602,0,0,-10.961006,155.8, -2.4, -1.3,0,1,1024,1024,1684,1022,156,-28.3,98,4.08,4.068,4.057,4.078,0,0,17.138,71.51,6,P-GPS,
